     2.11           OBSERVATION DATA    M (MIXED)           RINEX VERSION / TYPE
EFT-CORS.RU                             20210817 144857 UTC PGM / RUN BY / DATE 
MDNG                                                        MARKER NAME         
                                                            MARKER NUMBER       
MDNG                EFT-CORS.RU                             OBSERVER / AGENCY   
0                   TRIMBLE BD970       2.0                 REC # / TYPE / VERS 
0                   UNKNOWN EXT NONE                        ANT # / TYPE        
  3463911.2830  3030468.2400  4402179.3760                  APPROX POSITION XYZ 
        0.0000        0.0000        0.0000                  ANTENNA: DELTA H/E/N
     1     1                                                WAVELENGTH FACT L1/2
     6    C1    L1    P2    L2    C2    P1                  # / TYPES OF OBSERV 
    10.000                                                  INTERVAL            
  2021     8    16    13    30    0.0000000     GPS         TIME OF FIRST OBS   
  2021     8    16    14    30    0.0000000     GPS         TIME OF LAST OBS    
     0                                                      RCV CLOCK OFFS APPL 
                                                            END OF HEADER       
 21  8 16 13 30  0.0000000  0 17G 4G17R 1R24R17G32G31G 1R23R 9G22G19
                                G21R 8R10G 3R 7
  22709966.734   119341710.087    22709975.531    92993586.3884   22709975.312  
                
  23859014.828   125379968.403    23859022.328    97698713.2054   23859022.371  
                
  20237443.805   108180765.804                    84140598.902    20237449.332  
  20237443.191  
  20347394.930   108806698.305                    84627429.665    20347399.645  
  20347394.191  
  23304995.430   124709740.173                    96996455.389    23304999.836  
  23304993.914  
  23975533.336   125992298.705    23975543.086    98175869.9524   23975543.648  
                
  21295110.125   111906604.633    21295116.777    87200012.9614   21295116.973  
                
  20298814.289   106671025.234    20298824.770    83120321.4764   20298824.227  
                
  20475526.930   109530273.378                                                  
  20475525.320  
  22390134.914   119562082.514                    92992737.167    22390138.328  
  22390134.168  
  20609665.578   108304558.575    20609669.906    84393194.6264                 
                
  24267690.219   127527578.235    24267696.535    99372158.9524                 
                
  21514841.875   113061275.892    21514848.551    88099729.4914                 
                
  19998853.578   107092986.363                    83294559.162    19998856.172  
  19998852.848  
  21933419.398   116917465.225                                                  
  21933418.555  
  20917771.367   109923657.178    20917780.680    85654853.1514   20917780.973  
                
  23049078.867   123383548.364                    95964975.711    23049084.535  
  23049077.508  
 21  8 16 13 30 10.0000000  0 17G 4G17R 1R24R17G32G31G 1R23R 9G22G19
                                G21R 8R10G 3R 7
  22704538.797   119313186.168    22704547.648    92971359.9814   22704547.402  
                
  23859235.992   125381130.701    23859243.535    97699618.8754   23859243.582  
                
  20234691.359   108166052.424                    84129155.168    20234696.879  
  20234690.754  
  20346327.516   108800990.357                    84622990.159    20346332.223  
  20346326.773  
  23297982.039   124672209.950                    96967265.242    23297986.438  
  23297980.562  
  23981522.820   126023773.534    23981532.637    98200395.7784   23981533.168  
                
  21294518.758   111903497.049    21294525.406    87197591.4684   21294525.605  
                
  20300652.750   106680686.417    20300663.230    83127849.6674   20300662.684  
                
  20480870.273   109558856.648                                                  
  20480868.664  
  22391282.023   119568207.987                    92997501.416    22391285.418  
  22391281.297  
  20608903.258   108300552.533    20608907.590    84390073.0404                 
                
  24265281.898   127514922.409    24265288.219    99362297.2704                 
                
  21518191.281   113078877.095    21518197.965    88113444.7034                 
                
  20001292.703   107106047.804                    83304718.055    20001295.301  
  20001291.949  
  21928527.055   116891386.285                                                  
  21928526.172  
  20914759.031   109907827.320    20914768.340    85642518.2004   20914768.645  
                
  23054854.172   123414463.827                    95989021.042    23054859.824  
  23054852.805  
 21  8 16 13 30 20.0000000  0 17G 4G17R 1R24R17G32G31G 1R23R 9G22G19
                                G21R 8R10G 3R 7
  22699116.273   119284690.725    22699125.176    92949155.7514   22699124.895  
                
  23859468.156   125382350.829    23859475.738    97700569.5924   23859475.785  
                
  20231945.328   108151373.307                    84117738.092    20231950.855  
  20231944.715  
  20345277.438   108795375.101                    84618622.732    20345282.168  
  20345276.672  
  23290976.875   124634723.903                    96938109.452    23290981.281  
  23290975.441  
  23987513.609   126055255.266    23987523.496    98224926.9904   23987523.977  
                
  21293941.109   111900461.565    21293947.770    87195226.1534   21293947.957  
                
  20302503.758   106690413.532    20302514.234    83135429.2334   20302513.695  
                
  20486227.125   109587512.146                                                  
  20486225.500  
  22392445.047   119574418.404                    93002331.757    22392448.449  
  22392444.363  
  20608147.766   108296582.408    20608152.094    84386979.4294                 
                
  24262885.898   127502331.315    24262892.152    99352486.0184                 
                
  21521549.398   113096524.114    21521556.086    88127195.6234                 
                
  20003737.555   107119139.859                    83314900.762    20003740.168  
  20003736.785  
  21923646.578   116865370.631                                                  
  21923645.688  
  20911752.508   109892027.965    20911761.820    85630207.0254   20911762.121  
                
  23060630.078   123445382.266                    96013068.696    23060635.664  
  23060628.699  
 21  8 16 13 30 30.0000000  0 17G 4G17R 1R24R17G32G31G 1R23R 9G22G19
                                G21R 8R10G 3R 7
  22693699.133   119256223.571    22693708.043    92926973.5804   22693707.766  
                
  23859711.273   125383628.480    23859718.867    97701565.2004   23859718.953  
                
  20229205.656   108136728.230                    84106347.479    20229211.164  
  20229205.039  
  20344244.711   108789852.630                    84614327.467    20344249.441  
  20344243.949  
  23283980.008   124597281.941                    96908987.937    23283984.336  
  23283978.555  
  23993505.664   126086743.585    23993515.586    98249463.3304   23993516.047  
                
  21293377.156   111897498.031    21293383.824    87192916.9144   21293384.027  
                
  20304367.266   106700206.352    20304377.742    83143060.0024   20304377.211  
                
  20491597.414   109616239.551                                                  
  20491595.742  
  22393623.898   119580713.378                    93007227.848    22393627.281  
  22393623.258  
  20607399.078   108292648.008    20607403.395    84383913.6694                 
                
  24260502.164   127489804.800    24260508.320    99342725.1034                 
                
  21524916.195   113114216.718    21524922.879    88140982.0644                 
                
  20006188.055   107132262.206                    83325107.033    20006190.680  
  20006187.289  
  21918777.945   116839418.140                                                  
  21918777.047  
  20908751.758   109876258.927    20908761.070    85617919.4704   20908761.359  
                
  23066406.500   123476303.792                    96037118.745    23066412.098  
  23066405.129  
 21  8 16 13 30 40.0000000  0 17G 4G17R 1R24R17G32G31G 1R23R 9G22G19
                                G21R 8R10G 3R 7
  22688287.469   119227785.090    22688296.387    92904813.7414   22688296.129  
                
  23859965.414   125384964.083    23859973.047    97702605.9364   23859973.141  
                
  20226472.422   108122117.538                    84094983.602    20226477.906  
  20226471.793  
  20343229.352   108784423.018                    84610104.444    20343234.086  
  20343228.605  
  23276991.469   124559884.616                    96879901.137    23276995.719  
  23276989.965  
  23999499.023   126118238.787    23999508.980    98274005.0354   23999509.414  
                
  21292826.961   111894606.751    21292833.648    87190663.9784   21292833.848  
                
  20306243.344   106710065.192    20306253.812    83150742.2094   20306253.297  
                
  20496981.188   109645039.079                                                  
  20496979.512  
  22394818.680   119587093.326                    93012190.037    22394822.031  
  22394818.059  
  20606657.250   108288749.669    20606661.547    84380876.0044                 
                
  24258130.773   127477343.098    24258136.805    99333014.7094                 
                
  21528291.711   113131955.172    21528298.391    88154804.2314                 
                
  20008644.328   107145415.415                    83335337.302    20008646.961  
  20008643.566  
  21913921.305   116813529.448                                                  
  21913920.426  
  20905756.844   109860520.602    20905766.152    85605655.8424   20905766.453  
                
  23072183.492   123507228.441                    96061171.257    23072189.098  
  23072182.074  
 21  8 16 13 30 50.0000000  0 17G 4G17R 1R24R17G32G31G 1R23R 9G22G19
                                G21R 8R10G 3R 7
  22682881.148   119199374.635    22682890.070    92882675.7334   22682889.820  
                
  23860230.445   125386356.871    23860238.184    97703691.2214   23860238.230  
                
  20223745.477   108107540.480                    84083645.898    20223750.949  
  20223744.832  
  20342231.281   108779085.863                    84605953.327    20342236.027  
  20342230.520  
  23270011.102   124522531.305                    96850848.560    23270015.340  
  23270009.566  
  24005493.547   126149740.131    24005503.562    98298551.5224   24005503.961  
                
  21292290.398   111891787.110    21292297.121    87188466.8644   21292297.309  
                
  20308131.844   106719989.335    20308142.305    83158475.3034   20308141.801  
                
  20502378.289   109673909.893                                                  
  20502376.594  
  22396029.242   119593557.598                    93017217.812    22396032.543  
  22396028.609  
  20605922.164   108284886.742    20605926.438    84377865.9254                 
                
  24255771.625   127464945.671    24255777.539    99323354.3864                 
                
  21531675.812   113149738.755    21531682.473    88168661.5464                 
                
  20011106.227   107158598.750                    83345591.008    20011108.855  
  20011105.480  
  21909076.516   116787703.991                                                  
  21909075.648  
  20902767.664   109844812.354    20902776.965    85593415.6514   20902777.258  
                
  23077960.891   123538155.628                    96085225.716    23077966.551  
  23077959.418  
 21  8 16 13 31  0.0000000  0 17G 4G17R 1R24R17G32G31G 1R23R 9G22G19
                                G21R 8R10G 3R 7
  22677480.227   119170992.578    22677489.152    92860559.8664   22677488.895  
                
  23860506.438   125387807.259    23860514.305    97704821.3784   23860514.293  
                
  20221024.906   108092997.476                    84072334.680    20221030.379  
  20221024.242  
  20341250.555   108773841.524                    84601874.394    20341255.309  
  20341249.805  
  23263039.039   124485222.608                    96821830.714    23263043.305  
  23263037.461  
  24011489.281   126181247.946    24011499.359    98323103.0404   24011499.727  
                
  21291767.539   111889039.493    21291774.285    87186325.8684   21291774.457  
                
  20310032.836   106729979.101    20310043.285    83166259.5394   20310042.789  
                
  20507788.727   109702852.097                                                  
  20507787.000  
  22397255.617   119600106.325                    93022311.256    22397258.898  
  22397254.984  
  20605193.867   108281059.541    20605198.121    84374883.6964                 
                
  24253424.797   127452612.938    24253430.672    99313744.4784                 
                
  21535068.562   113167567.750    21535075.203    88182554.2694                 
                
  20013573.789   107171812.424                    83355868.308    20013576.426  
  20013573.059  
  21904243.664   116761942.254                                                  
  21904242.789  
  20899784.273   109829134.545    20899793.562    85581199.1904   20899793.867  
                
  23083738.820   123569085.701                    96109282.417    23083744.586  
  23083737.320  
 21  8 16 13 31 10.0000000  0 17G 4G17R 1R24R17G32G31G 1R23R 9G22G19
                                G21R 8R10G 3R 7
  22672084.719   119142638.916    22672093.633    92838466.1144   22672093.359  
                
  23860793.367   125389315.085    23860801.332    97705996.3054   23860801.234  
                
  20218310.672   108078488.400                    84061049.843    20218316.137  
  20218309.992  
  20340287.164   108768689.848                    84597867.535    20340291.922  
  20340286.414  
  23256075.336   124447958.606                    96792847.611    23256079.633  
  23256073.719  
  24017486.219   126212762.091    24017496.328    98347659.5024   24017496.691  
                
  21291258.352   111886363.761    21291265.117    87184240.8944   21291265.285  
                
  20311946.305   106740034.442    20311956.730    83174094.8624   20311956.254  
                
  20513212.516   109731865.696                                                  
  20513210.777  
  22398497.820   119606739.541                    93027470.432    22398501.086  
  22398497.188  
  20604472.375   108277268.094    20604476.609    84371929.3234                 
                
  24251090.242   127440344.808    24251096.133    99304184.9104                 
                
  21538469.938   113185442.074    21538476.566    88196482.3144                 
                
  20016046.977   107185056.233                    83366169.057    20016049.625  
  20016046.250  
  21899422.773   116736244.349                                                  
  21899421.906  
  20896806.680   109813487.213    20896815.957    85569006.4674   20896816.262  
                
  23089517.281   123600018.430                    96133341.187    23089523.074  
  23089515.762  
 21  8 16 13 31 20.0000000  0 17G 4G17R 1R24R17G32G31G 1R23R 9G22G19
                                G21R 8R10G 3R 7
  22666694.672   119114313.973    22666703.586    92816394.7374   22666703.301  
                
  23861091.281   125390880.632    23861099.336    97707216.2104   23861099.156  
                
  20215602.852   108064013.574                    84049791.653    20215608.355  
  20215602.145  
  20339341.180   108763631.179                    84593933.025    20339345.953  
  20339340.414  
  23249120.039   124410739.708                    96763899.604    23249124.387  
  23249118.391  
  24023484.422   126244282.805    24023494.547    98372221.0894   24023494.891  
                
  21290762.922   111883760.279    21290769.699    87182212.1994   21290769.867  
                
  20313872.297   106750155.599    20313882.699    83181981.4724   20313882.246  
                
  20518649.656   109760950.706                                                  
  20518647.914  
  22399755.891   119613457.558                    93032695.513    22399759.141  
  22399755.281  
  20603757.773   108273512.810    20603761.988    84369003.1214                 
                
  24248768.039   127428141.739    24248774.012    99294676.0044                 
                
  21541879.984   113203362.001    21541886.613    88210445.8834                 
                
  20018525.875   107198330.629                    83376493.585    20018528.539  
  20018525.141  
  21894613.945   116710610.606                                                  
  21894613.070  
  20893834.945   109797870.639    20893844.211    85556837.7094   20893844.520  
                
  23095296.289   123630953.961                    96157402.147    23095302.137  
  23095294.746  
 21  8 16 13 31 30.0000000  0 17G 4G17R 1R24R17G32G31G 1R23R 9G22G19
                                G21R 8R10G 3R 7
  22661310.086   119086017.731    22661319.000    92794345.7354   22661318.711  
                
  23861400.172   125392503.864    23861408.258    97708481.0694   23861408.066  
                
  20212901.414   108049572.880                    84038560.019    20212906.930  
  20212900.688  
  20338412.602   108758665.659                    84590070.934    20338417.367  
  20338411.824  
  23242173.227   124373566.057                    96734986.778    23242177.605  
  23242171.500  
  24029483.867   126275809.998    24029494.016    98396787.7274   24029494.336  
                
  21290281.227   111881228.985    21290288.023    87180239.7754   21290288.184  
                
  20315810.805   106760342.525    20315821.184    83189919.3344   20315820.746  
                
  20524100.117   109790106.983                                                  
  20524098.375  
  22401029.836   119620260.299                    93037986.565    22401033.098  
  22401029.230  
  20603050.039   108269793.617    20603054.242    84366105.0494                 
                
  24246458.164   127416003.659    24246464.238    99285217.7364                 
                
  21545298.695   113221327.408    21545305.312    88224444.8964                 
                
  20021010.461   107211635.477                    83386841.785    20021013.133  
  20021009.723  
  21889817.164   116685041.279                                                  
  21889816.277  
  20890869.070   109782284.858    20890878.316    85544692.9484   20890878.633  
                
  23101075.852   123661892.625                    96181465.506    23101081.805  
  23101074.285  
 21  8 16 13 31 40.0000000  0 17G 4G17R 1R24R17G32G31G 1R23R 9G22G19
                                G21R 8R10G 3R 7
  22655930.938   119057750.146    22655939.824    92772319.0624   22655939.531  
                
  23861720.023   125394184.645    23861728.086    97709790.7754   23861727.898  
                
  20210206.375   108035166.420                    84027355.005    20210211.891  
  20210205.648  
  20337501.398   108753793.048                    84586281.128    20337506.168  
  20337500.633  
  23235234.875   124336437.784                    96706109.219    23235239.273  
  23235233.012  
  24035484.508   126307343.535    24035494.648    98421359.2974   24035494.941  
                
  21289813.258   111878769.852    21289820.074    87178323.5724   21289820.238  
                
  20317761.797   106770595.084    20317772.160    83197908.3404   20317771.734  
                
  20529563.859   109819334.309                                                  
  20529562.113  
  22402319.617   119627147.654                    93043343.371    22402322.898  
  22402319.008  
  20602349.141   108266110.410    20602353.336    84363235.0194                 
                
  24244160.680   127403930.585    24244166.859    99275810.1894                 
                
  21548726.047   113239338.226    21548732.656    88238479.2934                 
                
  20023500.719   107224970.707                    83397213.637    20023503.395  
  20023499.973  
  21885032.508   116659536.347                                                  
  21885031.590  
  20887909.031   109766729.798    20887918.258    85532572.1314   20887918.582  
                
  23106855.969   123692834.139                    96205531.083    23106861.957  
  23106854.426  
 21  8 16 13 31 50.0000000  0 17G 4G17R 1R24R17G32G31G 1R23R 9G22G19
                                G21R 8R10G 3R 7
  22650557.250   119029511.138    22650566.082    92750314.6394   22650565.809  
                
  23862050.781   125395922.792    23862058.793    97711145.1694   23862058.602  
                
  20207517.711   108020793.975                    84016176.436    20207523.219  
  20207516.965  
  20336607.523   108749013.101                    84582563.395    20336612.301  
  20336606.762  
  23228304.953   124299354.799                    96677266.906    23228309.406  
  23228303.027  
  24041486.312   126338883.246    24041496.457    98445935.6784   24041496.750  
                
  21289358.992   111876382.729    21289365.828    87176463.4884   21289365.992  
                
  20319725.258   106780913.127    20319735.613    83205948.3704   20319735.203  
                
  20535040.828   109848632.378                                                  
  20535039.059  
  22403625.195   119634119.353                    93048765.800    22403628.484  
  22403624.590  
  20601655.102   108262463.180    20601659.289    84360393.0204                 
                
  24241875.625   127391922.315    24241881.750    99266453.0834                 
                
  21552161.992   113257394.242    21552168.617    88252548.9084                 
                
  20025996.586   107238335.970                    83407608.839    20025999.262  
  20025995.836  
  21880259.914   116634095.845                                                  
  21880259.008  
  20884954.828   109751205.373    20884964.023    85520475.1824   20884964.367  
                
  23112636.641   123723778.250                    96229598.679    23112642.594  
  23112635.098  
 21  8 16 13 32  0.0000000  0 17G 4G17R 1R24R17G32G31G 1R23R 9G22G19
                                G21R 8R10G 3R 7
  22645189.023   119001300.919    22645197.820    92728332.6484   22645197.566  
                
  23862392.492   125397718.505    23862400.465    97712544.4134   23862400.234  
                
  20204835.406   108006455.557                    84005024.323    20204840.883  
  20204834.645  
  20335731.086   108744326.385                    84578918.174    20335735.855  
  20335730.305  
  23221383.570   124262317.534                    96648460.160    23221388.086  
  23221381.668  
  24047489.312   126370429.242    24047499.457    98470516.9544   24047499.727  
                
  21288918.477   111874067.851    21288925.324    87174659.6954   21288925.488  
                
  20321701.211   106791296.817    20321711.562    83214039.5494   20321711.148  
                
  20540531.023   109878001.225                                                  
  20540529.266  
  22404946.625   119641175.700                    93054254.072    22404949.949  
  22404946.051  
  20600967.922   108258852.039    20600972.113    84357579.1494                 
                
  24239602.961   127379979.017    24239609.004    99257146.6784                 
                
  21555606.578   113275495.633    21555613.215    88266653.8784                 
                
  20028498.109   107251731.524                    83418027.598    20028500.793  
  20028497.336  
  21875499.422   116608719.885                                                  
  21875498.480  
  20882006.500   109735711.800    20882015.656    85508402.2734   20882016.027  
                
  23118417.812   123754725.190                    96253668.519    23118423.754  
  23118416.281  
 21  8 16 13 32 10.0000000  0 17G 4G17R 1R24R17G32G31G 1R23R 9G22G19
                                G21R 8R10G 3R 7
  22639826.172   118973119.011    22639834.953    92706372.7384   22639834.723  
                
  23862745.055   125399571.244    23862753.027    97713988.1214   23862752.730  
                
  20202159.422   107992150.897                    83993898.478    20202164.879  
  20202158.660  
  20334872.000   108739732.430                    84575345.098    20334876.750  
  20334871.230  
  23214470.680   124225325.587                    96619688.663    23214475.238  
  23214468.789  
  24053493.406   126401980.980    24053503.582    98495102.7144   24053503.832  
                
  21288491.625   111871824.735    21288498.492    87172911.8194   21288498.645  
                
  20323689.555   106801745.634    20323699.895    83222181.4844   20323699.480  
                
  20546034.359   109907440.333                                                  
  20546032.602  
  22406283.789   119648316.045                    93059807.674    22406287.133  
  22406283.246  
  20600287.516   108255276.508    20600291.711    84354793.0214                 
                
  24237342.578   127368100.355    24237348.555    99247890.5824                 
                
  21559059.688   113293641.851    21559066.328    88280793.7774                 
                
  20031005.195   107265156.866                    83428469.532    20031007.891  
  20031004.410  
  21870751.062   116583408.508                                                  
  21870750.117  
  20879063.961   109720248.656    20879073.094    85496353.0754   20879073.473  
                
  23124199.391   123785674.438                    96277740.113    23124205.359  
  23124197.863  
 21  8 16 13 32 20.0000000  0 17G 4G17R 1R24R17G32G31G 1R23R 9G22G19
                                G21R 8R10G 3R 7
  22634468.750   118944965.652    22634477.523    92684435.0754   22634477.301  
                
  23863108.500   125401481.194    23863116.418    97715476.4014   23863116.125  
                
  20199489.766   107977880.092                    83982798.963    20199495.230  
  20199489.000  
  20334030.234   108735231.154                    84571844.099    20334034.980  
  20334029.480  
  23207566.344   124188379.289                    96590952.655    23207570.914  
  23207564.387  
  24059498.641   126433538.596    24059508.832    98519693.0434   24059509.066  
                
  21288078.453   111869653.532    21288085.352    87171219.9794   21288085.488  
                
  20325690.320   106812259.735    20325700.652    83230374.2834   20325700.238  
                
  20551550.805   109936949.576                                                  
  20551549.035  
  22407636.758   119655540.795                    93065426.927    22407640.113  
  22407636.227  
  20599613.953   108251736.902    20599618.145    84352034.8834                 
                
  24235094.531   127356286.652    24235100.492    99238685.1314                 
                
  21562521.359   113311833.026    21562528.016    88294968.7174                 
                
  20033517.844   107278612.012                    83438934.636    20033520.559  
  20033517.047  
  21866014.812   116558161.675                                                  
  21866013.887  
  20876127.242   109704816.148    20876136.359    85484327.7444   20876136.746  
                
  23129981.461   123816626.243                    96301813.756    23129987.449  
  23129980.012  
 21  8 16 13 32 30.0000000  0 17G 4G17R 1R24R17G32G31G 1R23R 9G22G19
                                G21R 8R10G 3R 7
  22629116.828   118916841.214    22629125.613    92662519.9404   22629125.414  
                
  23863482.922   125403448.791    23863490.707    97717009.5704   23863490.531  
                
  20196826.531   107963643.577                    83971726.131    20196832.008  
  20196825.766  
  20333205.930   108730823.205                    84568415.703    20333210.684  
  20333205.172  
  23200670.617   124151479.235                    96562252.629    23200675.234  
  23200668.641  
  24065505.039   126465102.424    24065515.238    98544288.2074   24065515.465  
                
  21287679.047   111867554.672    21287685.969    87169584.5044   21287686.102  
                
  20327703.578   106822839.452    20327713.902    83238618.2194   20327713.496  
                
  20557080.422   109966529.269                                                  
  20557078.656  
  22409005.562   119662850.083                    93071111.924    22409008.949  
  22409005.039  
  20598947.281   108248233.535    20598951.480    84349304.9934                 
                
  24232858.867   127344538.206    24232864.836    99229530.4844                 
                
  21565991.641   113330069.429    21565998.328    88309178.8854                 
                
  20036036.125   107292097.294                    83449423.186    20036038.852  
  20036035.309  
  21861290.758   116532979.976                                                  
  21861289.812  
  20873196.445   109689414.677    20873205.559    85472326.6054   20873205.949  
                
  23135764.070   123847580.832                    96325889.512    23135770.078  
  23135762.621  
 21  8 16 13 32 40.0000000  0 17G 4G17R 1R24R17G32G31G 1R23R 9G22G19
                                G21R 8R10G 3R 7
  22623770.461   118888745.884    22623779.285    92640627.4994   22623779.070  
                
  23863868.312   125405474.044    23863876.008    97718587.6964   23863875.930  
                
  20194169.742   107949441.467                    83960680.045    20194175.219  
  20194168.973  
  20332399.047   108726508.424                    84565059.755    20332403.789  
  20332398.273  
  23193783.656   124114625.691                    96533588.750    23193788.246  
  23193781.664  
  24071512.625   126496672.513    24071522.793    98568888.2544   24071523.020  
                
  21287293.438   111865528.303    21287300.379    87168005.5244   21287300.520  
                
  20329729.336   106833484.888    20329739.645    83246913.3584   20329739.258  
                
  20562623.203   109996179.330                                                  
  20562621.465  
  22410390.211   119670244.016                    93076862.745    22410393.605  
  22410389.684  
  20598287.547   108244766.563    20598291.742    84346603.4574                 
                
  24230635.625   127332855.206    24230641.648    99220426.8314                 
                
  21569470.570   113348351.247    21569477.277    88323424.4594                 
                
  20038560.094   107305613.015                    83459935.418    20038562.836  
  20038559.262  
  21856579.023   116507863.906                                                  
  21856578.086  
  20870271.586   109674044.415    20870280.691    85460349.7804   20870281.074  
                
  23141547.195   123878538.238                    96349967.474    23141553.258  
  23141545.762  
 21  8 16 13 32 50.0000000  0 17G 4G17R 1R24R17G32G31G 1R23R 9G22G19
                                G21R 8R10G 3R 7
  22618429.531   118860679.285    22618438.414    92618757.4394   22618438.172  
                
  23864264.586   125407556.477    23864272.305    97720210.3764   23864272.250  
                
  20191519.258   107935273.168                    83949660.251    20191524.750  
  20191518.496  
  20331609.602   108722286.899                    84561776.347    20331614.324  
  20331608.852  
  23186905.320   124077818.258                    96504960.738    23186909.859  
  23186903.324  
  24077521.312   126528248.419    24077531.422    98593492.8374   24077531.680  
                
  21286921.531   111863573.985    21286928.488    87166482.6854   21286928.633  
                
  20331767.516   106844195.613    20331777.809    83255259.3734   20331777.434  
                
  20568179.039   110025899.294                                                  
  20568177.320  
  22411790.641   119677722.213                    93082679.122    22411794.074  
  22411790.102  
  20597634.664   108241335.641    20597638.848    84343930.0154                 
                
  24228424.781   127321237.173    24228430.848    99211373.8194                 
                
  21572958.031   113366677.946    21572964.750    88337705.0014                 
                
  20041089.680   107319158.804                    83470471.015    20041092.426  
  20041088.852  
  21851879.555   116482813.200                                                  
  21851878.602  
  20867352.586   109658704.984    20867361.684    85448396.9814   20867362.066  
                
  23147330.828   123909498.316                    96374047.508    23147336.914  
  23147329.398  
 21  8 16 13 33  0.0000000  0 17G 4G17R 1R24R17G32G31G 1R23R 9G22G19
                                G21R 8R10G 3R 7
  22613094.109   118832641.505    22613103.031    92596909.8434   22613102.781  
                
  23864671.758   125409696.190    23864679.570    97721877.6724   23864679.496  
                
  20188875.148   107921138.918                    83938666.964    20188880.668  
  20188874.391  
  20330837.547   108718158.370                    84558565.281    20330842.262  
  20330836.809  
  23180035.688   124041057.269                    96476368.866    23180040.172  
  23180033.664  
  24083531.102   126559830.131    24083541.172    98618101.9374   24083541.453  
                
  21286563.359   111861691.809    21286570.340    87165016.0594   21286570.457  
                
  20333818.133   106854971.649    20333828.414    83263656.2834   20333828.051  
                
  20573747.914   110055688.993                                                  
  20573746.207  
  22413206.836   119685284.587                    93088560.965    22413210.285  
  22413206.305  
  20596988.648   108237940.835    20596992.820    84341284.7084                 
                
  24226226.375   127309684.365    24226232.441    99202371.6154                 
                
  21576454.062   113385049.645    21576460.793    88352020.5994                 
                
  20043624.820   107332734.334                    83481029.765    20043627.570  
  20043624.016  
  21847192.344   116457827.774                                                  
  21847191.363  
  20864439.469   109643396.503    20864448.559    85436468.2954   20864448.934  
                
  23153114.938   123940460.955                    96398129.538    23153121.059  
  23153113.461  
 21  8 16 13 33 10.0000000  0 17G 4G17R 1R24R17G32G31G 1R23R 9G22G19
                                G21R 8R10G 3R 7
  22607764.195   118804632.646    22607773.129    92575084.7784   22607772.887  
                
  23865089.828   125411893.201    23865097.734    97723589.5824   23865097.633  
                
  20186237.430   107907038.855                    83927700.248    20186242.938  
  20186236.684  
  20330082.906   108714122.951                    84555426.613    20330087.617  
  20330082.188  
  23173174.766   124004342.911                    96447813.254    23173179.211  
  23173172.766  
  24089542.000   126591417.662    24089552.012    98642715.5814   24089552.324  
                
  21286218.930   111859881.797    21286225.926    87163605.6714   21286226.051  
                
  20335881.180   106865813.026    20335891.453    83272104.1104   20335891.090  
                
  20579329.820   110085548.437                                                  
  20579328.105  
  22414638.852   119692931.411                    93094508.469    22414642.332  
  22414638.328  
  20596349.531   108234582.239    20596353.691    84338667.6194                 
                
  24224040.383   127298196.734    24224046.426    99193420.2234                 
                
  21579958.633   113403466.236    21579965.387    88366371.1884                 
                
  20046165.562   107346339.781                    83491611.776    20046168.312  
  20046164.805  
  21842517.477   116432908.169                                                  
  21842516.500  
  20861532.266   109628119.057    20861541.352    85424563.7944   20861541.723  
                
  23158899.492   123971426.086                    96422213.479    23158905.652  
  23158897.973  
 21  8 16 13 33 20.0000000  0 17G 4G17R 1R24R17G32G31G 1R23R 9G22G19
                                G21R 8R10G 3R 7
  22602439.781   118776652.659    22602448.684    92553282.2064   22602448.465  
                
  23865518.766   125414147.255    23865526.691    97725345.9964   23865526.621  
                
  20183606.031   107892972.564                    83916759.801    20183611.543  
  20183605.289  
  20329345.688   108710180.721                    84552360.432    20329350.402  
  20329345.008  
  23166322.625   123967675.402                    96419294.104    23166326.984  
  23166320.652  
  24095553.977   126623010.887    24095563.895    98667333.6574   24095564.270  
                
  21285888.211   111858143.917    21285895.215    87162251.4844   21285895.336  
                
  20337956.648   106876719.646    20337966.922    83280602.7724   20337966.562  
                
  20584924.695   110115477.218                                                  
  20584922.996  
  22416086.609   119700662.323                    93100521.423    22416090.109  
  22416086.098  
  20595717.289   108231259.761    20595721.422    84336078.6794                 
                
  24221866.805   127286774.403    24221872.805    99184519.7194                 
                
  21583471.703   113421927.503    21583478.484    88380756.5844                 
                
  20048711.820   107359974.829                    83502216.811    20048714.586  
  20048711.086  
  21837854.953   116408054.261                                                  
  21837854.004  
  20858630.961   109612872.601    20858640.051    85412683.4464   20858640.410  
                
  23164684.469   124002393.523                    96446299.231    23164690.668  
  23164682.934  
 21  8 16 13 33 30.0000000  0 17G 4G17R 1R24R17G32G31G 1R23R 9G22G19
                                G21R 8R10G 3R 7
  22597120.883   118748701.703    22597129.770    92531502.2474   22597129.562  
                
  23865958.609   125416458.613    23865966.496    97727147.0814   23865966.496  
                
  20180981.008   107878940.388                    83905845.890    20180986.551  
  20180980.246  
  20328625.914   108706331.764                    84549366.785    20328630.621  
  20328625.242  
  23159479.219   123931054.720                    96390811.380    23159483.543  
  23159477.293  
  24101567.070   126654609.848    24101576.910    98691956.2124   24101577.352  
                
  21285571.242   111856478.271    21285578.262    87160953.5844   21285578.391  
                
  20340044.539   106887691.587    20340054.809    83289152.3294   20340054.445  
                
  20590532.578   110145475.591                                                  
  20590530.902  
  22417550.141   119708477.499                    93106599.892    22417553.633  
  22417549.598  
  20595091.945   108227973.567    20595096.051    84333518.0134                 
                
  24219705.633   127275417.435    24219711.602    99175670.1244                 
                
  21586993.305   113440433.608    21587000.102    88395176.9204                 
                
  20051263.672   107373639.878                    83512845.188    20051266.434  
  20051262.945  
  21833204.820   116383266.447                                                  
  21833203.871  
  20855735.578   109597657.291    20855744.668    85400827.3684   20855745.016  
                
  23170469.945   124033363.557                    96470387.024    23170476.137  
  23170468.387  
 21  8 16 13 33 40.0000000  0 17G 4G17R 1R24R17G32G31G 1R23R 9G22G19
                                G21R 8R10G 3R 7
  22591807.523   118720779.773    22591816.395    92509744.9044   22591816.180  
                
  23866409.344   125418827.253    23866417.238    97728992.7834   23866417.270  
                
  20178362.359   107864942.264                    83894958.466    20178367.918  
  20178361.586  
  20327923.578   108702575.988                    84546445.637    20327928.270  
  20327922.895  
  23152644.633   123894481.172                    96362365.297    23152648.887  
  23152642.707  
  24107581.250   126686214.468    24107591.055    98716583.1624   24107591.543  
                
  21285268.023   111854884.891    21285275.074    87159711.9824   21285275.188  
                
  20342144.852   106898728.766    20342155.137    83297752.7264   20342154.770  
                
  20596153.406   110175543.231                                                  
  20596151.754  
  22419029.469   119716376.999                    93112743.957    22419032.953  
  22419028.887  
  20594473.523   108224723.757    20594477.598    84330985.6944                 
                
  24217556.898   127264125.866    24217562.840    99166871.4894                 
                
  21590523.461   113458984.663    21590530.258    88409632.2794                 
                
  20053821.102   107387334.767                    83523496.768    20053823.875  
  20053820.355  
  21828567.055   116358544.582                                                  
  21828566.094  
  20852846.133   109582473.160    20852855.219    85388995.5754   20852855.555  
                
  23176255.836   124064336.157                    96494476.775    23176262.074  
  23176254.270  
 21  8 16 13 33 50.0000000  0 17G 4G17R 1R24R17G32G31G 1R23R 9G22G19
                                G21R 8R10G 3R 7
  22586499.664   118692886.789    22586508.539    92488010.1304   22586508.316  
                
  23866870.930   125421252.883    23866878.949    97730882.8684   23866878.918  
                
  20175750.078   107850978.137                    83884097.484    20175755.637  
  20175749.289  
  20327238.664   108698913.425                    84543596.979    20327243.367  
  20327237.980  
  23145818.852   123857954.789                    96333955.900    23145823.059  
  23145816.934  
  24113596.469   126717824.623    24113606.281    98741214.4214   24113606.805  
                
  21284978.539   111853363.644    21284985.625    87158526.6064   21284985.719  
                
  20344257.570   106909831.108    20344267.871    83306403.8984   20344267.496  
                
  20601787.141   110205679.911                                                  
  20601785.469  
  22420524.562   119724360.676                    93118953.454    22420528.043  
  22420523.945  
  20593861.992   108221510.132    20593866.031    84328481.5714                 
                
  24215420.594   127252899.641    24215426.578    99158123.7984                 
                
  21594062.094   113477580.291    21594068.891    88424122.3704                 
                
  20056384.039   107401059.218                    83534171.339    20056386.816  
  20056383.297  
  21823941.672   116333888.776                                                  
  21823940.703  
  20849962.602   109567320.133    20849971.688    85377188.0354   20849972.020  
                
  23182042.211   124095311.193                    96518568.442    23182048.516  
  23182040.691  
 21  8 16 13 34  0.0000000  0 17G 4G17R 1R24R17G32G31G 1R23R 9G22G19
                                G21R 8R10G 3R 7
  22581197.352   118665022.966    22581206.199    92466298.0724   22581205.996  
                
  23867343.391   125423735.626    23867351.500    97732817.4404   23867351.395  
                
  20173144.164   107837048.085                    83873263.006    20173149.727  
  20173143.367  
  20326571.203   108695344.235                    84540820.932    20326575.891  
  20326570.512  
  23139001.914   123821475.909                    96305583.446    23139006.129  
  23139000.062  
  24119612.781   126749440.409    24119622.578    98765850.0784   24119623.117  
                
  21284702.805   111851914.720    21284709.926    87157397.5814   21284710.004  
                
  20346382.695   106920998.709    20346393.004    83315105.9214   20346392.621  
                
  20607433.742   110235885.477                                                  
  20607432.062  
  22422035.398   119732428.458                    93125228.405    22422038.871  
  22422034.777  
  20593257.383   108218332.918    20593261.387    84326005.8174                 
                
  24213296.773   127241738.887    24213302.812    99149427.1044                 
                
  21597609.234   113496220.611    21597616.035    88438647.2904                 
                
  20058952.555   107414813.550                    83544869.150    20058955.359  
  20058951.793  
  21819328.766   116309299.429                                                  
  21819327.793  
  20847085.031   109552198.424    20847094.109    85365404.8874   20847094.445  
                
  23187829.023   124126288.695                    96542662.020    23187835.398  
  23187827.578  
 21  8 16 13 34 10.0000000  0 17G 4G17R 1R24R17G32G31G 1R23R 9G22G19
                                G21R 8R10G 3R 7
  22575900.602   118637188.339    22575909.434    92444608.7624   22575909.227  
                
  23867826.711   125426275.447    23867834.770    97734796.5624   23867834.695  
                
  20170544.633   107823152.096                    83862455.028    20170550.211  
  20170543.848  
  20325921.188   108691868.297                    84538117.421    20325925.867  
  20325920.484  
  23132193.883   123785044.666                    96277248.029    23132198.105  
  23132192.055  
  24125630.156   126781061.763    24125639.914    98790490.0874   24125640.484  
                
  21284440.828   111850538.043    21284447.980    87156324.8494   21284448.031  
                
  20348520.234   106932231.529    20348530.555    83323858.7674   20348530.172  
                
  20613093.258   110266160.008                                                  
  20613091.570  
  22423562.016   119740580.468                    93131568.854    22423565.449  
  22423561.434  
  20592659.719   108215192.165    20592663.684    84323558.4744                 
                
  24211185.422   127230643.673    24211191.555    99140781.4884                 
                
  21601164.891   113514905.672    21601171.711    88453207.0734                 
                
  20061526.641   107428597.707                    83555590.161    20061529.473  
  20061525.855  
  21814728.375   116284776.753                                                  
  21814727.426  
  20844213.430   109537108.052    20844222.488    85353646.1624   20844222.824  
                
  23193616.344   124157268.587                    96566757.465    23193622.699  
  23193614.875  
 21  8 16 13 34 20.0000000  0 17G 4G17R 1R24R17G32G31G 1R23R 9G22G19
                                G21R 8R10G 3R 7
  22570609.273   118609382.356    22570618.117    92422941.7754   22570617.895  
                
  23868320.820   125428871.936    23868328.680    97736819.8204   23868328.762  
                
  20167951.375   107809289.728                    83851673.183    20167956.980  
  20167950.602  
  20325288.555   108688485.290                    84535486.196    20325293.227  
  20325287.863  
  23125394.648   123748660.649                    96248949.384    23125398.879  
  23125392.832  
  24131648.477   126812688.089    24131658.207    98815133.9694   24131658.781  
                
  21284192.523   111849233.243    21284199.699    87155308.1294   21284199.750  
                
  20350670.078   106943529.014    20350680.410    83332661.9964   20350680.031  
                
  20618765.492   110296502.622                                                  
  20618763.789  
  22425104.289   119748816.123                    93137974.359    22425107.711  
  22425103.730  
  20592068.883   108212087.325    20592072.812    84321139.1184                 
                
  24209086.453   127219613.419    24209092.672    99132186.4804                 
                
  21604728.938   113533634.815    21604735.773    88467801.1984                 
                
  20064106.109   107442410.704                    83566333.595    20064108.941  
  20064105.309  
  21810140.375   116260320.180                                                  
  21810139.434  
  20841347.695   109522048.520    20841356.742    85341911.4624   20841357.086  
                
  23199404.055   124188250.446                    96590854.444    23199410.363  
  23199402.629  
 21  8 16 13 34 30.0000000  0 17G 4G17R 1R24R17G32G31G 1R23R 9G22G19
                                G21R 8R10G 3R 7
  22565323.453   118581605.251    22565332.324    92401297.2984   22565332.086  
                
  23868825.750   125431525.325    23868833.449    97738887.3864   23868833.645  
                
  20165364.422   107795461.042                    83840917.545    20165370.066  
  20165363.648  
  20324673.297   108685195.223                    84532927.257    20324677.973  
  20324672.609  
  23118604.281   123712324.173                    96220687.707    23118608.566  
  23118602.453  
  24137667.758   126844319.496    24137677.473    98839781.8094   24137678.047  
                
  21283957.906   111848000.382    21283965.109    87154347.4724   21283965.152  
                
  20352832.258   106954891.278    20352842.598    83341515.7074   20352842.211  
                
  20624450.477   110326913.519                                                  
  20624448.758  
  22426662.258   119757135.518                    93144445.020    22426665.660  
  22426661.688  
  20591484.930   108209018.614    20591488.836    84318747.9234                 
                
  24206999.891   127208648.441    24207006.191    99123642.3584                 
                
  21608301.367   113552408.039    21608308.207    88482429.6824                 
                
  20066691.039   107456252.853                    83577099.708    20066693.879  
  20066690.219  
  21805564.875   116235930.207                                                  
  21805563.957  
  20838487.875   109507020.039    20838496.906    85330200.9574   20838497.238  
                
  23205192.180   124219234.421                    96614953.066    23205198.465  
  23205190.777  
 21  8 16 13 34 40.0000000  0 17G 4G17R 1R24R17G32G31G 1R23R 9G22G19
                                G21R 8R10G 3R 7
  22560043.320   118553858.044    22560052.227    92379676.1124   22560051.980  
                
  23869341.656   125434236.389    23869349.391    97740999.8984   23869349.555  
                
  20162783.961   107781666.989                    83830188.850    20162789.602  
  20162783.184  
  20324075.641   108681999.252                    84530441.507    20324080.312  
  20324074.961  
  23111823.031   123676036.393                    96192463.867    23111827.379  
  23111821.211  
  24143688.164   126875956.931    24143697.863    98864434.3364   24143698.449  
                
  21283737.156   111846840.359    21283744.371    87153443.5664   21283744.398  
                
  20355006.938   106966319.285    20355017.293    83350420.6424   20355016.898  
                
  20630148.352   110357393.356                                                  
  20630146.613  
  22428236.078   119765539.591                    93150981.511    22428239.465  
  22428235.520  
  20590908.039   108205987.034    20590911.930    84316385.6574                 
                
  24204925.930   127197749.682    24204932.266    99115149.8324                 
                
  21611882.406   113571226.534    21611889.270    88497093.4344                 
                
  20069281.625   107470125.319                    83587889.400    20069284.480  
  20069280.809  
  21801002.016   116211607.668                                                  
  21801001.090  
  20835634.148   109492023.610    20835643.168    85318515.4344   20835643.492  
                
  23210980.820   124250221.361                    96639053.985    23210987.121  
  23210979.430  
 21  8 16 13 34 50.0000000  0 17G 4G17R 1R24R17G32G31G 1R23R 9G22G19
                                G21R 8R10G 3R 7
  22554768.742   118526140.096    22554777.664    92358077.7204   22554777.418  
                
  23869868.398   125437004.398    23869876.234    97743156.7914   23869876.316  
                
  20160209.859   107767907.005                    83819486.636    20160215.531  
  20160209.082  
  20323495.438   108678896.682                    84528028.390    20323500.113  
  20323494.766  
  23105050.758   123639796.825                    96164277.584    23105055.191  
  23105048.973  
  24149709.586   126907599.695    24149719.301    98889091.0314   24149719.898  
                
  21283530.148   111845752.579    21283537.371    87152595.9534   21283537.398  
                
  20357194.000   106977812.357    20357204.371    83359376.2754   20357203.965  
                
  20635859.008   110387941.505                                                  
  20635857.254  
  22429825.633   119774027.749                    93157583.398    22429829.020  
  22429825.070  
  20590338.078   108202991.917    20590341.953    84314051.7964                 
                
  24202864.438   127186916.519    24202870.719    99106708.4134                 
                
  21615471.930   113590089.626    21615478.797    88511791.9314                 
                
  20071877.758   107484027.540                    83598702.228    20071880.629  
  20071876.941  
  21796451.766   116187352.389                                                  
  21796450.832  
  20832786.398   109477058.649    20832795.410    85306854.4254   20832795.723  
                
  23216769.906   124281210.726                    96663156.812    23216776.227  
  23216768.566  
 21  8 16 13 35  0.0000000  0 17G 4G17R 1R24R17G32G31G 1R23R 9G22G19
                                G21R 8R10G 3R 7
  22549499.797   118498451.686    22549508.730    92336502.3484   22549508.488  
                
  23870406.008   125439829.555    23870413.863    97745358.2044   23870413.902  
                
  20157642.180   107754181.269                    83808811.076    20157647.871  
  20157641.430  
  20322932.758   108675887.777                    84525688.129    20322937.430  
  20322932.051  
  23098287.609   123603605.856                    96136129.050    23098292.070  
  23098285.805  
  24155732.062   126939247.945    24155741.855    98913751.9804   24155742.461  
                
  21283336.938   111844737.270    21283344.152    87151804.8134   21283344.188  
                
  20359393.477   106989370.667    20359403.863    83368382.7494   20359403.449  
                
  20641582.438   110418558.033                                                  
  20641580.680  
  22431430.969   119782600.125                    93164250.799    22431434.398  
  22431430.387  
  20589775.109   108200033.488    20589778.977    84311746.5254                 
                
  24200815.477   127176149.261    24200821.664    99098318.3444                 
                
  21619069.961   113608997.356    21619076.805    88526525.2194                 
                
  20074479.445   107497959.407                    83609538.119    20074482.320  
  20074478.641  
  21791914.164   116163164.470                                                  
  21791913.211  
  20829944.703   109462125.420    20829953.715    85295218.1454   20829954.023  
                
  23222559.500   124312202.541                    96687261.541    23222565.766  
  23222558.156  
 21  8 16 13 35 10.0000000  0 17G 4G17R 1R24R17G32G31G 1R23R 9G22G19
                                G21R 8R10G 3R 7
  22544236.406   118470792.467    22544245.371    92314949.7294   22544245.125  
                
  23870954.430   125442711.532    23870962.176    97747603.8894   23870962.289  
                
  20155080.836   107740489.489                    83798161.923    20155086.555  
  20155080.086  
  20322387.523   108672972.141                    84523420.408    20322392.215  
  20322386.793  
  23091533.484   123567463.311                    96108018.183    23091537.980  
  23091531.637  
  24161755.516   126970901.276    24161765.422    98938416.8944   24161766.016  
                
  21283157.453   111843794.123    21283164.660    87151069.9054   21283164.699  
                
  20361605.305   107000993.842    20361615.699    83377439.7654   20361615.285  
                
  20647318.539   110449242.339                                                  
  20647316.801  
  22433051.992   119791256.335                    93170983.402    22433055.441  
  22433051.375  
  20589219.055   108197111.429    20589222.914    84309469.5994                 
                
  24198779.016   127165447.546    24198785.141    99089979.3684                 
                
  21622676.406   113627949.301    21622683.223    88541292.9674                 
                
  20077086.609   107511920.623                    83620396.843    20077089.492  
  20077085.820  
  21787389.188   116139043.946                                                  
  21787388.215  
  20827108.977   109447223.596    20827117.977    85283606.3384   20827118.281  
                
  23228349.445   124343196.546                    96711367.999    23228355.680  
  23228348.125  
 21  8 16 13 35 20.0000000  0 17G 4G17R 1R24R17G32G31G 1R23R 9G22G19
                                G21R 8R10G 3R 7
  22538978.602   118443162.608    22538987.609    92293419.9884   22538987.352  
                
  23871513.703   125445650.430    23871521.383    97749893.9374   23871521.555  
                
  20152525.875   107726831.749                    83787539.247    20152531.609  
  20152525.125  
  20321859.766   108670150.012                    84521225.417    20321864.461  
  20321859.004  
  23084788.445   123531369.390                    96079945.151    23084792.996  
  23084786.586  
  24167779.938   127002559.755    24167789.961    98963085.8214   24167790.543  
                
  21282991.734   111842923.265    21282998.926    87150391.3214   21282998.965  
                
  20363829.477   107012681.957    20363839.895    83386547.3834   20363839.469  
                
  20653067.320   110479994.409                                                  
  20653065.625  
  22434688.734   119799996.395                    93177781.232    22434692.199  
  22434688.102  
  20588669.961   108194225.896    20588673.816    84307221.1284                 
                
  24196755.062   127154811.569    24196761.227    99081691.5924                 
                
  21626291.281   113646945.568    21626298.074    88556095.2404                 
                
  20079699.250   107525911.158                    83631278.358    20079702.125  
  20079698.480  
  21782876.844   116114990.717                                                  
  21782875.852  
  20824279.258   109432353.320    20824288.250    85272019.1134   20824288.547  
                
  23234139.789   124374192.780                    96735476.143    23234146.047  
  23234138.473  
 21  8 16 13 35 30.0000000  0 17G 4G17R 1R24R17G32G31G 1R23R 9G22G19
                                G21R 8R10G 3R 7
  22533726.398   118415562.204    22533735.453    92271913.2034   22533735.176  
                
  23872083.805   125448646.270    23872091.527    97752228.3734   23872091.664  
                
  20149977.281   107713208.085                    83776943.069    20149983.023  
  20149976.527  
  20321349.508   108667421.435                    84519103.188    20321354.203  
  20321348.738  
  23078052.523   123495324.244                    96051910.048    23078057.105  
  23078050.637  
  24173805.336   127034223.412    24173815.488    98987758.7754   24173816.059  
                
  21282839.781   111842124.799    21282846.953    87149769.1414   21282846.988  
                
  20366066.023   107024435.046    20366076.469    83395705.6334   20366076.023  
                
  20658828.773   110510814.214                                                  
  20658827.082  
  22436341.203   119808820.442                    93184644.378    22436344.688  
  22436340.574  
  20588127.828   108191377.007    20588131.680    84305001.2164                 
                
  24194743.625   127144241.366    24194749.840    99073455.0494                 
                
  21629914.594   113665986.142    21629921.344    88570932.0514                 
                
  20082317.406   107539931.185                    83642182.835    20082320.281  
  20082316.648  
  21778377.227   116091005.325                                                  
  21778376.223  
  20821455.562   109417514.729    20821464.547    85260456.5804   20821464.844  
                
  23239930.594   124405191.387                    96759586.149    23239936.883  
  23239929.262  
 21  8 16 13 35 40.0000000  0 17G 4G17R 1R24R17G32G31G 1R23R 9G22G19
                                G21R 8R10G 3R 7
  22528479.812   118387991.264    22528488.852    92250429.3744   22528488.574  
                
  23872664.727   125451698.981    23872672.508    97754607.0754   23872672.605  
                
  20147435.062   107699618.468                    83766373.371    20147440.793  
  20147434.309  
  20320856.727   108664786.298                    84517053.639    20320861.438  
  20320855.961  
  23071325.766   123459328.102                    96023913.059    23071330.387  
  23071323.824  
  24179831.727   127065892.155    24179841.977    99012435.7034   24179842.516  
                
  21282701.602   111841398.636    21282708.754    87149203.3074   21282708.801  
                
  20368314.930   107036253.078    20368325.414    83404914.4884   20368324.945  
                
  20664602.852   110541701.562                                                  
  20664601.172  
  22438009.375   119817728.335                    93191572.766    22438012.902  
  22438008.762  
  20587592.680   108188564.733    20587596.520    84302809.8304                 
                
  24192744.719   127133736.955    24192751.023    99065269.7964                 
                
  21633546.328   113685070.915    21633553.055    88585803.3094                 
                
  20084941.047   107553980.636                    83653110.173    20084943.922  
  20084940.285  
  21773890.320   116067087.611                                                  
  21773889.312  
  20818637.906   109402707.813    20818646.883    85248918.7314   20818647.184  
                
  23245721.789   124436192.151                    96783697.824    23245728.051  
  23245720.457  
 21  8 16 13 35 50.0000000  0 17G 4G17R 1R24R17G32G31G 1R23R 9G22G19
                                G21R 8R10G 3R 7
  22523238.781   118360449.488    22523247.723    92228968.2534   22523247.492  
                
  23873256.383   125454808.126    23873264.176    97757029.7884   23873264.246  
                
  20144899.125   107686062.449                    83755829.809    20144904.855  
  20144898.344  
  20320381.398   108662244.516                    84515076.699    20320386.125  
  20320380.609  
  23064608.133   123423380.904                    95995954.107    23064612.777  
  23064606.230  
  24185859.008   127097565.624    24185869.367    99037116.3004   24185869.852  
                
  21282577.117   111840744.510    21282584.250    87148693.6024   21282584.301  
                
  20370576.109   107048135.660    20370586.617    83414173.6354   20370586.133  
                
  20670389.469   110572656.018                                                  
  20670387.793  
  22439693.195   119826719.798                    93198566.109    22439696.719  
  22439692.613  
  20587064.438   108185788.825    20587068.277    84300646.7854                 
                
  24190758.266   127123298.108    24190764.652    99057135.6144                 
                
  21637186.391   113704199.563    21637193.117    88600708.7404                 
                
  20087570.086   107568059.013                    83664060.016    20087572.965  
  20087569.320  
  21769416.109   116043237.714                                                  
  21769415.098  
  20815826.211   109387932.321    20815835.195    85237405.3584   20815835.492  
                
  23251513.359   124467194.908                    96807811.070    23251519.602  
  23251512.051  
 21  8 16 13 36  0.0000000  0 17G 4G17R 1R24R17G32G31G 1R23R 9G22G19
                                G21R 8R10G 3R 7
  22518003.375   118332937.330    22518012.223    92207530.2074   22518012.027  
                
  23873858.875   125457974.188    23873866.684    97759496.8594   23873866.750  
                
  20142369.594   107672540.700                    83745312.911    20142375.328  
  20142368.801  
  20319923.516   108659796.045                    84513172.317    20319928.250  
  20319922.727  
  23057899.750   123387483.042                    95968033.566    23057904.410  
  23057897.867  
  24191887.242   127129244.126    24191897.684    99061800.8344   24191898.129  
                
  21282466.414   111840162.811    21282473.531    87148240.3384   21282473.578  
                
  20372849.648   107060083.161    20372860.180    83423483.3744   20372859.676  
                
  20676188.656   110603677.700                                                  
  20676186.984  
  22441392.719   119835795.110                    93205624.697    22441396.234  
  22441392.121  
  20586543.195   108183049.706    20586547.031    84298512.4074                 
                
  24188784.359   127112925.186    24188790.801    99049052.8344                 
                
  21640834.875   113723372.485    21640841.598    88615648.6674                 
                
  20090204.578   107582166.623                    83675032.597    20090207.461  
  20090203.809  
  21764954.695   116019455.932                                                  
  21764953.672  
  20813020.578   109373188.659    20813029.574    85225916.7964   20813029.863  
                
  23257305.398   124498200.061                    96831926.165    23257311.637  
  23257304.090  
 21  8 16 13 36 10.0000000  0 17G 4G17R 1R24R17G32G31G 1R23R 9G22G19
                                G21R 8R10G 3R 7
  22512773.609   118305454.807    22512782.406    92186115.2674   22512782.223  
                
  23874472.180   125461197.086    23874480.102    97762008.2024   23874480.094  
                
  20139846.422   107659052.934                    83734822.423    20139852.129  
  20139845.621  
  20319483.188   108657441.379                    84511340.902    20319487.930  
  20319482.395  
  23051200.633   123351634.749                    95940151.572    23051205.273  
  23051198.715  
  24197916.445   127160927.695    24197926.949    99086489.3074   24197927.359  
                
  21282369.500   111839653.515    21282376.574    87147843.4844   21282376.629  
                
  20375135.539   107072095.576    20375146.086    83432843.6924   20375145.574  
                
  20682000.375   110634766.466                                                  
  20681998.715  
  22443107.938   119844954.236                    93212748.466    22443111.426  
  22443107.336  
  20586028.961   108180347.395    20586032.789    84296406.7044                 
                
  24186823.016   127102618.254    24186829.465    99041021.4714                 
                
  21644491.781   113742589.607    21644498.477    88630623.0344                 
                
  20092844.562   107596303.605                    83686028.028    20092847.445  
  20092843.789  
  21760506.117   115995742.568                                                  
  21760505.094  
  20810221.023   109358476.904    20810230.027    85214453.0914   20810230.309  
                
  23263097.820   124529207.358                    96856042.941    23263104.043  
  23263096.496  
 21  8 16 13 36 20.0000000  0 17G 4G17R 1R24R17G32G31G 1R23R 9G22G19
                                G21R 8R10G 3R 7
  22507549.445   118278001.740    22507558.219    92164723.2914   22507558.043  
                
  23875096.258   125464476.642    23875104.285    97764563.6484   23875104.172  
                
  20137329.594   107645599.093                    83724358.339    20137335.297  
  20137328.797  
  20319060.367   108655180.394                    84509582.369    20319065.113  
  20319059.594  
  23044510.742   123315835.920                    95912308.047    23044515.410  
  23044508.789  
  24203946.570   127192616.027    24203957.121    99111181.4804   24203957.488  
                
  21282286.328   111839216.493    21282293.352    87147502.9534   21282293.434  
                
  20377433.727   107084172.661    20377444.285    83442254.4004   20377443.766  
                
  20687824.617   110665922.204                                                  
  20687822.941  
  22444838.820   119854196.997                    93219937.258    22444842.277  
  22444838.191  
  20585521.688   108177681.641    20585525.504    84294329.4904                 
                
  24184874.219   127092377.251    24184880.613    99033041.4854                 
                
  21648157.023   113761850.602    21648163.699    88645631.5954                 
                
  20095489.977   107610469.683                    83697046.086    20095492.867  
  20095489.188  
  21756070.336   115972097.460                                                  
  21756069.312  
  20807427.500   109343796.850    20807436.520    85203014.0884   20807436.789  
                
  23268890.609   124560216.683                    96880161.289    23268896.863  
  23268889.227  
 21  8 16 13 36 30.0000000  0 17G 4G17R 1R24R17G32G31G 1R23R 9G22G19
                                G21R 8R10G 3R 7
  22502331.172   118250579.635    22502339.941    92143355.4234   22502339.742  
                
  23875731.383   125467814.183    23875739.371    97767164.3434   23875739.246  
                
  20134819.367   107632180.538                    83713921.684    20134825.070  
  20134818.566  
  20318655.266   108653014.109                    84507897.474    20318660.023  
  20318654.484  
  23037830.414   123280088.171                    95884504.241    23037835.082  
  23037828.469  
  24209977.859   127224310.517    24209988.480    99135878.4564   24209988.793  
                
  21282217.180   111838853.136    21282224.145    87147219.8284   21282224.258  
                
  20379744.484   107096315.801    20379755.047    83451716.5894   20379754.527  
                
  20693661.586   110697145.958                                                  
  20693659.918  
  22446585.617   119863524.770                    93227192.210    22446589.078  
  22446584.957  
  20585021.648   108175053.944    20585025.465    84292281.9334                 
                
  24182938.250   127082203.581    24182944.574    99025113.9694                 
                
  21651830.898   113781156.901    21651837.582    88660675.4644                 
                
  20098141.086   107624666.278                    83708087.892    20098143.977  
  20098140.285  
  21751647.672   115948522.289                                                  
  21751646.629  
  20804640.297   109329150.022    20804649.332    85191600.9804   20804649.598  
                
  23274684.055   124591229.551                    96904282.361    23274690.379  
  23274682.629  
 21  8 16 13 36 40.0000000  0 17G 4G17R 1R24R17G32G31G 1R23R 9G22G19
                                G21R 8R10G 3R 7
  22497118.070   118223184.701    22497126.832    92122008.7334   22497126.617  
                
  23876376.805   125471205.873    23876384.645    97769807.2404   23876384.613  
                
  20132315.055   107618793.572                    83703509.607    20132320.742  
  20132314.230  
  20318267.227   108650939.091                    84506283.583    20318271.992  
  20318266.453  
  23031158.930   123244387.784                    95856737.280    23031163.609  
  23031157.039  
  24216009.578   127256007.284    24216020.266    99160577.2214   24216020.527  
                
  21282161.320   111838559.644    21282168.227    87146991.1294   21282168.371  
                
  20382067.094   107108521.201    20382077.652    83461227.2774   20382077.121  
                
  20699510.547   110728433.868                                                  
  20699508.918  
  22448347.625   119872933.787                    93234510.313    22448351.074  
  22448346.938  
  20584528.164   108172460.644    20584531.969    84290261.1784                 
                
  24181014.344   127072093.381    24181020.648    99017235.8984                 
                
  21655512.664   113800504.698    21655519.391    88675751.6554                 
                
  20100797.156   107638889.455                    83719150.346    20100800.043  
  20100796.363  
  21747237.391   115925013.150                                                  
  21747236.328  
  20801858.695   109314532.616    20801867.750    85180210.7964   20801868.000  
                
  23280477.477   124622242.103                    96928403.183    23280483.840  
  23280476.039  
 21  8 16 13 36 50.0000000  0 17G 4G17R 1R24R17G32G31G 1R23R 9G22G19
                                G21R 8R10G 3R 7
  22491910.820   118195820.470    22491919.570    92100685.9754   22491919.359  
                
  23877033.211   125474655.284    23877040.941    97772495.0994   23877040.945  
                
  20129817.312   107605441.725                    83693124.837    20129822.988  
  20129816.496  
  20317896.859   108648958.557                    84504743.152    20317901.613  
  20317896.078  
  23024497.016   123208738.438                    95829010.018    23024501.664  
  23024495.156  
  24222042.406   127287709.850    24222053.113    99185280.4964   24222053.336  
                
  21282119.430   111838339.527    21282126.289    87146819.6224   21282126.457  
                
  20384402.211   107120792.283    20384412.758    83470789.1564   20384412.227  
                
  20705372.125   110759789.235                                                  
  20705370.531  
  22450125.500   119882427.443                    93241894.266    22450128.949  
  22450124.809  
  20584041.883   108169905.237    20584045.684    84288269.9534                 
                
  24179103.211   127062050.287    24179109.527    99009410.0944                 
                
  21659202.984   113819897.398    21659209.766    88690862.8454                 
                
  20103458.875   107653142.823                    83730236.308    20103461.754  
  20103458.086  
  21742840.258   115901574.002                                                  
  21742839.211  
  20799083.375   109299948.236    20799092.449    85168846.3434   20799092.680  
                
  23286271.492   124653257.686                    96952526.416    23286277.836  
  23286270.102  
 21  8 16 13 37  0.0000000  0 17G 4G17R 1R24R17G32G31G 1R23R 9G22G19
                                G21R 8R10G 3R 7
  22486709.227   118168486.027    22486717.992    92079386.4304   22486717.781  
                
  23877700.406   125478161.413    23877708.137    97775227.1174   23877708.121  
                
  20127325.938   107592123.930                    83682766.558    20127331.602  
  20127325.113  
  20317544.062   108647072.006                    84503275.849    20317548.836  
  20317543.270  
  23017844.492   123173139.437                    95801321.922    23017849.133  
  23017842.645  
  24228076.125   127319417.186    24228086.797    99209987.4964   24228087.008  
                
  21282091.328   111838191.852    21282098.148    87146704.5524   21282098.332  
                
  20386749.633   107133128.088    20386760.172    83480401.4704   20386759.652  
                
  20711246.133   110791211.113                                                  
  20711244.566  
  22451919.039   119892004.769                    93249343.309    22451922.473  
  22451918.332  
  20583562.641   108167386.796    20583566.441    84286307.5324                 
                
  24177204.641   127052073.349    24177210.988    99001635.8324                 
                
  21662901.664   113839334.074    21662908.480    88706008.3044                 
                
  20106126.039   107667425.415                    83741344.980    20106128.918  
  20106125.250  
  21738456.039   115878203.697                                                  
  21738454.984  
  20796314.164   109285395.926    20796323.242    85157506.8844   20796323.488  
                
  23292065.898   124684275.508                    96976651.350    23292072.227  
  23292064.523  
 21  8 16 13 37 10.0000000  0 17G 4G17R 1R24R17G32G31G 1R23R 9G22G19
                                G21R 8R10G 3R 7
  22481513.281   118141181.231    22481522.059    92058109.9874   22481521.867  
                
  23878378.359   125481724.019    23878386.172    97778003.1654   23878386.090  
                
  20124840.930   107578840.194                    83672434.771    20124846.582  
  20124840.109  
  20317208.711   108645278.771                    84501881.114    20317213.484  
  20317207.914  
  23011201.367   123137590.692                    95773672.920    23011206.023  
  23011199.504  
  24234110.695   127351129.068    24234121.234    99234698.0274   24234121.484  
                
  21282076.961   111838116.397    21282083.773    87146645.7664   21282083.957  
                
  20389109.328   107145528.402    20389119.859    83490064.0394   20389119.336  
                
  20717132.484   110822699.042                                                  
  20717130.910  
  22453728.195   119901665.535                    93256857.231    22453731.621  
  22453727.480  
  20583090.391   108164905.128    20583094.191    84284373.7634                 
                
  24175318.641   127042162.399    24175325.016    98993913.0134                 
                
  21666608.664   113858814.470    21666615.504    88721187.8254                 
                
  20108798.586   107681736.834                    83752476.076    20108801.457  
  20108797.809  
  21734084.758   115854902.446                                                  
  21734083.688  
  20793551.023   109270875.558    20793560.102    85146192.3094   20793560.344  
                
  23297860.664   124715295.200                    97000777.765    23297866.984  
  23297859.309  
 21  8 16 13 37 20.0000000  0 17G 4G17R 1R24R17G32G31G 1R23R 9G22G19
                                G21R 8R10G 3R 7
  22476323.023   118113906.233    22476331.801    92036856.7474   22476331.621  
                
  23879067.062   125485343.117    23879074.855    97780823.2554   23879074.746  
                
  20122362.281   107565590.379                    83662129.358    20122367.922  
  20122361.469  
  20316890.922   108643579.398                    84500559.380    20316895.676  
  20316890.129  
  23004567.656   123102092.395                    95746063.155    23004572.305  
  23004565.777  
  24240146.141   127382845.534    24240156.547    99259412.1344   24240156.832  
                
  21282076.367   111838113.304    21282083.180    87146643.3634   21282083.363  
                
  20391481.320   107157993.278    20391491.844    83499776.9294   20391491.316  
                
  20723031.164   110854252.966                                                  
  20723029.582  
  22455552.969   119911409.733                    93264436.045    22455556.402  
  22455552.215  
  20582625.164   108162460.340    20582628.973    84282468.7334                 
                
  24173445.211   127032317.512    24173451.594    98986241.6704                 
                
  21670324.008   113878338.663    21670330.891    88736401.4684                 
                
  20111476.570   107696077.289                    83763629.749    20111479.441  
  20111475.781  
  21729726.445   115831670.254                                                  
  21729725.387  
  20790793.992   109256387.293    20790803.074    85134902.7614   20790803.320  
                
  23303655.820   124746317.103                    97024905.898    23303662.156  
  23303654.516  
 21  8 16 13 37 30.0000000  0 17G 4G17R 1R24R17G32G31G 1R23R 9G22G19
                                G21R 8R10G 3R 7
  22471138.391   118086660.982    22471147.203    92015626.7034   22471147.023  
                
  23879766.508   125489018.715    23879774.148    97783687.3564   23879774.168  
                
  20119889.984   107552374.606                    83651850.431    20119895.605  
  20119889.180  
  20316590.609   108641973.515                    84499310.364    20316595.348  
  20316589.824  
  22997943.430   123066644.780                    95718492.774    22997948.016  
  22997941.539  
  24246182.453   127414566.454    24246192.789    99284129.7344   24246193.070  
                
  21282089.523   111838182.543    21282096.340    87146697.3234   21282096.508  
                
  20393865.570   107170522.657    20393876.086    83509540.0754   20393875.570  
                
  20728942.172   110885872.844                                                  
  20728940.594  
  22457393.352   119921237.390                    93272079.800    22457396.797  
  22457392.555  
  20582166.945   108160052.422    20582170.770    84280592.4384                 
                
  24171584.367   127022538.769    24171590.684    98978621.8774                 
                
  21674047.633   113897906.446    21674054.566    88751649.0884                 
                
  20114159.922   107710446.546                    83774805.839    20114162.781  
  20114159.133  
  21725381.172   115808507.586                                                  
  21725380.125  
  20788043.062   109241931.099    20788052.152    85123638.1944   20788052.402  
                
  23309451.344   124777341.005                    97049035.561    23309457.684  
  23309450.020  
 21  8 16 13 37 40.0000000  0 17G 4G17R 1R24R17G32G31G 1R23R 9G22G19
                                G21R 8R10G 3R 7
  22465959.461   118059445.578    22465968.328    91994419.9204   22465968.129  
                
  23880476.734   125492750.912    23880484.301    97786595.5634   23880484.418  
                
  20117424.062   107539192.804                    83641597.928    20117429.668  
  20117423.270  
  20316307.820   108640461.262                    84498134.179    20316312.578  
  20316307.008  
  22991328.680   123031247.944                    95690961.937    22991333.215  
  22991326.781  
  24252219.625   127446291.883    24252229.945    99308850.8304   24252230.211  
                
  21282116.469   111838324.155    21282123.281    87146807.6774   21282123.449  
                
  20396262.117   107183116.544    20396272.613    83519353.4904   20396272.109  
                
  20734865.461   110917558.418                                                  
  20734863.883  
  22459249.406   119931148.596                    93279788.490    22459252.805  
  22459248.574  
  20581715.789   108157681.529    20581719.629    84278744.9914                 
                
  24169736.125   127012826.191    24169742.320    98971053.6644                 
                
  21677779.562   113917517.850    21677786.527    88766930.6884                 
                
  20116848.688   107724844.716                    83786004.411    20116851.547  
  20116847.895  
  21721048.914   115785414.253                                                  
  21721047.875  
  20785298.266   109227507.090    20785307.371    85112398.7114   20785307.602  
                
  23315247.266   124808366.882                    97073166.759    23315253.633  
  23315245.930  
 21  8 16 13 37 50.0000000  0 17G 4G17R 1R24R17G32G31G 1R23R 9G22G19
                                G21R 8R10G 3R 7
  22460786.195   118032260.017    22460795.070    91973236.3704   22460794.879  
                
  23881197.703   125496539.543    23881205.340    97789547.7554   23881205.438  
                
  20114964.508   107526045.127                    83631371.953    20114970.109  
  20114963.723  
  20316042.523   108639042.605                    84497030.774    20316047.285  
  20316041.707  
  22984723.469   122995902.047                    95663470.705    22984727.965  
  22984721.555  
  24258257.617   127478021.692    24258267.922    99333575.3264   24258268.199  
                
  21282157.164   111838538.049    21282163.965    87146974.3474   21282164.133  
                
  20398670.906   107195774.831    20398681.375    83529217.0834   20398680.895  
                
  20740800.961   110949309.388                                                  
  20740799.367  
  22461121.062   119941143.123                    93287562.024    22461124.441  
  22461120.203  
  20581271.641   108155347.534    20581275.492    84276926.2964                 
                
  24167900.477   127003179.849    24167906.543    98963537.0314                 
                
  21681519.781   113937172.804    21681526.789    88782246.2244                 
                
  20119542.820   107739271.651                    83797225.358    20119545.672  
  20119542.039  
  21716729.672   115762390.332                                                  
  21716728.617  
  20782559.578   109213115.233    20782568.703    85101184.2814   20782568.930  
                
  23321043.516   124839394.760                    97097299.524    23321049.930  
  23321042.211  
 21  8 16 13 38  0.0000000  0 17G 4G17R 1R24R17G32G31G 1R23R 9G22G19
                                G21R 8R10G 3R 7
  22455618.602   118005104.239    22455627.457    91952076.0444   22455627.270  
                
  23881929.367   125500384.405    23881937.160    97792543.7284   23881937.152  
                
  20112511.266   107512931.144                    83621172.198    20112516.887  
  20112510.512  
  20315794.766   108637717.726                    84496000.299    20315799.547  
  20315793.930  
  22978127.781   122960607.218                    95636019.169    22978132.238  
  22978125.883  
  24264296.445   127509755.775    24264306.707    99358303.1504   24264307.023  
                
  21282211.594   111838824.109    21282218.379    87147197.2564   21282218.562  
                
  20401091.930   107208497.427    20401102.375    83539130.7914   20401101.914  
                
  20746748.711   110981125.818                                                  
  20746747.102  
  22463008.289   119951220.776                    93295400.192    22463011.633  
  22463007.406  
  20580834.500   108153050.373    20580838.363    84275136.3044                 
                
  24166077.414   126993599.672    24166083.422    98956071.9424                 
                
  21685268.289   113956871.291    21685275.340    88797595.6914                 
                
  20122242.305   107753727.230                    83808468.595    20122245.148  
  20122241.535  
  21712423.539   115739436.288                                                  
  21712422.477  
  20779827.016   109198755.534    20779836.164    85089994.9084   20779836.371  
                
  23326840.164   124870424.412                    97121433.654    23326846.523  
  23326838.852  
 21  8 16 13 38 10.0000000  0 17G 4G17R 1R24R17G32G31G 1R23R 9G22G19
                                G21R 8R10G 3R 7
  22450456.727   117977978.505    22450465.527    91930939.1174   22450465.359  
                
  23882671.773   125504285.745    23882679.637    97795583.7384   23882679.586  
                
  20110064.398   107499851.260                    83610998.966    20110070.023  
  20110063.680  
  20315564.539   108636486.650                    84495042.791    20315569.336  
  20315563.715  
  22971541.695   122925363.667                    95608607.549    22971546.098  
  22971539.809  
  24270336.141   127541494.257    24270346.355    99383034.4124   24270346.707  
                
  21282279.820   111839182.668    21282286.590    87147476.6604   21282286.785  
                
  20403525.234   107221284.516    20403535.656    83549094.7494   20403535.203  
                
  20752708.672   111013007.524                                                  
  20752707.098  
  22464911.141   119961381.869                    93303303.264    22464914.457  
  22464910.215  
  20580404.422   108150790.306    20580408.293    84273375.2114                 
                
  24164266.977   126984085.842    24164272.980    98948658.5444                 
                
  21689025.102   113976613.419    21689032.188    88812979.1614                 
                
  20124947.195   107768211.775                    83819734.345    20124950.047  
  20124946.438  
  21708130.555   115716552.331                                                  
  21708129.488  
  20777100.617   109184428.208    20777109.773    85078830.7594   20777109.980  
                
  23332637.188   124901456.012                    97145569.339    23332643.504  
  23332635.914  
 21  8 16 13 38 20.0000000  0 17G 4G17R 1R24R17G32G31G 1R23R 9G22G19
                                G21R 8R10G 3R 7
  22445300.539   117950882.576    22445309.277    91909825.4244   22445309.121  
                
  23883424.883   125508243.356    23883432.707    97798667.6004   23883432.664  
                
  20107623.875   107486805.291                    83600852.095    20107629.496  
  20107623.180  
  20315351.789   108635348.958                    84494157.924    20315356.582  
  20315351.000  
  22964965.203   122890171.480                    95581235.857    22964969.543  
  22964963.316  
  24276376.609   127573236.876    24276386.801    99407768.9054   24276387.148  
                
  21282361.781   111839613.438    21282368.543    87147812.3224   21282368.758  
                
  20405970.750   107234135.794    20405981.152    83559108.7284   20405980.703  
                
  20758680.789   111044954.221                                                  
  20758679.238  
  22466829.555   119971626.031                    93311270.952    22466832.863  
  22466828.602  
  20579981.367   108148567.123    20579985.246    84271642.8624                 
                
  24162469.133   126974638.165    24162475.160    98941296.7134                 
                
  21692790.156   113996398.872    21692797.270    88828396.3854                 
                
  20127657.438   107782724.976                    83831022.393    20127660.281  
  20127656.684  
  21703850.664   115693738.116                                                  
  21703849.602  
  20774380.336   109170133.057    20774389.504    85067691.6824   20774389.707  
                
  23338434.523   124932489.361                    97169706.394    23338440.820  
  23338433.270  
 21  8 16 13 38 30.0000000  0 17G 4G17R 1R24R17G32G31G 1R23R 9G22G19
                                G21R 8R10G 3R 7
  22440150.078   117923816.733    22440158.773    91888735.1574   22440158.617  
                
  23884188.719   125512257.234    23884196.512    97801795.2904   23884196.469  
                
  20105189.750   107473793.448                    83590731.791    20105195.363  
  20105189.039  
  20315156.602   108634305.152                    84493346.070    20315161.387  
  20315155.824  
  22958398.336   122855030.836                    95553904.257    22958402.602  
  22958396.453  
  24282417.922   127604983.815    24282428.051    99432506.7664   24282428.391  
                
  21282457.516   111840116.566    21282464.273    87148204.3774   21282464.496  
                
  20408428.523   107247051.436    20408438.910    83569172.8574   20408438.477  
                
  20764665.070   111076965.967                                                  
  20764663.535  
  22468763.555   119981953.417                    93319303.367    22468766.836  
  22468762.590  
  20579565.383   108146381.108    20579569.277    84269939.4774                 
                
  24160683.914   126965256.750    24160689.977    98933986.5264                 
                
  21696563.477   114016227.748    21696570.582    88843847.4484                 
                
  20130373.055   107797266.939                    83842332.806    20130375.883  
  20130372.305  
  21699583.969   115670994.175                                                  
  21699582.938  
  20771666.234   109155870.357    20771675.402    85056577.8914   20771675.605  
                
  23344232.211   124963524.848                    97193845.070    23344238.582  
  23344230.969  
 21  8 16 13 38 40.0000000  0 17G 4G17R 1R24R17G32G31G 1R23R 9G22G19
                                G21R 8R10G 3R 7
  22435005.305   117896780.823    22435013.969    91867668.2324   22435013.816  
                
  23884963.203   125516327.242    23884971.055    97804966.6984   23884970.988  
                
  20102761.938   107460815.433                    83580637.781    20102767.523  
  20102761.219  
  20314978.945   108633355.165                    84492607.185    20314983.719  
  20314978.168  
  22951841.141   122819941.925                    95526612.914    22951845.324  
  22951839.254  
  24288460.000   127636734.859    24288470.047    99457247.8344   24288470.375  
                
  21282566.992   111840691.949    21282573.750    87148652.7374   21282573.984  
                
  20410898.508   107260031.291    20410908.883    83579287.0284   20410908.465  
                
  20770661.438   111109042.400                                                  
  20770659.891  
  22470713.102   119992363.926                    93327400.464    22470716.355  
  22470712.148  
  20579156.445   108144232.171    20579160.359    84268264.9824                 
                
  24158911.297   126955941.559    24158917.332    98926727.9374                 
                
  21700345.023   114036099.890    21700352.105    88859332.2344                 
                
  20133094.008   107811837.518                    83853665.476    20133096.812  
  20133093.250  
  21695330.422   115648320.405                                                  
  21695329.398  
  20768958.281   109141639.992    20768967.449    85045489.2944   20768967.656  
                
  23350030.227   124994562.005                    97217985.059    23350036.617  
  23350028.980  
 21  8 16 13 38 50.0000000  0 17G 4G17R 1R24R17G32G31G 1R23R 9G22G19
                                G21R 8R10G 3R 7
  22429866.281   117869775.056    22429874.930    91846624.7934   22429874.766  
                
  23885748.414   125520453.551    23885756.328    97808181.9754   23885756.246  
                
  20100340.477   107447871.352                    83570570.164    20100346.066  
  20100339.754  
  20314818.789   108632498.673                    84491941.012    20314823.559  
  20314818.004  
  22945293.680   122784904.954                    95499361.926    22945297.801  
  22945291.828  
  24294502.883   127668490.108    24294512.789    99481992.1744   24294513.160  
                
  21282690.250   111841339.733    21282697.016    87149157.5004   21282697.250  
                
  20413380.727   107273075.431    20413391.098    83589451.2904   20413390.684  
                
  20776669.891   111141183.515                                                  
  20776668.344  
  22472678.258   120002857.707                    93335562.283    22472681.477  
  22472677.332  
  20578754.594   108142120.397    20578758.523    84266619.4404                 
                
  24157151.344   126946692.869    24157157.340    98919521.1844                 
                
  21704134.828   114056015.394    21704141.906    88874850.7924                 
                
  20135820.281   107826436.636                    83865020.340    20135823.051  
  20135819.527  
  21691090.133   115625717.274                                                  
  21691089.156  
  20766256.523   109127442.138    20766265.695    85034426.0364   20766265.898  
                
  23355828.633   125025601.171                    97242126.600    23355835.012  
  23355827.434  
 21  8 16 13 39  0.0000000  0 17G 4G17R 1R24R17G32G31G 1R23R 9G22G19
                                G21R 8R10G 3R 7
  22424732.953   117842799.281    22424741.625    91825604.7144   22424741.438  
                
  23886544.297   125524635.928    23886552.207    97811440.9644   23886552.133  
                
  20097925.375   107434961.285                    83560529.003    20097930.965  
  20097924.664  
  20314676.156   108631735.983                    84491347.819    20314680.930  
  20314675.387  
  22938755.906   122749919.975                    95472151.417    22938760.000  
  22938754.066  
  24300546.477   127700249.330    24300556.258    99506739.6184   24300556.672  
                
  21282827.250   111842059.761    21282834.027    87149718.5664   21282834.273  
                
  20415875.141   107286183.666    20415885.508    83599665.4934   20415885.098  
                
  20782690.383   111173389.079                                                  
  20782688.852  
  22474658.953   120013434.571                    93343788.729    22474662.176  
  22474658.023  
  20578359.781   108140045.686    20578363.723    84265002.7864                 
                
  24155404.008   126937510.546    24155409.918    98912366.1264                 
                
  21707932.820   114075973.976    21707939.887    88890402.9184                 
                
  20138551.891   107841064.309                    83876397.431    20138554.645  
  20138551.129  
  21686863.039   115603184.495                                                  
  21686862.070  
  20763560.914   109113276.693    20763570.086    85023388.0274   20763570.297  
                
  23361627.391   125056642.072                    97266269.525    23361633.738  
  23361626.238  
 21  8 16 13 39 10.0000000  0 17G 4G17R 1R24R17G32G31G 1R23R 9G22G19
                                G21R 8R10G 3R 7
  22419605.359   117815853.696    22419614.074    91804608.1704   22419613.883  
                
  23887350.883   125528874.492    23887358.797    97814743.7584   23887358.699  
                
  20095516.656   107422085.276                    83550514.332    20095522.238  
  20095515.934  
  20314551.055   108631066.994                    84490827.489    20314555.816  
  20314550.293  
  22932227.898   122714987.217                    95444981.489    22932231.945  
  22932226.086  
  24306590.852   127732012.669    24306600.520    99531490.2754   24306600.961  
                
  21282978.031   111842852.132    21282984.828    87150336.0034   21282985.070  
                
  20418381.789   107299356.137    20418392.160    83609929.7554   20418391.738  
                
  20788722.930   111205659.102                                                  
  20788721.367  
  22476655.203   120024094.385                    93352079.690    22476658.441  
  22476654.285  
  20577972.062   108138008.216    20577976.020    84263415.1444                 
                
  24153669.328   126928394.730    24153675.098    98905262.8794                 
                
  21711739.055   114095975.826    21711746.094    88905988.7814                 
                
  20141288.867   107855720.674                    83887796.820    20141291.598  
  20141288.094  
  21682649.203   115580722.389                                                  
  21682648.238  
  20760871.523   109099143.857    20760880.715    85012375.4354   20760880.926  
                
  23367426.492   125087684.844                    97290413.874    23367432.816  
  23367425.340  
 21  8 16 13 39 20.0000000  0 17G 4G17R 1R24R17G32G31G 1R23R 9G22G19
                                G21R 8R10G 3R 7
  22414483.492   117788938.200    22414492.246    91783635.0754   22414492.035  
                
  23888168.125   125533169.171    23888176.129    97818090.2454   23888175.926  
                
  20093114.289   107409243.271                    83540526.111    20093119.883  
  20093113.574  
  20314443.492   108630491.763                    84490380.086    20314448.250  
  20314442.738  
  22925709.656   122680106.745                    95417852.237    22925713.660  
  22925707.906  
  24312635.977   127763779.968    24312645.535    99556244.0154   24312646.027  
                
  21283142.547   111843716.773    21283149.379    87151009.7544   21283149.602  
                
  20420900.617   107312592.656    20420910.984    83620243.9254   20420910.566  
                
  20794767.461   111237993.278                                                  
  20794765.895  
  22478666.984   120034837.166                    93360435.188    22478670.277  
  22478666.055  
  20577591.406   108136007.849    20577595.375    84261856.4164                 
                
  24151947.281   126919345.318    24151952.957    98898211.3974                 
                
  21715553.492   114116020.797    21715560.504    88921608.2274                 
                
  20144031.148   107870405.527                    83899218.372    20144033.859  
  20144030.348  
  21678448.641   115558331.080                                                  
  21678447.699  
  20758188.312   109085043.520    20758197.508    85001388.1684   20758197.711  
                
  23373225.914   125118729.397                    97314559.609    23373232.234  
  23373224.746  
 21  8 16 13 39 30.0000000  0 17G 4G17R 1R24R17G32G31G 1R23R 9G22G19
                                G21R 8R10G 3R 7
  22409367.375   117762052.881    22409376.164    91762685.4904   22409375.930  
                
  23888996.055   125537519.974    23889004.113    97821480.4544   23889003.867  
                
  20090718.273   107396435.173                    83530564.271    20090723.871  
  20090717.559  
  20314353.438   108630010.177                    84490005.512    20314358.191  
  20314352.695  
  22919201.211   122645278.650                    95390763.740    22919205.156  
  22919199.465  
  24318681.852   127795551.189    24318691.344    99581000.8064   24318691.895  
                
  21283320.844   111844653.762    21283327.711    87151739.8774   21283327.910  
                
  20423431.641   107325893.239    20423441.988    83630608.0144   20423441.586  
                
  20800823.969   111270391.460                                                  
  20800822.414  
  22480694.281   120045662.852                    93368855.177    22480697.594  
  22480693.336  
  20577217.836   108134044.727    20577221.805    84260326.7074                 
                
  24150237.891   126910362.372    24150243.496    98891211.7014                 
                
  21719376.125   114136108.855    21719383.125    88937261.2444                 
                
  20146778.711   107885118.586                    83910661.863    20146781.391  
  20146777.891  
  21674261.406   115536010.777                                                  
  21674260.453  
  20755511.312   109070975.797    20755520.516    84990426.3084   20755520.719  
                
  23379025.664   125149775.704                    97338706.736    23379031.941  
  23379024.473  
 21  8 16 13 39 40.0000000  0 17G 4G17R 1R24R17G32G31G 1R23R 9G22G19
                                G21R 8R10G 3R 7
  22404257.000   117735197.791    22404265.801    91741759.4624   22404265.574  
                
  23889834.656   125541926.824    23889842.660    97824914.3644   23889842.430  
                
  20088328.617   107383661.112                    83520628.904    20088334.207  
  20088327.922  
  20314280.930   108629622.414                    84489703.910    20314285.676  
  20314280.191  
  22912702.602   122610503.285                    95363716.233    22912706.508  
  22912700.820  
  24324728.461   127827326.321    24324737.992    99605760.6384   24324738.594  
                
  21283512.906   111845663.118    21283519.809    87152526.4044   21283519.988  
                
  20425974.852   107339257.875    20425985.180    83641022.0114   20425984.789  
                
  20806892.406   111302853.526                                                  
  20806890.836  
  22482737.117   120056571.530                    93377339.728    22482740.512  
  22482736.133  
  20576851.352   108132118.870    20576855.324    84258826.0374                 
                
  24148541.172   126901445.945    24148546.773    98884263.8644                 
                
  21723206.945   114156239.962    21723213.914    88952947.8114                 
                
  20149531.609   107899860.284                    83922127.616    20149534.277  
  20149530.781  
  21670087.500   115513761.602                                                  
  21670086.523  
  20752840.523   109056940.739    20752849.730    84979489.9034   20752849.934  
                
  23384825.727   125180823.777                    97362855.180    23384832.000  
  23384824.488  
 21  8 16 13 39 50.0000000  0 17G 4G17R 1R24R17G32G31G 1R23R 9G22G19
                                G21R 8R10G 3R 7
  22399152.375   117708372.897    22399161.184    91720856.9584   22399160.973  
                
  23890683.891   125546389.553    23890691.715    97828391.8004   23890691.578  
                
  20085945.289   107370920.861                    83510719.826    20085950.859  
  20085944.602  
  20314225.922   108629328.268                    84489475.121    20314230.688  
  20314225.164  
  22906213.836   122575780.625                    95336709.731    22906217.707  
  22906212.051  
  24330775.797   127859105.235    24330785.371    99630523.3974   24330785.977  
                
  21283718.719   111846744.698    21283725.629    87153369.1954   21283725.801  
                
  20428530.227   107352686.423    20428540.543    83651485.8134   20428540.164  
                
  20812972.758   111335379.289                                                  
  20812971.188  
  22484795.469   120067562.995                    93385888.638    22484798.879  
  22484794.422  
  20576491.953   108130230.222    20576495.926    84257354.3654                 
                
  24146857.102   126892595.997    24146862.727    98877367.7974                 
                
  21727045.945   114176413.998    21727052.863    88968667.8304                 
                
  20152289.836   107914630.449                    83933615.522    20152292.500  
  20152288.996  
  21665926.977   115491583.718                                                  
  21665925.973  
  20750175.953   109042938.322    20750185.156    84968578.9264   20750185.371  
                
  23390626.094   125211873.604                    97387005.026    23390632.406  
  23390624.840  
 21  8 16 13 40  0.0000000  0 17G 4G17R 1R24R17G32G31G 1R23R 9G22G19
                                G21R 8R10G 3R 7
  22394053.547   117681578.382    22394062.398    91699978.1364   22394062.176  
                
  23891543.797   125550908.320    23891551.469    97831912.9384   23891551.379  
                
  20083568.328   107358214.661                    83500837.209    20083573.863  
  20083567.641  
  20314188.492   108629128.117                    84489319.463    20314193.262  
  20314187.715  
  22899735.000   122541111.004                    95309744.472    22899738.840  
  22899733.184  
  24336823.883   127890888.062    24336833.500    99655289.2054   24336834.086  
                
  21283938.305   111847898.655    21283945.223    87154268.3834   21283945.395  
                
  20431097.789   107366179.045    20431108.105    83661999.5434   20431107.730  
                
  20819065.016   111367968.652                                                  
  20819063.430  
  22486869.305   120078637.306                    93394501.934    22486872.762  
  22486868.223  
  20576139.680   108128378.986    20576143.656    84255911.8414                 
                
  24145185.711   126883812.729    24145191.301    98870523.6824                 
                
  21730893.133   114196631.069    21730900.012    88984421.3924                 
                
  20155053.391   107929429.123                    83945125.604    20155056.043  
  20155052.562  
  21661779.867   115469477.327                                                  
  21661778.859  
  20747517.633   109028968.768    20747526.832    84957693.5584   20747527.051  
                
  23396426.789   125242925.139                    97411156.177    23396433.094  
  23396425.496  
 21  8 16 13 40 10.0000000  0 17G 4G17R 1R24R17G32G31G 1R23R 9G22G19
                                G21R 8R10G 3R 7
  22388960.453   117654814.062    22388969.352    91679122.8384   22388969.102  
                
  23892414.312   125555482.893    23892421.973    97835477.5424   23892421.844  
                
  20081197.695   107345542.324                    83490980.960    20081203.230  
  20081197.000  
  20314168.547   108629021.506                    84489236.551    20314173.324  
  20314167.766  
  22893266.055   122506494.324                    95282820.415    22893269.867  
  22893264.211  
  24342872.656   127922674.505    24342882.277    99680057.8434   24342882.840  
                
  21284171.625   111849124.798    21284178.555    87155223.8174   21284178.723  
                
  20433677.492   107379735.460    20433687.824    83672562.9724   20433687.426  
                
  20825169.094   111400621.363                                                  
  20825167.508  
  22488958.625   120089794.262                    93403179.555    22488962.172  
  22488957.527  
  20575794.469   108126564.949    20575798.445    84254498.3084                 
                
  24143526.953   126875095.928    24143532.453    98863731.3424                 
                
  21734748.477   114216891.051    21734755.340    89000208.3814                 
                
  20157822.219   107944256.062                    83956657.664    20157824.859  
  20157821.402  
  21657646.133   115447442.233                                                  
  21657645.125  
  20744865.523   109015031.853    20744874.723    84946833.6324   20744874.953  
                
  23402227.797   125273978.103                    97435308.482    23402234.027  
  23402226.469  
 21  8 16 13 40 20.0000000  0 17G 4G17R 1R24R17G32G31G 1R23R 9G22G19
                                G21R 8R10G 3R 7
  22383873.141   117628080.068    22383882.066    91658291.1664   22383881.801  
                
  23893295.477   125560113.432    23893303.219    97839085.7304   23893302.969  
                
  20078833.414   107332903.914                    83481151.072    20078838.965  
  20078832.727  
  20314166.141   108629008.667                    84489226.566    20314170.918  
  20314165.371  
  22886807.039   122471930.933                    95255937.802    22886810.898  
  22886805.180  
  24348922.148   127954464.676    24348931.785    99704829.3924   24348932.316  
                
  21284418.711   111850423.258    21284425.664    87156235.6154   21284425.820  
                
  20436269.359   107393355.745    20436279.719    83683176.1804   20436279.305  
                
  20831284.992   111433337.344                                                  
  20831283.391  
  22491063.461   120101033.974                    93411921.579    22491067.066  
  22491062.324  
  20575456.383   108124788.285    20575460.363    84253113.8954                 
                
  24141880.867   126866445.724    24141886.277    98856990.9374                 
                
  21738611.969   114237193.770    21738618.816    89016028.6774                 
                
  20160596.312   107959111.166                    83968211.634    20160598.949  
  20160595.516  
  21653525.820   115425478.736                                                  
  21653524.824  
  20742219.656   109001127.772    20742228.859    84935999.2864   20742229.098  
                
  23408029.109   125305032.916                    97459462.232    23408035.363  
  23408027.801  
 21  8 16 13 40 30.0000000  0 17G 4G17R 1R24R17G32G31G 1R23R 9G22G19
                                G21R 8R10G 3R 7
  22378791.602   117601376.479    22378800.496    91637483.1894   22378800.227  
                
  23894187.273   125564799.858    23894195.016    97842737.4854   23894194.750  
                
  20076475.508   107320299.547                    83471347.679    20076481.055  
  20076474.828  
  20314181.297   108629089.740                    84489289.622    20314186.070  
  20314180.492  
  22880357.969   122437420.941                    95229096.714    22880361.883  
  22880356.121  
  24354972.336   127986258.496    24354982.039    99729603.7924   24354982.523  
                
  21284679.555   111851794.049    21284686.535    87157303.7684   21284686.680  
                
  20438873.367   107407039.885    20438883.746    83693839.1494   20438883.316  
                
  20837412.703   111466116.414                                                  
  20837411.117  
  22493183.781   120112356.425                    93420727.896    22493187.441  
  22493182.625  
  20575125.406   108123049.028    20575129.391    84251758.6294                 
                
  24140247.461   126857862.135    24140252.797    98850302.4474                 
                
  21742483.594   114257539.299    21742490.418    89031882.3234                 
                
  20163375.695   107973994.616                    83979787.646    20163378.328  
  20163374.918  
  21649418.992   115403587.084                                                  
  21649417.992  
  20739580.055   108987256.566    20739589.277    84925190.5664   20739589.508  
                
  23413830.773   125336089.407                    97483617.257    23413837.027  
  23413829.434  
 21  8 16 13 40 40.0000000  0 17G 4G17R 1R24R17G32G31G 1R23R 9G22G19
                                G21R 8R10G 3R 7
  22373715.844   117574703.181    22373724.676    91616698.8014   22373724.430  
                
  23895089.688   125569542.015    23895097.352    97846432.6714   23895097.129  
                
  20074123.930   107307728.961                    83461570.561    20074129.488  
  20074123.258  
  20314213.961   108629264.396                    84489425.470    20314218.723  
  20314213.160  
  22873918.930   122402964.454                    95202297.221    22873922.844  
  22873917.062  
  24361023.188   128018055.803    24361032.992    99754380.8854   24361033.438  
                
  21284954.133   111853236.994    21284961.137    87158428.1504   21284961.266  
                
  20441489.508   107420787.724    20441499.883    83704551.7404   20441499.453  
                
  20843552.188   111498958.434                                                  
  20843550.578  
  22495319.562   120123761.371                    93429598.409    22495323.309  
  22495318.375  
  20574801.539   108121347.065    20574805.531    84250432.4234                 
                
  24138626.750   126849345.150    24138631.996    98843665.8574                 
                
  21746363.320   114277927.357    21746370.129    89047769.1194                 
                
  20166160.359   107988906.279                    83991385.606    20166163.000  
  20166159.590  
  21645325.641   115381767.292                                                  
  21645324.648  
  20736946.695   108973418.173    20736955.926    84914407.3994   20736956.160  
                
  23419632.711   125367147.316                    97507773.399    23419638.973  
  23419631.305  
 21  8 16 13 40 50.0000000  0 17G 4G17R 1R24R17G32G31G 1R23R 9G22G19
                                G21R 8R10G 3R 7
  22368645.812   117548060.040    22368654.629    91595937.9254   22368654.395  
                
  23896002.625   125574339.626    23896010.234    97850171.0854   23896010.020  
                
  20071778.641   107295192.093                    83451819.684    20071784.207  
  20071777.973  
  20314264.109   108629532.568                    84489634.050    20314268.879  
  20314263.297  
  22867489.867   122368561.353                    95175539.297    22867493.785  
  22867487.965  
  24367074.672   128049856.407    24367084.551    99779160.5424   24367084.957  
                
  21285242.406   111854751.921    21285249.430    87159608.6144   21285249.543  
                
  20444117.711   107434599.035    20444128.090    83715313.7984   20444127.648  
                
  20849703.344   111531862.973                                                  
  20849701.738  
  22497470.742   120135248.653                    93438532.956    22497474.590  
  22497469.566  
  20574484.727   108119682.228    20574488.730    84249135.1484                 
                
  24137018.664   126840894.580    24137023.859    98837081.0014                 
                
  21750251.117   114298357.828    21750257.934    89063688.9644                 
                
  20168950.211   108003845.846                    84003005.272    20168952.863  
  20168949.465  
  21641245.734   115360019.157                                                  
  21641244.750  
  20734319.547   108959612.440    20734328.797    84903649.6944   20734329.031  
                
  23425434.836   125398206.700                    97531930.666    23425441.160  
  23425433.453  
 21  8 16 13 41  0.0000000  0 17G 4G17R 1R24R17G32G31G 1R23R 9G22G19
                                G21R 8R10G 3R 7
  22363581.602   117521447.426    22363590.418    91575200.8474   22363590.172  
                
  23896926.180   125579193.007    23896933.805    97853952.9224   23896933.555  
                
  20069439.727   107282689.292                    83442095.277    20069445.277  
  20069439.062  
  20314331.766   108629894.396                    84489915.461    20314336.551  
  20314330.949  
  22861070.883   122334212.218                    95148823.292    22861074.812  
  22861068.957  
  24373126.836   128081660.591    24373136.762    99803942.9944   24373137.129  
                
  21285544.461   111856339.235    21285551.492    87160845.4814   21285551.598  
                
  20446758.062   107448474.131    20446768.449    83726125.5594   20446768.004  
                
  20855866.227   111564830.178                                                  
  20855864.629  
  22499637.383   120146818.441                    93447531.667    22499641.273  
  22499636.215  
  20574175.062   108118054.949    20574179.094    84247867.1374                 
                
  24135423.273   126832510.736    24135428.477    98830548.1524                 
                
  21754147.023   114318830.946    21754153.840    89079642.0364                 
                
  20171745.352   108018813.675                    84014646.918    20171748.020  
  20171744.629  
  21637179.359   115338343.202                                                  
  21637178.363  
  20731698.688   108945839.784    20731707.953    84892917.7554   20731708.184  
                
  23431237.273   125429267.769                    97556089.217    23431243.656  
  23431235.887  
 21  8 16 13 41 10.0000000  0 17G 4G17R 1R24R17G32G31G 1R23R 9G22G19
                                G21R 8R10G 3R 7
  22358523.258   117494865.660    22358532.090    91554487.7964   22358531.832  
                
  23897860.406   125584102.396    23897867.992    97857778.4334   23897867.805  
                
  20067107.242   107270220.822                    83432397.583    20067112.816  
  20067106.574  
  20314417.055   108630350.495                    84490270.197    20314421.844  
  20314416.230  
  22854662.055   122299917.379                    95122149.555    22854666.004  
  22854660.117  
  24379179.703   128113468.564    24379189.680    99828728.4174   24379190.027  
                
  21285860.320   111857999.138    21285867.352    87162138.9124   21285867.453  
                
  20449410.594   107462413.221    20449421.004    83736987.1814   20449420.543  
                
  20862040.836   111597860.101                                                  
  20862039.266  
  22501819.547   120158471.081                    93456594.821    22501823.477  
  22501818.398  
  20573872.586   108116465.453    20573876.652    84246628.5674                 
                
  24133840.641   126824193.997    24133845.906    98824067.5604                 
                
  21758051.102   114339347.006    21758057.922    89095628.5814                 
                
  20174545.789   108033809.817                    84026310.574    20174548.445  
  20174545.062  
  21633126.617   115316739.826                                                  
  21633125.621  
  20729084.180   108932100.478    20729093.465    84882211.8024   20729093.691  
                
  23437040.109   125460330.766                    97580249.301    23437046.469  
  23437038.719  
 21  8 16 13 41 20.0000000  0 17G 4G17R 1R24R17G32G31G 1R23R 9G22G19
                                G21R 8R10G 3R 7
  22353470.719   117468314.391    22353479.562    91533798.5034   22353479.277  
                
  23898805.211   125589067.437    23898812.754    97861647.2774   23898812.664  
                
  20064781.102   107257786.240                    83422726.240    20064786.699  
  20064780.430  
  20314519.859   108630900.225                    84490697.774    20314524.652  
  20314519.035  
  22848263.312   122265676.655                    95095517.904    22848267.312  
  22848261.375  
  24385233.219   128145279.944    24385243.223    99853516.4734   24385243.559  
                
  21286189.922   111859731.191    21286196.957    87163488.5694   21286197.051  
                
  20452075.227   107476415.923    20452085.641    83747898.3694   20452085.176  
                
  20868227.133   111630952.477                                                  
  20868225.582  
  22504017.148   120170206.116                    93465722.076    22504021.074  
  22504016.070  
  20573577.266   108114913.500    20573581.371    84245419.2524                 
                
  24132270.711   126815944.025    24132276.102    98817639.0054                 
                
  21761963.266   114359905.563    21761970.082    89111648.2294                 
                
  20177351.492   108048834.199                    84037996.200    20177354.160  
  20177350.770  
  21629087.469   115295208.890                                                  
  21629086.488  
  20726475.969   108918394.233    20726485.270    84871531.6144   20726485.480  
                
  23442843.250   125491395.257                    97604410.548    23442849.598  
  23442841.801  
 21  8 16 13 41 30.0000000  0 17G 4G17R 1R24R17G32G31G 1R23R 9G22G19
                                G21R 8R10G 3R 7
  22348423.977   117441793.638    22348432.820    91513132.9894   22348432.539  
                
  23899760.625   125594088.230    23899768.262    97865559.5744   23899768.180  
                
  20062461.281   107245385.469                    83413081.207    20062466.871  
  20062460.617  
  20314640.180   108631543.634                    84491198.189    20314644.992  
  20314639.355  
  22841874.719   122231490.158                    95068928.409    22841878.762  
  22841872.742  
  24391287.383   128177094.638    24391297.383    99878307.1144   24391297.695  
                
  21286533.242   111861535.399    21286540.289    87164894.4464   21286540.375  
                
  20454751.953   107490482.175    20454762.371    83758859.0814   20454761.898  
                
  20874425.039   111664107.021                                                  
  20874423.477  
  22506230.172   120182023.473                    93474913.376    22506234.113  
  22506229.129  
  20573289.070   108113399.064    20573293.215    84244239.1744                 
                
  24130713.492   126807760.814    24130719.043    98811262.4614                 
                
  21765883.508   114380506.560    21765890.320    89127700.9484                 
                
  20180162.391   108063886.376                    84049703.431    20180165.051  
  20180161.656  
  21625061.945   115273750.659                                                  
  21625060.957  
  20723874.055   108904721.061    20723883.363    84860877.2034   20723883.574  
                
  23448646.648   125522461.307                    97628572.992    23448653.027  
  23448645.199  
 21  8 16 13 41 40.0000000  0 17G 4G17R 1R24R17G32G31G 1R23R 9G22G19
                                G21R 8R10G 3R 7
  22343383.023   117415303.336    22343391.883    91492491.2234   22343391.602  
                
  23900726.602   125599164.412    23900734.391    97869515.0244   23900734.215  
                
  20060147.789   107233018.575                    83403462.518    20060153.375  
  20060147.129  
  20314778.047   108632280.901                    84491771.611    20314782.840  
  20314777.242  
  22835496.273   122197358.051                    95042381.225    22835500.355  
  22835494.219  
  24397342.180   128208912.571    24397352.145    99903100.2964   24397352.441  
                
  21286890.289   111863411.731    21286897.348    87166356.5204   21286897.422  
                
  20457440.742   107504611.847    20457451.156    83769869.2144   20457450.691  
                
  20880634.523   111697323.473                                                  
  20880632.945  
  22508458.562   120193923.029                    93484168.577    22508462.496  
  22508457.559  
  20573008.016   108111922.114    20573012.188    84243088.3094                 
                
  24129168.961   126799644.253    24129174.637    98804937.8764                 
                
  21769811.789   114401149.801    21769818.637    89143786.5844                 
                
  20182978.516   108078966.589                    84061432.483    20182981.172  
  20182977.789  
  21621050.047   115252365.032                                                  
  21621049.062  
  20721278.422   108891080.947    20721287.734    84850248.5444   20721287.938  
                
  23454450.328   125553528.550                    97652736.405    23454456.695  
  23454448.867  
 21  8 16 13 41 50.0000000  0 17G 4G17R 1R24R17G32G31G 1R23R 9G22G19
                                G21R 8R10G 3R 7
  22338347.938   117388843.769    22338356.785    91471873.3914   22338356.512  
                
  23901703.164   125604296.187    23901711.008    97873513.8124   23901710.785  
                
  20057840.688   107220685.733                    83393870.301    20057846.266  
  20057840.020  
  20314933.445   108633111.875                    84492417.924    20314938.238  
  20314932.664  
  22829128.070   122163280.633                    95015876.585    22829132.168  
  22829125.988  
  24403397.625   128240733.860    24403407.523    99927896.1054   24403407.805  
                
  21287261.102   111865360.398    21287268.164    87167874.9744   21287268.234  
                
  20460141.648   107518805.133    20460152.059    83780928.9104   20460151.594  
                
  20886855.594   111730601.890                                                  
  20886854.008  
  22510702.406   120205904.990                    93493487.855    22510706.363  
  22510701.406  
  20572734.141   108110482.854    20572738.332    84241966.8084                 
                
  24127637.164   126791594.540    24127642.891    98798665.3804                 
                
  21773748.141   114421835.455    21773755.043    89159905.2604                 
                
  20185799.883   108094074.837                    84073183.355    20185802.535  
  20185799.148  
  21617051.805   115231052.143                                                  
  21617050.828  
  20718689.125   108877474.117    20718698.438    84839645.8294   20718698.656  
                
  23460254.328   125584597.641                    97676901.227    23460260.707  
  23460252.855  
 21  8 16 13 42  0.0000000  0 17G 4G17R 1R24R17G32G31G 1R23R 9G22G19
                                G21R 8R10G 3R 7
  22333318.648   117362414.707    22333327.492    91451279.3224   22333327.242  
                
  23902690.242   125609483.291    23902698.012    97877555.7194   23902697.883  
                
  20055539.891   107208386.705                    83384304.408    20055545.461  
  20055539.199  
  20315106.336   108634036.371                    84493136.991    20315111.105  
  20315105.555  
  22822770.055   122129257.850                    94989414.446    22822774.199  
  22822767.984  
  24409453.641   128272558.252    24409463.418    99952694.3374   24409463.734  
                
  21287645.641   111867381.181    21287652.684    87169449.6084   21287652.766  
                
  20462854.586   107533061.718    20462864.988    83792037.9334   20462864.523  
                
  20893088.141   111763941.830                                                  
  20893086.586  
  22512961.617   120217969.082                    93502871.042    22512965.598  
  22512960.641  
  20572467.383   108109081.051    20572471.578    84240874.4964                 
                
  24126118.055   126783611.548    24126123.770    98792444.8834                 
                
  21777692.516   114442563.258    21777699.461    89176056.7874                 
                
  20188626.461   108109211.066                    84084955.966    20188629.113  
  20188625.738  
  21613067.227   115209812.152                                                  
  21613066.262  
  20716106.133   108863900.379    20716115.445    84829068.8944   20716115.672  
                
  23466058.555   125615668.085                    97701067.126    23466064.996  
  23466057.102  
 21  8 16 13 42 10.0000000  0 17G 4G17R 1R24R17G32G31G 1R23R 9G22G19
                                G21R 8R10G 3R 7
  22328295.203   117336016.339    22328304.070    91430709.1774   22328303.820  
                
  23903687.867   125614725.894    23903695.551    97881640.8384   23903695.492  
                
  20053245.445   107196121.598                    83374764.877    20053251.012  
  20053244.754  
  20315296.781   108635054.807                    84493929.095    20315301.547  
  20315296.000  
  22816422.312   122095289.971                    94962994.967    22816426.477  
  22816420.234  
  24415510.258   128304385.844    24415519.898    99977495.0644   24415520.281  
                
  21288043.906   111869474.131    21288050.926    87171080.4824   21288051.016  
                
  20465579.602   107547381.734    20465590.000    83803196.3864   20465589.539  
                
  20899332.211   111797343.318                                                  
  20899330.695  
  22515236.203   120230115.220                    93512318.024    22515240.160  
  22515235.238  
  20572207.789   108107716.914    20572211.988    84239811.5304                 
                
  24124611.680   126775695.428    24124617.379    98786276.4784                 
                
  21781644.930   114463333.357    21781651.891    89192241.2684                 
                
  20191458.281   108124375.308                    84096750.379    20191460.926  
  20191457.555  
  21609096.375   115188645.340                                                  
  21609095.406  
  20713529.469   108850359.957    20713538.785    84818517.9204   20713539.012  
                
  23471863.055   125646740.014                    97725234.164    23471869.562  
  23471861.602  
 21  8 16 13 42 20.0000000  0 17G 4G17R 1R24R17G32G31G 1R23R 9G22G19
                                G21R 8R10G 3R 7
  22323277.594   117309648.665    22323286.496    91410162.9554   22323286.238  
                
  23904696.047   125620023.869    23904703.707    97885769.1254   23904703.684  
                
  20050957.336   107183890.407                    83365251.719    20050962.906  
  20050956.633  
  20315504.781   108636167.061                    84494794.169    20315509.531  
  20315504.008  
  22810084.898   122061377.226                    94936618.395    22810089.098  
  22810082.871  
  24421567.453   128336216.569    24421577.004   100002298.2224   24421577.422  
                
  21288455.914   111871639.283    21288462.906    87172767.6214   21288463.023  
                
  20468316.672   107561765.122    20468327.062    83814404.2084   20468326.617  
                
  20905587.781   111830806.255                                                  
  20905586.277  
  22517526.172   120242343.516                    93521828.915    22517530.109  
  22517525.215  
  20571955.359   108106390.423    20571959.562    84238777.9054                 
                
  24123118.031   126767846.238    24123123.727    98780160.2284                 
                
  21785605.375   114484145.630    21785612.355    89208458.6234                 
                
  20194295.281   108139567.340                    84108566.399    20194297.926  
  20194294.547  
  21605139.227   115167551.578                                                  
  21605138.285  
  20710959.148   108836852.844    20710968.465    84807992.8984   20710968.691  
                
  23477667.859   125677813.457                    97749402.365    23477674.383  
  23477666.395  
 21  8 16 13 42 30.0000000  0 17G 4G17R 1R24R17G32G31G 1R23R 9G22G19
                                G21R 8R10G 3R 7
  22318265.844   117283311.709    22318274.734    91389640.6554   22318274.480  
                
  23905714.773   125625377.248    23905722.461    97889940.6124   23905722.398  
                
  20048675.602   107171693.224                    83355765.030    20048681.184  
  20048674.906  
  20315730.273   108637372.823                    84495731.999    20315735.027  
  20315729.504  
  22803757.789   122027519.528                    94910284.638    22803761.996  
  22803755.812  
  24427625.234   128368050.379    24427634.750   100027103.7884   24427635.191  
                
  21288881.664   111873876.635    21288888.629    87174511.0174   21288888.766  
                
  20471065.789   107576211.819    20471076.164    83825661.3804   20471075.734  
                
  20911854.781   111864330.416                                                  
  20911853.270  
  22519831.523   120254653.938                    93531403.685    22519835.438  
  22519830.621  
  20571710.109   108105101.577    20571714.305    84237773.6094                 
                
  24121637.125   126760063.962    24121642.867    98774096.1054                 
                
  21789573.844   114505000.041    21789580.852    89224708.7984                 
                
  20197137.469   108154787.038                    84120403.930    20197140.105  
  20197136.730  
  21601195.836   115146531.133                                                  
  21601194.906  
  20708395.180   108823379.079    20708404.500    84797493.8654   20708404.723  
                
  23483472.867   125708888.191                    97773571.570    23483479.426  
  23483471.375  
 21  8 16 13 42 40.0000000  0 17G 4G17R 1R24R17G32G31G 1R23R 9G22G19
                                G21R 8R10G 3R 7
  22313259.961   117257005.611    22313268.812    91369142.4064   22313268.582  
                
  23906744.023   125630786.026    23906751.754    97894155.2234   23906751.633  
                
  20046400.227   107159530.033                    83346304.777    20046405.816  
  20046399.531  
  20315973.305   108638672.434                    84496742.809    20315978.078  
  20315972.527  
  22797441.047   121993717.273                    94883994.008    22797445.262  
  22797439.086  
  24433683.609   128399887.342    24433693.121   100051911.7944   24433693.586  
                
  21289321.180   111876186.278    21289328.125    87176310.7444   21289328.270  
                
  20473826.977   107590721.880    20473837.328    83836967.9174   20473836.914  
                
  20918133.242   111897915.812                                                  
  20918131.742  
  22522152.258   120267046.453                    93541042.312    22522156.141  
  22522151.355  
  20571472.039   108103850.520    20571476.219    84236798.7574                 
                
  24120168.961   126752348.670    24120174.766    98768084.1884                 
                
  21793550.336   114525896.595    21793557.352    89240991.8134                 
                
  20199984.875   108170034.714                    84132263.243    20199987.520  
  20199984.141  
  21597266.219   115125584.056                                                  
  21597265.289  
  20705837.586   108809938.825    20705846.906    84787020.9334   20705847.109  
                
  23489278.227   125739964.553                    97797742.028    23489284.797  
  23489276.734  
 21  8 16 13 42 50.0000000  0 17G 4G17R 1R24R17G32G31G 1R23R 9G22G19
                                G21R 8R10G 3R 7
  22308259.914   117230730.225    22308268.738    91348668.0864   22308268.527  
                
  23907783.766   125636249.930    23907791.465    97898412.7854   23907791.395  
                
  20044131.203   107147400.787                    83336870.925    20044136.758  
  20044130.516  
  20316233.852   108640065.704                    84497826.464    20316238.629  
  20316233.086  
  22791134.680   121959970.497                    94857746.525    22791138.887  
  22791132.746  
  24439742.539   128431727.211    24439752.062   100076722.0624   24439752.559  
                
  21289774.406   111878568.042    21289781.336    87178166.6714   21289781.492  
                
  20476600.172   107605295.112    20476610.512    83848323.6794   20476610.109  
                
  20924423.070   111931561.991                                                  
  20924421.582  
  22524488.305   120279520.775                    93550744.561    22524492.156  
  22524487.438  
  20571241.133   108102637.111    20571245.305    84235853.2464                 
                
  24118713.508   126744700.217    24118719.379    98762124.3504                 
                
  21797534.805   114546835.096    21797541.812    89257307.5194                 
                
  20202837.422   108185309.930                    84144143.955    20202840.062  
  20202836.684  
  21593350.406   115104710.641                                                  
  21593349.469  
  20703286.336   108796531.911    20703295.652    84776573.9944   20703295.855  
                
  23495083.797   125771042.159                    97821913.483    23495090.363  
  23495082.320  
 21  8 16 13 43  0.0000000  0 17G 4G17R 1R24R17G32G31G 1R23R 9G22G19
                                G21R 8R10G 3R 7
  22303265.711   117204485.629    22303274.539    91328217.7724   22303274.336  
                
  23908833.992   125641768.962    23908841.648    97902713.3514   23908841.629  
                
  20041868.508   107135305.405                    83327463.416    20041874.059  
  20041867.824  
  20316511.906   108641552.563                    84498982.910    20316516.691  
  20316511.145  
  22784838.680   121926279.376                    94831542.360    22784842.910  
  22784836.746  
  24445802.039   128463570.005    24445811.613   100101534.6154   24445812.129  
                
  21290241.359   111881021.920    21290248.270    87180078.7884   21290248.434  
                
  20479385.383   107619931.491    20479395.723    83859728.6484   20479395.328  
                
  20930724.258   111965268.958                                                  
  20930722.770  
  22526839.680   120292076.936                    93560510.473    22526843.477  
  22526838.859  
  20571017.398   108101461.408    20571021.555    84234937.1104                 
                
  24117270.805   126737118.751    24117276.715    98756216.7164                 
                
  21801527.242   114567815.527    21801534.227    89273655.8994                 
                
  20205695.164   108200613.003                    84156046.347    20205697.805  
  20205694.422  
  21589448.438   115083910.936                                                  
  21589447.508  
  20700741.445   108783158.472    20700750.754    84766153.1354   20700750.957  
                
  23500889.609   125802121.232                    97846086.079    23500896.152  
  23500888.105  
 21  8 16 13 43 10.0000000  0 17G 4G17R 1R24R17G32G31G 1R23R 9G22G19
                                G21R 8R10G 3R 7
  22298277.406   117178271.946    22298286.234    91307791.5334   22298286.023  
                
  23909894.758   125647343.287    23909902.418    97907056.9684   23909902.438  
                
  20039612.148   107123243.881                    83318082.224    20039617.695  
  20039611.484  
  20316807.492   108643133.213                    84500212.293    20316812.281  
  20316806.734  
  22778553.117   121892644.060                    94805381.563    22778557.359  
  22778551.184  
  24451862.086   128495415.752    24451871.727   100126349.4564   24451872.258  
                
  21290722.047   111883547.971    21290728.941    87182047.1464   21290729.125  
                
  20482182.625   107634631.055    20482192.965    83871182.8464   20482192.570  
                
  20937036.750   111999036.444                                                  
  20937035.266  
  22529206.406   120304715.029                    93570340.077    22529210.160  
  22529205.602  
  20570800.867   108100323.526    20570805.008    84234050.4514                 
                
  24115840.859   126729604.319    24115846.777    98750361.3134                 
                
  21805527.672   114588837.903    21805534.641    89290036.9594                 
                
  20208558.094   108215943.821                    84167970.309    20208560.730  
  20208557.371  
  21585560.344   115063185.207                                                  
  21585559.434  
  20698202.953   108769818.602    20698212.238    84755758.4304   20698212.438  
                
  23506695.711   125833201.654                    97870259.694    23506702.219  
  23506694.195  
 21  8 16 13 43 20.0000000  0 17G 4G17R 1R24R17G32G31G 1R23R 9G22G19
                                G21R 8R10G 3R 7
  22293294.969   117152089.141    22293303.766    91287389.3524   22293303.598  
                
  23910966.023   125652972.870    23910973.789    97911443.6404   23910973.730  
                
  20037362.125   107111216.240                    83308727.404    20037367.656  
  20037361.469  
  20317120.617   108644807.593                    84501514.580    20317125.438  
  20317119.867  
  22772278.023   121859064.785                    94779264.349    22772282.289  
  22772276.082  
  24457922.688   128527264.365    24457932.438   100151166.5204   24457932.965  
                
  21291216.453   111886146.136    21291223.344    87184071.6924   21291223.531  
                
  20484991.867   107649393.729    20485002.211    83882686.2254   20485001.820  
                
  20943360.578   112032864.597                                                  
  20943359.047  
  22531588.453   120317434.939                    93580233.328    22531592.195  
  22531587.703  
  20570591.539   108099223.495    20570595.680    84233193.2844                 
                
  24114423.656   126722156.839    24114429.566    98744558.0814                 
                
  21809536.070   114609902.133    21809543.004    89306450.6434                 
                
  20211426.203   108231302.348                    84179915.824    20211428.828  
  20211425.480  
  21581686.086   115042533.378                                                  
  21581685.180  
  20695670.852   108756512.321    20695680.109    84745389.9044   20695680.309  
                
  23512502.070   125864283.548                    97894434.482    23512508.562  
  23512500.551  
 21  8 16 13 43 30.0000000  0 17G 4G17R 1R24R17G32G31G 1R23R 9G22G19
                                G21R 8R10G 3R 7
  22288318.398   117125937.145    22288327.191    91267011.1914   22288327.020  
                
  23912047.766   125658657.508    23912055.609    97915873.2244   23912055.473  
                
  20035118.438   107099222.439                    83299398.904    20035123.949  
  20035117.770  
  20317451.242   108646575.597                    84502889.693    20317456.062  
  20317450.504  
  22766013.391   121825541.505                    94753190.700    22766017.680  
  22766011.430  
  24463983.805   128559115.717    24463993.676   100175985.7174   24463994.188  
                
  21291724.570   111888816.300    21291731.457    87186152.3464   21291731.652  
                
  20487813.094   107664219.364    20487823.453    83894238.6634   20487823.059  
                
  20949695.617   112066752.802                                                  
  20949694.051  
  22533985.789   120330236.432                    93590190.053    22533989.488  
  22533985.074  
  20570389.391   108098161.236    20570393.539    84232365.5524                 
                
  24113019.180   126714776.262    24113025.027    98738806.9914                 
                
  21813552.398   114631008.062    21813559.297    89322896.8194                 
                
  20214299.461   108246688.471                    84191882.820    20214302.102  
  20214298.742  
  21577825.703   115021955.421                                                  
  21577824.770  
  20693145.125   108743239.539    20693154.348    84735047.4784   20693154.562  
                
  23518308.672   125895366.651                    97918610.216    23518315.152  
  23518307.164  
 21  8 16 13 43 40.0000000  0 17G 4G17R 1R24R17G32G31G 1R23R 9G22G19
                                G21R 8R10G 3R 7
  22283347.719   117099816.139    22283356.512    91246657.1794   22283356.344  
                
  23913140.016   125664397.266    23913147.820    97920345.7724   23913147.715  
                
  20032881.102   107087262.642                    83290096.834    20032886.602  
  20032880.414  
  20317799.406   108648437.367                    84504337.737    20317804.230  
  20317798.688  
  22759759.266   121792074.514                    94727160.822    22759763.551  
  22759757.328  
  24470045.445   128590969.872    24470055.434   100200807.0994   24470055.898  
                
  21292246.422   111891558.652    21292253.301    87188289.2414   21292253.492  
                
  20490646.320   107679108.065    20490656.688    83905840.2464   20490656.293  
                
  20956041.930   112100701.180                                                  
  20956040.355  
  22536398.406   120343119.637                    93600210.331    22536402.062  
  22536397.750  
  20570194.461   108097136.897    20570198.613    84231567.3624                 
                
  24111627.469   126707462.817    24111633.270    98733108.2204                 
                
  21817576.680   114652155.808    21817583.566    89339375.5704                 
                
  20217177.859   108262102.128                    84203871.206    20217180.488  
  20217177.141  
  21573979.258   115001451.810                                                  
  21573978.297  
  20690625.820   108730000.505    20690635.016    84724731.3384   20690635.242  
                
  23524115.531   125926451.103                    97942786.988    23524122.016  
  23524114.078  
 21  8 16 13 43 50.0000000  0 17G 4G17R 1R24R17G32G31G 1R23R 9G22G19
                                G21R 8R10G 3R 7
  22278382.938   117073726.133    22278391.734    91226327.3274   22278391.562  
                
  23914242.734   125670191.999    23914250.504    97924861.1684   23914250.465  
                
  20030650.109   107075336.719                    83280821.133    20030655.598  
  20030649.426  
  20318165.086   108650392.801                    84505858.635    20318169.914  
  20318164.363  
  22753515.688   121758663.897                    94701174.814    22753519.961  
  22753513.785  
  24476107.570   128622826.780    24476117.676   100225630.6324   24476118.090  
                
  21292781.984   111894373.074    21292788.875    87190482.3114   21292789.070  
                
  20493491.531   107694059.745    20493501.914    83917490.8974   20493501.512  
                
  20962399.430   112134709.501                                                  
  20962397.836  
  22538826.336   120356084.545                    93610294.139    22538829.969  
  22538825.672  
  20570006.742   108096150.465    20570010.906    84230798.7124                 
                
  24110248.523   126700216.439    24110254.285    98727461.6914                 
                
  21821608.906   114673345.265    21821615.793    89355886.8284                 
                
  20220061.430   108277543.501                    84215881.171    20220064.059  
  20220060.719  
  21570146.750   114981022.464                                                  
  21570145.766  
  20688112.922   108716795.149    20688122.102    84714441.4574   20688122.332  
                
  23529922.656   125957536.826                    97966964.734    23529929.109  
  23529921.227  
 21  8 16 13 44  0.0000000  0 17G 4G17R 1R24R17G32G31G 1R23R 9G22G19
                                G21R 8R10G 3R 7
  22273424.055   117047667.068    22273432.844    91206021.5724   22273432.672  
                
  23915355.898   125676041.708    23915363.730    97929419.3654   23915363.680  
                
  20028425.453   107063444.649                    83271571.742    20028430.906  
  20028424.793  
  20318548.258   108652441.796                    84507452.286    20318553.090  
  20318547.531  
  22747282.680   121725309.838                    94675232.793    22747286.957  
  22747280.730  
  24482170.195   128654686.286    24482180.375   100250456.1974   24482180.770  
                
  21293331.258   111897259.510    21293338.156    87192731.4834   21293338.344  
                
  20496348.711   107709074.278    20496359.125    83929190.5284   20496358.715  
                
  20968768.125   112168777.604                                                  
  20968766.523  
  22541269.516   120369130.957                    93620441.336    22541273.145  
  22541268.848  
  20569826.234   108095201.869    20569830.414    84230059.5494                 
                
  24108882.344   126693037.086    24108888.094    98721867.3954                 
                
  21825649.039   114694576.263    21825655.945    89372430.4594                 
                
  20222950.141   108293012.385                    84227912.517    20222952.777  
  20222949.426  
  21566328.234   114960667.674                                                  
  21566327.254  
  20685606.438   108703623.482    20685615.605    84704177.8274   20685615.844  
                
  23535730.047   125988623.839                    97991143.501    23535736.465  
  23535728.637  
 21  8 16 13 44 10.0000000  0 17G 4G17R 1R24R17G32G31G 1R23R 9G22G19
                                G21R 8R10G 3R 7
  22268471.094   117021639.091    22268479.879    91185740.0334   22268479.707  
                
  23916479.516   125681946.405    23916487.465    97934020.4044   23916487.355  
                
  20026207.164   107051586.615                    83262348.834    20026212.605  
  20026206.523  
  20318948.953   108654584.476                    84509118.817    20318953.785  
  20318948.246  
  22741060.258   121692012.499                    94649334.867    22741064.539  
  22741058.273  
  24488233.328   128686548.459    24488243.582   100275283.8464   24488243.945  
                
  21293894.234   111900217.990    21293901.137    87195036.7924   21293901.336  
                
  20499217.852   107724151.726    20499228.301    83940939.1884   20499227.867  
                
  20975147.984   112202905.502                                                  
  20975146.402  
  22543727.938   120382258.731                    93630651.814    22543731.547  
  22543727.281  
  20569652.953   108094291.249    20569657.145    84229349.9764                 
                
  24107528.938   126685924.840    24107534.699    98716325.3794                 
                
  21829697.070   114715848.781    21829703.988    89389006.4324                 
                
  20225843.984   108308508.739                    84239965.240    20225846.625  
  20225843.270  
  21562523.695   114940387.370                                                  
  21562522.734  
  20683106.391   108690485.648    20683115.555    84693940.5554   20683115.789  
                
  23541537.617   126019712.184                    98015323.303    23541544.008  
  23541536.184  
 21  8 16 13 44 20.0000000  0 17G 4G17R 1R24R17G32G31G 1R23R 9G22G19
                                G21R 8R10G 3R 7
  22263524.031   116995642.182    22263532.828    91165482.7234   22263532.672  
                
  23917613.609   125687906.029    23917621.602    97938664.2614   23917621.449  
                
  20023995.234   107039762.582                    83253152.362    20024000.656  
  20023994.590  
  20319367.156   108656820.751                    84510858.141    20319371.988  
  20319366.457  
  22734848.453   121658772.048                    94623481.194    22734852.746  
  22734846.418  
  24494297.000   128718413.254    24494307.293   100300113.5414   24494307.625  
                
  21294470.930   111903248.535    21294477.828    87197398.2524   21294478.035  
                
  20502098.969   107739292.048    20502109.445    83952736.8294   20502109.004  
                
  20981538.984   112237092.930                                                  
  20981537.402  
  22546201.641   120395468.063                    93640925.763    22546205.207  
  22546201.004  
  20569486.891   108093418.595    20569491.102    84228669.9864                 
                
  24106188.297   126678879.704    24106194.082    98710835.6574                 
                
  21833753.016   114737162.904    21833759.914    89405614.8354                 
                
  20228742.969   108324032.652                    84252039.377    20228745.609  
  20228742.254  
  21558733.180   114920181.815                                                  
  21558732.215  
  20680612.789   108677381.672    20680621.949    84683729.6744   20680622.188  
                
  23547345.414   126050801.647                    98039503.978    23547351.785  
  23547344.004  
 21  8 16 13 44 30.0000000  0 17G 4G17R 1R24R17G32G31G 1R23R 9G22G19
                                G21R 8R10G 3R 7
  22258582.875   116969676.280    22258591.652    91145249.5724   22258591.531  
                
  23918758.133   125693920.402    23918766.133    97943350.8114   23918765.938  
                
  20021789.625   107027972.323                    83243982.167    20021795.043  
  20021788.957  
  20319802.875   108659150.739                    84512670.346    20319807.707  
  20319802.191  
  22728647.312   121625588.541                    94597671.823    22728651.582  
  22728645.227  
  24500361.141   128750280.529    24500371.488   100324945.1524   24500371.793  
                
  21295061.328   111906351.108    21295068.230    87199815.8514   21295068.445  
                
  20504992.000   107754495.046    20505002.512    83964583.3274   20505002.055  
                
  20987941.062   112271339.582                                                  
  20987939.465  
  22548690.562   120408758.749                    93651262.962    22548694.070  
  22548689.949  
  20569328.039   108092583.809    20569332.266    84228019.5034                 
                
  24104860.398   126671901.639    24104866.234    98705398.2004                 
                
  21837816.828   114758518.383    21837823.727    89422255.4614                 
                
  20231647.078   108339584.027                    84264134.905    20231649.742  
  20231646.367  
  21554956.672   114900051.030                                                  
  21554955.691  
  20678125.617   108664311.482    20678134.766    84673545.1094   20678135.004  
                
  23553153.430   126081892.354                    98063685.615    23553159.781  
  23553152.051  
 21  8 16 13 44 40.0000000  0 17G 4G17R 1R24R17G32G31G 1R23R 9G22G19
                                G21R 8R10G 3R 7
  22253647.648   116943741.499    22253656.395    91125040.6604   22253656.301  
                
  23919913.062   125699989.620    23919921.062    97948080.0674   23919920.902  
                
  20019590.375   107016216.076                    83234838.425    20019595.793  
  20019589.691  
  20320256.086   108661574.203                    84514555.255    20320260.930  
  20320255.422  
  22722456.852   121592462.214                    94571906.917    22722461.137  
  22722454.777  
  24506425.773   128782150.271    24506436.129   100349778.7064   24506436.406  
                
  21295665.430   111909525.705    21295672.344    87202289.5604   21295672.555  
                
  20507896.977   107769760.780    20507907.523    83976478.6894   20507907.047  
                
  20994354.188   112305645.417                                                  
  20994352.586  
  22551194.727   120422130.716                    93661663.388    22551198.172  
  22551194.172  
  20569176.422   108091787.032    20569180.672    84227398.6404                 
                
  24103545.289   126664990.733    24103551.164    98700013.0884                 
                
  21841888.531   114779915.301    21841895.445    89438928.3724                 
                
  20234556.297   108355162.696                    84276251.629    20234558.949  
  20234555.590  
  21551194.250   114879995.286                                                  
  21551193.230  
  20675644.898   108651275.208    20675654.031    84663386.9744   20675654.285  
                
  23558961.727   126112984.419                    98087868.306    23558968.062  
  23558960.344  
 21  8 16 13 44 50.0000000  0 17G 4G17R 1R24R17G32G31G 1R23R 9G22G19
                                G21R 8R10G 3R 7
  22248718.305   116917837.671    22248727.027    91104855.8624   22248726.957  
                
  23921078.383   125706113.454    23921086.430    97952851.8464   23921086.281  
                
  20017397.398   107004493.415                    83225720.803    20017402.789  
  20017396.703  
  20320726.758   108664091.062                    84516512.829    20320731.590  
  20320726.090  
  22716277.047   121559393.021                    94546186.437    22716281.332  
  22716274.977  
  24512490.836   128814022.254    24512501.137   100374614.0064   24512501.395  
                
  21296283.211   111912772.176    21296290.137    87204819.2814   21296290.352  
                
  20510813.836   107785088.979    20510824.406    83988422.7424   20510823.914  
                
  21000778.289   112340010.042                                                  
  21000776.695  
  22553714.070   120435583.834                    93672126.903    22553717.477  
  22553713.516  
  20569031.992   108091028.074    20569036.258    84226807.2434                 
                
  24102242.914   126658146.727    24102248.797    98694680.1134                 
                
  21845968.078   114801353.437    21845974.969    89455633.3984                 
                
  20237470.555   108370768.455                    84288389.447    20237473.211  
  20237469.840  
  21547445.844   114860014.316                                                  
  21547444.801  
  20673170.594   108638272.667    20673179.711    84653255.1244   20673179.984  
                
  23564770.180   126144077.430                    98112051.729    23564776.520  
  23564768.840  
 21  8 16 13 45  0.0000000  0 17G 4G17R 1R24R17G32G31G 1R23R 9G22G19
                                G21R 8R10G 3R 7
  22243794.898   116891965.123    22243803.613    91084695.4454   22243803.551  
                
  23922254.141   125712292.081    23922262.238    97957666.3614   23922262.023  
                
  20015210.836   106992804.984                    83216629.802    20015216.207  
  20015210.133  
  20321214.953   108666701.639                    84518543.269    20321219.770  
  20321214.285  
  22710108.031   121526381.356                    94520510.701    22710112.305  
  22710105.945  
  24518556.406   128845896.780    24518566.598   100399451.3084   24518566.875  
                
  21296914.719   111916090.780    21296921.652    87207405.2044   21296921.852  
                
  20513742.641   107800479.944    20513753.234    84000415.6934   20513752.734  
                
  21007213.406   112374433.554                                                  
  21007211.805  
  22556248.656   120449118.289                    93682653.693    22556252.035  
  22556248.141  
  20568894.836   108090307.327    20568899.113    84226245.6174                 
                
  24100953.344   126651370.019    24100959.250    98689399.5714                 
                
  21850055.508   114822833.010    21850062.367    89472370.7214                 
                
  20240390.000   108386401.917                    84300548.804    20240392.648  
  20240389.270  
  21543711.586   114840108.646                                                  
  21543710.523  
  20670702.781   108625304.235    20670711.895    84643149.8514   20670712.168  
                
  23570578.883   126175171.731                    98136236.200    23570585.180  
  23570577.605  
 21  8 16 13 45 10.0000000  0 17G 4G17R 1R24R17G32G31G 1R23R 9G22G19
                                G21R 8R10G 3R 7
  22238877.445   116866123.783    22238886.145    91064559.3584   22238886.078  
                
  23923440.320   125718525.398    23923448.402    97962523.5034   23923448.160  
                
  20013030.586   106981150.318                    83207565.061    20013035.945  
  20013029.871  
  20321720.633   108669405.716                    84520646.427    20321725.438  
  20321719.973  
  22703949.766   121493427.292                    94494879.743    22703954.035  
  22703947.656  
  24524622.438   128877773.666    24524632.465   100424290.4414   24524632.797  
                
  21297559.922   111919481.352    21297566.848    87210047.2004   21297567.062  
                
  20516683.359   107815933.507    20516693.988    84012457.4254   20516693.480  
                
  21013659.523   112408915.908                                                  
  21013657.895  
  22558798.406   120462733.805                    93693243.538    22558801.770  
  22558797.898  
  20568764.945   108089624.735    20568769.238    84225713.7294                 
                
  24099676.562   126644660.503    24099682.426    98684171.3804                 
                
  21854150.797   114844353.861    21854157.633    89489140.2114                 
                
  20243314.508   108402062.575                    84312729.314    20243317.164  
  20243313.773  
  21539991.484   114820278.426                                                  
  21539990.430  
  20668241.453   108612369.869    20668250.570    84633071.1254   20668250.848  
                
  23576387.812   126206267.236                    98160421.585    23576394.129  
  23576386.516  
 21  8 16 13 45 20.0000000  0 17G 4G17R 1R24R17G32G31G 1R23R 9G22G19
                                G21R 8R10G 3R 7
  22233965.938   116840313.770    22233974.590    91044447.6604   22233974.539  
                
  23924636.906   125724813.488    23924644.918    97967423.3144   23924644.695  
                
  20010856.688   106969529.638                    83198526.765    20010862.023  
  20010855.969  
  20322243.844   108672203.563                    84522822.529    20322248.641  
  20322243.172  
  22697802.289   121460530.972                    94469293.752    22697806.547  
  22697800.195  
  24530688.906   128909652.955    24530698.789   100449131.4584   24530699.203  
                
  21298218.820   111922943.885    21298225.738    87212745.2884   21298225.969  
                
  20519635.984   107831449.688    20519646.645    84024547.9504   20519646.121  
                
  21020116.602   112443456.850                                                  
  21020114.984  
  22561363.375   120476430.556                    93703896.545    22561366.746  
  22561362.867  
  20568642.359   108088980.567    20568646.656    84225211.7814                 
                
  24098412.594   126638018.289    24098418.453    98678995.6044                 
                
  21858253.938   114865915.912    21858260.789    89505941.8034                 
                
  20246244.109   108417750.474                    84324931.010    20246246.773  
  20246243.352  
  21536285.562   114800523.762                                                  
  21536284.520  
  20665786.625   108599469.649    20665795.746    84623018.9994   20665796.023  
                
  23582196.875   126237363.669                    98184607.683    23582203.254  
  23582195.625  
 21  8 16 13 45 30.0000000  0 17G 4G17R 1R24R17G32G31G 1R23R 9G22G19
                                G21R 8R10G 3R 7
  22229060.383   116814535.018    22229069.016    91024360.3384   22229068.965  
                
  23925843.883   125731156.202    23925851.797    97972365.6474   23925851.629  
                
  20008689.148   106957942.916                    83189514.877    20008694.492  
  20008688.441  
  20322784.555   108675094.974                    84525071.399    20322789.344  
  20322783.863  
  22691665.672   121427692.673                    94443752.835    22691669.887  
  22691663.598  
  24536755.781   128941534.534    24536765.559   100473974.2414   24536766.082  
                
  21298891.414   111926478.394    21298898.316    87215499.4424   21298898.555  
                
  20522600.508   107847028.360    20522611.191    84036687.1694   20522610.648  
                
  21026584.594   112478056.204                                                  
  21026583.016  
  22563943.523   120490208.388                    93714612.621    22563946.922  
  22563943.043  
  20568527.031   108088374.495    20568531.340    84224739.5124                 
                
  24097161.398   126631443.276    24097167.309    98673872.2124                 
                
  21862364.891   114887519.075    21862371.758    89522775.4314                 
                
  20249178.820   108433465.673                    84337153.946    20249181.469  
  20249178.070  
  21532593.812   114780844.649                                                  
  21532592.797  
  20663338.289   108586603.554    20663347.418    84612993.4794   20663347.691  
                
  23588006.258   126268461.558                    98208794.892    23588012.660  
  23588004.977  
 21  8 16 13 45 40.0000000  0 17G 4G17R 1R24R17G32G31G 1R23R 9G22G19
                                G21R 8R10G 3R 7
  22224160.781   116788787.456    22224169.391    91004297.3164   22224169.332  
                
  23927061.219   125737553.314    23927069.094    97977350.4104   23927068.949  
                
  20006527.945   106946390.010                    83180529.276    20006533.277  
  20006527.242  
  20323342.711   108678079.657                    84527392.820    20323347.492  
  20323342.023  
  22685539.859   121394912.286                    94418257.001    22685544.082  
  22685537.766  
  24542823.055   128973418.269    24542832.785   100498818.7064   24542833.375  
                
  21299577.688   111930084.782    21299584.586    87218309.6184   21299584.805  
                
  20525576.906   107862669.398    20525587.605    84048874.9874   20525587.051  
                
  21033063.469   112512713.736                                                  
  21033061.902  
  22566538.805   120504067.035                    93725391.590    22566542.199  
  22566538.289  
  20568418.914   108087806.333    20568423.230    84224296.7914                 
                
  24095922.977   126624935.325    24095928.949    98668801.1064                 
                
  21866483.648   114909163.239    21866490.516    89539641.0104                 
                
  20252118.602   108449208.047                    84349398.018    20252121.262  
  20252117.840  
  21528916.250   114761241.216                                                  
  21528915.250  
  20660896.438   108573771.546    20660905.582    84602994.5174   20660905.852  
                
  23593815.773   126299560.382                    98232982.845    23593822.227  
  23593814.438  
 21  8 16 13 45 50.0000000  0 17G 4G17R 1R24R17G32G31G 1R23R 9G22G19
                                G21R 8R10G 3R 7
  22219267.117   116763071.156    22219275.715    90984258.6514   22219275.645  
                
  23928288.922   125744004.834    23928296.766    97982377.5754   23928296.637  
                
  20004373.047   106934870.864                    83171569.949    20004378.371  
  20004372.359  
  20323918.328   108681157.745                    84529786.880    20323923.070  
  20323917.668  
  22679424.898   121362190.024                    94392806.355    22679429.105  
  22679422.816  
  24548890.734   129005304.106    24548900.449   100523664.7844   24548901.094  
                
  21300277.625   111933763.002    21300284.523    87221175.7634   21300284.734  
                
  20528565.156   107878372.751    20528575.852    84061111.3624   20528575.301  
                
  21039553.172   112547429.189                                                  
  21039551.598  
  22569149.242   120518006.631                    93736233.481    22569152.617  
  22569148.715  
  20568318.039   108087276.253    20568322.363    84223883.7424                 
                
  24094697.344   126618494.616    24094703.398    98663782.3684                 
                
  21870610.188   114930848.345    21870617.074    89556538.4814                 
                
  20255063.438   108464977.491                    84361663.138    20255066.098  
  20255062.672  
  21525252.914   114741713.606                                                  
  21525251.938  
  20658461.078   108560973.655    20658470.246    84593022.1394   20658470.504  
                
  23599625.492   126330660.416                    98257171.723    23599631.984  
  23599624.160  
 21  8 16 13 46  0.0000000  0 17G 4G17R 1R24R17G32G31G 1R23R 9G22G19
                                G21R 8R10G 3R 7
  22214379.453   116737386.340    22214388.055    90964244.5114   22214387.988  
                
  23929527.000   125750510.935    23929534.922    97987447.2674   23929534.711  
                
  20002224.539   106923385.846                    83162637.169    20002229.871  
  20002223.855  
  20324511.484   108684329.578                    84532253.866    20324516.219  
  20324510.848  
  22673320.906   121329526.279                    94367401.235    22673325.094  
  22673318.859  
  24554958.859   129037192.256    24554968.621   100548512.6534   24554969.297  
                
  21300991.273   111937513.252    21300998.172    87224098.0394   21300998.383  
                
  20531565.289   107894138.557    20531575.984    84073396.4064   20531575.430  
                
  21046053.742   112582202.771                                                  
  21046052.180  
  22571774.828   120532027.084                    93747138.285    22571778.199  
  22571774.301  
  20568224.445   108086784.425    20568228.785    84223500.5004                 
                
  24093484.547   126612121.263    24093490.617    98658816.1344                 
                
  21874744.547   114952574.540    21874751.465    89573467.9674                 
                
  20258013.375   108480774.240                    84373949.512    20258016.051  
  20258012.609  
  21521603.828   114722261.960                                                  
  21521602.875  
  20656032.266   108548210.160    20656041.449    84583076.5624   20656041.703  
                
  23605435.445   126361761.586                    98281361.503    23605441.969  
  23605434.125  
 21  8 16 13 46 10.0000000  0 17G 4G17R 1R24R17G32G31G 1R23R 9G22G19
                                G21R 8R10G 3R 7
  22209497.734   116711732.779    22209506.363    90944254.7424   22209506.293  
                
  23930775.406   125757071.365    23930783.387    97992559.2704   23930783.121  
                
  20000082.328   106911934.498                    83153730.566    20000087.668  
  20000081.648  
  20325122.062   108687594.595                    84534793.319    20325126.789  
  20325121.434  
  22667227.805   121296920.852                    94342041.471    22667231.969  
  22667225.777  
  24561027.359   129069082.418    24561037.184   100573362.0694   24561037.871  
                
  21301718.578   111941335.280    21301725.465    87227076.2404   21301725.676  
                
  20534577.258   107909966.582    20534587.965    84085729.9204   20534587.402  
                
  21052565.094   112617033.988                                                  
  21052563.531  
  22574415.547   120546128.290                    93758105.859    22574418.898  
  22574415.027  
  20568138.117   108086330.747    20568142.461    84223146.9814                 
                
  24092284.547   126605815.161    24092290.578    98653902.2844                 
                
  21878886.664   114974341.473    21878893.586    89590429.2074                 
                
  20260968.344   108496597.979                    84386256.857    20260971.016  
  20260967.570  
  21517969.008   114702886.360                                                  
  21517968.059  
  20653609.961   108535480.833    20653619.164    84573157.6104   20653619.398  
                
  23611245.570   126392863.716                    98305552.003    23611252.125  
  23611244.254  
 21  8 16 13 46 20.0000000  0 17G 4G17R 1R24R17G32G31G 1R23R 9G22G19
                                G21R 8R10G 3R 7
  22204622.000   116686110.676    22204630.625    90924289.4764   22204630.555  
                
  23932034.156   125763686.144    23932042.133    97997713.6494   23932041.883  
                
  19997946.469   106900517.123                    83144850.405    19997951.816  
  19997945.801  
  20325750.133   108690953.149                    84537405.522    20325754.859  
  20325749.496  
  22661145.648   121264374.083                    94316727.320    22661149.816  
  22661143.664  
  24567096.227   129100974.629    24567106.133   100598213.0884   24567106.832  
                
  21302459.570   111945229.219    21302466.438    87230110.4814   21302466.652  
                
  20537601.086   107925856.894    20537611.793    84098111.9774   20537611.230  
                
  21059087.188   112651922.695                                                  
  21059085.613  
  22577071.375   120560310.188                    93769136.223    22577074.746  
  22577070.875  
  20568059.078   108085915.435    20568063.418    84222823.3644                 
                
  24091097.344   126599576.351    24091103.348    98649040.8934                 
                
  21883036.570   114996149.334    21883043.480    89607422.3314                 
                
  20263928.398   108512448.879                    84398585.336    20263931.086  
  20263927.602  
  21514348.414   114683586.689                                                  
  21514347.434  
  20651194.195   108522785.906    20651203.418    84563265.4594   20651203.637  
                
  23617055.906   126423966.953                    98329743.402    23617062.496  
  23617054.668  
 21  8 16 13 46 30.0000000  0 17G 4G17R 1R24R17G32G31G 1R23R 9G22G19
                                G21R 8R10G 3R 7
  22199752.234   116660519.970    22199760.852    90904348.6914   22199760.789  
                
  23933303.242   125770355.182    23933311.156    98002910.2964   23933310.934  
                
  19995816.961   106889133.657                    83135996.597    19995822.285  
  19995816.297  
  20326395.680   108694405.170                    84540090.418    20326400.387  
  20326395.035  
  22655074.492   121231886.134                    94291458.929    22655078.652  
  22655072.578  
  24573165.469   129132868.876    24573175.496   100623065.7044   24573176.168  
                
  21303214.234   111949195.003    21303221.090    87233200.7024   21303221.305  
                
  20540636.742   107941809.369    20540647.434    84110542.4764   20540646.883  
                
  21065620.031   112686868.900                                                  
  21065618.449  
  22579742.289   120574572.714                    93780229.308    22579745.676  
  22579741.773  
  20567987.328   108085538.401    20567991.660    84222529.5704                 
                
  24089922.938   126593404.842    24089928.914    98644231.9484                 
                
  21887194.234   115017997.978    21887201.129    89624447.2414                 
                
  20266893.500   108528326.923                    84410934.926    20266896.199  
  20266892.691  
  21510742.203   114664363.589                                                  
  21510741.215  
  20648784.961   108510125.324    20648794.195    84553400.0724   20648794.402  
                
  23622866.422   126455071.189                    98353935.575    23622873.055  
  23622865.195  
 21  8 16 13 46 40.0000000  0 17G 4G17R 1R24R17G32G31G 1R23R 9G22G19
                                G21R 8R10G 3R 7
  22194888.477   116634960.775    22194897.070    90884432.4394   22194897.039  
                
  23934582.695   125777078.685    23934590.527    98008149.3854   23934590.344  
                
  19993693.781   106877784.054                    83127169.132    19993699.102  
  19993693.121  
  20327058.695   108697950.634                    84542848.010    20327063.395  
  20327058.023  
  22649014.352   121199457.089                    94266236.353    22649018.539  
  22649012.430  
  24579235.117   129164765.095    24579245.262   100647919.8734   24579245.898  
                
  21303982.578   111953232.651    21303989.430    87236346.9274   21303989.656  
                
  20543684.234   107957824.041    20543694.902    84123021.4284   20543694.359  
                
  21072163.586   112721872.410                                                  
  21072162.008  
  22582428.320   120588915.971                    93791385.163    22582431.695  
  22582427.785  
  20567922.883   108085199.743    20567927.207    84222265.6824                 
                
  24088761.344   126587300.671    24088767.336    98639475.4574                 
                
  21891359.648   115039887.327    21891366.512    89641503.8714                 
                
  20269863.648   108544231.944                    84423305.487    20269866.363  
  20269862.840  
  21507150.273   114645216.717                                                  
  21507149.250  
  20646382.297   108497499.199    20646391.539    84543561.5384   20646391.746  
                
  23628677.172   126486176.514                    98378128.585    23628683.805  
  23628675.984  
 21  8 16 13 46 50.0000000  0 17G 4G17R 1R24R17G32G31G 1R23R 9G22G19
                                G21R 8R10G 3R 7
  22190030.680   116609432.973    22190039.266    90864540.6514   22190039.223  
                
  23935872.430   125783856.259    23935880.219    98013430.6114   23935880.043  
                
  19991576.930   106866468.244                    83118367.949    19991582.254  
  19991576.262  
  20327739.164   108701589.450                    84545678.189    20327743.848  
  20327738.473  
  22642965.211   121167087.026                    94241059.640    22642969.406  
  22642963.281  
  24585305.133   129196663.149    24585315.379   100672775.4784   24585315.965  
                
  21304764.555   111957341.965    21304771.410    87239548.9914   21304771.625  
                
  20546743.523   107973900.697    20546754.168    84135548.6934   20546753.645  
                
  21078717.781   112756932.878                                                  
  21078716.207  
  22585129.406   120603339.619                    93802603.537    22585132.789  
  22585128.871  
  20567865.711   108084899.292    20567870.023    84222031.5624                 
                
  24087612.547   126581263.740    24087618.594    98634771.3514                 
                
  21895532.766   115061817.215    21895539.613    89658592.0884                 
                
  20272838.812   108560163.817                    84435696.929    20272841.547  
  20272838.020  
  21503572.719   114626146.395                                                  
  21503571.707  
  20643986.164   108484907.428    20643995.414    84533749.7714   20643995.613  
                
  23634488.109   126517282.783                    98402322.334    23634494.723  
  23634486.934  
 21  8 16 13 47  0.0000000  0 16G 4G17R 1R24R17G32G31G 1R23R 9G22G19
                                G21R 8R10G 3
  22185179.188   116583938.292    22185187.758    90844674.6764   22185187.711  
                
  23937172.766   125790689.574    23937180.621    98018755.2754   23937180.391  
                
  19989466.727   106855188.048                    83109594.474    19989472.047  
  19989466.066  
  20328437.391   108705323.173                    84548582.198    20328442.078  
  20328436.691  
  22636927.484   121134777.899                    94215930.327    22636931.645  
  22636925.555  
  24591375.820   129228564.691    24591386.148   100697633.8074   24591386.668  
                
  21305560.477   111961524.573    21305567.324    87242808.1684   21305567.539  
                
  20549814.922   107990041.024    20549825.539    84148125.5634   20549825.027  
                
  21085282.922   112792052.015                                                  
  21085281.344  
  22587845.867   120617845.352                    93813885.783    22587849.258  
  22587845.312  
  20567816.133   108084638.785    20567820.434    84221828.5694                 
                
  24086476.852   126575295.696    24086482.945    98630120.9144                 
                
  21899713.914   115083789.281    21899720.730    89675713.1644                 
                
  20275819.336   108576124.343                    84448110.683    20275822.082  
  20275818.547  
  21500009.828   114607154.292                                                  
  21500008.793  
  20641596.898   108472351.763    20641606.148    84523966.1374   20641606.355  
                
 21  8 16 13 47 10.0000000  0 16G 4G17R 1R24R17G32G31G 1R23R 9G22G19
                                G21R 8R10G 3
  22180333.562   116558474.434    22180342.094    90824832.7334   22180342.062  
                
  23938483.273   125797576.285    23938491.262    98024121.5094   23938490.930  
                
  19987362.703   106843940.803                    83100846.620    19987368.020  
  19987362.039  
  20329152.945   108709149.576                    84551558.277    20329157.637  
  20329152.273  
  22630900.695   121102527.375                    94190846.586    22630904.824  
  22630898.746  
  24597446.719   129260467.347    24597457.090   100722493.0144   24597457.562  
                
  21306369.922   111965778.221    21306376.754    87246122.7014   21306376.980  
                
  20552898.000   108006242.644    20552908.582    84160750.2004   20552908.090  
                
  21091858.555   112827227.162                                                  
  21091856.969  
  22590577.266   120632430.782                    93825230.012    22590580.645  
  22590576.699  
  20567773.727   108084415.962    20567778.020    84221654.9394                 
                
  24085353.859   126569394.331    24085360.000    98625522.4494                 
                
  21903902.641   115105801.167    21903909.418    89692865.2794                 
                
  20278804.703   108592110.818                    84460544.601    20278807.457  
  20278803.926  
  21496461.227   114588238.289                                                  
  21496460.148  
  20639214.078   108459829.961    20639223.332    84514208.8884   20639223.520  
                
 21  8 16 13 47 20.0000000  0 16G 4G17R 1R24R17G32G31G 1R23R 9G22G19
                                G21R 8R10G 3
  22175493.859   116533041.735    22175502.328    90805015.0544   22175502.328  
                
  23939803.969   125804516.551    23939812.000    98029529.5094   23939811.668  
                
  19985264.953   106832727.129                    83092124.881    19985270.250  
  19985264.297  
  20329885.859   108713068.774                    84554606.550    20329890.535  
  20329885.191  
  22624884.938   121070335.942                    94165808.830    22624889.070  
  22624883.000  
  24603517.852   129292371.358    24603528.230   100747353.2744   24603528.676  
                
  21307192.938   111970103.197    21307199.754    87249492.8154   21307199.992  
                
  20555992.766   108022505.766    20556003.309    84173422.7544   20556002.840  
                
  21098444.688   112862458.491                                                  
  21098443.098  
  22593323.594   120647096.045                    93836636.327    22593327.016  
  22593323.016  
  20567738.547   108084231.120    20567742.832    84221510.9054                 
                
  24084243.594   126563559.949    24084249.742    98620976.1974                 
                
  21908098.977   115127853.075    21908105.703    89710048.5734                 
                
  20281795.039   108608123.876                    84472999.203    20281797.789  
  20281794.293  
  21492926.961   114569398.757                                                  
  21492925.895  
  20636837.750   108447342.298    20636847.016    84504478.2424   20636847.203  
                
 21  8 16 13 47 30.0000000  0 16G 4G17R 1R24R17G32G31G 1R23R 9G22G19
                                G21R 8R10G 3
  22170660.133   116507640.339    22170668.527    90785221.7644   22170668.574  
                
  23941134.914   125811510.654    23941142.891    98034979.4634   23941142.578  
                
  19983173.492   106821547.086                    83083429.295    19983178.793  
  19983172.828  
  20330636.172   108717081.024                    84557727.186    20330640.844  
  20330635.500  
  22618880.250   121038203.818                    94140817.191    22618884.402  
  22618878.344  
  24609589.305   129324276.831    24609599.625   100772214.6854   24609600.055  
                
  21308029.547   111974499.630    21308036.355    87252918.6104   21308036.613  
                
  20559099.250   108038830.462    20559109.762    84186143.2974   20559109.305  
                
  21105041.320   112897745.933                                                  
  21105039.770  
  22596084.914   120661841.300                    93848104.856    22596088.348  
  22596084.340  
  20567710.625   108084084.399    20567714.895    84221396.5774                 
                
  24083146.078   126557792.609    24083152.219    98616482.1384                 
                
  21912302.961   115149945.113    21912309.660    89727263.1424                 
                
  20284790.312   108624163.379                    84485474.377    20284793.066  
  20284789.570  
  21489407.125   114550636.120                                                  
  21489406.043  
  20634467.969   108434888.979    20634477.242    84494774.3604   20634477.434  
                
 21  8 16 13 47 40.0000000  0 16G 4G17R 1R24R17G32G31G 1R23R 9G22G19
                                G21R 8R10G 3
  22165832.375   116482270.332    22165840.715    90765452.9324   22165840.766  
                
  23942476.086   125818558.518    23942484.031    98040471.3094   23942483.734  
                
  19981088.305   106810400.547                    83074759.772    19981093.609  
  19981087.641  
  20331403.883   108721186.309                    84560920.165    20331408.547  
  20331403.223  
  22612886.711   121006131.347                    94115871.962    22612890.910  
  22612884.789  
  24615661.023   129356183.793    24615671.316   100797077.2544   24615671.715  
                
  21308879.758   111978967.546    21308886.566    87256400.1114   21308886.832  
                
  20562217.469   108055216.783    20562227.957    84198911.8494   20562227.512  
                
  21111648.438   112933089.456                                                  
  21111646.898  
  22598861.188   120676666.469                    93859635.524    22598864.664  
  22598860.551  
  20567689.977   108083975.917    20567694.230    84221312.0464                 
                
  24082061.328   126552092.341    24082067.453    98612040.3754                 
                
  21916514.578   115172077.271    21916521.273    89744508.9594                 
                
  20287790.578   108640229.699                    84497970.397    20287793.352  
  20287789.852  
  21485901.672   114531950.199                                                  
  21485900.559  
  20632104.727   108422470.082    20632114.012    84485097.2944   20632114.191  
                
 21  8 16 13 47 50.0000000  0 16G 4G17R 1R24R17G32G31G 1R23R 9G22G19
                                G21R 8R10G 3
  22161010.656   116456932.053    22161018.973    90745708.8294   22161019.031  
                
  23943827.531   125825660.308    23943835.461    98046005.1414   23943835.176  
                
  19979009.500   106799288.116                    83066116.773    19979014.793  
  19979008.855  
  20332189.055   108725384.911                    84564185.757    20332193.711  
  20332188.402  
  22606904.430   120974118.972                    94090973.450    22606908.621  
  22606902.441  
  24621733.055   129388092.494    24621743.363   100821941.1804   24621743.719  
                
  21309743.633   111983507.221    21309750.445    87259937.5134   21309750.711  
                
  20565347.461   108071664.962    20565357.926    84211728.6074   20565357.488  
                
  21118266.062   112968489.132                                                  
  21118264.527  
  22601652.461   120691571.737                    93871228.510    22601655.980  
  22601651.785  
  20567676.688   108083906.021    20567680.926    84221257.5844                 
                
  24080989.406   126546459.532    24080995.492    98607651.1714                 
                
  21920733.898   115194249.846    21920740.602    89761786.2904                 
                
  20290795.844   108656322.687                    84510487.161    20290798.629  
  20290795.113  
  21482410.742   114513341.659                                                  
  21482409.590  
  20629748.109   108410085.975    20629757.406    84475447.3464   20629757.590  
                
 21  8 16 13 48  0.0000000  0 16G 4G17R 1R24R17G32G31G 1R23R 9G22G19
                                G21R 8R10G 3
  22156194.961   116431625.450    22156203.277    90725989.4044   22156203.336  
                
  23945189.219   125832815.905    23945197.117    98051580.9194   23945196.859  
                
  19976937.000   106788209.460                    83057500.041    19976942.266  
  19976936.383  
  20332991.664   108729676.844                    84567523.929    20332996.316  
  20332990.992  
  22600933.312   120942166.624                    94066121.645    22600937.531  
  22600931.312  
  24627805.375   129420002.798    24627815.680   100846806.3464   24627816.008  
                
  21310621.141   111988118.554    21310627.965    87263530.7594   21310628.223  
                
  20568489.188   108088174.847    20568499.633    84224593.4524   20568499.203  
                
  21124894.133   113003944.653                                                  
  21124892.609  
  22604458.750   120706557.186                    93882883.850    22604462.312  
  22604458.031  
  20567670.711   108083874.656    20567674.926    84221233.1404                 
                
  24079930.344   126540894.155    24079936.367    98603314.5344                 
                
  21924960.867   115216462.655    21924967.555    89779094.9624                 
                
  20293806.117   108672442.570                    84523024.830    20293808.891  
  20293805.383  
  21478934.328   114494810.451                                                  
  21478933.184  
  20627398.102   108397736.615    20627407.406    84465824.4654   20627407.578  
                
 21  8 16 13 48 10.0000000  0 16G 4G17R 1R24R17G32G31G 1R23R 9G22G19
                                G21R 8R10G 3
  22151385.297   116406350.572    22151393.629    90706294.7074   22151393.680  
                
  23946561.148   125840025.414    23946569.102    98057198.7134   23946568.832  
                
  19974870.875   106777164.800                    83048909.751    19974876.141  
  19974870.270  
  20333811.711   108734061.951                    84570934.563    20333816.363  
  20333811.012  
  22594973.469   120910274.496                    94041316.658    22594977.699  
  22594971.461  
  24633878.008   129451914.741    24633888.301   100871672.7764   24633888.629  
                
  21311512.281   111992801.564    21311519.121    87267179.8604   21311519.371  
                
  20571642.664   108104746.452    20571653.078    84237506.3794   20571652.680  
                
  21131532.656   113039456.132                                                  
  21131531.125  
  22607280.023   120721622.670                    93894601.455    22607283.613  
  22607279.262  
  20567672.094   108083881.918    20567676.293    84221238.8024                 
                
  24078884.133   126535396.256    24078890.129    98599030.4674                 
                
  21929195.484   115238715.663    21929202.148    89796434.9624                 
                
  20296821.383   108688589.173                    84535583.300    20296824.156  
  20296820.645  
  21475472.445   114476356.758                                                  
  21475471.297  
  20625054.727   108385422.081    20625064.027    84456228.7324   20625064.199  
                
 21  8 16 13 48 20.0000000  0 16G 4G17R 1R24R17G32G31G 1R23R 9G22G19
                                G21R 8R10G 3
  22146581.656   116381107.364    22146590.008    90686624.6934   22146590.047  
                
  23947943.289   125847288.630    23947951.383    98062858.3244   23947951.070  
                
  19972811.070   106766153.953                    83040345.776    19972816.344  
  19972810.469  
  20334649.133   108738540.082                    84574417.537    20334653.793  
  20334648.410  
  22589024.898   120878442.750                    94016558.649    22589029.160  
  22589022.867  
  24639950.891   129483828.136    24639961.172   100896540.3114   24639961.527  
                
  21312417.055   111997556.184    21312423.914    87270884.7704   21312424.156  
                
  20574807.859   108121379.621    20574818.254    84250467.2904   20574817.863  
                
  21138181.539   113075023.153                                                  
  21138180.016  
  22610116.242   120736767.994                    93906381.139    22610119.875  
  22610115.457  
  20567680.789   108083927.635    20567684.977    84221274.4284                 
                
  24077850.727   126529965.654    24077856.766    98594798.8374                 
                
  21933437.734   115261008.771    21933444.422    89813806.2174                 
                
  20299841.625   108704762.471                    84548162.542    20299844.391  
  20299840.887  
  21472025.078   114457980.440                                                  
  21472023.934  
  20622717.953   108373142.333    20622727.250    84446660.0974   20622727.418  
                
 21  8 16 13 48 30.0000000  0 16G 4G17R 1R24R17G32G31G 1R23R 9G22G19
                                G21R 8R10G 3
  22141784.055   116355895.895    22141792.402    90666979.4004   22141792.453  
                
  23949335.664   125854605.530    23949343.840    98068559.8074   23949343.465  
                
  19970757.570   106755176.819                    83031808.015    19970762.820  
  19970756.977  
  20335504.000   108743111.465                    84577973.055    20335508.656  
  20335503.305  
  22583087.664   120846671.600                    93991847.759    22583091.977  
  22583085.594  
  24646024.086   129515743.022    24646034.363   100921408.9974   24646034.742  
                
  21313335.445   112002382.355    21313342.320    87274645.4234   21313342.555  
                
  20577984.758   108138074.342    20577995.141    84263476.1604   20577994.750  
                
  21144840.797   113110645.688                                                  
  21144839.262  
  22612967.438   120751993.285                    93918223.003    22612971.094  
  22612966.633  
  20567696.820   108084011.886    20567701.000    84221340.0764                 
                
  24076830.133   126524602.381    24076836.219    98590619.6644                 
                
  21937687.625   115283342.055    21937694.336    89831208.7604                 
                
  20302866.828   108720962.233                    84560762.351    20302869.590  
  20302866.086  
  21468592.289   114439681.841                                                  
  21468591.160  
  20620387.828   108360897.436    20620397.117    84437118.6194   20620397.289  
                
 21  8 16 13 48 40.0000000  0 16G 4G17R 1R24R17G32G31G 1R23R 9G22G19
                                G21R 8R10G 3
  22136992.539   116330716.316    22137000.910    90647358.9694   22137000.941  
                
  23950738.281   125861976.240    23950746.426    98074303.2354   23950746.066  
                
  19968710.453   106744233.793                    83023296.774    19968715.676  
  19968709.848  
  20336376.297   108747775.968                    84581600.998    20336380.938  
  20336375.617  
  22577161.797   120814961.271                    93967184.189    22577166.145  
  22577159.684  
  24652097.570   129547659.491    24652107.875   100946278.9384   24652108.254  
                
  21314267.461   112007280.142    21314274.367    87278461.8874   21314274.590  
                
  20581173.398   108154830.700    20581183.777    84276533.0544   20581183.383  
                
  21151510.422   113146323.655                                                  
  21151508.859  
  22615833.594   120767298.319                    93930126.933    22615837.285  
  22615832.816  
  20567720.211   108084134.785    20567724.387    84221435.8434                 
                
  24075822.383   126519306.621    24075828.543    98586493.1004                 
                
  21941945.164   115305715.453    21941951.871    89848642.5664                 
                
  20305897.055   108737188.916                    84573383.096    20305899.805  
  20305896.312  
  21465174.156   114421461.270                                                  
  21465173.051  
  20618064.367   108348687.577    20618073.648    84427604.4494   20618073.828  
                
 21  8 16 13 48 50.0000000  0 16G 4G17R 1R24R17G32G31G 1R23R 9G22G19
                                G21R 8R10G 3
  22132207.039   116305568.443    22132215.434    90627763.2344   22132215.441  
                
  23952151.078   125869400.551    23952159.133    98080088.4044   23952158.844  
                
  19966669.609   106733324.355                    83014811.650    19966674.824  
  19966668.984  
  20337265.977   108752533.485                    84585301.302    20337270.609  
  20337265.289  
  22571247.273   120783311.651                    93942567.827    22571251.648  
  22571245.121  
  24658171.281   129579577.205    24658181.629   100971149.8634   24658182.031  
                
  21315213.070   112012249.421    21315220.004    87282334.0574   21315220.215  
                
  20584373.695   108171648.382    20584384.082    84289637.7424   20584383.688  
                
  21158190.312   113182056.578                                                  
  21158188.746  
  22618714.641   120782683.012                    93942092.802    22618718.344  
  22618713.926  
  20567750.914   108084296.156    20567755.090    84221561.5824                 
                
  24074827.438   126514078.193    24074833.652    98582418.9794                 
                
  21946210.250   115328128.612    21946216.961    89866107.3634                 
                
  20308932.156   108753441.778                    84586024.205    20308934.918  
  20308931.434  
  21461770.562   114403318.297                                                  
  21461769.465  
  20615747.531   108336512.548    20615756.785    84418117.4134   20615756.969  
                
 21  8 16 13 49  0.0000000  0 16G 4G17R 1R24R17G32G31G 1R23R 9G22G19
                                G21R 8R10G 3
  22127427.617   116280452.443    22127436.035    90608192.3354   22127436.012  
                
  23953574.102   125876878.536    23953582.160    98085915.4074   23953581.879  
                
  19964635.109   106722448.813                    83006352.900    19964640.320  
  19964634.504  
  20338173.070   108757384.103                    84589073.997    20338177.699  
  20338172.367  
  22565344.133   120751722.973                    93917998.873    22565348.527  
  22565341.977  
  24664245.242   129611496.319    24664255.648   100996021.8754   24664256.062  
                
  21316172.297   112017290.193    21316179.273    87286261.9394   21316179.469  
                
  20587585.695   108188527.516    20587596.098    84302790.3124   20587595.699  
                
  21164880.500   113217844.613                                                  
  21164878.922  
  22621610.633   120798147.333                    93954120.603    22621614.328  
  22621609.918  
  20567788.992   108084496.244    20567793.164    84221717.4974                 
                
  24073845.359   126508917.263    24073851.574    98578397.4814                 
                
  21950482.938   115350581.694    21950489.672    89883603.2554                 
                
  20311972.281   108769721.462                    84598686.194    20311975.066  
  20311971.543  
  21458381.664   114385253.614                                                  
  21458380.551  
  20613437.375   108324372.570    20613446.605    84408657.6974   20613446.809  
                
 21  8 16 13 49 10.0000000  0 16G 4G17R 1R24R17G32G31G 1R23R 9G22G19
                                G21R 8R10G 3
  22122654.242   116255368.280    22122662.664    90588646.2554   22122662.617  
                
  23955007.281   125884409.914    23955015.426    98091784.0084   23955015.117  
                
  19962606.945   106711607.136                    82997920.493    19962612.145  
  19962606.336  
  20339097.539   108762327.665                    84592918.988    20339102.160  
  20339096.840  
  22559452.438   120720195.443                    93893477.449    22559456.828  
  22559450.254  
  24670319.500   129643416.728    24670329.938   101020894.9114   24670330.375  
                
  21317145.141   112022402.534    21317152.152    87290245.5874   21317152.328  
                
  20590809.359   108205467.979    20590819.785    84315990.6664   20590819.379  
                
  21171580.922   113253687.384                                                  
  21171579.348  
  22624521.547   120813691.428                    93966210.454    22624525.227  
  22624520.832  
  20567834.406   108084734.929    20567838.582    84221903.4804                 
                
  24072876.109   126503823.738    24072882.336    98574428.5144                 
                
  21954763.172   115373074.463    21954769.922    89901130.0734                 
                
  20315017.336   108786027.599                    84611368.732    20315020.141  
  20315016.602  
  21455007.383   114367266.950                                                  
  21455006.266  
  20611133.875   108312267.599    20611143.086    84399225.2534   20611143.293  
                
 21  8 16 13 49 20.0000000  0 16G 4G17R 1R24R17G32G31G 1R23R 9G22G19
                                G21R 8R10G 3
  22117886.953   116230315.992    22117895.367    90569125.0024   22117895.316  
                
  23956450.625   125891994.637    23956458.848    98097694.1754   23956458.523  
                
  19960585.141   106700799.360                    82989514.434    19960590.336  
  19960584.535  
  20340039.406   108767364.245                    84596836.323    20340044.047  
  20340038.684  
  22553572.203   120688729.158                    93869003.669    22553576.609  
  22553570.039  
  24676394.023   129675338.387    24676404.508   101045768.9154   24676404.938  
                
  21318131.570   112027586.277    21318138.617    87294284.8674   21318138.777  
                
  20594044.695   108222469.727    20594055.164    84329238.7794   20594054.742  
                
  21178291.586   113289584.869                                                  
  21178290.004  
  22627447.305   120829314.751                    93978361.940    22627450.980  
  22627446.645  
  20567887.195   108085012.339    20567891.379    84222119.6454                 
                
  24071919.695   126498797.660    24071925.930    98570512.1204                 
                
  21959050.992   115395606.995    21959057.715    89918687.8924                 
                
  20318067.312   108802360.087                    84624071.764    20318070.133  
  20318066.574  
  21451647.797   114349358.537                                                  
  21451646.645  
  20608837.055   108300197.715    20608846.258    84389820.1524   20608846.469  
                
 21  8 16 13 49 30.0000000  0 16G 4G17R 1R24R17G32G31G 1R23R 9G22G19
                                G21R 8R10G 3
  22113125.719   116205295.560    22113134.090    90549628.5654   22113134.047  
                
  23957904.102   125899632.688    23957912.281    98103645.8924   23957912.008  
                
  19958569.633   106690025.327                    82981134.641    19958574.828  
  19958569.020  
  20340998.680   108772493.860                    84600826.004    20341003.320  
  20340997.965  
  22547703.422   120657324.158                    93844577.577    22547707.832  
  22547701.348  
  24682468.766   129707261.178    24682479.297   101070643.8084   24682479.684  
                
  21319131.562   112032841.323    21319138.625    87298379.7134   21319138.777  
                
  20597291.664   108239532.661    20597302.180    84342534.5574   20597301.742  
                
  21185012.406   113325536.673                                                  
  21185010.844  
  22630387.953   120845017.594                    93990575.251    22630391.594  
  22630387.297  
  20567947.336   108085328.397    20567951.527    84222365.9204                 
                
  24070976.117   126493839.055    24070982.352    98566648.2534                 
                
  21963346.344   115418179.150    21963353.047    89936276.5844                 
                
  20321122.242   108818719.116                    84636795.465    20321125.082  
  20321121.520  
  21448302.875   114331528.330                                                  
  21448301.715  
  20606546.898   108288162.886    20606556.098    84380442.3704   20606556.320  
                
 21  8 16 13 49 40.0000000  0 16G 4G17R 1R24R17G32G31G 1R23R 9G22G19
                                G21R 8R10G 3
  22108370.562   116180306.992    22108378.859    90530156.9624   22108378.855  
                
  23959367.719   125907324.030    23959375.820    98109639.1424   23959375.609  
                
  19956560.453   106679285.121                    82972781.150    19956565.656  
  19956559.844  
  20341975.312   108777716.296                    84604887.895    20341979.953  
  20341974.648  
  22541846.172   120625980.697                    93820199.327    22541850.578  
  22541844.168  
  24688543.727   129739185.083    24688554.285   101095519.5754   24688554.656  
                
  21320145.141   112038167.712    21320152.203    87302530.1454   21320152.363  
                
  20600550.266   108256656.690    20600560.836    84355877.9564   20600560.371  
                
  21191743.398   113361542.753                                                  
  21191741.824  
  22633343.445   120860799.642                    94002850.170    22633347.066  
  22633342.766  
  20568014.836   108085683.108    20568019.035    84222642.3194                 
                
  24070045.352   126488947.827    24070051.594    98562836.9054                 
                
  21967649.227   115440790.899    21967655.918    89953896.1184                 
                
  20324182.078   108835104.409                    84649539.569    20324184.941  
  20324181.355  
  21444972.703   114313776.673                                                  
  21444971.566  
  20604263.430   108276163.161    20604272.633    84371091.9364   20604272.848  
                
 21  8 16 13 49 50.0000000  0 16G 4G17R 1R24R17G32G31G 1R23R 9G22G19
                                G21R 8R10G 3
  22103621.469   116155350.390    22103629.727    90510710.2594   22103629.734  
                
  23960841.484   125915068.654    23960849.590    98115673.9244   23960849.391  
                
  19954557.586   106668578.682                    82964453.931    19954562.797  
  19954556.980  
  20342969.312   108783031.599                    84609022.020    20342973.957  
  20342968.676  
  22536000.453   120594698.876                    93795869.043    22536004.832  
  22535998.484  
  24694618.914   129771110.129    24694629.461   101120396.2244   24694629.836  
                
  21321172.289   112043565.466    21321179.352    87306736.1914   21321179.531  
                
  20603820.500   108273841.872    20603831.125    84369268.9934   20603830.641  
                
  21198484.477   113397602.965                                                  
  21198482.859  
  22636313.773   120876660.986                    94015186.769    22636317.395  
  22636313.113  
  20568089.703   108086076.553    20568093.906    84222948.9034                 
                
  24069127.406   126484124.060    24069133.676    98559078.1334                 
                
  21971959.625   115463442.186    21971966.309    89971546.4564                 
                
  20327246.875   108851516.236                    84662304.315    20327249.742  
  20327246.152  
  21441657.258   114296103.525                                                  
  21441656.141  
  20601986.656   108264198.638    20601995.867    84361768.9364   20601996.082  
                
 21  8 16 13 50  0.0000000  0 16G 4G17R 1R24R17G32G31G 1R23R 9G22G19
                                G21R 8R10G 3
  22098878.484   116130425.893    22098886.730    90491288.5824   22098886.719  
                
  23962325.398   125922866.677    23962333.594    98121750.2734   23962333.348  
                
  19952561.109   106657906.335                    82956153.226    19952566.324  
  19952560.492  
  20343980.719   108788440.021                    84613228.571    20343985.367  
  20343980.105  
  22530166.312   120563479.042                    93771586.965    22530170.645  
  22530164.383  
  24700694.297   129803036.416    24700704.863   101145273.8474   24700705.234  
                
  21322213.055   112049034.735    21322220.121    87310997.9684   21322220.309  
                
  20607102.383   108291088.235    20607113.062    84382707.7124   20607112.547  
                
  21205235.672   113433717.342                                                  
  21205234.039  
  22639298.961   120892601.696                    94027585.094    22639302.559  
  22639298.312  
  20568171.977   108086508.928    20568176.180    84223285.8164                 
                
  24068222.328   126479367.869    24068228.637    98555372.0114                 
                
  21976277.570   115486133.117    21976284.250    89989227.6934                 
                
  20330316.594   108867954.382                    84675089.538    20330319.473  
  20330315.883  
  21438356.586   114278509.134                                                  
  21438355.488  
  20599716.617   108252269.485    20599725.840    84352473.4954   20599726.047  
                
 21  8 16 13 50 10.0000000  0 16G 4G17R 1R24R17G32G31G 1R23R 9G22G19
                                G21R 8R10G 3
  22094141.578   116105533.333    22094149.809    90471891.7954   22094149.785  
                
  23963819.422   125930717.852    23963827.668    98127868.0644   23963827.391  
                
  19950570.914   106647267.595                    82947878.660    19950576.102  
  19950570.289  
  20345009.453   108793941.102                    84617507.181    20345014.094  
  20345008.836  
  22524343.750   120532321.204                    93747353.102    22524348.039  
  22524341.844  
  24706769.883   129834963.694    24706780.484   101170152.2414   24706780.863  
                
  21323267.375   112054575.282    21323274.461    87315315.2734   21323274.633  
                
  20610395.859   108308395.534    20610406.594    84396193.9124   20610406.043  
                
  21211996.930   113469885.454                                                  
  21211995.270  
  22642298.961   120908621.487                    94040044.921    22642302.512  
  22642298.309  
  20568261.633   108086980.031    20568265.824    84223652.9094                 
                
  24067330.070   126474679.008    24067336.398    98551718.3594                 
                
  21980603.016   115508863.459    21980609.691    90006939.6384                 
                
  20333391.242   108884418.976                    84687895.326    20333394.129  
  20333390.531  
  21435070.750   114260993.829                                                  
  21435069.656  
  20597453.281   108240375.557    20597462.520    84343205.4994   20597462.711  
                
 21  8 16 13 50 20.0000000  0 16G 4G17R 1R24R17G32G31G 1R23R 9G22G19
                                G21R 8R10G 3
  22089410.781   116080672.878    22089419.004    90452520.0204   22089418.984  
                
  23965323.562   125938622.197    23965331.801    98134027.2994   23965331.555  
                
  19948587.070   106636662.820                    82939630.499    19948592.254  
  19948586.449  
  20346055.539   108799535.031                    84621858.018    20346060.176  
  20346054.902  
  22518532.758   120501225.450                    93723167.527    22518537.043  
  22518530.840  
  24712845.664   129866892.033    24712856.336   101195031.4564   24712856.656  
                
  21324335.266   112060187.143    21324342.387    87319688.1604   21324342.543  
                
  20613700.938   108325763.852    20613711.719    84409727.6624   20613711.152  
                
  21218768.227   113506107.235                                                  
  21218766.543  
  22645313.781   120924720.382                    94052566.315    22645317.254  
  22645313.137  
  20568358.672   108087490.032    20568362.848    84224050.3134                 
                
  24066450.648   126470057.680    24066456.961    98548117.3284                 
                
  21984935.977   115531633.309    21984942.668    90024682.3694                 
                
  20336470.805   108900909.912                    84700721.614    20336473.695  
  20336470.102  
  21431799.711   114243557.355                                                  
  21431798.629  
  20595196.664   108228517.005    20595205.918    84333965.0704   20595206.113  
                
 21  8 16 13 50 30.0000000  0 16G 4G17R 1R24R17G32G31G 1R23R 9G22G19
                                G21R 8R10G 3
  22084686.109   116055844.578    22084694.320    90433173.3024   22084694.297  
                
  23966837.836   125946579.737    23966846.074    98140227.9824   23966845.863  
                
  19946609.578   106626091.999                    82931408.746    19946614.766  
  19946608.953  
  20347119.023   108805221.911                    84626281.133    20347123.664  
  20347118.383  
  22512733.430   120470192.159                    93699030.527    22512737.730  
  22512731.535  
  24718921.648   129898821.462    24718932.379   101219911.5274   24718932.656  
                
  21325416.742   112065870.361    21325423.883    87324116.6404   21325424.027  
                
  20617017.648   108343193.191    20617028.457    84423308.9564   20617027.875  
                
  21225549.555   113542382.603                                                  
  21225547.863  
  22648343.414   120940898.334                    94065149.186    22648346.820  
  22648342.820  
  20568463.133   108088038.947    20568467.297    84224478.0384                 
                
  24065584.094   126465503.912    24065590.383    98544568.9424                 
                
  21989276.445   115554442.588    21989283.133    90042455.8304                 
                
  20339555.289   108917427.139                    84713568.326    20339558.188  
  20339554.582  
  21428543.516   114226200.042                                                  
  21428542.426  
  20592946.820   108216693.940    20592956.090    84324752.2934   20592956.273  
                
 21  8 16 13 50 40.0000000  0 15G 4G17R 1R24R17G31G 1R23R 9G22G19G21
                                R 8R10G 3
  22079967.695   116031049.157    22079975.879    90413852.2104   22079975.863  
                
  23968362.352   125954591.139    23968370.605    98146470.6094   23968370.395  
                
  19944638.555   106615555.761                    82923213.905    19944643.766  
  19944637.922  
  20348199.992   108811002.331                    84630777.019    20348204.629  
  20348199.355  
  22506945.906   120439222.018                    93674942.631    22506950.191  
  22506944.020  
  21326511.938   112071625.652    21326519.090    87328601.2814   21326519.227  
                
  20620346.070   108360684.143    20620356.887    84436938.2634   20620356.305  
                
  21232340.969   113578712.032                                                  
  21232339.262  
  22651387.977   120957156.048                    94077794.076    22651391.297  
  22651387.406  
  20568575.125   108088627.507    20568579.277    84224936.6534                 
                
  24064730.531   126461018.467    24064736.840    98541073.7744                 
                
  21993624.547   115577291.907    21993631.195    90060260.4904                 
                
  20342644.828   108933971.426                    84726436.118    20342647.727  
  20342644.125  
  21425302.320   114208922.698                                                  
  21425301.238  
  20590703.852   108204907.067    20590713.137    84315567.7164   20590713.316  
                
 21  8 16 13 50 50.0000000  0 15G 4G17R 1R24R17G31G 1R23R 9G22G19G21
                                R 8R10G 3
  22075255.281   116006285.283    22075263.434    90394555.6824   22075263.426  
                
  23969896.852   125962654.953    23969905.129    98152754.1094   23969904.895  
                
  19942673.781   106605052.910                    82915045.023    19942678.992  
  19942673.148  
  20349298.180   108816874.774                    84635344.463    20349302.816  
  20349297.570  
  22501169.961   120408313.907                    93650902.999    22501174.250  
  22501168.094  
  21327620.562   112077451.588    21327627.727    87333140.9784   21327627.863  
                
  20623685.945   108378235.305    20623696.762    84450614.4924   20623696.191  
                
  21239142.242   113615094.170                                                  
  21239140.543  
  22654447.188   120973491.994                    94090499.844    22654450.430  
  22654446.629  
  20568694.406   108089254.342    20568698.551    84225425.0964                 
                
  24063889.703   126456599.937    24063896.055    98537630.7534                 
                
  21997979.984   115600179.818    21997986.617    90078095.2244                 
                
  20345739.141   108950541.334                    84739323.802    20345742.035  
  20345738.441  
  21422075.922   114191724.119                                                  
  21422074.855  
  20588467.523   108193155.095    20588476.816    84306410.3404   20588476.988  
                
 21  8 16 13 51  0.0000000  0 15G 4G17R 1R24R17G31G 1R23R 9G22G19G21
                                R 8R10G 3
  22070548.930   115981553.302    22070557.078    90375284.0294   22070557.070  
                
  23971441.375   125970771.471    23971449.672    98159078.6554   23971449.422  
                
  19940715.297   106594583.705                    82906902.312    19940720.520  
  19940714.660  
  20350413.648   108822839.694                    84639983.841    20350418.285  
  20350413.078  
  22495405.695   120377468.271                    93626911.950    22495410.000  
  22495403.840  
  21328742.711   112083348.511    21328749.887    87337735.9864   21328750.016  
                
  20627037.336   108395846.982    20627048.156    84464337.8614   20627047.594  
                
  21245953.367   113651528.973                                                  
  21245951.691  
  22657521.109   120989906.526                    94103266.676    22657524.293  
  22657520.531  
  20568821.055   108089919.886    20568825.195    84225943.6994                 
                
  24063061.664   126452248.694    24063068.051    98534240.1404                 
                
  22002342.828   115623106.688    22002349.457    90095960.3084                 
                
  20348838.297   108967137.173                    84752231.692    20348841.184  
  20348837.617  
  21418864.336   114174604.624                                                  
  21418863.285  
  20586237.906   108181438.389    20586247.215    84297280.4434   20586247.383  
                
 21  8 16 13 51 10.0000000  0 15G 4G17R 1R24R17G31G 1R23R 9G22G19G21
                                R 8R10G 3
  22065848.727   115956853.577    22065856.883    90356037.5064   22065856.863  
                
  23972995.977   125978940.929    23973004.301    98165444.4444   23973004.051  
                
  19938763.133   106584148.284                    82898785.873    19938768.359  
  19938762.492  
  20351546.484   108828897.378                    84644695.357    20351551.141  
  20351545.941  
  22489653.164   120346685.435                    93602969.756    22489657.488  
  22489651.309  
  21329878.398   112089316.628    21329885.590    87342386.4724   21329885.723  
                
  20630400.297   108413519.419    20630411.125    84478108.5864   20630410.555  
                
  21252774.375   113688016.738                                                  
  21252772.707  
  22660609.750   121006399.695                    94116094.678    22660612.930  
  22660609.172  
  20568955.125   108090624.413    20568959.266    84226492.6824                 
                
  24062246.484   126447964.960    24062252.848    98530902.1574                 
                
  22006713.141   115646072.744    22006719.762    90113855.9254                 
                
  20351942.336   108983759.142                    84765159.887    20351945.219  
  20351941.664  
  21415667.648   114157564.482                                                  
  21415666.621  
  20584015.070   108169757.311    20584024.379    84288178.3024   20584024.547  
                
 21  8 16 13 51 20.0000000  0 15G 4G17R 1R24R17G31G 1R23R 9G22G19G21
                                R 8R10G 3
  22061154.602   115932185.860    22061162.766    90336815.9114   22061162.727  
                
  23974560.594   125987163.000    23974568.945    98171851.2584   23974568.676  
                
  19936817.281   106573746.592                    82890695.668    19936822.504  
  19936816.656  
  20352696.602   108835047.491                    84649478.791    20352701.273  
  20352696.059  
  22483912.398   120315965.499                    93579076.492    22483916.703  
  22483910.512  
  21331027.586   112095355.697    21331034.805    87347092.2344   21331034.926  
                
  20633774.750   108431252.254    20633785.590    84491926.3724   20633785.000  
                
  21259605.219   113724557.061                                                  
  21259603.551  
  22663713.109   121022971.387                    94128983.759    22663716.281  
  22663712.504  
  20569096.570   108091367.739    20569100.723    84227071.8914                 
                
  24061444.141   126443748.653    24061450.441    98527616.7164                 
                
  22011090.812   115669077.500    22011097.418    90131781.7134                 
                
  20355051.242   109000407.169                    84778108.351    20355054.125  
  20355050.574  
  21412485.859   114140603.760                                                  
  21412484.855  
  20581798.969   108158111.624    20581808.277    84279103.7444   20581808.453  
                
 21  8 16 13 51 30.0000000  0 15G 4G17R 1R24R17G31G 1R23R 9G22G19G21
                                R 8R10G 3
  22056466.625   115907550.400    22056474.816    90317619.4574   22056474.773  
                
  23976135.273   125995437.953    23976143.629    98178299.2634   23976143.355  
                
  19934877.758   106563378.705                    82882631.764    19934882.996  
  19934877.141  
  20353864.016   108841290.175                    84654334.203    20353868.699  
  20353863.434  
  22478183.461   120285308.779                    93555232.381    22478187.754  
  22478181.566  
  21332190.320   112101465.900    21332197.570    87351853.4374   21332197.664  
                
  20637160.742   108449045.730    20637171.586    84505791.4074   20637170.988  
                
  21266445.883   113761149.843                                                  
  21266444.223  
  22666831.180   121039621.640                    94141933.974    22666834.324  
  22666830.574  
  20569245.453   108092150.101    20569249.629    84227681.5304                 
                
  24060654.664   126439599.918    24060660.855    98524383.9364                 
                
  22015475.914   115692121.300    22015482.520    90149737.9034                 
                
  20358165.070   109017081.549                    84791077.315    20358167.945  
  20358164.406  
  21409319.070   114123722.979                                                  
  21409318.055  
  20579589.656   108146501.607    20579598.965    84270056.9814   20579599.137  
                
 21  8 16 13 51 40.0000000  0 15G 4G17R 1R24R17G31G 1R23R 9G22G19G21
                                R 8R10G 3
  22051784.766   115882947.158    22051793.027    90298448.1134   22051792.941  
                
  23977719.984   126003765.583    23977728.281    98184788.3214   23977728.031  
                
  19932944.539   106553044.619                    82874594.146    19932949.797  
  19932943.914  
  20355048.719   108847625.340                    84659261.547    20355053.391  
  20355048.109  
  22472466.328   120254715.211                    93531437.386    22472470.629  
  22472464.438  
  21333366.562   112107647.154    21333373.836    87356670.0004   21333373.906  
                
  20640558.234   108466899.657    20640569.090    84519703.5554   20640568.496  
                
  21273296.312   113797794.947                                                  
  21273294.637  
  22669963.953   121056350.389                    94154945.217    22669967.059  
  22669963.352  
  20569401.750   108092971.482    20569405.945    84228321.5624                 
                
  24059878.016   126435518.605    24059884.102    98521203.7304                 
                
  22019868.422   115715204.057    22019875.035    90167724.4604                 
                
  20361283.688   109033781.637                    84804066.248    20361286.562  
  20361283.004  
  21406167.227   114106921.897                                                  
  21406166.219  
  20577387.125   108134927.230    20577396.430    84261037.9864   20577396.602  
                
 21  8 16 13 51 50.0000000  0 15G 4G17R 1R24R17G31G 1R23R 9G22G19G21
                                R 8R10G 3
  22047109.055   115858376.174    22047117.359    90279301.9144   22047117.246  
                
  23979314.719   126012145.895    23979322.996    98191318.4444   23979322.777  
                
  19931017.656   106542744.319                    82866582.804    19931022.926  
  19931017.043  
  20356250.703   108854052.896                    84664260.750    20356255.359  
  20356250.066  
  22466761.047   120224185.123                    93507691.786    22466765.402  
  22466759.172  
  21334556.344   112113899.473    21334563.625    87361541.9374   21334563.695  
                
  20643967.234   108484814.042    20643978.113    84533662.8254   20643977.496  
                
  21280156.492   113834492.236                                                  
  21280154.812  
  22673111.406   121073157.501                    94168017.410    22673114.504  
  22673110.793  
  20569565.500   108093831.983    20569569.719    84228992.0804                 
                
  24059114.219   126431504.778    24059120.219    98518076.0994                 
                
  22024268.305   115738325.547    22024274.930    90185741.2064                 
                
  20364407.180   109050507.789                    84817075.483    20364410.039  
  20364406.496  
  21403030.391   114090200.840                                                  
  21403029.371  
  20575191.391   108123388.565    20575200.691    84252046.8154   20575200.875  
                
 21  8 16 13 52  0.0000000  0 15G 4G17R 1R24R17G31G 1R23R 9G22G19G21
                                R 8R10G 3
  22042439.508   115833837.550    22042447.820    90260180.9174   22042447.695  
                
  23980919.461   126020578.813    23980927.730    98197889.5334   23980927.539  
                
  19929097.125   106532477.965                    82858597.874    19929102.398  
  19929096.508  
  20357469.992   108860573.008                    84669331.947    20357474.621  
  20357469.363  
  22461067.664   120193718.677                    93483995.649    22461072.016  
  22461065.801  
  21335759.641   112120222.883    21335766.914    87366469.2734   21335766.988  
                
  20647387.734   108502788.841    20647398.613    84547669.1534   20647397.992  
                
  21287026.422   113871241.612                                                  
  21287024.746  
  22676273.508   121090042.878                    94181150.481    22676276.617  
  22676272.902  
  20569736.672   108094731.503    20569740.914    84229692.9984                 
                
  24058363.297   126427558.591    24058369.195    98515001.1524                 
                
  22028675.570   115761485.824    22028682.219    90203788.1704                 
                
  20367535.531   109067259.938                    84830104.934    20367538.383  
  20367534.832  
  21399908.578   114073559.810                                                  
  21399907.590  
  20573002.469   108111885.698    20573011.762    84243083.5474   20573011.953  
                
 21  8 16 13 52 10.0000000  0 15G 4G17R 1R24R17G31G 1R23R 9G22G19G21
                                R 8R10G 3
  22037776.109   115809331.247    22037784.418    90241085.1084   22037784.285  
                
  23982534.203   126029064.263    23982542.488    98204501.5654   23982542.305  
                
  19927182.906   106522245.382                    82850639.205    19927188.168  
  19927182.301  
  20358706.594   108867185.640                    84674475.113    20358711.219  
  20358705.977  
  22455386.172   120163315.842                    93460349.006    22455390.500  
  22455384.336  
  21336976.453   112126617.270    21336983.707    87371451.9224   21336983.789  
                
  20650819.703   108520823.956    20650830.578    84561722.4874   20650829.941  
                
  21293906.039   113908042.815                                                  
  21293904.387  
  22679450.250   121107006.442                    94194344.343    22679453.352  
  22679449.637  
  20569915.273   108095670.074    20569919.543    84230424.3534                 
                
  24057625.219   126423679.910    24057631.066    98511978.7974                 
                
  22033090.180   115784684.753    22033096.859    90221865.2324                 
                
  20370668.766   109084038.203                    84843154.677    20370671.625  
  20370668.055  
  21396801.789   114056998.849                                                  
  21396800.848  
  20570820.359   108100418.641    20570829.645    84234148.1724   20570829.828  
                
 21  8 16 13 52 20.0000000  0 15G 4G17R 1R24R17G31G 1R23R 9G22G19G21
                                R 8R10G 3
  22033119.039   115784858.212    22033127.348    90222015.2144   22033127.215  
                
  23984159.102   126037603.098    23984167.391    98211155.1944   23984167.219  
                
  19925275.195   106512047.583                    82842707.587    19925280.453  
  19925274.574  
  20359960.633   108873891.461                    84679690.750    20359965.262  
  20359960.020  
  22449716.781   120132977.797                    93436752.770    22449721.098  
  22449714.965  
  21338206.930   112133083.516    21338214.152    87376490.5574   21338214.250  
                
  20654263.320   108538920.272    20654274.156    84575823.5044   20654273.539  
                
  21300795.484   113944896.597                                                  
  21300793.840  
  22682641.812   121124049.189                    94207599.821    22682644.918  
  22682641.188  
  20570101.492   108096648.696    20570105.781    84231186.9124                 
                
  24056900.141   126419869.590    24056905.996    98509009.7164                 
                
  22037512.312   115807923.206    22037519.004    90239973.1174                 
                
  20373807.008   109100843.315                    84856225.323    20373809.863  
  20373806.285  
  21393710.195   114040518.960                                                  
  21393709.281  
  20568645.234   108088988.313    20568654.504    84225241.4274   20568654.699  
                
 21  8 16 13 52 30.0000000  0 15G 4G17R 1R24R17G31G 1R23R 9G22G19G21
                                R 8R10G 3
  22028467.844   115760416.011    22028476.168    90202969.3634   22028476.023  
                
  23985793.680   126046192.800    23985801.922    98217848.4554   23985801.781  
                
  19923373.523   106501882.094                    82834801.094    19923378.777  
  19923372.883  
  20361231.648   108880688.134                    84684977.045    20361236.293  
  20361231.039  
  22444059.062   120102702.261                    93413205.143    22444063.387  
  22444057.297  
  21339450.625   112139619.181    21339457.828    87381583.2904   21339457.926  
                
  20657718.102   108557075.273    20657728.887    84589970.2464   20657728.309  
                
  21307694.281   113981800.354                                                  
  21307692.641  
  22685847.695   121141168.391                    94220914.725    22685850.809  
  22685847.043  
  20570294.875   108097664.909    20570299.176    84231978.7634                 
                
  24056187.633   126416125.227    24056193.570    98506092.0234                 
                
  22041941.516   115831198.803    22041948.227    90258109.9294                 
                
  20376949.805   109117672.784                    84869314.887    20376952.660  
  20376949.102  
  21390633.367   114024117.743                                                  
  21390632.434  
  20566476.656   108077592.370    20566485.906    84216361.4734   20566486.113  
                
 21  8 16 13 52 40.0000000  0 15G 4G17R 1R24R17G31G 1R23R 9G22G19G21
                                R 8R10G 3
  22023822.914   115736006.743    22023831.254    90183949.1624   22023831.086  
                
  23987438.344   126054835.456    23987446.551    98224582.9964   23987446.410  
                
  19921478.266   106491750.907                    82826921.284    19921483.496  
  19921477.602  
  20362520.047   108887577.779                    84690335.655    20362524.723  
  20362519.414  
  22438413.430   120072491.259                    93389707.705    22438417.719  
  22438411.652  
  21340707.914   112146226.292    21340715.094    87386731.6864   21340715.195  
                
  20661184.430   108575290.940    20661195.184    84604164.2694   20661194.621  
                
  21314602.766   114018756.052                                                  
  21314601.113  
  22689068.266   121158366.065                    94234290.711    22689071.414  
  22689067.629  
  20570495.781   108098720.709    20570500.098    84232801.4674                 
                
  24055488.047   126412448.873    24055494.082    98503227.3394                 
                
  22046378.148   115854513.500    22046384.902    90276277.2104                 
                
  20380097.547   109134528.707                    84882425.048    20380100.379  
  20380096.867  
  21387571.734   114007797.513                                                  
  21387570.801  
  20564315.016   108066232.867    20564324.238    84207509.9094   20564324.461  
                
 21  8 16 13 52 50.0000000  0 15G 4G17R 1R24R17G31G 1R23R 9G22G19G21
                                R 8R10G 3
  22019184.180   115711630.042    22019192.527    90164954.3424   22019192.352  
                
  23989092.992   126063530.616    23989101.203    98231358.4204   23989101.043  
                
  19919589.383   106481653.760                    82819067.952    19919594.617  
  19919588.715  
  20363825.711   108894559.750                    84695766.066    20363830.410  
  20363825.020  
  22432779.883   120042344.788                    93366260.459    22432784.133  
  22432778.059  
  21341978.703   112152904.386    21341985.871    87391935.4064   21341985.977  
                
  20664662.227   108593566.859    20664672.961    84618405.2464   20664672.406  
                
  21321520.859   114055763.034                                                  
  21321519.234  
  22692303.492   121175641.987                    94247727.531    22692306.672  
  22692302.855  
  20570704.188   108099815.869    20570708.516    84233654.8394                 
                
  24054801.352   126408840.213    24054807.418    98500415.3944                 
                
  22050822.125   115877866.728    22050828.910    90294474.5174                 
                
  20383250.117   109151410.526                    84895555.358    20383252.930  
  20383249.461  
  21384525.250   113991558.016                                                  
  21384524.316  
  20562160.250   108054909.502    20562169.449    84198686.5134   20562169.688  
                
 21  8 16 13 53  0.0000000  0 15G 4G17R 1R24R17G31G 1R23R 9G22G19G21
                                R 8R10G 3
  22014551.625   115687285.757    22014559.957    90145984.7784   22014559.773  
                
  23990757.578   126072278.004    23990765.816    98238174.5484   23990765.645  
                
  19917706.820   106471590.433                    82811240.924    19917712.039  
  19917706.113  
  20365148.602   108901633.911                    84701268.181    20365153.305  
  20365147.883  
  22427158.312   120012262.591                    93342863.223    22427162.582  
  22427156.465  
  21343262.977   112159653.290    21343270.133    87397194.2944   21343270.227  
                
  20668151.438   108611902.785    20668162.160    84632692.9704   20668161.609  
                
  21328448.469   114092820.999                                                  
  21328446.855  
  22695553.289   121192995.698                    94261224.835    22695556.488  
  22695552.672  
  20570920.031   108100950.178    20570924.375    84234538.7134                 
                
  24054127.484   126405299.022    24054133.566    98497656.0284                 
                
  22055273.383   115901258.250    22055280.145    90312701.6654                 
                
  20386407.555   109168318.415                    84908705.933    20386410.359  
  20386406.906  
  21381493.914   113975399.274                                                  
  21381492.996  
  20560012.320   108043622.106    20560021.488    84189891.1384   20560021.742  
                
 21  8 16 13 53 10.0000000  0 15G 4G17R 1R24R17G31G 1R23R 9G22G19G21
                                R 8R10G 3
  22009925.242   115662973.968    22009933.516    90127040.5304   22009933.355  
                
  23992432.102   126081077.555    23992440.301    98245031.3514   23992440.160  
                
  19915830.570   106461560.811                    82803440.112    19915835.766  
  19915829.852  
  20366488.727   108908800.170                    84706841.928    20366493.422  
  20366487.988  
  22421548.820   119982245.077                    93319516.265    22421553.059  
  22421546.969  
  21344560.727   112166473.041    21344567.875    87402508.3854   21344567.973  
                
  20671652.070   108630298.708    20671662.793    84647027.4514   20671662.242  
                
  21335385.555   114129929.805                                                  
  21335383.918  
  22698817.648   121210427.212                    94274782.677    22698820.875  
  22698817.047  
  20571143.344   108102123.683    20571147.703    84235453.1364                 
                
  24053466.469   126401825.365    24053472.520    98494949.2724                 
                
  22059731.969   115924688.244    22059738.688    90330958.7954                 
                
  20389569.789   109185251.887                    84921876.420    20389572.527  
  20389569.148  
  21378477.727   113959321.252                                                  
  21378476.820  
  20557871.266   108032370.795    20557880.410    84181123.8814   20557880.672  
                
 21  8 16 13 53 20.0000000  0 15G 4G17R 1R24R17G31G 1R23R 9G22G19G21
                                R 8R10G 3
  22005305.055   115638694.691    22005313.270    90108121.6214   22005313.125  
                
  23994116.555   126089929.323    23994124.727    98251928.8214   23994124.609  
                
  19913960.680   106451565.187                    82795665.744    19913965.848  
  19913959.965  
  20367846.109   108916058.726                    84712487.485    20367850.793  
  20367845.379  
  22415951.414   119952292.322                    93296219.691    22415955.652  
  22415949.566  
  21345871.945   112173363.574    21345879.090    87407877.6384   21345879.184  
                
  20675164.109   108648754.569    20675174.836    84661408.6354   20675174.285  
                
  21342332.148   114167089.392                                                  
  21342330.516  
  22702096.531   121227936.288                    94288400.855    22702099.758  
  22702095.934  
  20571374.125   108103336.475    20571378.500    84236398.1714                 
                
  24052818.312   126398419.240    24052824.316    98492295.1664                 
                
  22064197.836   115948156.463    22064204.516    90349245.7144                 
                
  20392736.805   109202210.999                    84935066.821    20392739.512  
  20392736.164  
  21375476.688   113943324.077                                                  
  21375475.777  
  20555737.078   108021155.577    20555746.207    84172384.7554   20555746.469  
                
 21  8 16 13 53 30.0000000  0 15G 4G17R 1R24R17G31G 1R23R 9G22G19G21
                                R 8R10G 3
  22000691.047   115614447.927    22000699.230    90089228.0474   22000699.102  
                
  23995810.922   126098833.208    23995819.141    98258866.9064   23995818.988  
                
  19912097.078   106441603.192                    82787917.522    19912102.242  
  19912096.363  
  20369220.742   108923409.485                    84718204.720    20369225.402  
  20369220.016  
  22410366.094   119922404.292                    93272973.466    22410370.340  
  22410364.266  
  21347196.625   112180324.835    21347203.754    87413302.0024   21347203.844  
                
  20678687.539   108667270.265    20678698.277    84675836.4424   20678697.719  
                
  21349288.203   114204299.437                                                  
  21349286.578  
  22705389.992   121245523.054                    94302079.437    22705393.207  
  22705389.402  
  20571612.383   108104588.526    20571616.762    84237373.7974                 
                
  24052182.992   126395080.645    24052188.980    98489693.6364                 
                
  22068670.977   115971662.844    22068677.633    90367562.3764                 
                
  20395908.641   109219196.035                    84948277.420    20395911.359  
  20395907.988  
  21372490.836   113927407.826                                                  
  21372489.926  
  20553609.781   108009976.529    20553618.898    84163673.8014   20553619.160  
                
 21  8 16 13 53 40.0000000  0 15G 4G17R 1R24R17G31G 1R23R 9G22G19G21
                                R 8R10G 3
  21996083.242   115590233.743    21996091.422    90070359.8574   21996091.289  
                
  23997515.203   126107789.155    23997523.457    98265845.5524   23997523.266  
                
  19910239.844   106431675.218                    82780195.768    19910245.004  
  19910239.137  
  20370612.578   108930852.205                    84723993.526    20370617.238  
  20370611.844  
  22404792.922   119892581.300                    93249777.809    22404797.152  
  22404791.121  
  21348534.766   112187356.802    21348541.863    87418781.4574   21348541.965  
                
  20682222.344   108685845.767    20682233.109    84690310.8534   20682232.531  
                
  21356253.680   114241559.906                                                  
  21356252.043  
  22708697.953   121263187.337                    94315818.337    22708701.180  
  22708697.336  
  20571858.125   108105879.893    20571862.508    84238380.0554                 
                
  24051560.516   126391809.516    24051566.523    98487144.7014                 
                
  22073151.383   115995207.436    22073158.020    90385908.8074                 
                
  20399085.273   109236206.737                    84961507.943    20399087.980  
  20399084.609  
  21369520.164   113911572.526                                                  
  21369519.223  
  20551489.359   107998833.665    20551498.473    84154991.0564   20551498.734  
                
 21  8 16 13 53 50.0000000  0 15G 4G17R 1R24R17G31G 1R23R 9G22G19G21
                                R 8R10G 3
  21991481.633   115566052.113    21991489.785    90051517.0404   21991489.648  
                
  23999229.367   126116797.081    23999237.605    98272864.7124   23999237.453  
                
  19908388.945   106421781.068                    82772500.313    19908394.125  
  19908388.250  
  20372021.586   108938386.829                    84729853.775    20372026.250  
  20372020.832  
  22399231.930   119862823.396                    93226632.768    22399236.121  
  22399230.098  
  21349886.352   112194459.441    21349893.418    87424315.9864   21349893.543  
                
  20685768.516   108704481.029    20685779.312    84704831.8264   20685778.719  
                
  21363228.531   114278870.469                                                  
  21363226.918  
  22712020.414   121280929.047                    94329617.425    22712023.629  
  22712019.809  
  20572111.344   108107210.549    20572115.730    84239416.9334                 
                
  24050950.891   126388605.952    24050956.914    98484648.3944                 
                
  22077639.016   116018790.009    22077645.633    90404284.8224                 
                
  20402266.719   109253243.205                    84974758.541    20402269.398  
  20402266.055  
  21366564.719   113895818.454                                                  
  21366563.758  
  20549375.836   107987727.040    20549384.949    84146336.5434   20549385.199  
                
 21  8 16 13 54  0.0000000  0 15G 4G17R 1R24R17G31G 1R23R 9G22G19G21
                                R 8R10G 3
  21986886.211   115541903.055    21986894.340    90032699.5984   21986894.238  
                
  24000953.383   126125856.855    24000961.648    98279924.2584   24000961.504  
                
  19906544.344   106411920.659                    82764831.122    19906549.539  
  19906543.641  
  20373447.789   108946013.445                    84735785.574    20373452.473  
  20373446.996  
  22393683.109   119833130.743                    93203538.493    22393687.293  
  22393681.258  
  21351251.367   112201632.643    21351258.410    87429905.4944   21351258.547  
                
  20689326.031   108723175.898    20689336.840    84719399.2484   20689336.238  
                
  21370212.742   114316231.105                                                  
  21370211.125  
  22715357.352   121298748.093                    94343476.694    22715360.574  
  22715356.758  
  20572372.023   108108580.462    20572376.414    84240484.3954                 
                
  24050354.109   126385469.826    24050360.168    98482204.6384                 
                
  22082133.875   116042410.549    22082140.477    90422690.4374                 
                
  20405452.922   109270305.201                    84988028.979    20405455.598  
  20405452.258  
  21363624.539   113880145.690                                                  
  21363623.574  
  20547269.211   107976656.639    20547278.324    84137710.2604   20547278.570  
                
 21  8 16 13 54 10.0000000  0 15G 4G17R 1R24R17G31G 1R23R 9G22G19G21
                                R 8R10G 3
  21982297.000   115517786.610    21982305.141    90013907.5694   21982305.035  
                
  24002687.266   126134968.470    24002695.551    98287024.2084   24002695.406  
                
  19904706.062   106402094.014                    82757188.171    19904711.246  
  19904705.379  
  20374891.211   108953732.055                    84741788.923    20374895.918  
  20374890.434  
  22388146.500   119803503.482                    93180495.076    22388150.695  
  22388144.641  
  21352629.820   112208876.493    21352636.852    87435550.0524   21352636.977  
                
  20692894.891   108741930.386    20692905.688    84734013.1254   20692905.094  
                
  21377206.227   114353641.511                                                  
  21377204.621  
  22718708.773   121316644.377                    94357396.024    22718711.973  
  22718708.176  
  20572640.188   108109989.681    20572644.582    84241582.4854                 
                
  24049770.156   126382401.142    24049776.293    98479813.4594                 
                
  22086635.961   116066069.098    22086642.578    90441125.6614                 
                
  20408643.930   109287392.893                    85001319.409    20408646.602  
  20408643.258  
  21360699.625   113864554.309                                                  
  21360698.625  
  20545169.492   107965622.532    20545178.602    84129112.2574   20545178.855  
                
 21  8 16 13 54 20.0000000  0 15G 4G17R 1R24R17G31G 1R23R 9G22G19G21
                                R 8R10G 3
  21977714.008   115493702.887    21977722.184    89995141.0464   21977722.035  
                
  24004431.031   126144131.994    24004439.305    98294164.6094   24004439.156  
                
  19902874.133   106392301.295                    82749571.620    19902879.312  
  19902873.449  
  20376351.797   108961542.472                    84747863.696    20376356.508  
  20376351.031  
  22382622.141   119773941.797                    93157502.688    22382626.375  
  22382620.277  
  21354021.734   112216191.047    21354028.762    87441249.7134   21354028.871  
                
  20696475.094   108760744.479    20696485.863    84748673.4544   20696485.293  
                
  21384209.016   114391101.640                                                  
  21384207.422  
  22722074.656   121334617.997                    94371375.511    22722077.852  
  22722074.043  
  20572915.867   108111438.377    20572920.277    84242711.3414                 
                
  24049199.078   126379400.112    24049205.270    98477474.9814                 
                
  22091145.273   116089765.622    22091151.914    90459590.4754                 
                
  20411839.734   109304506.254                    85014629.795    20411842.383  
  20411839.055  
  21357789.984   113849044.398                                                  
  21357788.988  
  20543076.703   107954624.872    20543085.809    84120542.6544   20543086.066  
                
 21  8 16 13 54 30.0000000  0 15G 4G17R 1R24R17G31G 1R23R 9G22G19G21
                                R 8R10G 3
  21973137.211   115469651.699    21973145.410    89976399.8724   21973145.250  
                
  24006184.625   126153347.158    24006192.840    98301345.2384   24006192.707  
                
  19901048.500   106382542.219                    82741981.214    19901053.660  
  19901047.816  
  20377829.547   108969444.663                    84754009.820    20377834.273  
  20377828.801  
  22377110.016   119744445.611                    93134561.201    22377114.285  
  22377108.191  
  21355427.047   112223576.033    21355434.062    87447004.2454   21355434.160  
                
  20700066.602   108779617.945    20700077.348    84763380.0414   20700076.793  
                
  21391221.055   114428611.208                                                  
  21391219.453  
  22725454.953   121352668.578                    94385414.832    22725458.113  
  22725454.316  
  20573199.023   108112926.369    20573203.449    84243870.8114                 
                
  24048640.812   126376466.465    24048646.980    98475189.0174                 
                
  22095661.742   116113499.812    22095668.391    90478084.6354                 
                
  20415040.266   109321644.954                    85027959.891    20415042.918  
  20415039.574  
  21354895.664   113833616.029                                                  
  21354894.660  
  20540990.812   107943663.458    20540999.902    84112001.2924   20541000.168  
                
 21  8 16 13 54 40.0000000  0 15G 4G17R 1R24R17G31G 1R23R 9G22G19G21
                                R 8R10G 3
  21968566.656   115445633.240    21968574.863    89957684.1954   21968574.699  
                
  24007948.055   126162614.011    24007956.195    98308566.1514   24007956.082  
                
  19899229.195   106372817.005                    82734417.168    19899234.348  
  19899228.512  
  20379324.492   108977438.714                    84760227.430    20379329.199  
  20379323.762  
  22371610.266   119715015.328                    93111670.963    22371614.520  
  22371608.418  
  21356845.789   112231031.540    21356852.789    87452813.7444   21356852.895  
                
  20703669.430   108798550.865    20703680.148    84778132.9654   20703679.605  
                
  21398242.328   114466170.186                                                  
  21398240.707  
  22728849.672   121370796.203                    94399514.101    22728852.840  
  22728848.996  
  20573489.688   108114453.825    20573494.125    84245061.0304                 
                
  24048095.414   126373600.299    24048101.547    98472955.6534                 
                
  22100185.398   116137271.758    22100192.043    90496608.2214                 
                
  20418245.594   109338809.272                    85041309.923    20418248.230  
  20418244.906  
  21352016.656   113818269.324                                                  
  21352015.672  
  20538911.867   107932738.521    20538920.941    84103488.3554   20538921.215  
                
 21  8 16 13 54 50.0000000  0 15G 4G17R 1R24R17G31G 1R23R 9G22G19G21
                                R 8R10G 3
  21964002.352   115421647.681    21964010.539    89938994.1544   21964010.387  
                
  24009721.336   126171932.634    24009729.453    98315827.4194   24009729.320  
                
  19897416.242   106363125.757                    82726879.543    19897421.402  
  19897415.562  
  20380836.609   108985524.698                    84766516.532    20380841.312  
  20380835.891  
  22366122.867   119685651.205                    93088832.236    22366127.102  
  22366120.980  
  21358277.977   112238557.704    21358284.938    87458678.2884   21358285.051  
                
  20707283.578   108817543.315    20707294.277    84792932.2734   20707293.750  
                
  21405272.844   114503778.599                                                  
  21405271.238  
  22732258.812   121389000.890                    94413673.310    22732261.965  
  22732258.113  
  20573787.883   108116020.828    20573792.328    84246282.0734                 
                
  24047562.891   126370801.826    24047568.957    98470775.0064                 
                
  22104716.266   116161081.560    22104722.898    90515161.3044                 
                
  20421455.703   109355999.252                    85054679.897    20421458.340  
  20421455.020  
  21349152.984   113803004.394                                                  
  21349151.996  
  20536839.898   107921850.243    20536848.949    84095003.9854   20536849.242  
                
 21  8 16 13 55  0.0000000  0 15G 4G17R 1R24R17G31G 1R23R 9G22G19G21
                                R 8R10G 3
  21959444.211   115397694.520    21959452.379    89920329.3574   21959452.234  
                
  24011504.359   126181302.465    24011512.469    98323128.5654   24011512.328  
                
  19895609.562   106353468.092                    82719368.029    19895614.738  
  19895608.863  
  20382365.820   108993702.070                    84772876.712    20382370.527  
  20382365.086  
  22360647.758   119656352.879                    93066044.645    22360651.980  
  22360645.848  
  21359723.500   112246153.980    21359730.422    87464597.4684   21359730.559  
                
  20710908.945   108836594.740    20710919.625    84807777.5334   20710919.117  
                
  21412312.398   114541435.615                                                  
  21412310.805  
  22735682.297   121407282.176                    94427892.063    22735685.430  
  22735681.543  
  20574093.516   108117626.949    20574097.961    84247533.5944                 
                
  24047043.156   126368070.554    24047049.121    98468646.7544                 
                
  22109254.227   116184928.663    22109260.883    90533743.4484                 
                
  20424670.523   109373214.441                    85068069.487    20424673.129  
  20424669.855  
  21346304.656   113787821.321                                                  
  21346303.668  
  20534774.812   107910998.158    20534783.840    84086547.8134   20534784.156  
                
 21  8 16 13 55 10.0000000  0 15G 4G17R 1R24R17G31G 1R23R 9G22G19G21
                                R 8R10G 3
  21954892.328   115373774.220    21954900.484    89901690.1724   21954900.352  
                
  24013297.203   126190723.917    24013305.305    98330469.9274   24013305.180  
                
  19893809.242   106343844.387                    82711882.943    19893814.410  
  19893808.523  
  20383912.172   109001971.079                    84779308.151    20383916.879  
  20383911.434  
  22355185.078   119627120.882                    93043308.655    22355189.289  
  22355183.148  
  21361182.438   112253820.712    21361189.316    87470571.5504   21361189.477  
                
  20714545.602   108855705.503    20714556.277    84822669.0324   20714555.777  
                
  21419361.133   114579141.563                                                  
  21419359.547  
  22739120.180   121425640.280                    94442170.577    22739123.297  
  22739119.391  
  20574406.688   108119272.656    20574411.133    84248815.9624                 
                
  24046536.266   126365406.782    24046542.145    98466571.1054                 
                
  22113799.414   116208813.706    22113806.113    90552355.1594                 
                
  20427890.094   109390455.061                    85081478.869    20427892.703  
  20427889.441  
  21343471.711   113772720.162                                                  
  21343470.715  
  20532716.711   107900182.727    20532725.723    84078120.2114   20532726.043  
                
 21  8 16 13 55 20.0000000  0 15G 4G17R 1R24R17G31G 1R23R 9G22G19G21
                                R 8R10G 3
  21950346.688   115349886.742    21950354.855    89883076.5624   21950354.719  
                
  24015099.859   126200196.930    24015107.922    98337851.4864   24015107.812  
                
  19892015.258   106334254.564                    82704424.190    19892020.418  
  19892014.516  
  20385475.641   109010331.689                    84785810.841    20385480.352  
  20385474.914  
  22349734.805   119597955.335                    93020624.358    22349739.020  
  22349732.867  
  21362654.766   112261557.831    21362661.605    87476600.4754   21362661.777  
                
  20718193.531   108874875.463    20718204.195    84837606.6514   20718203.699  
                
  21426418.977   114616896.161                                                  
  21426417.410  
  22742572.430   121444075.160                    94456508.829    22742575.535  
  22742571.586  
  20574727.375   108120957.910    20574731.816    84250129.1434                 
                
  24046042.219   126362810.481    24046048.070    98464548.0174                 
                
  22118351.719   116232736.162    22118358.453    90570996.0244                 
                
  20431114.430   109407721.217                    85094908.084    20431117.023  
  20431113.773  
  21340654.188   113757701.198                                                  
  21340653.176  
  20530665.570   107889403.964    20530674.570    84069721.1704   20530674.902  
                
 21  8 16 13 55 30.0000000  0 15G 4G17R 1R24R17G31G 1R23R 9G22G19G21
                                R 8R10G 3
  21945807.297   115326032.114    21945815.508    89864488.5384   21945815.348  
                
  24016912.312   126209721.355    24016920.324    98345273.1144   24016920.258  
                
  19890227.586   106324698.445                    82696991.650    19890232.758  
  19890226.836  
  20387056.258   109018783.931                    84792384.803    20387060.996  
  20387055.555  
  22344296.930   119568856.198                    92997991.711    22344301.152  
  22344295.020  
  21364140.484   112269365.294    21364147.301    87482684.2154   21364147.484  
                
  20721852.711   108894104.549    20721863.379    84852590.3544   20721862.883  
                
  21433485.906   114654699.376                                                  
  21433484.340  
  22746039.016   121462586.580                    94470906.600    22746042.129  
  22746038.152  
  20575055.594   108122682.709    20575060.023    84251473.1404                 
                
  24045561.008   126360281.645    24045566.836    98462577.5074                 
                
  22122911.133   116256695.939    22122917.848    90589665.9694                 
                
  20434343.500   109425012.739                    85108357.053    20434346.098  
  20434342.828  
  21337852.039   113742764.212                                                  
  21337851.023  
  20528621.414   107878661.841    20528630.414    84061350.6864   20528630.742  
                
 21  8 16 13 55 40.0000000  0 15G 4G17R 1R24R17G31G 1R23R 9G22G19G21
                                R 8R10G 3
  21941274.141   115302210.264    21941282.395    89845926.0834   21941282.215  
                
  24018734.523   126219297.085    24018742.484    98352734.7104   24018742.418  
                
  19888446.242   106315176.167                    82689585.434    19888451.402  
  19888445.469  
  20388653.977   109027327.636                    84799029.890    20388658.730  
  20388653.289  
  22338871.500   119539823.631                    92975410.835    22338875.707  
  22338869.621  
  21365639.570   112277243.029    21365646.367    87488822.7114   21365646.566  
                
  20725523.117   108913392.666    20725533.789    84867620.0414   20725533.301  
                
  21440561.844   114692550.856                                                  
  21440560.301  
  22749519.922   121481174.459                    94485363.818    22749523.051  
  22749518.984  
  20575391.336   108124447.033    20575395.766    84252847.9384                 
                
  24045092.617   126357820.216    24045098.445    98460659.4974                 
                
  22127477.625   116280692.980    22127484.316    90608364.9544                 
                
  20437577.312   109442329.704                    85121825.796    20437579.926  
  20437576.621  
  21335065.312   113727909.452                                                  
  21335064.297  
  20526584.227   107867956.372    20526593.227    84053008.7714   20526593.555  
                
 21  8 16 13 55 50.0000000  0 15G 4G17R 1R24R17G31G 1R23R 9G22G19G21
                                R 8R10G 3
  21936747.250   115278421.289    21936755.531    89827389.2254   21936755.336  
                
  24020566.500   126228924.096    24020574.430    98360236.2644   24020574.344  
                
  19886671.227   106305687.742                    82682205.554    19886676.410  
  19886670.438  
  20390268.789   109035962.666                    84805746.024    20390273.559  
  20390268.133  
  22333458.570   119510857.990                    92952882.020    22333462.809  
  22333456.738  
  21367152.047   112285191.078    21367158.836    87495015.9934   21367159.027  
                
  20729204.750   108932739.756    20729215.418    84882695.6904   20729214.938  
                
  21447646.805   114730450.541                                                  
  21447645.246  
  22753015.133   121499838.731                    94499880.479    22753018.281  
  22753014.195  
  20575734.625   108126251.038    20575739.051    84254253.6544                 
                
  24044637.055   126355426.192    24044642.906    98458794.0174                 
                
  22132051.211   116304727.267    22132057.906    90627092.9594                 
                
  20440815.844   109459671.837                    85135314.127    20440818.465  
  20440815.148  
  21332294.062   113713137.203                                                  
  21332293.027  
  20524554.039   107857287.656    20524563.039    84044695.4844   20524563.352  
                
 21  8 16 13 56  0.0000000  0 15G 4G17R 1R24R17G31G 1R23R 9G22G19G21
                                R 8R10G 3
  21932226.602   115254665.154    21932234.895    89808877.9594   21932234.711  
                
  24022408.188   126238602.289    24022416.109    98367777.6884   24022416.023  
                
  19884902.500   106296232.939                    82674851.823    19884907.703  
  19884901.695  
  20391900.680   109044689.089                    84812533.252    20391905.441  
  20391900.023  
  22328058.117   119481959.171                    92930405.193    22328062.371  
  22328056.285  
  21368677.859   112293209.296    21368684.645    87501263.9644   21368684.852  
                
  20732897.586   108952145.715    20732908.238    84897817.2194   20732907.766  
                
  21454740.750   114768398.215                                                  
  21454739.176  
  22756524.625   121518579.353                    94514456.480    22756527.809  
  22756523.691  
  20576085.430   108128094.543    20576089.852    84255690.1524                 
                
  24044194.328   126353099.623    24044200.172    98456981.1144                 
                
  22136631.867   116328798.756    22136638.574    90645849.9544                 
                
  20444059.109   109477039.369                    85148822.192    20444061.762  
  20444058.410  
  21329538.273   113698447.323                                                  
  21329537.211  
  20522530.836   107846655.673    20522539.840    84036410.8254   20522540.145  
                
 21  8 16 13 56 10.0000000  0 15G 4G17R 1R24R17G31G 1R23R 9G22G19G21
                                R 8R10G 3
  21927712.227   115230941.965    21927720.535    89790392.3684   21927720.344  
                
  24024259.625   126248331.581    24024267.508    98375358.9404   24024267.441  
                
  19883140.117   106286812.012                    82667524.444    19883145.316  
  19883139.289  
  20393549.648   109053506.872                    84819391.526    20393554.410  
  20393549.004  
  22322670.234   119453127.452                    92907980.516    22322674.434  
  22322668.328  
  21370217.047   112301297.726    21370223.832    87507566.6334   21370224.043  
                
  20736601.633   108971610.590    20736612.273    84912984.6394   20736611.809  
                
  21461843.625   114806393.754                                                  
  21461842.055  
  22760048.430   121537396.265                    94529091.849    22760051.652  
  22760047.504  
  20576443.773   108129977.672    20576448.188    84257157.5234                 
                
  24043764.445   126350840.591    24043770.297    98455220.8174                 
                
  22141219.609   116352907.427    22141226.293    90664635.9194                 
                
  20447307.141   109494432.376                    85162350.075    20447309.789  
  20447306.453  
  21326797.906   113683839.733                                                  
  21326796.809  
  20520514.648   107836060.538    20520523.656    84028154.8764   20520523.965  
                
 21  8 16 13 56 20.0000000  0 15G 4G17R 1R24R17G31G 1R23R 9G22G19G21
                                R 8R10G 3
  21923204.133   115207251.814    21923212.441    89771932.5204   21923212.258  
                
  24026120.781   126258111.996    24026128.656    98382980.0444   24026128.586  
                
  19881384.102   106277425.154                    82660223.548    19881389.293  
  19881383.266  
  20395215.727   109062416.106                    84826320.925    20395220.480  
  20395215.082  
  22317294.906   119424363.056                    92885608.212    22317299.102  
  22317292.996  
  21371769.586   112309456.376    21371776.367    87513924.0344   21371776.566  
                
  20740316.883   108991134.352    20740327.512    84928197.9494   20740327.051  
                
  21468955.422   114844437.110                                                  
  21468953.848  
  22763586.516   121556289.474                    94543786.573    22763589.754  
  22763585.559  
  20576809.688   108131900.565    20576814.094    84258655.8834                 
                
  24043347.414   126348649.070    24043353.309    98453513.1434                 
                
  22145814.430   116377053.295    22145821.070    90683450.8764                 
                
  20450559.891   109511850.664                    85175897.640    20450562.551  
  20450559.230  
  21324073.086   113669315.006                                                  
  21324071.980  
  20518505.492   107825502.383    20518514.500    84019927.7474   20518514.789  
                
 21  8 16 13 56 30.0000000  0 15G 4G17R 1R24R17G31G 1R23R 9G22G19G21
                                R 8R10G 3
  21918702.305   115183594.567    21918710.598    89753498.3014   21918710.430  
                
  24027991.641   126267943.388    24027999.566    98390640.8774   24027999.441  
                
  19879634.375   106268071.929                    82652948.820    19879639.566  
  19879633.543  
  20396898.844   109071416.451                    84833321.178    20396903.594  
  20396898.180  
  22311932.141   119395665.985                    92863288.287    22311936.332  
  22311930.227  
  21373335.461   112317685.061    21373342.230    87520335.9964   21373342.441  
                
  20744043.297   109010716.785    20744053.918    84943456.9914   20744053.461  
                
  21476076.117   114882527.919                                                  
  21476074.547  
  22767138.836   121575258.661                    94558540.374    22767142.078  
  22767137.883  
  20577183.141   108133863.068    20577187.543    84260185.1024                 
                
  24042943.203   126346524.944    24042949.117    98451857.9954                 
                
  22150416.281   116401236.134    22150422.922    90702294.6444                 
                
  20453817.344   109529294.179                    85189464.807    20453820.000  
  20453816.680  
  21321363.820   113654873.101                                                  
  21321362.719  
  20516503.352   107814981.080    20516512.355    84011729.3354   20516512.652  
                
 21  8 16 13 56 40.0000000  0 15G 4G17R 1R24R17G31G 1R23R 9G22G19G21
                                R 8R10G 3
  21914206.742   115159970.289    21914215.004    89735089.7874   21914214.848  
                
  24029872.195   126277825.801    24029880.102    98398341.4334   24029879.953  
                
  19877891.008   106258752.640                    82645700.499    19877896.199  
  19877890.172  
  20398599.008   109080507.942                    84840392.335    20398603.770  
  20398598.332  
  22306581.984   119367036.384                    92841020.829    22306586.188  
  22306580.043  
  21374914.656   112325983.789    21374921.426    87526802.5444   21374921.633  
                
  20747780.883   109030357.888    20747791.492    84958761.7364   20747791.047  
                
  21483205.641   114920666.112                                                  
  21483204.066  
  22770705.398   121594303.909                    94573353.334    22770708.656  
  22770704.438  
  20577564.141   108135865.225    20577568.543    84261745.2164                 
                
  24042551.836   126344468.262    24042557.754    98450255.3754                 
                
  22155025.156   116425455.899    22155031.816    90721167.1704                 
                
  20457079.508   109546762.868                    85203051.574    20457082.168  
  20457078.828  
  21318670.086   113640514.020                                                  
  21318669.004  
  20514508.250   107804496.730    20514517.246    84003559.7134   20514517.547  
                
 21  8 16 13 56 50.0000000  0 15G 4G17R 1R24R17G31G 1R23R 9G22G19G21
                                R 8R10G 3
  21909717.453   115136379.002    21909725.691    89716706.9764   21909725.539  
                
  24031762.430   126287759.095    24031770.238    98406081.6554   24031770.164  
                
  19876153.945   106249467.120                    82638478.427    19876159.152  
  19876153.117  
  20400316.219   109089690.630                    84847534.417    20400321.004  
  20400315.539  
  22301244.453   119338474.420                    92818805.958    22301248.688  
  22301242.520  
  21376507.172   112334352.491    21376513.949    87533323.6154   21376514.145  
                
  20751529.609   109050057.565    20751540.215    84974112.1284   20751539.766  
                
  21490343.984   114958851.430                                                  
  21490342.402  
  22774286.172   121613425.047                    94588225.333    22774289.434  
  22774285.238  
  20577952.680   108137907.013    20577957.082    84263336.2244                 
                
  24042173.289   126342479.062    24042179.277    98448705.3584                 
                
  22159641.055   116449712.577    22159647.742    90740068.4704                 
                
  20460346.328   109564256.524                    85216657.741    20460348.992  
  20460345.633  
  21315991.922   113626237.953                                                  
  21315990.852  
  20512520.180   107794049.366    20512529.164    83995418.9094   20512529.461  
                
 21  8 16 13 57  0.0000000  0 15G 4G17R 1R24R17G31G 1R23R 9G22G19G21
                                R 8R10G 3
  21905234.453   115112820.687    21905242.676    89698349.8564   21905242.539  
                
  24033662.359   126297743.222    24033670.121    98413861.4994   24033670.082  
                
  19874423.234   106240215.491                    82631282.723    19874428.430  
  19874422.410  
  20402050.469   109098964.417                    84854747.343    20402055.277  
  20402049.781  
  22295919.625   119309980.207                    92796643.807    22295923.871  
  22295917.691  
  21378112.992   112342791.106    21378119.793    87539899.1674   21378119.965  
                
  20755289.469   109069815.732    20755300.090    84989508.0994   20755299.633  
                
  21497491.125   114997083.684                                                  
  21497489.551  
  22777881.125   121632621.884                    94603156.218    22777884.383  
  22777880.199  
  20578348.766   108139988.454    20578353.172    84264958.1254                 
                
  24041807.562   126340557.122    24041813.613    98447207.7414                 
                
  22164263.938   116474005.970    22164270.645    90758998.3754                 
                
  20463617.867   109581775.460                    85230283.574    20463620.527  
  20463617.184  
  21313329.305   113612044.708                                                  
  21313328.254  
  20510539.148   107783638.962    20510548.117    83987306.9094   20510548.422  
                
 21  8 16 13 57 10.0000000  0 15G 4G17R 1R24R17G31G 1R23R 9G22G19G21
                                R 8R10G 3
  21900757.750   115089295.472    21900765.980    89680018.5374   21900765.852  
                
  24035571.977   126307778.223    24035579.766    98421680.9744   24035579.730  
                
  19872698.828   106230997.588                    82624113.241    19872704.012  
  19872698.012  
  20403801.750   109108329.274                    84862031.121    20403806.574  
  20403801.070  
  22290607.484   119281553.843                    92774534.430    22290611.746  
  22290605.520  
  21379732.141   112351299.758    21379738.953    87546529.2854   21379739.117  
                
  20759060.469   109089632.427    20759071.102    85004949.6724   20759070.633  
                
  21504647.008   115035362.752                                                  
  21504645.422  
  22781490.289   121651894.625                    94618146.100    22781493.547  
  22781489.367  
  20578752.422   108142109.697    20578756.824    84266611.0424                 
                
  24041454.672   126338702.674    24041460.777    98445762.6994                 
                
  22168893.836   116498336.190    22168900.555    90777956.9854                 
                
  20466894.117   109599319.605                    85243929.026    20466896.801  
  20466893.422  
  21310682.242   113597934.436                                                  
  21310681.207  
  20508565.180   107773265.712    20508574.125    83979223.8534   20508574.441  
                
 21  8 16 13 57 20.0000000  0 15G 4G17R 1R24R17G31G 1R23R 9G22G19G21
                                R 8R10G 3
  21896287.336   115065803.277    21896295.598    89661712.9304   21896295.453  
                
  24037491.203   126317863.940    24037499.062    98429539.9274   24037498.957  
                
  19870980.734   106221813.397                    82616969.980    19870985.922  
  19870979.918  
  20405570.039   109117785.108                    84869385.645    20405574.859  
  20405569.363  
  22285308.055   119253195.530                    92752477.960    22285312.297  
  22285306.113  
  21381364.578   112359878.240    21381371.391    87553213.8224   21381371.547  
                
  20762842.570   109109507.459    20762853.215    85020436.7074   20762852.746  
                
  21511811.594   115073688.475                                                  
  21511809.965  
  22785113.594   121671242.881                    94633194.735    22785116.863  
  22785112.664  
  20579163.648   108144270.683    20579168.047    84268294.9214                 
                
  24041114.586   126336915.521    24041120.742    98444370.1084                 
                
  22173530.703   116522703.060    22173537.449    90796944.1404                 
                
  20470174.992   109616888.552                    85257593.750    20470177.688  
  20470174.305  
  21308050.844   113583907.608                                                  
  21308049.844  
  20506598.266   107762929.501    20506607.188    83971169.6644   20506607.523  
                
 21  8 16 13 57 30.0000000  0 15G 4G17R 1R24R17G31G 1R23R 9G22G19G21
                                R 8R10G 3
  21891823.172   115042344.025    21891831.461    89643433.0084   21891831.316  
                
  24039420.062   126328000.204    24039427.871    98437438.3114   24039427.766  
                
  19869268.945   106212662.979                    82609852.994    19869274.148  
  19869268.113  
  20407355.266   109127331.522                    84876810.628    20407360.082  
  20407354.594  
  22280021.352   119224905.222                    92730474.395    22280025.566  
  22280019.445  
  21383010.273   112368526.448    21383017.070    87559952.6844   21383017.238  
                
  20766635.742   109129440.680    20766646.410    85035969.0794   20766645.934  
                
  21518984.844   115112060.588                                                  
  21518983.215  
  22788751.016   121690666.563                    94648302.048    22788754.316  
  22788750.094  
  20579582.398   108146471.256    20579586.793    84270009.6574                 
                
  24040787.297   126335195.626    24040793.473    98443029.9274                 
                
  22178174.523   116547106.519    22178181.309    90815959.8184                 
                
  20473460.523   109634482.436                    85271277.876    20473463.227  
  20473459.824  
  21305435.031   113569963.877                                                  
  21305434.062  
  20504638.398   107752630.328    20504647.305    83963144.3394   20504647.648  
                
 21  8 16 13 57 40.0000000  0 15G 4G17R 1R24R17G31G 1R23R 9G22G19G21
                                R 8R10G 3
  21887365.328   115018917.979    21887373.617    89625178.9614   21887373.480  
                
  24041358.570   126338187.051    24041366.273    98445376.1364   24041366.238  
                
  19867563.508   106203546.492                    82602762.391    19867568.707  
  19867562.664  
  20409157.484   109136968.786                    84884306.270    20409162.293  
  20409156.805  
  22274747.414   119196683.231                    92708523.992    22274751.625  
  22274745.559  
  21384669.273   112377244.548    21384676.059    87566746.0084   21384676.246  
                
  20770440.016   109149432.279    20770450.719    85051546.9394   20770450.227  
                
  21526166.781   115150479.080                                                  
  21526165.164  
  22792402.578   121710165.732                    94663468.058    22792405.879  
  22792401.617  
  20580008.758   108148711.784    20580013.141    84271755.5224                 
                
  24040472.836   126333543.114    24040478.988    98441742.2454                 
                
  22182825.344   116571546.737    22182832.141    90835004.1274                 
                
  20476750.758   109652101.506                    85284981.597    20476753.469  
  20476750.059  
  21302834.891   113556103.648                                                  
  21302833.953  
  20502685.617   107742368.438    20502694.527    83955148.0634   20502694.859  
                
 21  8 16 13 57 50.0000000  0 15G 4G17R 1R24R17G31G 1R23R 9G22G19G21
                                R 8R10G 3
  21882913.828   114995525.210    21882922.105    89606950.8374   21882921.996  
                
  24043306.703   126348424.548    24043314.406    98453353.3814   24043314.410  
                
  19865864.422   106194463.881                    82595698.139    19865869.609  
  19865863.566  
  20410976.773   109146697.332                    84891872.911    20410981.590  
  20410976.086  
  22269486.297   119168529.797                    92686626.884    22269490.496  
  22269484.438  
  21386341.578   112386032.530    21386348.367    87573593.7934   21386348.562  
                
  20774255.406   109169482.204    20774266.145    85067170.2524   20774265.629  
                
  21533357.391   115188943.935                                                  
  21533355.773  
  22796068.289   121729740.486                    94678692.866    22796071.605  
  22796067.297  
  20580442.719   108150992.288    20580447.090    84273532.5364                 
                
  24040171.219   126331958.040    24040177.328    98440507.1064                 
                
  22187483.133   116596023.577    22187489.902    90854076.9814                 
                
  20480045.719   109669745.862                    85298704.980    20480048.434  
  20480044.996  
  21300250.398   113542326.818                                                  
  21300249.484  
  20500739.969   107732143.948    20500748.883    83947180.9304   20500749.215  
                
 21  8 16 13 58  0.0000000  0 15G 4G17R 1R24R17G31G 1R23R 9G22G19G21
                                R 8R10G 3
  21878468.609   114972165.491    21878476.863    89588748.4644   21878476.766  
                
  24045264.391   126358712.370    24045272.160    98461369.8334   24045272.172  
                
  19864171.617   106185414.916                    82588660.057    19864176.828  
  19864170.770  
  20412813.008   109156516.491                    84899510.042    20412817.824  
  20412812.328  
  22264237.938   119140444.807                    92664782.999    22264242.145  
  22264236.070  
  21388027.133   112394890.165    21388033.934    87580495.8454   21388034.121  
                
  20778081.828   109189590.184    20778092.594    85082838.7984   20778092.059  
                
  21540556.594   115227454.674                                                  
  21540554.984  
  22799748.086   121749390.467                    94693976.177    22799751.398  
  22799747.062  
  20580884.242   108153312.468    20580888.605    84275340.4654                 
                
  24039882.359   126330440.110    24039888.477    98439324.3114                 
                
  22192147.820   116620536.625    22192154.590    90873178.0484                 
                
  20483345.273   109687414.846                    85312447.503    20483348.000  
  20483344.531  
  21297681.594   113528633.656                                                  
  21297680.684  
  20498801.383   107721956.624    20498810.309    83939242.7574   20498810.621  
                
 21  8 16 13 58 10.0000000  0 15G 4G17R 1R24R17G31G 1R23R 9G22G19G21
                                R 8R10G 3
  21874029.719   114948839.044    21874037.957    89570572.0354   21874037.879  
                
  24047231.719   126369050.732    24047239.492    98469425.7064   24047239.504  
                
  19862485.164   106176399.905                    82581648.391    19862490.391  
  19862484.305  
  20414666.164   109166426.170                    84907217.564    20414671.000  
  20414665.477  
  22259002.430   119112428.645                    92642992.674    22259006.648  
  22259000.551  
  21389725.969   112403817.617    21389732.793    87587452.2994   21389732.957  
                
  20781919.320   109209756.310    20781930.098    85098552.6614   20781929.566  
                
  21547764.375   115266011.301                                                  
  21547762.785  
  22803441.977   121769115.690                    94709318.000    22803445.293  
  22803440.961  
  20581333.359   108155672.640    20581337.715    84277179.5614                 
                
  24039606.359   126328989.665    24039612.512    98438194.0814                 
                
  22196819.445   116645086.145    22196826.250    90892307.5384                 
                
  20486649.516   109705108.938                    85326209.575    20486652.250  
  20486648.766  
  21295128.477   113515024.119                                                  
  21295127.566  
  20496869.922   107711806.739    20496878.863    83931333.7564   20496879.156  
                
 21  8 16 13 58 20.0000000  0 15G 4G17R 1R24R17G31G 1R23R 9G22G19G21
                                R 8R10G 3
  21869597.172   114925545.849    21869605.391    89552421.5014   21869605.316  
                
  24049208.672   126379439.626    24049216.398    98477520.9524   24049216.445  
                
  19860805.016   106167418.602                    82574662.937    19860810.246  
  19860804.145  
  20416536.328   109176426.703                    84914995.754    20416541.180  
  20416535.648  
  22253779.789   119084481.335                    92621255.869    22253784.055  
  22253777.898  
  21391438.070   112412814.773    21391444.914    87594463.0704   21391445.074  
                
  20785767.859   109229980.486    20785778.648    85114311.7484   20785778.113  
                
  21554980.672   115304613.593                                                  
  21554979.082  
  22807149.953   121788916.029                    94724718.282    22807153.270  
  22807148.918  
  20581790.086   108158072.695    20581794.426    84279049.7294                 
                
  24039343.172   126327606.592    24039349.312    98437116.3694                 
                
  22201497.992   116669672.020    22201504.836    90911465.3544                 
                
  20489958.438   109722828.033                    85339991.091    20489961.164  
  20489957.688  
  21292591.109   113501498.464                                                  
  21292590.203  
  20494945.586   107701694.256    20494954.543    83923453.9004   20494954.836  
                
 21  8 16 13 58 30.0000000  0 15G 4G17R 1R24R17G31G 1R23R 9G22G19G21
                                R 8R10G 3
  21865170.906   114902285.721    21865179.094    89534296.7384   21865179.020  
                
  24051195.133   126389878.553    24051202.891    98485655.1744   24051202.934  
                
  19859131.188   106158471.087                    82567703.766    19859136.422  
  19859130.312  
  20418423.367   109186517.565                    84922844.194    20418428.238  
  20418422.688  
  22248570.016   119056602.854                    92599572.606    22248574.289  
  22248568.105  
  21393163.383   112421881.360    21393170.242    87601527.9514   21393170.406  
                
  20789627.383   109250262.415    20789638.180    85130115.8454   20789637.625  
                
  21562205.461   115343261.227                                                  
  21562203.840  
  22810871.930   121808791.225                    94740176.761    22810875.270  
  22810870.902  
  20582254.367   108160512.548    20582258.691    84280950.9164                 
                
  24039092.781   126326290.750    24039098.910    98436091.0314                 
                
  22206183.398   116694293.998    22206190.266    90930651.3004                 
                
  20493272.008   109740572.059                    85353791.990    20493274.723  
  20493271.246  
  21290069.422   113488056.512                                                  
  21290068.504  
  20493028.328   107691619.014    20493037.293    83915603.0614   20493037.570  
                
 21  8 16 13 58 40.0000000  0 15G 4G17R 1R24R17G31G 1R23R 9G22G19G21
                                R 8R10G 3
  21860750.977   114879058.847    21860759.137    89516197.8704   21860759.074  
                
  24053191.156   126400367.720    24053199.023    98493828.5134   24053199.051  
                
  19857463.688   106149557.398                    82560770.894    19857468.926  
  19857462.816  
  20420327.336   109196698.935                    84930763.025    20420332.211  
  20420326.656  
  22243373.148   119028793.474                    92577943.096    22243377.441  
  22243371.242  
  21394901.945   112431017.571    21394908.812    87608647.0684   21394908.988  
                
  20793497.922   109270602.221    20793508.715    85145965.0354   20793508.164  
                
  21569438.773   115381954.130                                                  
  21569437.113  
  22814607.945   121828741.353                    94755693.537    22814611.305  
  22814606.891  
  20582726.281   108162992.461    20582730.590    84282883.3174                 
                
  24038855.211   126325042.275    24038861.340    98435118.2074                 
                
  22210875.672   116718952.057    22210882.555    90949865.3634                 
                
  20496590.180   109758340.796                    85367612.121    20496592.918  
  20496589.398  
  21287563.500   113474698.585                                                  
  21287562.586  
  20491118.203   107681581.221    20491127.176    83907781.4054   20491127.445  
                
 21  8 16 13 58 50.0000000  0 15G 4G17R 1R24R17G31G 1R23R 9G22G19G21
                                R 8R10G 3
  21856337.391   114855865.281    21856345.531    89498124.9764   21856345.469  
                
  24055196.742   126410907.077    24055204.660    98502040.9994   24055204.652  
                
  19855802.516   106140677.504                    82553864.308    19855807.770  
  19855801.652  
  20422248.242   109206970.901                    84938752.319    20422253.133  
  20422247.547  
  22238189.227   119001053.367                    92556367.455    22238193.547  
  22238187.312  
  21396653.773   112440223.498    21396660.648    87615820.5264   21396660.828  
                
  20797379.477   109290999.877    20797390.242    85161859.3054   20797389.711  
                
  21576680.539   115420692.225                                                  
  21576678.867  
  22818357.977   121848766.378                    94771268.525    22818361.355  
  22818356.941  
  20583205.805   108165512.365    20583210.090    84284846.8784                 
                
  24038630.445   126323861.091    24038636.543    98434197.7954                 
                
  22215574.820   116743646.186    22215581.703    90969107.5414                 
                
  20499913.008   109776134.378                    85381451.561    20499915.734  
  20499912.223  
  21285073.328   113461424.563                                                  
  21285072.406  
  20489215.219   107671580.979    20489224.195    83899989.0054   20489224.465  
                
