     2.11           OBSERVATION DATA    M (MIXED)           RINEX VERSION / TYPE
EFT-CORS.RU                             20210817 145233 UTC PGM / RUN BY / DATE 
MDNG                                                        MARKER NAME         
                                                            MARKER NUMBER       
MDNG                EFT-CORS.RU                             OBSERVER / AGENCY   
0                   TRIMBLE BD970       2.0                 REC # / TYPE / VERS 
0                   UNKNOWN EXT NONE                        ANT # / TYPE        
  3463911.2830  3030468.2400  4402179.3760                  APPROX POSITION XYZ 
        0.0000        0.0000        0.0000                  ANTENNA: DELTA H/E/N
     1     1                                                WAVELENGTH FACT L1/2
     6    C1    L1    P2    L2    C2    P1                  # / TYPES OF OBSERV 
    10.000                                                  INTERVAL            
  2021     8    15    10    30    0.0000000     GPS         TIME OF FIRST OBS   
  2021     8    15    11    30    0.0000000     GPS         TIME OF LAST OBS    
     0                                                      RCV CLOCK OFFS APPL 
                                                            END OF HEADER       
 21  8 15 10 30  0.0000000  0 13R20G22G21R 5R 7G27G32R21R22G 8R 6G23
                                G10
  20797105.383   111211491.254                    86497855.684    20797112.922  
  20797104.371  
  24548820.117   129004921.468    24548827.238   100523345.7814                 
                
  22929091.109   120493217.935    22929097.816    93890857.3774                 
                
  20832044.953   111359231.035                    86612743.418    20832049.848  
  20832044.652  
  22640552.711   121196661.324                    94264076.952    22640559.984  
  22640551.168  
  21404610.523   112481973.154    21404619.641    87648356.3794   21404619.652  
                
  20999829.203   110354878.329    20999838.148    85990869.2644   20999838.430  
                
  19437893.289   104016124.135                    80901441.568    19437896.695  
  19437891.219  
  22489626.266   120051181.320                    93373156.418    22489630.500  
  22489624.547  
  21238724.891   111610267.373    21238734.867    86969099.4754   21238735.223  
                
  19319356.914   103091826.683                                                  
  19319354.328  
  23309602.312   122492795.293    23309610.855    95448972.6184   23309610.844  
                
  21102402.961   110893889.254    21102412.012    86410885.0374   21102411.539  
                
 21  8 15 10 30 10.0000000  0 13R20G22G21R 5R 7G27G32R21R22G 8R 6G23
                                G10
  20802580.680   111240770.030                    86520628.055    20802588.242  
  20802579.719  
  24543196.594   128975369.435    24543203.711   100500318.2454                 
                
  22924607.516   120469656.525    22924614.215    93872497.8554                 
                
  20837951.570   111390805.337                    86637301.197    20837956.449  
  20837951.250  
  22633359.867   121158157.024                    94234129.201    22633367.059  
  22633358.215  
  21408857.570   112504291.512    21408866.660    87665747.3044   21408866.691  
                
  20997051.461   110340281.222    20997060.418    85979494.9064   20997060.703  
                
  19435319.844   104002353.155                    80890730.796    19435323.246  
  19435317.793  
  22482338.281   120012277.687                    93342898.063    22482342.504  
  22482336.547  
  21238897.234   111611173.038    21238907.156    86969805.1884   21238907.551  
                
  19317091.945   103079740.483                                                  
  19317089.344  
  23315250.734   122522477.900    23315259.246    95472101.9154   23315259.262  
                
  21105466.820   110909989.928    21105475.867    86423431.0154   21105475.387  
                
 21  8 15 10 30 20.0000000  0 13R20G22G21R 5R 7G27G32R21R22G 8R 6G23
                                G10
  20808066.102   111270102.986                    86543442.573    20808073.680  
  20808065.203  
  24537575.641   128945831.186    24537582.793   100477301.4544                 
                
  22920126.406   120446108.269    22920133.102    93854148.5854                 
                
  20843865.664   111422419.526                    86661890.001    20843870.512  
  20843865.336  
  22626172.680   121119683.823                    94204205.623    22626179.926  
  22626171.105  
  21413114.805   112526663.419    21413123.887    87683179.9504   21413123.918  
                
  20994284.922   110325742.992    20994293.910    85968166.4274   20994294.184  
                
  19432759.219   103988650.754                    80880073.382    19432762.633  
  19432757.184  
  22475053.234   119973390.078                    93312652.193    22475057.531  
  22475051.535  
  21239082.219   111612145.182    21239092.090    86970562.7054   21239092.523  
                
  19314840.570   103067726.783                                                  
  19314837.961  
  23320900.922   122552169.750    23320909.426    95495238.4074   23320909.457  
                
  21108536.258   110926119.961    21108545.297    86435999.8754   21108544.820  
                
 21  8 15 10 30 30.0000000  0 13R20G22G21R 5R 7G27G32R21R22G 8R 6G23
                                G10
  20813561.617   111299489.863                    86566298.996    20813569.203  
  20813560.730  
  24531957.188   128916306.380    24531964.379   100454295.1444                 
                
  22915647.773   120422572.888    22915654.438    93835809.3294                 
                
  20849787.102   111454072.961                    86686509.328    20849791.926  
  20849786.766  
  22618991.242   121081241.440                    94174306.011    22618998.531  
  22618989.770  
  21417382.156   112549088.421    21417391.234    87700653.9684   21417391.246  
                
  20991529.531   110311263.303    20991538.551    85956883.5574   20991538.809  
                
  19430211.336   103975016.543                    80869468.986    19430214.766  
  19430209.316  
  22467771.250   119934518.266                    93282418.583    22467775.527  
  22467769.516  
  21239279.781   111613183.384    21239289.625    86971371.6874   21239290.078  
                
  19312602.727   103055785.267                                                  
  19312600.109  
  23326552.781   122581870.406    23326561.297    95518381.7544   23326561.328  
                
  21111611.211   110942278.943    21111620.234    86448591.2844   21111619.766  
                
 21  8 15 10 30 40.0000000  0 13R20G22G21R 5R 7G27G32R21R22G 8R 6G23
                                G10
  20819067.188   111328930.403                    86589197.189    20819074.766  
  20819066.324  
  24526341.344   128886794.800    24526348.520   100431299.1414                 
                
  22911171.531   120399050.113    22911178.184    93817479.9004                 
                
  20855715.805   111485765.282                    86711158.907    20855720.625  
  20855715.469  
  22611815.555   121042829.617                    94144430.176    22611822.844  
  22611814.117  
  21421659.531   112571566.159    21421668.590    87718169.0824   21421668.605  
                
  20988785.234   110296841.946    20988794.266    85945646.1404   20988794.512  
                
  19427676.172   103961450.365                    80858917.521    19427679.621  
  19427674.152  
  22460492.211   119895662.201                    93252197.214    22460496.449  
  22460490.461  
  21239489.891   111614287.456    21239499.742    86972232.0014   21239500.199  
                
  19310378.359   103043915.662                                                  
  19310375.762  
  23332206.258   122611579.569    23332214.797    95541531.7264   23332214.812  
                
  21114691.609   110958466.577    21114700.609    86461205.0204   21114700.148  
                
 21  8 15 10 30 50.0000000  0 13R20G22G21R 5R 7G27G32R21R22G 8R 6G23
                                G10
  20824582.664   111358424.005                    86612136.655    20824590.250  
  20824581.816  
  24520728.039   128857296.112    24520735.113   100408313.1974                 
                
  22906697.617   120375539.596    22906704.266    93799160.0384                 
                
  20861651.695   111517496.064                    86735838.392    20861656.520  
  20861651.355  
  22604645.625   121004448.386                    94114578.119    22604652.863  
  22604644.164  
  21425946.867   112594096.226    21425955.898    87735724.9774   21425955.938  
                
  20986051.977   110282478.589    20986061.004    85934453.9204   20986061.258  
                
  19425153.664   103947951.948                    80848418.753    19425157.141  
  19425151.648  
  22453216.031   119856821.653                    93221987.925    22453220.320  
  22453214.273  
  21239712.430   111615456.957    21239722.316    86973143.2924   21239722.770  
                
  19308167.445   103032117.810                                                  
  19308164.840  
  23337861.281   122641296.858    23337869.852    95564688.0384   23337869.836  
                
  21117777.391   110974682.462    21117786.367    86473840.7674   21117785.926  
                
 21  8 15 10 31  0.0000000  0 13R20G22G21R 5R 7G27G32R21R22G 8R 6G23
                                G10
  20830108.289   111387971.996                    86635118.379    20830115.902  
  20830107.402  
  24515117.383   128827811.454    24515124.359   100385338.1504                 
                
  22902226.289   120352042.659    22902232.961    93780850.7564                 
                
  20867594.938   111549266.148                    86760548.449    20867599.770  
  20867594.590  
  22597481.547   120966098.691                    94084750.606    22597488.797  
  22597480.121  
  21430244.375   112616679.716    21430253.383    87753322.4924   21430253.434  
                
  20983329.992   110268174.492    20983339.008    85923307.8844   20983339.266  
                
  19422644.062   103934522.610                    80837973.724    19422647.555  
  19422642.035  
  22445943.016   119817997.922                    93191791.737    22445947.305  
  22445941.246  
  21239947.680   111616693.149    21239957.621    86974106.5464   21239958.043  
                
  19305970.133   103020392.579                                                  
  19305967.531  
  23343518.047   122671023.392    23343526.617    95587851.5574   23343526.590  
                
  21120868.750   110990927.720    21120877.723    86486499.4114   21120877.297  
                
 21  8 15 10 31 10.0000000  0 13R20G22G21R 5R 7G27G32R21R22G 8R 6G23
                                G10
  20835643.969   111417573.764                    86658141.957    20835651.617  
  20835643.117  
  24509509.148   128798340.505    24509516.234   100362373.7914                 
                
  22897757.461   120328558.872    22897764.148    93762551.7224                 
                
  20873545.492   111581075.283                    86785288.864    20873550.324  
  20873545.129  
  22590323.367   120927780.407                    94054947.525    22590330.621  
  22590321.941  
  21434551.953   112639316.137    21434560.961    87770961.2614   21434561.004  
                
  20980619.219   110253929.297    20980628.207    85912207.7364   20980628.480  
                
  19420147.328   103921162.110                    80827582.221    19420150.828  
  19420145.293  
  22438673.031   119779190.551                    93161608.259    22438677.387  
  22438671.285  
  21240195.547   111617995.663    21240205.551    86975121.4904   21240205.938  
                
  19303786.375   103008739.648                                                  
  19303783.770  
  23349176.492   122700758.736    23349185.055    95611021.9454   23349185.004  
                
  21123965.633   111007201.932    21123974.613    86499180.6114   21123974.184  
                
 21  8 15 10 31 20.0000000  0 13R20G22G21R 5R 7G27G32R21R22G 8R 6G23
                                G10
  20841189.625   111447228.876                    86681207.031    20841197.293  
  20841188.766  
  24503903.500   128768882.860    24503910.633   100339419.8084                 
                
  22893291.070   120305087.883    22893297.742    93744262.6474                 
                
  20879503.234   111612922.823                    86810059.154    20879508.051  
  20879502.867  
  22583170.898   120889493.059                    94025168.501    22583178.223  
  22583169.531  
  21438869.516   112662005.067    21438878.531    87788640.9414   21438878.570  
                
  20977919.578   110239742.656    20977928.527    85901153.2204   20977928.816  
                
  19417663.391   103907870.092                    80817243.992    19417666.910  
  19417661.336  
  22431406.109   119740399.550                    93131437.494    22431410.387  
  22431404.375  
  21240455.984   111619364.246    21240466.027    86976187.9144   21240466.395  
                
  19301616.094   102997158.616                                                  
  19301613.496  
  23354836.531   122730502.511    23354845.094    95634198.8864   23354845.023  
                
  21127067.945   111023504.684    21127076.934    86511884.0454   21127076.496  
                
 21  8 15 10 31 30.0000000  0 13R20G22G21R 5R 7G27G32R21R22G 8R 6G23
                                G10
  20846745.281   111476937.497                    86704313.719    20846752.957  
  20846744.383  
  24498300.383   128739438.597    24498307.590   100316476.2514                 
                
  22888827.125   120281629.683    22888833.758    93725983.5354                 
                
  20885468.148   111644808.665                    86834859.262    20885472.965  
  20885467.801  
  22576024.250   120851236.988                    93995413.806    22576031.695  
  22576022.941  
  21443197.062   112684746.412    21443206.082    87806361.4584   21443206.133  
                
  20975231.109   110225614.603    20975240.008    85890144.3574   20975240.312  
                
  19415192.281   103894646.708                    80806959.143    19415195.828  
  19415190.203  
  22424142.273   119701624.653                    93101279.271    22424146.543  
  22424140.496  
  21240728.922   111620798.486    21240738.980    86977305.5074   21240739.340  
                
  19299459.297   102985649.487                                                  
  19299456.723  
  23360498.180   122760254.624    23360506.723    95657382.3454   23360506.656  
                
  21130175.672   111039835.889    21130184.680    86524609.6704   21130184.242  
                
 21  8 15 10 31 40.0000000  0 13R20G22G21R 5R 7G27G32R21R22G 8R 6G23
                                G10
  20852310.930   111506699.546                    86727461.956    20852318.617  
  20852310.012  
  24492699.891   128710007.943    24492707.129   100293543.3044                 
                
  22884365.672   120258184.586    22884372.262    93707714.6424                 
                
  20891440.211   111676732.759                    86859689.113    20891445.039  
  20891439.875  
  22568883.547   120813012.344                    93965683.532    22568890.992  
  22568882.230  
  21447534.602   112707540.284    21447543.633    87824122.9074   21447543.680  
                
  20972553.836   110211545.456    20972562.695    85879181.3814   20972563.008  
                
  19412734.039   103881492.191                    80796727.856    19412737.602  
  19412731.965  
  22416881.602   119662866.509                    93071134.044    22416885.762  
  22416879.785  
  21241014.438   111622298.864    21241024.488    86978474.6314   21241024.848  
                
  19297316.047   102974212.722                                                  
  19297313.488  
  23366161.461   122790015.270    23366169.984    95680572.4484   23366169.910  
                
  21133288.859   111056195.766    21133297.895    86537357.6184   21133297.453  
                
 21  8 15 10 31 50.0000000  0 13R20G22G21R 5R 7G27G32R21R22G 8R 6G23
                                G10
  20857886.570   111536515.082                    86750651.810    20857894.262  
  20857885.609  
  24487101.977   128680591.007    24487109.281   100270621.0374                 
                
  22879906.750   120234752.779    22879913.324    93689456.1064                 
                
  20897419.492   111708695.375                    86884548.914    20897424.316  
  20897419.152  
  22561748.789   120774819.275                    93935977.848    22561756.238  
  22561747.434  
  21451882.148   112730386.734    21451891.184    87841925.3324   21451891.215  
                
  20969887.789   110197535.301    20969896.629    85868264.3884   20969896.949  
                
  19410288.734   103868406.873                    80786550.389    19410292.301  
  19410286.652  
  22409624.055   119624125.209                    93041001.988    22409628.160  
  22409622.246  
  21241312.578   111623865.529    21241322.605    86979695.4074   21241322.977  
                
  19295186.344   102962848.178                                                  
  19295183.789  
  23371826.367   122819784.506    23371834.910    95703769.2504   23371834.809  
                
  21136407.500   111072584.348    21136416.570    86550127.9414   21136416.125  
                
 21  8 15 10 32  0.0000000  0 13R20G22G21R 5R 7G27G32R21R22G 8R 6G23
                                G10
  20863472.102   111566383.460                    86773882.761    20863479.801  
  20863471.102  
  24481506.594   128651187.341    24481513.914   100247709.1214                 
                
  22875450.250   120211333.767    22875456.828    93671207.5334                 
                
  20903405.805   111740695.688                    86909438.046    20903410.621  
  20903405.488  
  22554619.719   120736657.462                    93906296.473    22554627.277  
  22554618.477  
  21456239.586   112753285.161    21456248.598    87859768.2504   21456248.648  
                
  20967232.883   110183583.711    20967241.707    85857393.0204   20967242.027  
                
  19407856.281   103855390.381                    80776426.452    19407859.855  
  19407854.195  
  22402369.609   119585400.546                    93010882.791    22402373.680  
  22402367.848  
  21241623.211   111625497.913    21241633.191    86980967.3934   21241633.570  
                
  19293070.109   102951555.578                                                  
  19293067.570  
  23377492.828   122849561.803    23377501.363    95726972.3364   23377501.254  
                
  21139531.500   111089001.100    21139540.602    86562920.2034   21139540.141  
                
 21  8 15 10 32 10.0000000  0 13R20G22G21R 5R 7G27G32R21R22G 8R 6G23
                                G10
  20869067.656   111596305.284                    86797155.280    20869075.348  
  20869066.656  
  24475913.891   128621797.365    24475921.168   100224807.8624                 
                
  22870996.297   120187928.094    22871002.875    93652969.3654                 
                
  20909399.250   111772734.105                    86934356.813    20909404.066  
  20909398.918  
  22547496.531   120698527.355                    93876639.761    22547504.242  
  22547495.383  
  21460606.984   112776235.951    21460615.973    87877651.9824   21460616.039  
                
  20964589.219   110169691.195    20964598.035    85846567.6854   20964598.340  
                
  19405436.773   103842443.131                    80766356.374    19405440.352  
  19405434.688  
  22395118.398   119546692.987                    92980776.916    22395122.359  
  22395116.648  
  21241946.469   111627196.649    21241956.391    86982291.0774   21241956.781  
                
  19290967.383   102940335.070                                                  
  19290964.875  
  23383160.898   122879347.571    23383169.406    95750182.0164   23383169.293  
                
  21142660.938   111105446.446    21142670.070    86575734.7564   21142669.590  
                
 21  8 15 10 32 20.0000000  0 14R20G 1G22G21R 5R 7G27G32R21R22G 8R 6
                                G23G10
  20874673.078   111626280.039                    86820468.935    20874680.770  
  20874672.066  
  24192875.414   127134423.063    24192886.914    99065825.1674   24192886.617  
                
  24470323.711   128592420.910    24470330.992   100201917.1524                 
                
  22866544.875   120164535.755    22866551.457    93634741.5784                 
                
  20915399.734   111804810.108                    86959304.801    20915404.562  
  20915399.379  
  22540379.320   120660428.860                    93847007.640    22540387.121  
  22540378.188  
  21464984.297   112799238.804    21464993.266    87895576.2754   21464993.340  
                
  20961956.750   110155857.531    20961965.570    85835788.2164   20961965.867  
                
  19403030.188   103829565.030                    80756340.074    19403033.762  
  19403028.102  
  22387870.359   119508002.425                    92950684.284    22387874.285  
  22387868.633  
  21242282.258   111628961.204    21242292.102    86983666.0474   21242292.535  
                
  19288878.188   102929186.687                                                  
  19288875.688  
  23388830.523   122909141.539    23388839.027    95773398.0844   23388838.914  
                
  21145795.773   111121920.094    21145804.926    86588571.3504   21145804.438  
                
 21  8 15 10 32 30.0000000  0 14R20G 1G22G21R 5R 7G27G32R21R22G 8R 6
                                G23G10
  20880288.422   111656307.851                    86843823.894    20880296.121  
  20880287.402  
  24186449.562   127100655.219    24186460.973    99039512.5884   24186460.730  
                
  24464736.141   128563057.796    24464743.312   100179036.8054                 
                
  22862095.891   120141156.301    22862102.516    93616523.8544                 
                
  20921407.203   111836923.472                    86984281.856    20921412.055  
  20921406.836  
  22533267.984   120622361.982                    93817400.108    22533275.871  
  22533266.926  
  21469371.461   112822293.455    21469380.410    87913540.9224   21469380.496  
                
  20959335.461   110142082.626    20959344.273    85825054.5344   20959344.559  
                
  19400636.508   103816756.017                    80746377.510    19400640.086  
  19400634.430  
  22380625.406   119469328.659                    92920604.734    22380629.426  
  22380623.723  
  21242630.570   111630791.605    21242640.348    86985092.3354   21242640.820  
                
  19286802.453   102918110.185                                                  
  19286799.949  
  23394501.672   122938943.507    23394510.184    95796620.3864   23394510.062  
                
  21148935.938   111138421.821    21148945.102    86601429.8374   21148944.609  
                
 21  8 15 10 32 40.0000000  0 14R20G 1G22G21R 5R 7G27G32R21R22G 8R 6
                                G23G10
  20885913.680   111686388.640                    86867220.056    20885921.367  
  20885912.668  
  24180024.359   127066890.655    24180035.734    99013202.5564   24180035.512  
                
  24459151.117   128533708.416    24459158.250   100156167.1964                 
                
  22857649.492   120117790.305    22857656.098    93598316.5884                 
                
  20927421.727   111869074.516                    87009288.213    20927426.586  
  20927421.375  
  22526162.672   120584327.143                    93787817.462    22526170.590  
  22526161.664  
  21473768.547   112845400.248    21473777.488    87931546.2094   21473777.590  
                
  20956725.445   110128366.936    20956734.234    85814366.9874   20956734.527  
                
  19398255.844   103804016.619                    80736469.092    19398259.430  
  19398253.766  
  22373383.773   119430672.327                    92890538.706    22373387.773  
  22373382.039  
  21242991.438   111632688.005    21243001.164    86986570.0424   21243001.668  
                
  19284740.250   102907105.935                                                  
  19284737.773  
  23400174.398   122968753.856    23400182.914    95819849.2114   23400182.801  
                
  21152081.523   111154952.019    21152090.707    86614310.5064   21152090.203  
                
 21  8 15 10 32 50.0000000  0 14R20G 1G22G21R 5R 7G27G32R21R22G 8R 6
                                G23G10
  20891548.789   111716522.123                    86890657.208    20891556.496  
  20891547.785  
  24173599.695   127033128.832    24173611.055    98986894.6344   24173610.836  
                
  24453568.688   128504372.311    24453575.707   100133307.9214                 
                
  22853205.547   120094437.226    22853212.094    93580119.3894                 
                
  20933443.180   111901262.604                    87034323.391    20933448.035  
  20933442.836  
  22519063.180   120546323.836                    93758259.362    22519071.211  
  22519062.273  
  21478175.430   112868558.553    21478184.355    87949591.6334   21478184.473  
                
  20954126.602   110114709.938    20954135.363    85803725.1764   20954135.676  
                
  19395888.094   103791346.349                    80726614.449    19395891.695  
  19395886.004  
  22366145.367   119392033.227                    92860486.109    22366149.324  
  22366143.621  
  21243364.797   111634650.001    21243374.484    86988098.8654   21243375.008  
                
  19282691.492   102896173.358                                                  
  19282689.008  
  23405848.617   122998571.990    23405857.117    95843084.1034   23405857.027  
                
  21155232.422   111171510.101    21155241.621    86627212.9014   21155241.105  
                
 21  8 15 10 33  0.0000000  0 14R20G 1G22G21R 5R 7G27G32R21R22G 8R 6
                                G23G10
  20897193.695   111746707.981                    86914135.078    20897201.426  
  20897192.711  
  24167175.469   126999369.683    24167186.887    98960588.8484   24167186.711  
                
  24447988.789   128475049.415    24447995.668   100110458.9144                 
                
  22848764.047   120071097.004    22848770.562    93561932.2184                 
                
  20939471.516   111933487.377                    87059387.090    20939476.352  
  20939471.184  
  22511969.672   120508351.905                    93728725.664    22511977.723  
  22511968.746  
  21482592.078   112891768.172    21482601.000    87967677.0374   21482601.129  
                
  20951538.914   110101111.562    20951547.656    85793129.0444   20951547.973  
                
  19393533.289   103778745.295                    80716813.637    19393536.895  
  19393531.188  
  22358910.133   119353411.041                    92830446.628    22358913.992  
  22358908.406  
  21243750.594   111636677.337    21243760.250    86989678.6004   21243760.801  
                
  19280656.164   102885312.447                                                  
  19280653.688  
  23411524.281   123028397.732    23411532.750    95866324.9394   23411532.680  
                
  21158388.602   111188095.893    21158397.801    86640136.8954   21158397.297  
                
 21  8 15 10 33 10.0000000  0 14R20G 1G22G21R 5R 7G27G32R21R22G 8R 6
                                G23G10
  20902848.617   111776947.389                    86937654.596    20902856.371  
  20902847.645  
  24160751.984   126965614.552    24160763.531    98934286.1904   24160763.352  
                
  24442411.594   128445741.024    24442418.434   100087621.2524                 
                
  22844325.250   120047770.998    22844331.758    93543756.1224                 
                
  20945506.914   111965749.988                    87084480.242    20945511.750  
  20945506.590  
  22504882.391   120470412.941                    93699217.613    22504890.426  
  22504881.352  
  21487018.727   112915030.301    21487027.648    87985803.3614   21487027.770  
                
  20948962.633   110087573.156    20948971.371    85782579.6374   20948971.695  
                
  19391191.648   103766214.745                    80707067.659    19391195.254  
  19391189.555  
  22351678.336   119314807.313                    92800421.512    22351682.203  
  22351676.633  
  21244149.133   111638771.628    21244158.770    86991310.5104   21244159.324  
                
  19278634.469   102874524.338                                                  
  19278631.984  
  23417201.617   123058232.371    23417210.070    95889572.6804   23417210.023  
                
  21161550.281   111204710.642    21161559.457    86653083.4514   21161558.969  
                
 21  8 15 10 33 20.0000000  0 14R20G 1G22G21R 5R 7G27G32R21R22G 8R 6
                                G23G10
  20908513.453   111807239.777                    86961215.336    20908521.199  
  20908512.488  
  24154329.148   126931862.956    24154340.887    98907986.3224   24154340.699  
                
  24436837.016   128416446.618    24436843.867   100064794.4654                 
                
  22839889.062   120024458.700    22839895.559    93525590.6974                 
                
  20951549.320   111998050.022                    87109602.483    20951554.141  
  20951549.027  
  22497801.055   120432506.481                    93669734.837    22497809.168  
  22497800.031  
  21491455.250   112938344.348    21491464.168    88003970.1434   21491464.293  
                
  20946397.672   110074094.216    20946406.410    85772076.5784   20946406.730  
                
  19388863.125   103753754.373                    80697376.256    19388866.734  
  19388861.027  
  22344449.938   119276221.650                    92770410.454    22344453.773  
  22344448.219  
  21244560.258   111640932.077    21244569.891    86992993.9684   21244570.461  
                
  19276626.367   102863808.759                                                  
  19276623.863  
  23422880.555   123088075.314    23422889.012    95912826.8994   23422888.977  
                
  21164717.375   111221353.785    21164726.523    86666052.1374   21164726.039  
                
 21  8 15 10 33 30.0000000  0 14R20G 1G22G21R 5R 7G27G32R21R22G 8R 6
                                G23G10
  20914188.195   111837585.112                    86984817.244    20914195.949  
  20914187.242  
  24147907.094   126898115.001    24147918.926    98881689.2604   24147918.719  
                
  24431265.172   128387166.269    24431272.000   100041978.6404                 
                
  22835455.500   120001160.221    22835461.977    93507436.0634                 
                
  20957598.656   112030387.153                    87134753.578    20957603.484  
  20957598.371  
  22490725.836   120394632.440                    93640277.306    22490733.957  
  22490724.797  
  21495901.641   112961710.261    21495910.531    88022177.3474   21495910.684  
                
  20943844.031   110060674.835    20943852.781    85761619.9224   20943853.094  
                
  19386547.727   103741364.219                    80687739.474    19386551.324  
  19386545.629  
  22337224.914   119237654.270                    92740413.612    22337228.801  
  22337223.215  
  21244984.000   111643158.798    21244993.648    86994729.0764   21244994.199  
                
  19274631.805   102853165.504                                                  
  19274629.281  
  23428561.055   123117926.550    23428569.512    95936087.5864   23428569.484  
                
  21167889.867   111238025.316    21167898.984    86679042.9394   21167898.496  
                
 21  8 15 10 33 40.0000000  0 14R20G 1G22G21R 5R 7G27G32R21R22G 8R 6
                                G23G10
  20919872.711   111867982.902                    87008459.957    20919880.504  
  20919871.770  
  24141485.641   126864370.196    24141497.520    98855394.5974   24141497.273  
                
  24425695.859   128357899.441    24425702.688   100019173.3424                 
                
  22831024.477   119977875.033    22831030.949    93489291.7684                 
                
  20963654.836   112062760.883                    87159933.130    20963659.668  
  20963654.586  
  22483656.695   120356790.605                    93610844.783    22483664.750  
  22483655.605  
  21500357.781   112985127.423    21500366.641    88040424.4724   21500366.816  
                
  20941301.633   110047314.488    20941310.387    85751209.2674   20941310.703  
                
  19384245.359   103729043.814                    80678156.943    19384248.949  
  19384243.262  
  22330003.250   119199104.598                    92710430.591    22330007.137  
  22330001.527  
  21245420.258   111645451.319    21245429.934    86996515.4514   21245430.477  
                
  19272650.750   102842594.260                                                  
  19272648.195  
  23434243.039   123147785.506    23434251.484    95959354.2854   23434251.465  
                
  21171067.641   111254724.626    21171076.746    86692055.3894   21171076.246  
                
 21  8 15 10 33 50.0000000  0 14R20G 1G22G21R 5R 7G27G32R21R22G 8R 6
                                G23G10
  20925567.117   111898433.351                    87032143.632    20925574.898  
  20925566.156  
  24135064.867   126830628.943    24135076.828    98829102.7514   24135076.531  
                
  24420129.148   128328646.472    24420135.977    99996378.8384                 
                
  22826596.055   119954603.527    22826602.543    93471158.1504                 
                
  20969717.891   112095171.287                    87185141.230    20969722.734  
  20969717.672  
  22476593.539   120318981.262                    93581437.530    22476601.609  
  22476592.457  
  21504823.734   113008596.095    21504832.570    88058711.7414   21504832.766  
                
  20938770.555   110034013.615    20938779.305    85740844.9624   20938779.629  
                
  19381956.133   103716793.701                    80668629.074    19381959.719  
  19381954.043  
  22322785.016   119160573.333                    92680461.876    22322788.934  
  22322783.273  
  21245869.078   111647809.848    21245878.801    86998353.2644   21245879.316  
                
  19270683.227   102832095.231                                                  
  19270680.645  
  23439926.578   123177652.514    23439934.973    95982627.2704   23439934.980  
                
  21174250.781   111271452.075    21174259.871    86705089.7654   21174259.379  
                
 21  8 15 10 34  0.0000000  0 14R20G 1G22G21R 5R 7G27G32R21R22G 8R 6
                                G23G10
  20931271.328   111928936.305                    87055868.139    20931279.121  
  20931270.371  
  24128644.703   126796891.189    24128656.789    98802813.6494   24128656.453  
                
  24414565.094   128299407.336    24414571.875    99973595.1144                 
                
  22822170.227   119931345.680    22822176.699    93453035.1674                 
                
  20975787.766   112127618.179                    87210377.691    20975792.621  
  20975787.570  
  22469536.500   120281204.461                    93552055.606    22469544.539  
  22469535.430  
  21509299.445   113032116.105    21509308.262    88077039.0144   21509308.473  
                
  20936250.781   110020772.140    20936259.520    85730526.9374   20936259.844  
                
  19379680.039   103704613.864                    80659155.877    19379683.613  
  19379677.949  
  22315570.219   119122060.340                    92650507.355    22315574.141  
  22315568.422  
  21246330.477   111650234.529    21246340.234    87000242.6164   21246340.723  
                
  19268729.172   102821668.067                                                  
  19268726.602  
  23445611.625   123207527.417    23445619.980    96005906.4104   23445619.969  
                
  21177439.234   111288207.499    21177448.316    86718145.9374   21177447.824  
                
 21  8 15 10 34 10.0000000  0 14R20G 1G22G21R 5R 7G27G32R21R22G 8R 6
                                G23G10
  20936985.281   111959491.276                    87079633.102    20936993.055  
  20936984.320  
  24122225.180   126763156.539    24122237.301    98776526.8994   24122236.965  
                
  24409003.539   128270181.630    24409010.383    99950821.8594                 
                
  22817746.922   119908101.110    22817753.395    93434922.5234                 
                
  20981864.367   112160101.022                    87235642.109    20981869.234  
  20981864.188  
  22462485.570   120243459.929                    93522698.778    22462493.504  
  22462484.426  
  21513784.836   113055686.942    21513793.637    88095405.8904   21513793.852  
                
  20933742.242   110007589.682    20933750.988    85720254.8954   20933751.309  
                
  19377417.023   103692504.026                    80649737.113    19377420.594  
  19377414.953  
  22308358.781   119083565.102                    92620566.641    22308362.609  
  22308356.906  
  21246804.359   111652724.770    21246814.133    87002183.0584   21246814.594  
                
  19266788.578   102811312.747                                                  
  19266785.984  
  23451298.086   123237409.762    23451306.402    96029191.3494   23451306.375  
                
  21180632.914   111304990.404    21180641.980    86731223.5264   21180641.484  
                
 21  8 15 10 34 20.0000000  0 14R20G 1G22G21R 5R 7G27G32R21R22G 8R 6
                                G23G10
  20942709.094   111990098.973                    87103439.073    20942716.867  
  20942708.105  
  24115806.375   126729425.842    24115818.562    98750243.2924   24115818.223  
                
  24403444.773   128240970.139    24403451.570    99928059.6824                 
                
  22813326.289   119884870.620    22813332.770    93416820.8644                 
                
  20987947.805   112192620.418                    87260934.975    20987952.699  
  20987947.609  
  22455440.773   120205748.404                    93493367.613    22455448.633  
  22455439.574  
  21518280.031   113079309.332    21518288.816    88113812.9424   21518289.027  
                
  20931245.086   109994467.049    20931253.848    85710029.4724   20931254.160  
                
  19375167.227   103680464.944                    80640373.380    19375170.801  
  19375165.164  
  22301150.906   119045088.931                    92590640.763    22301154.734  
  22301148.969  
  21247290.859   111655281.362    21247300.625    87004175.1914   21247301.086  
                
  19264861.578   102801029.981                                                  
  19264858.969  
  23456986.086   123267300.316    23456994.379    96052482.6784   23456994.355  
                
  21183831.977   111321801.577    21183841.031    86744323.1434   21183840.543  
                
 21  8 15 10 34 30.0000000  0 14R20G 1G22G21R 5R 7G27G32R21R22G 8R 6
                                G23G10
  20948442.711   112020759.162                    87127285.872    20948450.488  
  20948441.707  
  24109388.312   126695698.849    24109400.574    98723962.5744   24109400.230  
                
  24397888.602   128211772.619    24397895.375    99905308.3834                 
                
  22808908.320   119861654.070    22808914.801    93398730.0544                 
                
  20994038.047   112225176.179                    87286256.117    20994042.953  
  20994037.863  
  22448402.094   120168069.810                    93464062.050    22448409.910  
  22448400.859  
  21522784.969   113102982.896    21522793.730    88132259.8684   21522793.965  
                
  20928759.281   109981404.042    20928768.059    85699850.5124   20928768.367  
                
  19372930.633   103668496.471                    80631064.576    19372934.215  
  19372928.570  
  22293946.547   119006631.592                    92560729.514    22293950.348  
  22293944.664  
  21247789.930   111657903.965    21247799.680    87006218.7724   21247800.148  
                
  19262948.062   102790819.180                                                  
  19262945.426  
  23462675.594   123297198.741    23462683.855    96075780.1224   23462683.836  
                
  21187036.352   111338640.683    21187045.391    86757444.5184   21187044.910  
                
 21  8 15 10 34 40.0000000  0 14R20G 1G22G21R 5R 7G27G32R21R22G 8R 6
                                G23G10
  20954186.344   112051472.872                    87151174.299    20954194.105  
  20954185.367  
  24102971.250   126661976.830    24102983.488    98697685.6634   24102983.121  
                
  24392335.375   128182590.178    24392342.078    99882568.8374                 
                
  22804493.219   119838452.613    22804499.719    93380651.0104                 
                
  21000135.219   112257769.011                    87311606.090    21000140.121  
  21000135.031  
  22441369.750   120130425.251                    93434782.981    22441377.559  
  22441368.531  
  21527299.844   113126708.673    21527308.598    88150747.4744   21527308.844  
                
  20926285.031   109968401.794    20926293.832    85689718.8974   20926294.129  
                
  19370707.492   103656600.038                    80621811.788    19370711.074  
  19370705.434  
  22286745.922   118968194.290                    92530833.841    22286749.703  
  22286744.098  
  21248301.766   111660593.730    21248311.496    87008314.6914   21248311.973  
                
  19261048.312   102780681.822                                                  
  19261045.660  
  23468366.820   123327106.115    23468375.020    96099084.5694   23468375.008  
                
  21190246.250   111355508.799    21190255.270    86770588.5024   21190254.801  
                
 21  8 15 10 34 50.0000000  0 14R20G 1G22G21R 5R 7G27G32R21R22G 8R 6
                                G23G10
  20959939.727   112082238.692                    87175103.281    20959947.488  
  20959938.773  
  24096554.883   126628258.628    24096567.133    98671411.7954   24096566.758  
                
  24386784.789   128153421.766    24386791.398    99859840.2024                 
                
  22800080.766   119815265.120    22800087.285    93362582.8454                 
                
  21006239.117   112290397.819                    87336984.043    21006244.016  
  21006238.895  
  22434343.625   120092813.811                    93405529.690    22434351.383  
  22434342.363  
  21531824.422   113150485.505    21531833.219    88169274.8664   21531833.434  
                
  20923822.148   109955459.264    20923830.980    85679633.8134   20923831.266  
                
  19368497.594   103644774.450                    80612614.114    19368501.176  
  19368495.535  
  22279548.797   118929776.032                    92500953.002    22279552.664  
  22279547.016  
  21248826.164   111663349.481    21248835.875    87010462.0234   21248836.359  
                
  19259162.078   102770616.667                                                  
  19259159.406  
  23474059.508   123357021.341    23474067.672    96122395.1294   23474067.664  
                
  21193461.445   111372404.775    21193470.449    86783754.1934   21193469.992  
                
 21  8 15 10 35  0.0000000  0 14R20G 1G22G21R 5R 7G27G32R21R22G 8R 6
                                G23G10
  20965702.469   112113054.547                    87199071.139    20965710.227  
  20965701.516  
  24090138.852   126594542.056    24090151.090    98645139.1614   24090150.695  
                
  24381236.438   128124265.149    24381243.016    99837120.7764                 
                
  22795670.555   119792089.348    22795677.047    93344523.8144                 
                
  21012349.312   112323060.299                    87362388.197    21012354.215  
  21012349.082  
  22427323.164   120055233.132                    93376300.310    22427330.969  
  22427321.953  
  21536358.273   113174310.984    21536367.121    88187840.1584   21536367.301  
                
  20921370.195   109942574.183    20921379.047    85669593.4984   20921379.324  
                
  19366300.500   103633017.379                    80603469.722    19366304.082  
  19366298.441  
  22272354.859   118891374.370                    92471085.063    22272358.781  
  22272353.086  
  21249362.727   111666169.114    21249372.422    87012659.1414   21249372.914  
                
  19257288.922   102760621.204                                                  
  19257286.230  
  23479753.242   123386942.068    23479761.414    96145709.9654   23479761.395  
                
  21196681.516   111389326.297    21196690.516    86796939.7944   21196690.047  
                
 21  8 15 10 35 10.0000000  0 14R20G 1G22G21R 5R 7G27G32R21R22G 8R 6
                                G23G10
  20971474.984   112143922.626                    87223079.605    20971482.742  
  20971474.004  
  24083723.594   126560829.547    24083735.789    98618869.6784   24083735.387  
                
  24375690.672   128095122.643    24375697.348    99814412.3774                 
                
  22791263.031   119768927.709    22791269.492    93326475.7954                 
                
  21018466.203   112355758.540                    87387820.153    21018471.098  
  21018465.992  
  22420308.930   120017685.752                    93347096.814    22420316.770  
  22420307.785  
  21540901.812   113198187.424    21540910.668    88206445.1634   21540910.855  
                
  20918929.641   109929748.992    20918938.484    85659599.8484   20918938.758  
                
  19364116.719   103621331.528                    80594380.737    19364120.297  
  19364114.664  
  22265164.617   118852992.249                    92441232.342    22265168.559  
  22265162.797  
  21249911.875   111669054.884    21249921.559    87014907.7894   21249922.066  
                
  19255429.352   102750698.256                                                  
  19255426.652  
  23485448.461   123416870.627    23485456.672    96169030.9084   23485456.648  
                
  21199906.883   111406275.677    21199915.887    86810147.1054   21199915.406  
                
 21  8 15 10 35 20.0000000  0 14R20G 1G22G21R 5R 7G27G32R21R22G 8R 6
                                G23G10
  20977257.250   112174842.970                    87247128.741    20977264.992  
  20977256.316  
  24077309.109   126527121.266    24077321.312    98592603.5254   24077320.887  
                
  24370147.703   128065994.501    24370154.383    99791715.1414                 
                
  22786858.234   119745780.448    22786864.676    93308438.9904                 
                
  21024589.789   112388492.575                    87413279.951    21024594.691  
  21024589.582  
  22413301.031   119980172.049                    93317919.518    22413308.832  
  22413299.906  
  21545455.062   113222114.900    21545463.902    88225089.9404   21545464.121  
                
  20916500.516   109916983.872    20916509.359    85649653.0024   20916509.637  
                
  19361946.273   103609717.104                    80585347.288    19361949.859  
  19361944.219  
  22257977.938   118814629.754                    92411394.872    22257981.945  
  22257976.199  
  21250473.617   111672006.848    21250483.297    87017208.0164   21250483.801  
                
  19253583.359   102740847.761                                                  
  19253580.652  
  23491145.188   123446807.155    23491153.430    96192358.0424   23491153.418  
                
  21203137.578   111423253.064    21203146.594    86823376.2364   21203146.105  
                
 21  8 15 10 35 30.0000000  0 14R20G 1G22G21R 5R 7G27G32R21R22G 8R 6
                                G23G10
  20983049.320   112205815.637                    87271218.601    20983057.039  
  20983048.426  
  24070895.438   126493417.289    24070907.637    98566340.6934   24070907.207  
                
  24364607.484   128036880.699    24364614.180    99769029.0814                 
                
  22782456.188   119722647.594    22782462.637    93290413.4044                 
                
  21030720.055   112421262.195                    87438767.433    21030724.965  
  21030719.820  
  22406299.367   119942691.900                    93288768.315    22406307.203  
  22406298.254  
  21550018.016   113246093.343    21550026.867    88243774.4214   21550027.098  
                
  20914082.836   109904278.879    20914091.691    85639753.0164   20914091.961  
                
  19359789.211   103598174.229                    80576369.508    19359792.793  
  19359787.152  
  22250794.977   118776287.054                    92381572.776    22250799.082  
  22250793.328  
  21251047.992   111675025.141    21251057.680    87019559.9374   21251058.168  
                
  19251750.945   102731069.670                                                  
  19251748.207  
  23496843.438   123476751.604    23496851.734    96215691.3494   23496851.695  
                
  21206373.594   111440258.406    21206382.613    86836627.1534   21206382.117  
                
 21  8 15 10 35 40.0000000  0 14R20G 1G22G21R 5R 7G27G32R21R22G 8R 6
                                G23G10
  20988851.031   112236839.826                    87295348.507    20988858.723  
  20988850.199  
  24064482.445   126459717.020    24064494.645    98540080.7654   24064494.219  
                
  24359069.875   128007780.637    24359076.586    99746353.7314                 
                
  22778056.781   119699528.580    22778063.223    93272398.5994                 
                
  21036856.852   112454066.827                    87464282.154    21036861.766  
  21036856.621  
  22399303.875   119905244.924                    93259642.914    22399311.734  
  22399302.805  
  21554590.516   113270121.981    21554599.395    88262498.0274   21554599.617  
                
  20911676.477   109891633.388    20911685.340    85629899.3914   20911685.602  
                
  19357645.414   103586702.367                    80567446.952    19357649.000  
  19357643.367  
  22243615.641   118737963.565                    92351765.647    22243619.738  
  22243614.004  
  21251634.859   111678109.153    21251644.566    87021963.0594   21251645.047  
                
  19249931.961   102721363.327                                                  
  19249929.223  
  23502543.062   123506703.250    23502551.395    96239030.2694   23502551.324  
                
  21209614.789   111457290.970    21209623.816    86849899.2834   21209623.312  
                
 21  8 15 10 35 50.0000000  0 14R20G 1G22G21R 5R 7G27G32R21R22G 8R 6
                                G23G10
  20994662.492   112267916.113                    87319518.945    20994670.156  
  20994661.715  
  24058070.172   126426020.952    24058082.469    98513824.1444   24058082.016  
                
  24353535.000   127978694.844    24353541.727    99723689.4814                 
                
  22773660.070   119676423.854    22773666.500    93254394.9324                 
                
  21043000.258   112486906.766                    87489824.315    21043005.148  
  21043000.055  
  22392314.727   119867831.543                    93230543.640    22392322.555  
  22392313.625  
  21559172.656   113294201.267    21559181.562    88281261.0904   21559181.773  
                
  20909281.531   109879047.933    20909290.402    85620092.5464   20909290.660  
                
  19355514.977   103575301.945                    80558579.960    19355518.562  
  19355512.945  
  22236440.008   118699659.804                    92321973.849    22236444.094  
  22236438.426  
  21252234.289   111681259.154    21252244.008    87024417.6064   21252244.488  
                
  19248126.508   102711729.131                                                  
  19248123.754  
  23508244.148   123536662.589    23508252.484    96262375.2124   23508252.414  
                
  21212861.258   111474351.254    21212870.297    86863193.0004   21212869.785  
                
 21  8 15 10 36  0.0000000  0 14R20G 1G22G21R 5R 7G27G32R21R22G 8R 6
                                G23G10
  21000483.695   112299044.514                    87343729.892    21000491.352  
  21000482.922  
  24051658.883   126392329.469    24051671.121    98487571.0364   24051670.664  
                
  24348002.906   127949623.595    24348009.668    99701036.6134                 
                
  22769266.188   119653333.821    22769272.613    93236402.7064                 
                
  21049150.297   112519782.193                    87515394.085    21049155.199  
  21049150.090  
  22385331.867   119830452.024                    93201470.725    22385339.691  
  22385330.750  
  21563764.461   113318331.338    21563773.379    88300063.7244   21563773.598  
                
  20906898.078   109866522.821    20906906.965    85610332.7244   20906907.215  
                
  19353397.969   103563973.442                    80549768.904    19353401.547  
  19353395.949  
  22229268.070   118661376.194                    92292197.710    22229272.250  
  22229266.570  
  21252846.367   111684475.637    21252856.098    87026923.9504   21252856.566  
                
  19246334.664   102702167.546                                                  
  19246331.914  
  23513946.750   123566629.833    23513955.098    96285726.2904   23513955.031  
                
  21216113.031   111491439.449    21216122.094    86876508.4784   21216121.570  
                
 21  8 15 10 36 10.0000000  0 14R20G 1G22G21R 5R 7G27G32R21R22G 8R 6
                                G23G10
  21006314.477   112330224.110                    87367980.666    21006322.102  
  21006313.750  
  24045248.328   126358641.663    24045260.508    98461320.8314   24045260.078  
                
  24342473.477   127920565.910    24342480.168    99678394.2824                 
                
  22764874.914   119630257.559    22764881.332    93218421.2094                 
                
  21055306.750   112552691.908                    87540990.511    21055311.664  
  21055306.543  
  22378355.281   119793105.582                    93172423.521    22378363.055  
  22378354.098  
  21568365.734   113342511.184    21568374.676    88318905.1514   21568374.879  
                
  20904525.922   109854057.116    20904534.805    85600619.1964   20904535.047  
                
  19351294.250   103552716.014                    80541013.130    19351297.824  
  19351292.246  
  22222099.836   118623112.103                    92262436.777    22222104.051  
  22222098.418  
  21253470.898   111687757.563    21253480.641    87029481.2894   21253481.098  
                
  19244556.242   102692677.588                                                  
  19244553.512  
  23519650.664   123596603.998    23519659.062    96309082.7704   23519658.973  
                
  21219369.938   111508554.583    21219379.012    86889844.9394   21219378.488  
                
 21  8 15 10 36 20.0000000  0 14R20G 1G22G21R 5R 7G27G32R21R22G 8R 6
                                G23G10
  21012154.906   112361455.296                    87392271.578    21012162.492  
  21012154.191  
  24038838.531   126324958.208    24038850.770    98435074.0294   24038850.340  
                
  24336946.836   127891522.578    24336953.383    99655763.1354                 
                
  22760486.367   119607195.675    22760492.781    93200450.9274                 
                
  21061469.727   112585636.521                    87566614.110    21061474.652  
  21061469.516  
  22371385.000   119755793.147                    93143402.765    22371392.762  
  22371383.805  
  21572976.586   113366741.370    21572985.555    88337785.8094   21572985.730  
                
  20902165.211   109841651.533    20902174.066    85590952.5144   20902174.324  
                
  19349203.953   103541530.418                    80532313.222    19349207.516  
  19349201.945  
  22214935.453   118584868.291                    92232691.635    22214939.629  
  22214934.000  
  21254108.000   111691105.541    21254117.758    87032090.0994   21254118.207  
                
  19242791.375   102683259.974                                                  
  19242788.648  
  23525356.023   123626585.699    23525364.438    96332445.1164   23525364.332  
                
  21222632.070   111525697.248    21222641.160    86903202.8624   21222640.641  
                
 21  8 15 10 36 30.0000000  0 14R20G 1G22G21R 5R 7G27G32R21R22G 8R 6
                                G23G10
  21018004.922   112392737.792                    87416602.402    21018012.508  
  21018004.203  
  24032429.492   126291278.738    24032441.809    98408830.3274   24032441.363  
                
  24331422.688   127862493.036    24331429.250    99633142.7314                 
                
  22756100.516   119584147.872    22756106.930    93182491.6084                 
                
  21067639.125   112618615.465                    87592264.391    21067644.070  
  21067638.898  
  22364421.102   119718514.420                    93114408.220    22364428.758  
  22364419.840  
  21577596.938   113391021.408    21577605.918    88356705.3024   21577606.074  
                
  20899815.875   109829305.700    20899824.707    85581332.3914   20899824.984  
                
  19347127.016   103530416.324                    80523668.927    19347130.570  
  19347125.016  
  22207774.789   118546644.338                    92202961.930    22207779.000  
  22207773.285  
  21254757.594   111694519.173    21254767.359    87034750.0624   21254767.805  
                
  19241039.938   102673913.977                                                  
  19241037.242  
  23531062.727   123656574.502    23531071.113    96355813.0144   23531071.004  
                
  21225899.375   111542867.020    21225908.492    86916581.8974   21225907.977  
                
 21  8 15 10 36 40.0000000  0 14R20G 1G22G21R 5R 7G27G32R21R22G 8R 6
                                G23G10
  21023864.516   112424071.607                    87440973.120    21023872.113  
  21023863.816  
  24026021.250   126257603.364    24026033.570    98382589.8244   24026033.137  
                
  24325901.133   127833477.406    24325907.660    99610533.1654                 
                
  22751717.328   119561114.156    22751723.738    93164543.2794                 
                
  21073814.945   112651628.778                    87617941.398    21073819.898  
  21073814.730  
  22357463.453   119681269.179                    93085439.727    22357471.012  
  22357462.133  
  21582226.750   113415351.253    21582235.723    88375663.6114   21582235.883  
                
  20897477.906   109817019.709    20897486.719    85571758.8944   20897487.012  
                
  19345063.422   103519373.654                    80515080.185    19345066.957  
  19345061.438  
  22200617.875   118508440.316                    92173247.701    22200622.059  
  22200616.355  
  21255419.641   111697998.273    21255429.410    87037461.0364   21255429.852  
                
  19239301.953   102664639.798                                                  
  19239299.289  
  23536770.758   123686570.414    23536779.086    96379186.4384   23536779.000  
                
  21229171.820   111560063.887    21229180.988    86929982.0504   21229180.457  
                
 21  8 15 10 36 50.0000000  0 14R20G 1G22G21R 5R 7G27G32R21R22G 8R 6
                                G23G10
  21029733.719   112455456.724                    87465383.729    21029741.301  
  21029732.992  
  24019613.914   126223932.352    24019626.188    98356352.7114   24019625.762  
                
  24320382.258   127804475.893    24320388.809    99587934.6124                 
                
  22747336.906   119538094.927    22747343.312    93146606.2414                 
                
  21079997.188   112684676.304                    87643645.010    21080002.133  
  21079996.965  
  22350512.078   119644057.944                    93056497.696    22350519.605  
  22350510.730  
  21586866.062   113439730.997    21586875.039    88394660.8104   21586875.211  
                
  20895151.375   109804793.749    20895160.172    85562232.1814   20895160.477  
                
  19343013.297   103508403.038                    80506547.503    19343016.824  
  19343011.316  
  22193464.867   118470256.845                    92143549.443    22193469.004  
  22193463.309  
  21256094.258   111701543.401    21256104.031    87040223.4704   21256104.465  
                
  19237577.492   102655437.700                                                  
  19237574.871  
  23542480.156   123716573.566    23542488.449    96402565.5134   23542488.367  
                
  21232449.461   111577287.971    21232458.691    86943403.4114   21232458.129  
                
 21  8 15 10 37  0.0000000  0 14R20G 1G22G21R 5R 7G27G32R21R22G 8R 6
                                G23G10
  21035612.414   112486892.652                    87489833.877    21035619.977  
  21035611.691  
  24013207.305   126190265.344    24013219.508    98330118.6904   24013219.070  
                
  24314866.078   127775488.240    24314872.562    99565346.8494                 
                
  22742959.172   119515089.814    22742965.562    93128680.1704                 
                
  21086185.719   112717757.510                    87669374.834    21086190.645  
  21086185.477  
  22343566.891   119606880.083                    93027581.618    22343574.457  
  22343565.559  
  21591514.789   113464160.169    21591523.773    88413696.5124   21591523.945  
                
  20892836.203   109792627.481    20892844.992    85552751.9804   20892845.297  
                
  19340976.531   103497503.915                    80498070.395    19340980.047  
  19340974.543  
  22186315.594   118432093.351                    92113866.739    22186319.699  
  22186313.957  
  21256781.312   111705153.886    21256791.082    87043036.8264   21256791.531  
                
  19235866.430   102646307.042                                                  
  19235863.855  
  23548190.859   123746583.529    23548199.105    96425949.8854   23548199.043  
                
  21235732.195   111594538.865    21235741.500    86956845.6574   21235740.906  
                
 21  8 15 10 37 10.0000000  0 14R20G 1G22G21R 5R 7G27G32R21R22G 8R 6
                                G23G10
  21041500.672   112518379.796                    87514323.863    21041508.238  
  21041499.969  
  24006801.578   126156602.837    24006813.676    98303888.1714   24006813.242  
                
  24309352.641   127746514.851    24309359.102    99542770.1904                 
                
  22738584.188   119492099.177    22738590.559    93110765.3934                 
                
  21092380.672   112750873.035                    87695131.350    21092385.590  
  21092380.449  
  22336628.094   119569736.397                    92998692.097    22336635.645  
  22336626.762  
  21596172.969   113488639.098    21596181.957    88432770.9884   21596182.133  
                
  20890532.477   109780521.368    20890541.273    85543318.6494   20890541.570  
                
  19338953.258   103486677.011                    80489649.477    19338956.762  
  19338951.262  
  22179170.133   118393950.613                    92084200.203    22179174.215  
  22179168.469  
  21257480.859   111708830.045    21257490.629    87045901.3654   21257491.090  
                
  19234168.875   102637248.558                                                  
  19234166.340  
  23553902.914   123776600.707    23553911.121    96449339.8664   23553911.094  
                
  21239020.109   111611816.937    21239029.477    86970309.0864   21239028.871  
                
 21  8 15 10 37 20.0000000  0 14R20G 1G22G21R 5R 7G27G32R21R22G 8R 6
                                G23G10
  21047398.539   112549918.267                    87538853.786    21047406.086  
  21047397.852  
  24000396.664   126122944.801    24000408.738    98277661.1554   24000408.324  
                
  24303841.922   127717555.685    24303848.328    99520204.6294                 
                
  22734211.969   119469123.063    22734218.328    93092861.9484                 
                
  21098581.938   112784022.370                    87720914.159    21098586.867  
  21098581.719  
  22329695.703   119532626.978                    92969829.221    22329703.234  
  22329694.371  
  21600840.617   113513167.708    21600849.621    88451884.1824   21600849.785  
                
  20888240.203   109768475.438    20888249.012    85533932.2164   20888249.301  
                
  19336943.484   103475922.301                    80481284.704    19336946.965  
  19336941.484  
  22172028.539   118355828.566                    92054549.756    22172032.668  
  22172026.891  
  21258192.953   111712572.091    21258202.723    87048817.2484   21258203.199  
                
  19232484.836   102628262.118                                                  
  19232482.320  
  23559616.336   123806625.020    23559624.516    96472735.4234   23559624.496  
                
  21242313.188   111629122.127    21242322.617    86983793.6514   21242321.996  
                
 21  8 15 10 37 30.0000000  0 14R20G 1G22G21R 5R 7G27G32R21R22G 8R 6
                                G23G10
  21053305.945   112581507.667                    87563423.296    21053313.461  
  21053305.250  
  23993992.633   126089291.185    23994004.664    98251437.5844   23994004.238  
                
  24298333.836   127688610.687    24298340.289    99497650.1054                 
                
  22729842.508   119446161.435    22729848.855    93074969.7764                 
                
  21104789.531   112817205.444                    87746723.209    21104794.453  
  21104789.328  
  22322769.695   119495551.785                    92940992.992    22322777.227  
  22322768.406  
  21605517.680   113537745.777    21605526.727    88471035.9114   21605526.867  
                
  20885959.359   109756489.588    20885968.176    85524592.6024   20885968.457  
                
  19334947.203   103465239.814                    80472976.118    19334950.676  
  19334945.207  
  22164890.812   118317727.448                    92024915.583    22164895.004  
  22164889.227  
  21258917.586   111716379.990    21258927.348    87051784.4414   21258927.820  
                
  19230814.250   102619347.483                                                  
  19230811.770  
  23565331.109   123836656.324    23565339.270    96496136.4374   23565339.258  
                
  21245611.391   111646454.295    21245620.863    86997299.2314   21245620.230  
                
 21  8 15 10 37 40.0000000  0 14R20G 1G22G21R 5R 7G27G32R21R22G 8R 6
                                G23G10
  21059222.797   112613147.760                    87588032.244    21059230.312  
  21059222.098  
  23987589.469   126055642.006    23987601.402    98225217.4374   23987600.988  
                
  24292828.508   127659679.794    24292834.891    99475106.5624                 
                
  22725475.781   119423214.248    22725482.141    93057088.8674                 
                
  21111003.391   112850422.075                    87772558.383    21111008.301  
  21111003.176  
  22315850.086   119458510.459                    92912183.088    22315857.555  
  22315848.762  
  21610204.109   113562373.125    21610213.176    88490226.0374   21610213.305  
                
  20883689.938   109744563.761    20883698.746    85515299.7524   20883699.039  
                
  19332964.383   103454629.399                    80464723.569    19332967.836  
  19332962.398  
  22157757.086   118279646.964                    91995297.439    22157761.230  
  22157755.461  
  21259654.695   111720253.541    21259664.445    87054802.7934   21259664.918  
                
  19229157.109   102610504.675                                                  
  19229154.664  
  23571047.172   123866694.460    23571055.363    96519542.7624   23571055.336  
                
  21248914.688   111663813.255    21248924.191    87010825.6894   21248923.555  
                
 21  8 15 10 37 50.0000000  0 14R20G 1G22G21R 5R 7G27G32R21R22G 8R 6
                                G23G10
  21065149.219   112644839.010                    87612680.975    21065156.738  
  21065148.555  
  23981187.133   126021997.621    23981199.109    98199001.0814   23981198.699  
                
  24287325.883   127630763.329    24287332.262    99452574.2624                 
                
  22721111.898   119400281.923    22721118.266    93039219.5364                 
                
  21117223.555   112883672.419                    87798419.727    21117228.473  
  21117223.277  
  22308937.086   119421503.903                    92883400.227    22308944.398  
  22308935.676  
  21614899.977   113587050.036    21614909.043    88509454.7844   21614909.184  
                
  20881432.023   109732698.390    20881440.824    85506054.0134   20881441.133  
                
  19330995.141   103444091.591                    80456527.506    19330998.598  
  19330993.148  
  22150627.414   118241587.971                    91965696.004    22150631.488  
  22150625.750  
  21260404.352   111724192.942    21260414.094    87057872.4504   21260414.570  
                
  19227513.477   102601733.892                                                  
  19227511.059  
  23576764.633   123896739.813    23576772.859    96542954.6964   23576772.805  
                
  21252223.172   111681199.380    21252232.691    87024373.3204   21252232.047  
                
 21  8 15 10 38  0.0000000  0 14R20G 1G22G21R 5R 7G27G32R21R22G 8R 6
                                G23G10
  21071085.117   112676580.936                    87637369.130    21071092.652  
  21071084.438  
  23974785.641   125988357.835    23974797.660    98172788.3054   23974797.254  
                
  24281825.938   127601861.019    24281832.293    99430053.0084                 
                
  22716750.789   119377364.221    22716757.160    93021361.5904                 
                
  21123449.953   112916956.091                    87824307.015    21123454.883  
  21123449.672  
  22302030.344   119384531.705                    92854644.123    22302037.656  
  22302028.984  
  21619605.211   113611776.153    21619614.281    88528721.8774   21619614.426  
                
  20879185.562   109720893.210    20879194.371    85496855.1784   20879194.684  
                
  19329039.453   103433626.307                    80448387.838    19329042.902  
  19329037.480  
  22143501.617   118203550.039                    91936110.962    22143505.699  
  22143499.980  
  21261166.492   111728198.005    21261176.227    87060993.2824   21261176.699  
                
  19225883.359   102593035.249                                                  
  19225880.961  
  23582483.391   123926792.036    23582491.605    96566371.9734   23582491.547  
                
  21255536.750   111698612.338    21255546.262    87037941.8534   21255545.625  
                
 21  8 15 10 38 10.0000000  0 14R20G 1G22G21R 5R 7G27G32R21R22G 8R 6
                                G23G10
  21077030.570   112708373.942                    87662096.996    21077038.094  
  21077029.875  
  23968385.117   125954722.951    23968397.141    98146579.3424   23968396.742  
                
  24276328.688   127572973.184    24276335.035    99407543.0064                 
                
  22712392.523   119354461.433    22712398.902    93003515.2854                 
                
  21129682.625   112950273.191                    87850220.315    21129687.570  
  21129682.352  
  22295130.062   119347594.210                    92825914.986    22295137.418  
  22295128.770  
  21624319.844   113636551.644    21624328.922    88548027.4504   21624329.055  
                
  20876950.617   109709148.529    20876959.441    85487703.4844   20876959.754  
                
  19327097.383   103423233.902                    80440304.856    19327100.828  
  19327095.410  
  22136379.820   118165533.787                    91906542.773    22136383.977  
  22136378.254  
  21261941.188   111732269.045    21261950.910    87064165.5114   21261951.391  
                
  19224266.711   102584408.520                                                  
  19224264.309  
  23588203.500   123956851.356    23588211.688    96589794.8304   23588211.633  
                
  21258855.477   111716052.370    21258864.957    87051531.4824   21258864.348  
                
 21  8 15 10 38 20.0000000  0 14R20G 1G22G21R 5R 7G27G32R21R22G 8R 6
                                G23G10
  21082985.531   112740217.692                    87686864.354    21082993.035  
  21082984.820  
  23961985.547   125921092.943    23961997.559    98120374.1654   23961997.172  
                
  24270834.188   127544099.762    24270840.559    99385044.2494                 
                
  22708037.102   119331573.551    22708043.496    92985680.5824                 
                
  21135921.477   112983623.429                    87876159.392    21135926.418  
  21135921.211  
  22288236.250   119310691.310                    92797212.750    22288243.645  
  22288234.988  
  21629043.836   113661376.365    21629052.910    88567371.3804   21629053.055  
                
  20874727.188   109697464.313    20874736.035    85478598.9054   20874736.340  
                
  19325168.930   103412914.308                    80432278.512    19325172.371  
  19325166.977  
  22129262.125   118127539.005                    91876991.328    22129266.223  
  22129260.566  
  21262728.406   111736405.852    21262738.117    87067388.9904   21262738.605  
                
  19222663.617   102575854.041                                                  
  19222661.223  
  23593924.945   123986917.700    23593933.109    96613223.1264   23593933.074  
                
  21262179.336   111733519.321    21262188.773    87065142.1014   21262188.184  
                
 21  8 15 10 38 30.0000000  0 14R20G 1G22G21R 5R 7G27G32R21R22G 8R 6
                                G23G10
  21088949.938   112772111.991                    87711671.024    21088957.434  
  21088949.199  
  23955586.836   125887467.522    23955598.828    98094172.5624   23955598.449  
                
  24265342.445   127515240.441    24265348.797    99362556.4824                 
                
  22703684.438   119308700.287    22703690.855    92967857.2654                 
                
  21142166.461   113017006.508                    87902123.994    21142171.430  
  21142166.199  
  22281348.914   119273822.932                    92768537.376    22281356.336  
  22281347.668  
  21633777.117   113686249.879    21633786.184    88586753.3304   21633786.348  
                
  20872515.188   109685840.226    20872524.062    85469541.1834   20872524.348  
                
  19323254.023   103402667.257                    80424308.579    19323257.453  
  19323252.094  
  22122148.398   118089565.546                    91847456.424    22122152.480  
  22122146.816  
  21263528.047   111740608.064    21263537.742    87070663.4314   21263538.238  
                
  19221073.906   102567371.080                                                  
  19221071.520  
  23599647.648   124016990.647    23599655.812    96636656.5734   23599655.773  
                
  21265508.242   111751012.844    21265517.625    87078773.4134   21265517.066  
                
 21  8 15 10 38 40.0000000  0 14R20G 1G22G21R 5R 7G27G32R21R22G 8R 6
                                G23G10
  21094923.789   112804056.896                    87736517.033    21094931.281  
  21094923.043  
  23949189.016   125853847.082    23949201.043    98067974.8604   23949200.680  
                
  24259853.336   127486395.471    24259859.797    99340079.9144                 
                
  22699334.625   119285841.932    22699341.047    92950045.5724                 
                
  21148417.617   113050422.607                    87928114.291    21148422.605  
  21148417.328  
  22274468.125   119236989.616                    92739889.292    22274475.574  
  22274466.879  
  21638519.727   113711172.395    21638528.805    88606173.4574   21638528.973  
                
  20870314.703   109674276.638    20870323.609    85460530.6044   20870323.887  
                
  19321352.758   103392493.173                    80416395.405    19321356.172  
  19321350.848  
  22115038.742   118051613.953                    91817938.544    22115042.832  
  22115037.184  
  21264340.234   111744876.132    21264349.918    87073989.1904   21264350.422  
                
  19219497.680   102558960.025                                                  
  19219495.309  
  23605371.664   124047070.474    23605379.863    96660095.3894   23605379.793  
                
  21268842.258   111768533.180    21268851.594    87092425.6214   21268851.055  
                
 21  8 15 10 38 50.0000000  0 14R20G 1G22G21R 5R 7G27G32R21R22G 8R 6
                                G23G10
  21100907.125   112836052.409                    87761402.430    21100914.605  
  21100906.402  
  23942792.141   125820231.697    23942804.266    98041781.1144   23942803.902  
                
  24254367.086   127457565.057    24254373.566    99317614.6764                 
                
  22694987.695   119262998.647    22694994.113    92932245.6194                 
                
  21154674.953   113083871.650                    87954130.186    21154679.938  
  21154674.664  
  22267593.875   119200190.951                    92711268.143    22267601.273  
  22267592.598  
  21643271.664   113736143.911    21643280.777    88625631.7704   21643280.918  
                
  20868125.758   109662773.654    20868134.684    85451567.2424   20868134.953  
                
  19319465.164   103382392.236                    80408539.119    19319468.566  
  19319463.270  
  22107933.242   118013684.338                    91788437.750    22107937.348  
  22107931.664  
  21265164.922   111749209.847    21265174.609    87077366.1154   21265175.109  
                
  19217934.938   102550620.906                                                  
  19217932.559  
  23611096.977   124077157.223    23611105.227    96683539.5874   23611105.164  
                
  21272181.391   111786080.354    21272190.668    87106098.7394   21272190.141  
                
 21  8 15 10 39  0.0000000  0 14R20G 1G22G21R 5R 7G27G32R21R22G 8R 6
                                G23G10
  21106899.859   112868098.229                    87786326.941    21106907.363  
  21106899.145  
  23936396.203   125786621.289    23936408.395    98015591.2194   23936407.984  
                
  24248883.523   127428749.084    24248890.070    99295160.6904                 
                
  22690643.609   119240170.391    22690650.020    92914457.3804                 
                
  21160938.375   113117353.264                    87980171.444    21160943.355  
  21160938.070  
  22260726.164   119163427.482                    92682674.349    22260733.523  
  22260724.895  
  21648032.867   113761164.213    21648042.012    88645128.0974   21648042.129  
                
  20865948.320   109651331.161    20865957.258    85442651.0114   20865957.520  
                
  19317591.227   103372364.438                    80400739.721    19317594.617  
  19317589.344  
  22100831.883   117975776.823                    91758954.182    22100836.031  
  22100830.242  
  21266002.102   111753609.268    21266011.797    87080794.2204   21266012.289  
                
  19216385.641   102542353.595                                                  
  19216383.254  
  23616823.570   124107250.735    23616831.891    96706989.0354   23616831.828  
                
  21275525.594   111803654.204    21275534.805    87119792.6544   21275534.309  
                
 21  8 15 10 39 10.0000000  0 14R20G 1G22G21R 5R 7G27G32R21R22G 8R 6
                                G23G10
  21112901.977   112900194.347                    87811290.558    21112909.520  
  21112901.207  
  23930001.227   125753015.772    23930013.418    97989405.1044   23930012.984  
                
  24243402.719   127399947.349    24243409.266    99272717.7894                 
                
  22686302.336   119217356.994    22686308.734    92896680.7344                 
                
  21167207.859   113150867.282                    88006237.898    21167212.832  
  21167207.539  
  22253864.969   119126698.696                    92654107.545    22253872.238  
  22253863.680  
  21652803.312   113786233.038    21652812.488    88664662.2354   21652812.602  
                
  20863782.367   109639949.047    20863791.305    85433781.8374   20863791.582  
                
  19315730.938   103362409.679                    80392997.135    19315734.309  
  19315729.062  
  22093734.609   117937891.091                    91729487.538    22093738.762  
  22093732.922  
  21266851.750   111758074.217    21266861.453    87084273.4044   21266861.941  
                
  19214849.812   102534158.139                                                  
  19214847.406  
  23622551.422   124137350.795    23622559.816    96730443.6124   23622559.730  
                
  21278874.828   111821254.549    21278883.980    87133507.2024   21278883.512  
                
 21  8 15 10 39 20.0000000  0 14R20G 1G22G21R 5R 7G27G32R21R22G 8R 6
                                G23G10
  21118913.508   112932340.751                    87836293.291    21118921.074  
  21118912.723  
  23923607.188   125719415.375    23923619.449    97963223.0454   23923619.027  
                
  24237924.695   127371160.095    24237931.207    99250286.1944                 
                
  22681963.961   119194558.692    22681970.336    92878915.8204                 
                
  21173483.398   113184413.625                    88032329.504    21173488.363  
  21173483.043  
  22247010.258   119090005.109                    92625568.117    22247017.543  
  22247009.004  
  21657583.016   113811350.476    21657592.242    88684234.2544   21657592.332  
                
  20861627.953   109628627.505    20861636.898    85424959.8634   20861637.172  
                
  19313884.359   103352528.281                    80385311.594    19313887.723  
  19313882.477  
  22086641.672   117900027.847                    91700038.346    22086645.648  
  22086639.898  
  21267713.875   111762604.694    21267723.570    87087803.6394   21267724.055  
                
  19213327.453   102526034.559                                                  
  19213325.023  
  23628280.578   124167457.549    23628289.027    96753903.4084   23628288.906  
                
  21282229.133   111838881.479    21282238.242    87147242.4784   21282237.789  
                
 21  8 15 10 39 30.0000000  0 14R20G 1G22G21R 5R 7G27G32R21R22G 8R 6
                                G23G10
  21124934.422   112964537.202                    87861334.967    21124942.008  
  21124933.629  
  23917214.195   125685819.983    23917226.391    97937044.8094   23917225.957  
                
  24232449.375   127342387.198    24232455.871    99227865.7704                 
                
  22677628.414   119171775.311    22677634.754    92861162.5484                 
                
  21179764.945   113217992.136                    88058446.125    21179769.898  
  21179764.594  
  22240162.141   119053346.673                    92597056.035    22240169.441  
  22240160.848  
  21662371.930   113836516.290    21662381.195    88703843.9674   21662381.266  
                
  20859485.039   109617366.414    20859493.996    85416184.9904   20859494.270  
                
  19312051.453   103342720.033                    80377682.960    19312054.793  
  19312049.570  
  22079552.688   117862186.698                    91670606.356    22079556.695  
  22079550.938  
  21268588.484   111767200.720    21268598.172    87091384.9604   21268598.645  
                
  19211818.484   102517982.381                                                  
  19211816.031  
  23634010.961   124197570.811    23634019.469    96777368.2624   23634019.301  
                
  21285588.461   111856534.817    21285597.539    87160998.3214   21285597.098  
                
 21  8 15 10 39 40.0000000  0 14R20G 1G22G21R 5R 7G27G32R21R22G 8R 6
                                G23G10
  21130964.695   112996783.744                    87886415.600    21130972.277  
  21130963.906  
  23910822.141   125652229.682    23910834.328    97910870.5864   23910833.898  
                
  24226976.727   127313628.727    24226983.254    99205456.5914                 
                
  22673295.742   119149007.043    22673302.059    92843421.0454                 
                
  21186052.508   113251602.854                    88084587.796    21186057.477  
  21186052.117  
  22233320.586   119016723.459                    92568571.347    22233327.891  
  22233319.293  
  21667170.023   113861730.423    21667179.332    88723491.3264   21667179.391  
                
  20857353.641   109606165.866    20857362.609    85407457.2964   20857362.906  
                
  19310232.266   103332985.189                    80370111.415    19310235.590  
  19310230.391  
  22072467.961   117824368.083                    91641191.899    22072471.977  
  22072466.219  
  21269475.516   111771862.125    21269485.176    87095017.2174   21269485.652  
                
  19210322.961   102510002.054                                                  
  19210320.508  
  23639742.578   124227690.584    23639751.102    96800838.1984   23639750.922  
                
  21288952.812   111874214.556    21288961.871    87174774.7454   21288961.422  
                
 21  8 15 10 39 50.0000000  0 14R20G 1G22G21R 5R 7G27G32R21R22G 8R 6
                                G23G10
  21137004.320   113029080.262                    87911535.102    21137011.922  
  21137003.516  
  23904431.164   125618644.667    23904443.258    97884700.4714   23904442.793  
                
  24221506.914   127284884.675    24221513.383    99183058.6624                 
                
  22668965.961   119126253.980    22668972.281    92825691.3974                 
                
  21192346.039   113285245.484                    88110754.268    21192351.023  
  21192345.660  
  22226485.594   118980135.461                    92540114.013    22226492.898  
  22226484.309  
  21671977.312   113886992.863    21671986.672    88743176.3334   21671986.719  
                
  20855233.781   109595025.942    20855242.750    85398776.8364   20855243.051  
                
  19308426.781   103323323.714                    80362596.929    19308430.098  
  19308424.895  
  22065387.492   117786572.170                    91611795.102    22065391.539  
  22065385.762  
  21270375.070   111776589.302    21270384.707    87098700.7304   21270385.191  
                
  19208840.914   102502093.668                                                  
  19208838.449  
  23645475.430   124257816.904    23645483.953    96824313.2464   23645483.785  
                
  21292322.195   111891920.749    21292331.246    87188571.7804   21292330.793  
                
 21  8 15 10 40  0.0000000  0 14R20G 1G22G21R 5R 7G27G32R21R22G 8R 6
                                G23G10
  21143053.227   113061426.419                    87936693.195    21143060.871  
  21143052.422  
  23898041.148   125585064.598    23898053.090    97858534.1794   23898052.637  
                
  24216040.000   127256154.825    24216046.270    99160671.7714                 
                
  22664639.016   119103515.855    22664645.340    92807973.4004                 
                
  21198645.484   113318919.652                    88136945.284    21198650.488  
  21198645.094  
  22219657.180   118943582.471                    92511683.933    22219664.488  
  22219655.895  
  21676793.727   113912303.199    21676803.129    88762898.6604   21676803.164  
                
  20853125.406   109583946.344    20853134.371    85390143.3934   20853134.676  
                
  19306635.008   103313735.559                    80355139.471    19306638.305  
  19306633.129  
  22058311.203   117748798.504                    91582415.604    22058315.238  
  22058309.492  
  21271287.031   111781381.674    21271296.648    87102435.0444   21271297.152  
                
  19207372.258   102494256.639                                                  
  19207369.762  
  23651209.477   124287949.391    23651218.020    96847793.0984   23651217.855  
                
  21295696.539   111909653.012    21295705.582    87202389.1194   21295705.129  
                
 21  8 15 10 40 10.0000000  0 14R20G 1G22G21R 5R 7G27G32R21R22G 8R 6
                                G23G10
  21149111.461   113093822.573                    87961890.186    21149119.148  
  21149110.676  
  23891652.070   125551489.986    23891664.012    97832372.1744   23891663.609  
                
  24210575.742   127227439.518    24210581.926    99138296.2334                 
                
  22660315.047   119080793.291    22660321.363    92790267.5244                 
                
  21204950.906   113352625.746                    88163161.114    21204955.906  
  21204950.473  
  22212835.430   118907065.088                    92483281.574    22212842.754  
  22212834.133  
  21681619.320   113937661.814    21681628.750    88782658.6034   21681628.781  
                
  20851028.602   109572927.574    20851037.559    85381557.3394   20851037.859  
                
  19304857.047   103304221.333                    80347739.526    19304860.336  
  19304855.188  
  22051239.234   117711047.942                    91553054.093    22051243.254  
  22051237.551  
  21272211.469   111786239.665    21272221.066    87106220.4814   21272221.582  
                
  19205917.078   102486491.521                                                  
  19205914.562  
  23656944.758   124318088.482    23656953.367    96871278.0784   23656953.203  
                
  21299075.922   111927411.741    21299084.977    87216227.0884   21299084.516  
                
 21  8 15 10 40 20.0000000  0 14R20G 1G22G21R 5R 7G27G32R21R22G 8R 6
                                G23G10
  21155179.031   113126268.531                    87987125.905    21155186.750  
  21155178.270  
  23885264.008   125517920.705    23885275.977    97806214.3224   23885275.570  
                
  24205114.219   127198738.734    24205120.363    99115931.9884                 
                
  22655993.992   119058086.063    22656000.312    92772573.5794                 
                
  21211262.242   113386363.527                    88189401.601    21211267.242  
  21211261.797  
  22206020.391   118870583.239                    92454906.814    22206027.617  
  22206019.020  
  21686454.047   113963068.410    21686463.488    88802455.9334   21686463.523  
                
  20848943.344   109561969.494    20848952.289    85373018.5714   20848952.590  
                
  19303092.875   103294780.885                    80340396.952    19303096.145  
  19303091.023  
  22044171.594   117673320.130                    91523710.247    22044175.543  
  22044169.887  
  21273148.391   111791163.205    21273157.980    87110056.9944   21273158.492  
                
  19204475.328   102478798.156                                                  
  19204472.801  
  23662681.258   124348233.969    23662689.898    96894768.0394   23662689.723  
                
  21302460.297   111945196.734    21302469.383    87230085.5224   21302468.906  
                
 21  8 15 10 40 30.0000000  0 14R20G 1G22G21R 5R 7G27G32R21R22G 8R 6
                                G23G10
  21161255.906   113158764.418                    88012400.464    21161263.664  
  21161255.164  
  23878877.047   125484357.045    23878889.000    97780060.8424   23878888.582  
                
  24199655.430   127170052.712    24199661.617    99093579.2724                 
                
  22651675.867   119035394.300    22651682.195    92754891.7044                 
                
  21217579.508   113420132.898                    88215666.659    21217584.488  
  21217579.066  
  22199212.055   118834137.308                    92426560.017    22199219.180  
  22199210.621  
  21691297.938   113988523.173    21691307.375    88822290.8054   21691307.414  
                
  20846869.688   109551072.368    20846878.609    85364527.3094   20846878.922  
                
  19301342.547   103285414.520                    80333112.011    19301345.797  
  19301340.707  
  22037108.273   117635615.790                    91494384.683    22037112.242  
  22037106.535  
  21274097.820   111796152.530    21274107.418    87113944.7784   21274107.926  
                
  19203047.031   102471176.580                                                  
  19203044.488  
  23668419.023   124378386.043    23668427.648    96918263.1584   23668427.465  
                
  21305849.703   111963008.221    21305858.828    87243964.5954   21305858.324  
                
 21  8 15 10 40 40.0000000  0 14R20G 1G22G21R 5R 7G27G32R21R22G 8R 6
                                G23G10
  21167342.102   113191309.921                    88037713.630    21167349.859  
  21167341.332  
  23872491.148   125450798.897    23872503.094    97753911.6924   23872502.684  
                
  24194199.461   127141381.255    24194205.664    99071237.8974                 
                
  22647360.688   119012717.897    22647366.996    92737221.7924                 
                
  21223902.633   113453933.582                    88241956.085    21223907.613  
  21223902.230  
  22192410.344   118797726.970                    92398240.898    22192417.395  
  22192408.859  
  21696150.938   114014025.769    21696160.379    88842162.9394   21696160.422  
                
  20844807.602   109540236.011    20844816.484    85356083.4014   20844816.828  
                
  19299606.031   103276122.005                    80325884.493    19299609.270  
  19299604.199  
  22030049.352   117597934.625                    91465077.129    22030053.312  
  22030047.625  
  21275059.688   111801207.147    21275069.312    87117883.4434   21275069.801  
                
  19201632.172   102463626.726                                                  
  19201629.617  
  23674158.023   124408544.443    23674166.617    96941763.2104   23674166.449  
                
  21309244.109   111980845.898    21309253.270    87257864.0784   21309252.742  
                
 21  8 15 10 40 50.0000000  0 14R20G 1G22G21R 5R 7G27G32R21R22G 8R 6
                                G23G10
  21173437.531   113223904.898                    88063065.258    21173445.266  
  21173436.754  
  23866106.250   125417246.216    23866118.199    97727766.7764   23866117.785  
                
  24188746.188   127112724.268    24188752.395    99048907.7864                 
                
  22643048.430   118990056.864    22643054.730    92719563.8604                 
                
  21230231.602   113487765.531                    88268269.812    21230236.578  
  21230231.207  
  22185615.258   118761352.555                    92369949.722    22185622.324  
  22185613.820  
  21701013.008   114039576.095    21701022.445    88862072.2724   21701022.496  
                
  20842757.062   109529460.415    20842765.914    85347686.8334   20842766.270  
                
  19297883.344   103266903.550                    80318714.587    19297886.574  
  19297881.527  
  22022994.812   117560276.879                    91435787.778    22022998.707  
  22022993.059  
  21276033.992   111806327.177    21276043.641    87121873.0724   21276044.117  
                
  19200230.727   102456148.420                                                  
  19200228.156  
  23679898.188   124438709.136    23679906.824    96965268.1464   23679906.648  
                
  21312643.469   111998709.699    21312652.660    87271783.9184   21312652.105  
                
 21  8 15 10 41  0.0000000  0 14R20G 1G22G21R 5R 7G27G32R21R22G 8R 6
                                G23G10
  21179542.273   113256549.649                    88088455.609    21179550.004  
  21179541.516  
  23859722.336   125383699.296    23859734.426    97701626.3914   23859734.047  
                
  24183295.719   127084082.087    24183301.941    99026589.2274                 
                
  22638739.148   118967411.473    22638745.457    92701918.1154                 
                
  21236566.406   113521628.676                    88294607.814    21236571.375  
  21236566.016  
  22178826.875   118725014.019                    92341686.441    22178833.949  
  22178825.492  
  21705884.195   114065174.293    21705893.645    88882018.9194   21705893.695  
                
  20840718.148   109518745.858    20840726.973    85339337.8344   20840727.336  
                
  19296174.555   103257759.410                    80311602.488    19296177.766  
  19296172.738  
  22015944.711   117522642.759                    91406516.834    22015948.547  
  22015942.926  
  21277020.797   111811512.866    21277030.469    87125913.8574   21277030.918  
                
  19198842.742   102448741.938                                                  
  19198840.137  
  23685639.570   124468880.316    23685648.262    96988778.1144   23685648.074  
                
  21316047.852   112016599.839    21316057.070    87285724.2884   21316056.500  
                
 21  8 15 10 41 10.0000000  0 14R20G 1G22G21R 5R 7G27G32R21R22G 8R 6
                                G23G10
  21185656.273   113289243.928                    88113884.473    21185664.008  
  21185655.516  
  23853339.539   125350158.045    23853351.719    97675490.3974   23853351.355  
                
  24177848.023   127055454.602    24177854.258    99004282.1304                 
                
  22634432.828   118944781.663    22634439.117    92684284.5004                 
                
  21242907.016   113555522.995                    88320970.048    21242912.000  
  21242906.637  
  22172045.234   118688711.359                    92313451.060    22172052.234  
  22172043.859  
  21710764.438   114090820.146    21710773.902    88902002.6784   21710773.961  
                
  20838690.812   109508092.209    20838699.625    85331036.2904   20838699.980  
                
  19294479.617   103248689.502                    80304548.114    19294482.824  
  19294477.793  
  22008899.008   117485032.332                    91377264.310    22008902.805  
  22008897.195  
  21278020.062   111816764.062    21278029.754    87130005.6984   21278030.195  
                
  19197468.203   102441407.200                                                  
  19197465.574  
  23691382.164   124499057.777    23691390.883    97012293.0184   23691390.672  
                
  21319457.203   112034516.125    21319466.434    87299685.0284   21319465.855  
                
 21  8 15 10 41 20.0000000  0 14R20G 1G22G21R 5R 7G27G32R21R22G 8R 6
                                G23G10
  21191779.500   113321987.480                    88139351.672    21191787.234  
  21191778.668  
  23846957.836   125316622.334    23846970.035    97649358.7284   23846969.738  
                
  24172403.172   127026841.659    24172409.332    98981986.3374                 
                
  22630129.461   118922167.298    22630135.734    92666662.9264                 
                
  21249253.422   113589448.108                    88347356.230    21249258.398  
  21249253.039  
  22165270.258   118652444.697                    92285243.684    22165277.242  
  22165268.910  
  21715653.703   114116513.338    21715663.184    88922023.3274   21715663.246  
                
  20836675.055   109497499.329    20836683.863    85322782.1034   20836684.215  
                
  19292798.547   103239693.760                    80297551.424    19292801.746  
  19292796.719  
  22001857.719   117447445.461                    91348030.078    22001861.469  
  22001855.906  
  21279031.719   111822080.317    21279041.438    87134148.2254   21279041.871  
                
  19196107.062   102434143.950                                                  
  19196104.422  
  23697125.883   124529241.314    23697134.613    97035812.6384   23697134.422  
                
  21322871.500   112052458.321    21322880.734    87313665.9594   21322880.152  
                
 21  8 15 10 41 30.0000000  0 14R20G 1G22G21R 5R 7G27G32R21R22G 8R 6
                                G23G10
  21197911.930   113354780.297                    88164857.147    21197919.660  
  21197911.055  
  23840577.352   125283092.430    23840589.508    97623231.5604   23840589.223  
                
  24166960.977   126998243.294    24166967.242    98959701.9184                 
                
  22625829.062   118899568.591    22625835.332    92649053.5574                 
                
  21255605.531   113623403.715                    88373766.141    21255610.496  
  21255605.152  
  22158502.008   118616214.164                    92257064.393    22158509.031  
  22158500.703  
  21720551.977   114142253.921    21720561.465    88942080.9154   21720561.512  
                
  20834670.883   109486967.354    20834679.691    85314575.3724   20834680.031  
                
  19291131.383   103230772.410                    80290612.601    19291134.578  
  19291129.555  
  21994820.859   117409882.454                    91318814.431    21994824.598  
  21994819.066  
  21280055.852   111827462.166    21280065.594    87138341.8644   21280066.023  
                
  19194759.352   102426952.351                                                  
  19194756.691  
  23702870.781   124559431.002    23702879.523    97059337.0364   23702879.352  
                
  21326290.727   112070426.493    21326299.977    87327667.1364   21326299.391  
                
 21  8 15 10 41 40.0000000  0 14R20G 1G22G21R 5R 7G27G32R21R22G 8R 6
                                G23G10
  21204053.523   113387622.142                    88190400.785    21204061.223  
  21204052.668  
  23834197.914   125249568.300    23834210.062    97597108.8984   23834209.746  
                
  24161521.562   126969659.551    24161527.945    98937428.8974                 
                
  22621531.633   118876985.558    22621537.887    92631456.4034                 
                
  21261963.344   113657389.920                    88400199.863    21261968.305  
  21261963.000  
  22151740.523   118580019.698                    92228913.186    22151747.574  
  22151739.230  
  21725459.250   114168041.772    21725468.730    88962175.3324   21725468.785  
                
  20832678.297   109476496.284    20832687.102    85306416.1064   20832687.430  
                
  19289478.125   103221925.498                    80283731.666    19289481.309  
  19289476.301  
  21987788.539   117372343.540                    91289617.505    21987792.273  
  21987786.730  
  21281092.375   111832909.156    21281102.145    87142586.2684   21281102.582  
                
  19193425.000   102419832.145                                                  
  19193422.336  
  23708616.828   124589626.768    23708625.637    97082866.1804   23708625.453  
                
  21329714.883   112088420.589    21329724.141    87341688.4964   21329723.562  
                
 21  8 15 10 41 50.0000000  0 14R20G 1G22G21R 5R 7G27G32R21R22G 8R 6
                                G23G10
  21210204.336   113420513.132                    88215982.686    21210211.996  
  21210203.480  
  23827819.570   125216050.005    23827831.684    97570990.7704   23827831.371  
                
  24156085.023   126941090.574    24156091.492    98915167.3714                 
                
  22617237.219   118854418.281    22617243.434    92613871.5254                 
                
  21268326.914   113691406.849                    88426657.455    21268331.871  
  21268326.551  
  22144985.805   118543861.500                    92200790.181    22144992.898  
  22144984.543  
  21730375.516   114193876.872    21730384.992    88982306.5634   21730385.051  
                
  20830697.328   109466086.224    20830706.133    85298304.3774   20830706.465  
                
  19287838.812   103213153.177                    80276908.755    19287841.984  
  19287837.000  
  21980760.781   117334828.669                    91260439.286    21980764.445  
  21980758.934  
  21282141.352   111838421.534    21282151.152    87146881.6224   21282151.574  
                
  19192104.086   102412783.522                                                  
  19192101.395  
  23714364.047   124619828.676    23714372.902    97106400.1014   23714372.688  
                
  21333143.984   112106440.635    21333153.262    87355730.0874   21333152.676  
                
 21  8 15 10 42  0.0000000  0 14R20G 1G22G21R 5R 7G27G32R21R22G 8R 6
                                G23G10
  21216364.320   113453453.387                    88241602.860    21216371.977  
  21216363.500  
  23821442.383   125182537.631    23821454.375    97544877.2474   23821454.082  
                
  24150651.242   126912536.333    24150657.859    98892917.3514                 
                
  22612945.797   118831866.753    22612951.988    92596298.9184                 
                
  21274696.172   113725454.115                    88453138.637    21274701.105  
  21274695.809  
  22138237.844   118507739.570                    92172695.371    22138244.988  
  22138236.633  
  21735300.750   114219759.134    21735310.227    89002474.5464   21735310.285  
                
  20828727.969   109455737.192    20828736.793    85290240.2064   20828737.105  
                
  19286213.453   103204455.514                    80270143.905    19286216.617  
  19286211.652  
  21973737.492   117297338.216                    91231280.093    21973741.160  
  21973735.691  
  21283202.750   111843999.211    21283212.582    87151227.8624   21283212.996  
                
  19190796.602   102405806.550                                                  
  19190793.898  
  23720112.422   124650036.659    23720121.234    97129938.7814   23720121.031  
                
  21336578.008   112124486.586    21336587.301    87369791.8604   21336586.715  
                
 21  8 15 10 42 10.0000000  0 14R20G 1G22G21R 5R 7G27G32R21R22G 8R 6
                                G23G10
  21222533.430   113486442.286                    88267260.879    21222541.078  
  21222532.609  
  23815066.367   125149031.136    23815078.211    97518768.3154   23815077.980  
                
  24145220.281   126883996.732    24145226.992    98870678.7114                 
                
  22608657.367   118809330.934    22608663.535    92578738.5494                 
                
  21281071.062   113759531.461                    88479643.268    21281075.996  
  21281070.734  
  22131496.625   118471653.918                    92144628.782    22131503.859  
  22131495.473  
  21740234.914   114245688.326    21740244.383    89022679.0894   21740244.445  
                
  20826770.195   109445449.063    20826779.043    85282223.4884   20826779.340  
                
  19284602.031   103195832.452                    80263437.078    19284605.207  
  19284600.223  
  21966718.781   117259871.828                    91202139.581    21966722.395  
  21966716.984  
  21284276.562   111849642.145    21284286.414    87155624.9584   21284286.805  
                
  19189502.531   102398901.206                                                  
  19189499.855  
  23725861.930   124680250.549    23725870.664    97153482.0574   23725870.484  
                
  21340016.930   112142558.235    21340026.227    87383873.6594   21340025.641  
                
 21  8 15 10 42 20.0000000  0 14R20G 1G22G21R 5R 7G27G32R21R22G 8R 6
                                G23G10
  21228711.672   113519480.191                    88292957.012    21228719.352  
  21228710.801  
  23808691.422   125115530.608    23808703.242    97492664.0344   23808703.012  
                
  24139792.141   126855471.891    24139798.945    98848451.5874                 
                
  22604371.953   118786810.985    22604378.113    92561190.5414                 
                
  21287451.578   113793638.954                    88506171.295    21287456.523  
  21287451.238  
  22124762.414   118435604.879                    92116590.667    22124769.562  
  22124761.191  
  21745178.031   114271664.489    21745187.496    89042920.2474   21745187.570  
                
  20824824.062   109435222.051    20824832.941    85274254.3964   20824833.223  
                
  19283004.578   103187284.156                    80256788.404    19283007.754  
  19283002.750  
  21959704.633   117222430.035                    91173018.188    21959708.289  
  21959702.855  
  21285362.805   111855350.396    21285372.652    87160072.9374   21285373.027  
                
  19188221.828   102392067.155                                                  
  19188219.152  
  23731612.594   124710470.453    23731621.266    97177029.9964   23731621.113  
                
  21343460.766   112160655.710    21343470.062    87397975.5884   21343469.504  
                
 21  8 15 10 42 30.0000000  0 14R20G 1G22G21R 5R 7G27G32R21R22G 8R 6
                                G23G10
  21234899.008   113552566.586                    88318690.859    21234906.680  
  21234898.074  
  23802317.609   125082035.954    23802329.320    97466564.2974   23802329.094  
                
  24134366.836   126826961.638    24134373.621    98826235.8124                 
                
  22600089.539   118764306.797    22600095.695    92543654.8254                 
                
  21293837.672   113827776.266                    88532722.518    21293842.609  
  21293837.320  
  22118034.945   118399592.042                    92088580.705    22118042.016  
  22118033.668  
  21750130.016   114297687.308    21750139.484    89063197.7594   21750139.566  
                
  20822889.500   109425055.901    20822898.402    85266332.7224   20822898.676  
                
  19281421.094   103178810.663                    80250197.912    19281424.277  
  19281419.250  
  21952695.094   117185012.735                    91143915.861    21952698.711  
  21952693.355  
  21286461.406   111861123.548    21286471.227    87164571.4894   21286471.613  
                
  19186954.500   102385304.509                                                  
  19186951.824  
  23737364.367   124740696.082    23737372.957    97200582.4384   23737372.828  
                
  21346909.461   112178778.711    21346918.762    87412097.4074   21346918.215  
                
 21  8 15 10 42 40.0000000  0 14R20G 1G22G21R 5R 7G27G32R21R22G 8R 6
                                G23G10
  21241095.500   113585702.051                    88344462.870    21241103.195  
  21241094.527  
  23795944.977   125048547.653    23795956.633    97440469.5604   23795956.426  
                
  24128944.297   126798466.357    24128951.160    98804031.7254                 
                
  22595810.219   118741818.799    22595816.371    92526131.7094                 
                
  21300229.430   113861943.739                    88559297.214    21300234.359  
  21300229.094  
  22111314.242   118363616.052                    92060599.405    22111321.344  
  22111313.039  
  21755090.953   114323757.131    21755100.395    89083511.8964   21755100.504  
                
  20820966.617   109414951.116    20820975.543    85258458.8724   20820975.805  
                
  19279851.656   103170412.310                    80243665.860    19279854.848  
  19279849.793  
  21945690.172   117147620.414                    91114832.965    21945693.879  
  21945688.500  
  21287572.469   111866962.242    21287582.258    87169121.1214   21287582.668  
                
  19185700.609   102378613.499                                                  
  19185697.934  
  23743117.297   124770927.881    23743125.793    97224139.6924   23743125.691  
                
  21350363.094   112196927.671    21350372.406    87426239.4514   21350371.852  
                
 21  8 15 10 42 50.0000000  0 14R20G 1G22G21R 5R 7G27G32R21R22G 8R 6
                                G23G10
  21247301.062   113618886.126                    88370272.695    21247308.793  
  21247300.094  
  23789573.523   125015065.474    23789585.086    97414379.5624   23789584.883  
                
  24123524.570   126769985.847    24123531.473    98781839.1404                 
                
  22591533.914   118719346.694    22591540.039    92508620.9874                 
                
  21306626.711   113896140.796                    88585894.924    21306631.625  
  21306626.410  
  22104600.445   118327676.723                    92032646.613    22104607.547  
  22104599.262  
  21760060.750   114349873.565    21760070.172    89103862.3594   21760070.305  
                
  20819055.344   109404907.384    20819064.297    85250632.6004   20819064.539  
                
  19278296.234   103162088.965                    80237192.151    19278299.434  
  19278294.352  
  21938690.039   117110253.094                    91085769.493    21938693.734  
  21938688.344  
  21288695.945   111872866.118    21288705.695    87173721.5434   21288706.141  
                
  19184460.062   102371993.777                                                  
  19184457.402  
  23748871.312   124801165.508    23748879.699    97247701.4484   23748879.688  
                
  21353821.594   112215102.234    21353830.926    87440401.4414   21353830.355  
                
 21  8 15 10 43  0.0000000  0 14R20G 1G22G21R 5R 7G27G32R21R22G 8R 6
                                G23G10
  21253515.719   113652118.541                    88396120.132    21253523.426  
  21253514.742  
  23783203.180   124981589.342    23783214.758    97388294.3104   23783214.535  
                
  24118107.633   126741520.036    24118114.535    98759658.0124                 
                
  22587260.633   118696890.495    22587266.730    92491122.6514                 
                
  21313029.508   113930367.292                    88612515.517    21313034.410  
  21313029.242  
  22097893.523   118291773.930                    92004722.238    22097900.578  
  22097892.305  
  21765039.383   114376036.398    21765048.809    89124248.9654   21765048.945  
                
  20817155.695   109394924.658    20817164.668    85242853.8574   20817164.898  
                
  19276754.820   103153840.570                    80230776.727    19276758.035  
  19276752.926  
  21931694.508   117072910.524                    91056725.293    21931698.184  
  21931692.797  
  21289831.766   111878834.906    21289841.488    87178372.5424   21289841.941  
                
  19183232.891   102365445.378                                                  
  19183230.262  
  23754626.422   124831408.768    23754634.738    97271267.6424   23754634.805  
                
  21357284.945   112233302.234    21357294.285    87454583.2554   21357293.707  
                
 21  8 15 10 43 10.0000000  0 14R20G 1G22G21R 5R 7G27G32R21R22G 8R 6
                                G23G10
  21259739.508   113685399.790                    88422005.523    21259747.195  
  21259738.488  
  23776834.078   124948119.747    23776845.699    97362214.1344   23776845.441  
                
  24112693.625   126713069.325    24112700.480    98737488.6724                 
                
  22582990.461   118674450.699    22582996.586    92473637.1224                 
                
  21319437.875   113964623.641                    88639159.337    21319442.773  
  21319437.633  
  22091193.523   118255908.157                    91976826.688    22091200.516  
  22091192.223  
  21770026.914   114402246.035    21770036.359    89144672.0524   21770036.488  
                
  20815267.734   109385003.442    20815276.730    85235123.0394   20815276.965  
                
  19275227.531   103145667.750                    80224420.103    19275230.754  
  19275225.625  
  21924703.711   117035593.437                    91027700.912    21924707.402  
  21924701.984  
  21290980.039   111884869.107    21290989.746    87183074.5124   21290990.211  
                
  19182019.148   102358968.657                                                  
  19182016.531  
  23760382.680   124861658.164    23760391.008    97294838.5644   23760391.102  
                
  21360753.219   112251528.110    21360762.559    87468785.2434   21360761.977  
                
 21  8 15 10 43 20.0000000  0 14R20G 1G22G21R 5R 7G27G32R21R22G 8R 6
                                G23G10
  21265972.328   113718729.425                    88447928.570    21265980.023  
  21265971.301  
  23770466.141   124914656.300    23770477.820    97336138.7434   23770477.562  
                
  24107282.469   126684633.289    24107289.195    98715330.7274                 
                
  22578723.344   118652026.879    22578729.516    92456164.0324                 
                
  21325851.734   113998909.210                    88665825.908    21325856.633  
  21325851.531  
  22084500.430   118220079.188                    91948959.739    22084507.355  
  22084499.059  
  21775023.258   114428501.926    21775032.715    89165131.1764   21775032.832  
                
  20813391.398   109375143.276    20813400.410    85227439.8034   20813400.637  
                
  19273714.281   103137570.060                    80218121.897    19273717.504  
  19273712.379  
  21917717.547   116998301.309                    90998695.935    21917721.301  
  21917715.914  
  21292140.688   111890968.315    21292150.398    87187827.1374   21292150.859  
                
  19180818.773   102352563.251                                                  
  19180816.184  
  23766139.992   124891913.196    23766148.395    97318413.8704   23766148.488  
                
  21364226.336   112269779.402    21364235.668    87483007.0184   21364235.082  
                
 21  8 15 10 43 30.0000000  0 14R20G 1G22G21R 5R 7G27G32R21R22G 8R 6
                                G23G10
  21272214.211   113752107.345                    88473889.142    21272221.898  
  21272213.121  
  23764099.430   124881199.351    23764111.180    97310068.4584   23764110.934  
                
  24101874.172   126656212.135    24101880.816    98693184.3934                 
                
  22574459.320   118629619.305    22574465.535    92438703.5894                 
                
  21332271.039   114033224.018                    88692515.173    21332275.926  
  21332270.836  
  22077814.297   118184287.318                    91921121.639    22077821.109  
  22077812.871  
  21780028.422   114454804.208    21780037.895    89185626.4454   21780038.016  
                
  20811526.734   109365344.436    20811535.758    85219804.3534   20811535.988  
                
  19272215.148   103129547.894                    80211882.435    19272218.379  
  19272213.246  
  21910736.344   116961034.900                    90969710.978    21910740.047  
  21910734.648  
  21293313.719   111897132.600    21293323.449    87192630.4684   21293323.914  
                
  19179631.758   102346229.110                                                  
  19179629.191  
  23771898.430   124922174.020    23771906.902    97341993.7034   23771906.969  
                
  21367704.312   112288056.252    21367713.625    87497248.7204   21367713.047  
                
 21  8 15 10 43 40.0000000  0 14R20G 1G22G21R 5R 7G27G32R21R22G 8R 6
                                G23G10
  21278465.023   113785533.528                    88499887.251    21278472.785  
  21278463.980  
  23757733.922   124847748.762    23757745.746    97284003.0874   23757745.477  
                
  24096468.648   126627805.732    24096475.223    98671049.5404                 
                
  22570198.352   118607227.805    22570204.598    92421255.6824                 
                
  21338695.789   114067567.872                    88719227.072    21338700.668  
  21338695.590  
  22071134.977   118148532.477                    91893312.326    22071141.742  
  22071133.562  
  21785042.352   114481152.584    21785051.859    89206157.6274   21785051.977  
                
  20809673.711   109355606.762    20809682.758    85212216.5664   20809682.969  
                
  19270730.094   103121601.049                    80205701.547    19270733.324  
  19270728.199  
  21903759.711   116923793.804                    90940745.707    21903763.543  
  21903758.098  
  21294499.109   111903361.932    21294508.867    87197484.4814   21294509.320  
                
  19178458.086   102339966.180                                                  
  19178455.527  
  23777657.930   124952440.437    23777666.402    97365577.8924   23777666.473  
                
  21371187.117   112306358.456    21371196.402    87511510.1744   21371195.836  
                
 21  8 15 10 43 50.0000000  0 14R20G 1G22G21R 5R 7G27G32R21R22G 8R 6
                                G23G10
  21284724.992   113819008.007                    88525922.948    21284732.719  
  21284723.859  
  23751369.625   124814304.628    23751381.562    97257942.7754   23751381.305  
                
  24091066.008   126599414.290    24091072.512    98648926.3354                 
                
  22565940.492   118584852.617    22565946.742    92403820.4704                 
                
  21345125.961   114101940.753                    88745961.523    21345130.844  
  21345125.762  
  22064462.555   118112814.786                    91865531.944    22064469.352  
  22064461.141  
  21790065.070   114507547.106    21790074.613    89226724.7824   21790074.727  
                
  20807832.352   109345930.399    20807841.414    85204676.5524   20807841.617  
                
  19269259.156   103113729.776                    80199579.437    19269262.391  
  19269257.258  
  21896787.977   116886578.403                    90911800.398    21896791.809  
  21896786.363  
  21295696.898   111909656.320    21295706.684    87202389.1934   21295707.121  
                
  19177297.766   102333774.474                                                  
  19177295.211  
  23783418.539   124982712.570    23783427.016    97389166.5424   23783427.070  
                
  21374674.766   112324686.097    21374684.020    87525791.4534   21374683.465  
                
 21  8 15 10 44  0.0000000  0 14R20G 1G22G21R 5R 7G27G32R21R22G 8R 6
                                G23G10
  21290993.867   113852530.486                    88551995.983    21291001.633  
  21290992.758  
  23745006.570   124780866.922    23745018.613    97231887.4144   23745018.352  
                
  24085666.102   126571037.692    24085672.613    98626814.7084                 
                
  22561685.734   118562493.724    22561691.965    92386397.9614                 
                
  21351561.523   114136342.507                    88772718.427    21351566.418  
  21351561.312  
  22057797.047   118077134.259                    91837780.455    22057803.898  
  22057795.680  
  21795096.539   114533987.598    21795106.078    89247327.7454   21795106.191  
                
  20806002.656   109336315.309    20806011.730    85197184.2764   20806011.930  
                
  19267802.352   103105934.147                    80193516.169    19267805.582  
  19267800.465  
  21889821.141   116849388.747                    90882875.126    21889824.910  
  21889819.418  
  21296907.031   111916015.624    21296916.840    87207344.4914   21296917.262  
                
  19176150.828   102327654.203                                                  
  19176148.297  
  23789180.203   125012990.281    23789188.684    97412759.5484   23789188.734  
                
  21378167.227   112343039.043    21378176.449    87540092.4494   21378175.914  
                
 21  8 15 10 44 10.0000000  0 14R20G 1G22G21R 5R 7G27G32R21R22G 8R 6
                                G23G10
  21297271.727   113886100.885                    88578106.259    21297279.504  
  21297270.586  
  23738644.875   124747435.944    23738656.980    97205837.3784   23738656.703  
                
  24080269.023   126542676.149    24080275.578    98604714.8594                 
                
  22557434.094   118540151.252    22557440.301    92368988.2484                 
                
  21358002.430   114170772.747                    88799497.512    21358007.316  
  21358002.246  
  22051138.414   118041490.979                    91810057.931    22051145.371  
  22051137.203  
  21800136.742   114560474.010    21800146.270    89267966.4854   21800146.387  
                
  20804184.625   109326761.520    20804193.703    85189739.7734   20804193.906  
                
  19266359.703   103098214.202                    80187511.767    19266362.938  
  19266357.820  
  21882859.078   116812225.013                    90853970.007    21882862.930  
  21882857.324  
  21298129.531   111922439.859    21298139.355    87212350.3824   21298139.777  
                
  19175017.266   102321605.262                                                  
  19175014.727  
  23794942.945   125043273.544    23794951.445    97436356.8744   23794951.492  
                
  21381664.508   112361417.297    21381673.723    87554413.1614   21381673.191  
                
 21  8 15 10 44 20.0000000  0 14R20G 1G22G21R 5R 7G27G32R21R22G 8R 6
                                G23G10
  21303558.562   113919719.472                    88604254.033    21303566.379  
  21303557.422  
  23732284.422   124714011.665    23732296.574    97179792.5424   23732296.289  
                
  24074874.727   126514329.629    24074881.344    98582626.6714                 
                
  22553185.594   118517825.327    22553191.785    92351591.4314                 
                
  21364448.719   114205231.956                    88826299.106    21364453.621  
  21364448.531  
  22044487.016   118005885.164                    91782364.540    22044493.836  
  22044485.711  
  21805185.695   114587006.372    21805195.211    89288641.0424   21805195.316  
                
  20802378.289   109317269.214    20802387.363    85182343.1764   20802387.582  
                
  19264931.227   103090570.158                    80181566.398    19264934.457  
  19264929.344  
  21875901.945   116775087.561                    90825085.340    21875905.832  
  21875900.234  
  21299364.391   111928929.121    21299374.215    87217406.9404   21299374.633  
                
  19173897.016   102315627.439                                                  
  19173894.480  
  23800706.773   125073562.468    23800715.270    97459958.6324   23800715.305  
                
  21385166.609   112379820.940    21385175.824    87568753.6634   21385175.270  
                
 21  8 15 10 44 30.0000000  0 14R20G 1G22G21R 5R 7G27G32R21R22G 8R 6
                                G23G10
  21309854.367   113953386.075                    88630439.159    21309862.250  
  21309853.219  
  23725925.289   124680594.186    23725937.402    97153752.9494   23725937.133  
                
  24069483.281   126485998.247    24069489.996    98560550.3204                 
                
  22548940.266   118495516.020    22548946.453    92334207.5694                 
                
  21370900.414   114239719.811                    88853122.993    21370905.324  
  21370900.227  
  22037842.484   117970316.858                    91754700.330    22037849.316  
  22037841.230  
  21810243.398   114613584.626    21810252.883    89309351.3644   21810253.008  
                
  20800583.672   109307838.437    20800592.746    85174994.5274   20800592.969  
                
  19263516.953   103083002.102                    80175680.127    19263520.180  
  19263515.059  
  21868949.828   116737976.469                    90796221.179    21868953.672  
  21868948.125  
  21300611.695   111935483.679    21300621.500    87222514.3784   21300621.930  
                
  19172790.156   102309721.014                                                  
  19172787.621  
  23806471.703   125103857.047    23806480.141    97483564.7954   23806480.195  
                
  21388673.547   112398249.957    21388682.762    87583113.9374   21388682.191  
                
 21  8 15 10 44 40.0000000  0 14R20G 1G22G21R 5R 7G27G32R21R22G 8R 6
                                G23G10
  21316159.141   113987100.282                    88656661.278    21316167.016  
  21316157.969  
  23719567.359   124647183.220    23719579.441    97127718.4214   23719579.160  
                
  24064094.828   126457681.626    24064101.453    98538485.4014                 
                
  22544698.023   118473222.953    22544704.211    92316836.3584                 
                
  21377357.344   114274235.822                    88879968.761    21377362.258  
  21377357.141  
  22031204.945   117934785.888                    91727065.151    22031211.805  
  22031203.734  
  21815309.711   114640208.297    21815319.152    89330097.0734   21815319.301  
                
  20798800.680   109298468.824    20798809.758    85167693.5374   20798809.984  
                
  19262116.820   103075509.729                    80169852.731    19262120.059  
  19262114.902  
  21862002.492   116700891.280                    90767377.176    21862006.355  
  21862000.762  
  21301871.297   111942102.895    21301881.070    87227672.1994   21301881.516  
                
  19171696.641   102303885.784                                                  
  19171694.109  
  23812237.609   125134156.881    23812246.004    97507175.0564   23812246.094  
                
  21392185.234   112416703.966    21392194.438    87597493.6754   21392193.863  
                
 21  8 15 10 44 50.0000000  0 14R20G 1G22G21R 5R 7G27G32R21R22G 8R 6
                                G23G10
  21322472.727   114020861.937                    88682920.329    21322480.660  
  21322471.570  
  23713210.773   124613779.039    23713222.809    97101689.2294   23713222.555  
                
  24058709.234   126429379.894    24058715.809    98516432.1324                 
                
  22540458.922   118450946.356    22540465.133    92299477.9844                 
                
  21383819.539   114308779.906                    88906836.386    21383824.445  
  21383819.328  
  22024574.414   117899292.353                    91699459.102    22024581.312  
  22024573.211  
  21820384.695   114666877.417    21820394.133    89350878.1924   21820394.277  
                
  20797029.367   109289160.556    20797038.445    85160440.3504   20797038.672  
                
  19260730.883   103068093.349                    80164084.433    19260734.129  
  19260728.945  
  21855060.211   116663832.534                    90738553.720    21855063.938  
  21855058.379  
  21303143.211   111948786.866    21303152.965    87232880.4844   21303153.418  
                
  19170616.406   102298121.421                                                  
  19170613.871  
  23818004.508   125164462.079    23818012.887    97530789.4614   23818012.980  
                
  21395701.680   112435183.006    21395710.879    87611892.9254   21395710.309  
                
 21  8 15 10 45  0.0000000  0 14R20G 1G22G21R 5R 7G27G32R21R22G 8R 6
                                G23G10
  21328795.203   114054671.115                    88709216.339    21328803.176  
  21328794.051  
  23706855.461   124580381.670    23706867.477    97075665.3354   23706867.191  
                
  24053326.484   126401093.147    24053333.023    98494390.5224                 
                
  22536222.969   118428686.308    22536229.188    92282132.5054                 
                
  21390287.000   114343352.084                    88933725.842    21390291.895  
  21390286.770  
  22017950.914   117863836.269                    91671882.173    22017957.828  
  22017949.727  
  21825468.305   114693591.936    21825477.766    89371694.6764   21825477.883  
                
  20795269.742   109279913.675    20795278.812    85153234.9984   20795279.027  
                
  19259359.156   103060752.973                    80158375.258    19259362.410  
  19259357.199  
  21848122.875   116626800.378                    90709750.943    21848126.484  
  21848121.027  
  21304427.461   111955535.595    21304437.199    87238139.2374   21304437.668  
                
  19169549.469   102292428.151                                                  
  19169546.930  
  23823772.438   125194772.609    23823780.793    97554408.0444   23823780.859  
                
  21399222.891   112453687.106    21399232.086    87626311.6994   21399231.508  
                
 21  8 15 10 45 10.0000000  0 14R20G 1G22G21R 5R 7G27G32R21R22G 8R 6
                                G23G10
  21335126.648   114088528.138                    88735549.564    21335134.633  
  21335125.484  
  23700501.453   124546991.356    23700513.457    97049646.9434   23700513.152  
                
  24047946.578   126372821.676    24047953.156    98472360.8174                 
                
  22531990.242   118406443.159    22531996.453    92264800.1884                 
                
  21396759.727   114377952.433                    88960637.224    21396764.617  
  21396759.500  
  22011334.539   117828418.250                    91644334.849    22011341.457  
  22011333.363  
  21830560.602   114720352.055    21830570.074    89392546.7074   21830570.188  
                
  20793521.859   109270728.488    20793530.918    85146077.7134   20793531.137  
                
  19258001.742   103053489.171                    80152725.642    19258005.000  
  19257999.781  
  21841190.531   116589795.038                    90680969.022    21841194.008  
  21841188.734  
  21305724.141   111962349.647    21305733.867    87243448.8854   21305734.344  
                
  19168495.914   102286806.183                                                  
  19168493.391  
  23829541.430   125225088.742    23829549.738    97578030.9984   23829549.816  
                
  21402748.930   112472216.494    21402758.121    87640750.1854   21402757.539  
                
 21  8 15 10 45 20.0000000  0 14R20G 1G22G21R 5R 7G27G32R21R22G 8R 6
                                G23G10
  21341467.062   114122432.730                    88761919.780    21341474.992  
  21341465.879  
  23694148.781   124513608.064    23694160.723    97023633.9684   23694160.375  
                
  24042569.445   126344565.282    24042576.164    98450342.8794                 
                
  22527760.703   118384216.810    22527766.887    92247480.9524                 
                
  21403237.688   114412580.751                    88987570.353    21403242.562  
  21403237.504  
  22004725.203   117793038.044                    91616816.930    22004732.125  
  22004724.047  
  21835661.516   114747157.502    21835670.996    89413434.0474   21835671.113  
                
  20791785.688   109261604.871    20791794.734    85138968.4044   20791794.973  
                
  19256658.570   103046301.628                    80147135.324    19256661.840  
  19256656.609  
  21834263.227   116552816.616                    90652208.032    21834266.656  
  21834261.441  
  21307033.133   111969228.449    21307042.848    87248808.9864   21307043.332  
                
  19167455.688   102281255.386                                                  
  19167453.184  
  23835311.438   125255410.267    23835319.703    97601658.1264   23835319.816  
                
  21406279.734   112490770.990    21406288.922    87655208.2214   21406288.332  
                
 21  8 15 10 45 30.0000000  0 14R20G 1G22G21R 5R 7G27G32R21R22G 8R 6
                                G23G10
  21347816.328   114156384.826                    88788326.952    21347824.227  
  21347815.188  
  23687797.500   124480231.905    23687809.324    96997626.5974   23687808.984  
                
  24037195.227   126316324.028    24037202.043    98428336.7584                 
                
  22523534.344   118362007.226    22523540.496    92230174.7904                 
                
  21409720.859   114447236.839                    89014525.084    21409725.727  
  21409720.703  
  21998122.953   117757695.816                    91589328.550    21998129.914  
  21998121.828  
  21840771.047   114774008.203    21840780.527    89434356.6634   21840780.633  
                
  20790061.234   109252542.810    20790070.270    85131907.0694   20790070.516  
                
  19255329.672   103039190.437                    80141604.405    19255332.945  
  19255327.703  
  21827340.945   116515865.193                    90623468.063    21827344.367  
  21827339.211  
  21308354.461   111976172.010    21308364.172    87254219.5614   21308364.664  
                
  19166428.758   102275775.548                                                  
  19166426.254  
  23841082.461   125285737.271    23841090.742    97625289.5644   23841090.902  
                
  21409815.305   112509350.510    21409824.480    87669685.7754   21409823.902  
                
 21  8 15 10 45 40.0000000  0 14R20G 1G22G21R 5R 7G27G32R21R22G 8R 6
                                G23G10
  21354174.367   114190384.083                    88814770.810    21354182.277  
  21354173.270  
  23681447.523   124446862.736    23681459.320    96971624.6824   23681459.016  
                
  24031823.969   126288097.716    24031830.777    98406342.2514                 
                
  22519311.148   118339814.250    22519317.277    92212881.5784                 
                
  21416209.156   114481920.413                    89041501.188    21416214.016  
  21416209.031  
  21991527.836   117722391.470                    91561869.653    21991534.770  
  21991526.656  
  21845889.133   114800903.890    21845898.598    89455314.3304   21845898.707  
                
  20788348.469   109243542.209    20788357.484    85124893.6244   20788357.738  
                
  19254015.047   103032155.643                    80136132.897    19254018.332  
  19254013.066  
  21820423.719   116478940.741                    90594749.059    21820427.156  
  21820422.000  
  21309688.086   111983180.262    21309697.797    87259680.5224   21309698.305  
                
  19165415.148   102270366.721                                                  
  19165412.637  
  23846854.492   125316069.366    23846862.766    97648924.9444   23846862.969  
                
  21413355.602   112527954.891    21413364.742    87684182.6834   21413364.176  
                
 21  8 15 10 45 50.0000000  0 14R20G 1G22G21R 5R 7G27G32R21R22G 8R 6
                                G23G10
  21360541.211   114224430.334                    88841251.189    21360549.113  
  21360540.070  
  23675098.867   124413500.408    23675110.609    96945628.0604   23675110.305  
                
  24026455.641   126259886.330    24026462.336    98384359.3784                 
                
  22515091.117   118317637.878    22515097.238    92195601.2984                 
                
  21422702.570   114516631.339                    89068498.580    21422707.414  
  21422702.480  
  21984939.711   117687124.893                    91534440.136    21984946.680  
  21984938.539  
  21851015.734   114827844.321    21851025.188    89476306.8564   21851025.305  
                
  20786647.375   109234602.935    20786656.375    85117927.9574   20786656.641  
                
  19252714.656   103025197.023                    80130720.621    19252717.938  
  19252712.676  
  21813511.609   116442043.329                    90566051.077    21813515.051  
  21813509.824  
  21311033.992   111990253.048    21311043.715    87265191.7754   21311044.223  
                
  19164414.773   102265028.599                                                  
  19164412.254  
  23852627.484   125346406.474    23852635.766    97672564.2234   23852635.969  
                
  21416900.594   112546583.942    21416909.695    87698698.8224   21416909.152  
                
 21  8 15 10 46  0.0000000  0 14R20G 1G22G21R 5R 7G27G32R21R22G 8R 6
                                G23G10
  21366916.852   114258523.688                    88867768.230    21366924.785  
  21366915.723  
  23668751.594   124380145.307    23668763.336    96919637.1184   23668763.000  
                
  24021090.117   126231690.119    24021096.781    98362388.3214                 
                
  22510874.320   118295478.486    22510880.449    92178334.2554                 
                
  21429201.125   114551369.665                    89095517.257    21429205.957  
  21429201.035  
  21978358.633   117651896.335                    91507040.176    21978365.691  
  21978357.512  
  21856150.891   114854829.673    21856160.348    89497334.3954   21856160.457  
                
  20784958.016   109225725.262    20784967.004    85111010.2904   20784967.277  
                
  19251428.602   103018315.047                    80125367.983    19251431.891  
  19251426.637  
  21806604.641   116405173.447                    90537374.514    21806608.098  
  21806602.801  
  21312392.180   111997390.336    21312401.922    87270753.2924   21312402.414  
                
  19163427.734   102259761.589                                                  
  19163425.191  
  23858401.445   125376748.829    23858409.801    97696207.6074   23858409.969  
                
  21420450.320   112565237.855    21420459.375    87713234.3394   21420458.852  
                
 21  8 15 10 46 10.0000000  0 14R20G 1G22G21R 5R 7G27G32R21R22G 8R 6
                                G23G10
  21373301.344   114292664.265                    88894321.989    21373309.285  
  21373300.207  
  23662405.742   124346797.650    23662417.414    96893651.9964   23662417.066  
                
  24015727.469   126203509.132    24015734.094    98340429.1244                 
                
  22506660.773   118273336.105    22506666.930    92161080.4554                 
                
  21435704.797   114586135.434                    89122557.298    21435709.621  
  21435704.719  
  21971784.664   117616705.928                    91479669.876    21971791.812  
  21971783.559  
  21861294.602   114881859.933    21861304.066    89518396.9274   21861304.168  
                
  20783280.391   109216909.295    20783289.383    85104140.7094   20783289.660  
                
  19250156.883   103011509.804                    80120075.016    19250160.172  
  19250154.926  
  21799702.875   116368331.012                    90508719.296    21799706.312  
  21799700.961  
  21313762.688   112004592.398    21313772.449    87276365.2814   21313772.926  
                
  19162453.992   102254565.507                                                  
  19162451.457  
  23864176.391   125407096.483    23864184.820    97719855.0944   23864184.977  
                
  21424004.797   112583916.703    21424013.801    87727789.2884   21424013.301  
                
 21  8 15 10 46 20.0000000  0 14R20G 1G22G21R 5R 7G27G32R21R22G 8R 6
                                G23G10
  21379694.648   114326851.848                    88920912.302    21379702.562  
  21379693.543  
  23656061.266   124313457.250    23656072.863    96867672.4634   23656072.520  
                
  24010367.680   126175343.321    24010374.250    98318481.7384                 
                
  22502450.438   118251210.714    22502456.613    92143839.8994                 
                
  21442213.539   114620928.319                    89149618.428    21442218.367  
  21442213.465  
  21965217.836   117581553.936                    91452329.488    21965225.086  
  21965216.738  
  21866446.820   114908934.942    21866456.301    89539494.3214   21866456.391  
                
  20781614.492   109208154.982    20781623.492    85097319.1754   20781623.758  
                
  19248899.500   103004781.279                    80114841.718    19248902.797  
  19248897.547  
  21792806.250   116331516.245                    90480085.594    21792809.660  
  21792804.281  
  21315145.547   112011859.349    21315155.320    87282027.8394   21315155.805  
                
  19161493.578   102249440.595                                                  
  19161491.051  
  23869952.336   125437449.273    23869960.805    97743506.6124   23869960.938  
                
  21427563.984   112602620.366    21427572.941    87742363.5694   21427572.465  
                
 21  8 15 10 46 30.0000000  0 14R20G 1G22G21R 5R 7G27G32R21R22G 8R 6
                                G23G10
  21386096.672   114361086.286                    88947539.081    21386104.570  
  21386095.637  
  23649718.141   124280124.165    23649729.695    96841698.6184   23649729.395  
                
  24005010.781   126147192.737    24005017.312    98296546.2334                 
                
  22498243.375   118229102.429    22498249.539    92126612.6654                 
                
  21448727.359   114655748.343                    89176700.652    21448732.188  
  21448727.277  
  21958658.234   117546440.242                    91425018.861    21958665.527  
  21958657.078  
  21871607.539   114936054.624    21871617.016    89560626.5474   21871617.102  
                
  20779960.336   109199462.376    20779969.324    85090545.7234   20779969.590  
                
  19247656.469   102998129.646                    80109668.239    19247659.773  
  19247654.516  
  21785914.789   116294729.466                    90451473.689    21785918.309  
  21785912.863  
  21316540.711   112019191.006    21316550.492    87287740.8104   21316550.965  
                
  19160546.461   102244386.609                                                  
  19160543.926  
  23875729.281   125467807.226    23875737.777    97767162.1374   23875737.891  
                
  21431127.898   112621348.828    21431136.812    87756957.1734   21431136.359  
                
 21  8 15 10 46 40.0000000  0 14R20G 1G22G21R 5R 7G27G32R21R22G 8R 6
                                G23G10
  21392507.484   114395367.659                    88974202.367    21392515.387  
  21392506.434  
  23643376.469   124246798.630    23643388.066    96815730.7294   23643387.820  
                
  23999656.805   126119057.421    23999663.312    98274622.6344                 
                
  22494039.562   118207011.258    22494045.711    92109398.7714                 
                
  21455246.219   114690595.243                    89203803.809    21455251.047  
  21455246.145  
  21952105.766   117511364.931                    91397738.104    21952113.129  
  21952104.598  
  21876776.734   114963218.857    21876786.203    89581793.4794   21876786.309  
                
  20778317.930   109190831.466    20778326.898    85083820.3494   20778327.184  
                
  19246427.828   102991554.928                    80104554.589    19246431.152  
  19246425.855  
  21779028.594   116257970.546                    90422883.435    21779032.129  
  21779026.668  
  21317948.172   112026587.219    21317957.957    87293504.0834   21317958.418  
                
  19159612.594   102239403.312                                                  
  19159610.055  
  23881507.172   125498170.282    23881515.730    97790821.6534   23881515.809  
                
  21434696.523   112640102.023    21434705.410    87771570.0504   21434704.980  
                
 21  8 15 10 46 50.0000000  0 14R20G 1G22G21R 5R 7G27G32R21R22G 8R 6
                                G23G10
  21398926.953   114429695.755                    89000901.943    21398934.934  
  21398925.918  
  23637036.297   124213480.615    23637047.855    96789768.6844   23637047.609  
                
  23994305.672   126090937.236    23994312.199    98252710.8164                 
                
  22489838.992   118184937.168    22489845.145    92092198.1964                 
                
  21461770.055   114725468.915                    89230927.780    21461774.902  
  21461769.980  
  21945560.469   117476327.999                    91370487.164    21945567.879  
  21945559.324  
  21881954.375   114990427.481    21881963.887    89602994.9784   21881963.988  
                
  20776687.242   109182262.198    20776696.180    85077143.0004   20776696.477  
                
  19245213.570   102985057.185                    80099500.785    19245216.902  
  19245211.594  
  21772147.625   116221239.518                    90394314.883    21772151.117  
  21772145.711  
  21319367.883   112034047.863    21319377.672    87299317.5704   21319378.129  
                
  19158692.023   102234491.049                                                  
  19158689.488  
  23887286.016   125528538.285    23887294.637    97814484.9974   23887294.676  
                
  21438269.828   112658879.840    21438278.699    87786202.1044   21438278.281  
                
 21  8 15 10 47  0.0000000  0 14R20G 1G22G21R 5R 7G27G32R21R22G 8R 6
                                G23G10
  21405355.258   114464070.326                    89027637.693    21405363.191  
  21405354.133  
  23630697.484   124180169.847    23630709.016    96763812.2664   23630708.801  
                
  23988957.531   126062832.104    23988963.902    98230810.7164                 
                
  22485641.641   118162879.983    22485647.797    92075010.7874                 
                
  21468298.844   114760369.028                    89258072.295    21468303.691  
  21468298.746  
  21939022.445   117441329.465                    91343266.100    21939029.801  
  21939021.266  
  21887140.414   115017680.228    21887150.004    89624230.8584   21887150.062  
                
  20775068.273   109173754.456    20775077.191    85070513.5964   20775077.492  
                
  19244013.664   102978636.273                    80094506.740    19244017.004  
  19244011.676  
  21765271.906   116184536.584                    90365768.169    21765275.418  
  21765269.965  
  21320799.828   112041572.765    21320809.609    87305181.1214   21320810.062  
                
  19157784.648   102229649.096                                                  
  19157782.121  
  23893065.781   125558911.140    23893074.445    97838152.1304   23893074.457  
                
  21441847.773   112677682.085    21441856.648    87800853.1964   21441856.230  
                
 21  8 15 10 47 10.0000000  0 14R20G 1G22G21R 5R 7G27G32R21R22G 8R 6
                                G23G10
  21411792.289   114498491.463                    89054409.681    21411800.164  
  21411791.105  
  23624360.109   124146866.630    23624371.574    96737861.6754   23624371.340  
                
  23983612.234   126034742.217    23983618.500    98208922.4904                 
                
  22481447.570   118140840.049    22481453.758    92057836.8224                 
                
  21474832.602   114795295.637                    89285237.426    21474837.449  
  21474832.480  
  21932491.617   117406369.419                    91316074.978    21932498.938  
  21932490.426  
  21892334.867   115044977.212    21892344.520    89645501.2264   21892344.543  
                
  20773461.039   109165308.422    20773469.938    85063932.2724   20773470.242  
                
  19242828.156   102972292.386                    80089572.600    19242831.504  
  19242826.184  
  21758401.484   116147861.918                    90337243.448    21758405.008  
  21758399.516  
  21322244.055   112049162.223    21322253.820    87311094.9754   21322254.273  
                
  19156890.555   102224878.090                                                  
  19156888.020  
  23898846.500   125589288.985    23898855.188    97861823.1714   23898855.160  
                
  21445430.406   112696508.892    21445439.293    87815523.4334   21445438.867  
                
 21  8 15 10 47 20.0000000  0 14R20G 1G22G21R 5R 7G27G32R21R22G 8R 6
                                G23G10
  21418237.961   114532959.421                    89081218.065    21418245.895  
  21418236.832  
  23618024.188   124113571.316    23618035.617    96711917.2894   23618035.410  
                
  23978269.797   126006667.876    23978276.023    98187046.3834                 
                
  22477256.844   118118817.674    22477263.094    92040676.5424                 
                
  21481371.352   114830249.013                    89312423.378    21481376.234  
  21481371.195  
  21925968.078   117371448.313                    91288914.130    21925975.336  
  21925966.887  
  21897537.773   115072318.601    21897547.469    89666806.1924   21897547.477  
                
  20771865.609   109156924.411    20771874.500    85057399.2814   20771874.801  
                
  19241657.141   102966026.005                    80084698.751    19241660.492  
  19241655.176  
  21751536.484   116111215.960                    90308741.055    21751539.973  
  21751534.523  
  21323700.609   112056816.472    21323710.359    87317059.3124   21323710.820  
                
  19156009.789   102220178.216                                                  
  19156007.254  
  23904628.195   125619672.031    23904636.812    97885498.2534   23904636.812  
                
  21449017.766   112715360.492    21449026.664    87830212.9904   21449026.230  
                
 21  8 15 10 47 30.0000000  0 14R20G 1G22G21R 5R 7G27G32R21R22G 8R 6
                                G23G10
  21424692.352   114567473.826                    89108062.580    21424700.301  
  21424691.301  
  23611689.703   124080283.854    23611701.141    96685979.0654   23611700.941  
                
  23972930.258   125978608.949    23972936.520    98165182.3004                 
                
  22473069.430   118096812.689    22473075.723    92023529.8144                 
                
  21487915.047   114865228.824                    89339629.898    21487919.934  
  21487914.852  
  21919451.836   117336565.996                    91261783.457    21919458.996  
  21919450.621  
  21902749.078   115099704.174    21902758.816    89688145.5764   21902758.801  
                
  20770281.953   109148602.271    20770290.844    85050914.5044   20770291.141  
                
  19240500.570   102959836.976                    80079885.059    19240503.926  
  19240498.605  
  21744676.836   116074598.557                    90280260.872    21744680.289  
  21744674.855  
  21325169.461   112064535.346    21325179.211    87323074.0134   21325179.684  
                
  19155142.250   102215548.930                                                  
  19155139.699  
  23910410.836   125650060.086    23910419.406    97909177.2564   23910419.453  
                
  21452609.789   112734236.707    21452618.715    87844921.7264   21452618.270  
                
 21  8 15 10 47 40.0000000  0 14R20G 1G22G21R 5R 7G27G32R21R22G 8R 6
                                G23G10
  21431155.461   114602034.799                    89134943.326    21431163.406  
  21431154.430  
  23605356.836   124047004.343    23605368.164    96660047.0354   23605368.008  
                
  23967593.609   125950565.317    23967599.965    98143330.1604                 
                
  22468885.336   118074825.138    22468891.602    92006396.6624                 
                
  21494463.648   114900234.840                    89366856.781    21494468.555  
  21494463.391  
  21912942.867   117301722.587                    91234683.030    21912949.953  
  21912941.625  
  21907968.773   115127133.771    21907978.535    89709519.2744   21907978.504  
                
  20768710.070   109140341.999    20768718.957    85044477.9344   20768719.262  
                
  19239358.477   102953725.407                    80075131.623    19239361.836  
  19239356.516  
  21737822.562   116038010.109                    90251803.199    21737826.031  
  21737820.598  
  21326650.586   112072318.720    21326660.332    87329138.9734   21326660.809  
                
  19154287.984   102210990.424                                                  
  19154285.441  
  23916194.445   125680453.099    23916202.992    97932860.1024   23916203.086  
                
  21456206.492   112753137.460    21456215.441    87859649.5824   21456214.980  
                
 21  8 15 10 47 50.0000000  0 14R20G 1G22G21R 5R 7G27G32R21R22G 8R 6
                                G23G10
  21437627.172   114636641.785                    89161859.853    21437635.121  
  21437626.117  
  23599025.359   124013732.417    23599036.680    96634120.8804   23599036.527  
                
  23962259.930   125922536.897    23962266.328    98121489.8544                 
                
  22464704.523   118052854.889    22464710.758    91989276.9974                 
                
  21501017.094   114935266.874                    89394103.911    21501022.047  
  21501016.777  
  21906441.133   117266918.045                    91207612.851    21906448.176  
  21906439.883  
  21913196.797   115154607.106    21913206.559    89730927.0584   21913206.535  
                
  20767149.930   109132143.437    20767158.805    85038089.4594   20767159.102  
                
  19238230.836   102947691.186                    80070438.337    19238234.203  
  19238228.871  
  21730973.617   116001450.161                    90223367.690    21730977.117  
  21730971.730  
  21328143.977   112080166.523    21328153.711    87335254.1494   21328154.195  
                
  19153446.953   102206502.572                                                  
  19153444.406  
  23921978.961   125710850.833    23921987.535    97956546.6204   23921987.625  
                
  21459807.828   112772062.543    21459816.805    87874396.3974   21459816.324  
                
 21  8 15 10 48  0.0000000  0 14R20G 1G22G21R 5R 7G27G32R21R22G 8R 6
                                G23G10
  21444107.539   114671295.162                    89188812.445    21444115.523  
  21444106.492  
  23592695.367   123980468.372    23592706.742    96608200.8934   23592706.570  
                
  23956929.141   125894523.893    23956935.629    98099661.5564                 
                
  22460527.055   118030902.188    22460533.297    91972171.0094                 
                
  21507575.383   114970324.759                    89421371.146    21507580.395  
  21507575.047  
  21899946.648   117232152.520                    91180573.026    21899953.688  
  21899945.375  
  21918433.148   115182124.273    21918442.914    89752368.9924   21918442.879  
                
  20765601.562   109124006.745    20765610.402    85031749.1914   20765610.719  
                
  19237117.672   102941734.418                    80065805.295    19237121.023  
  19237115.695  
  21724130.148   115964919.380                    90194954.877    21724133.664  
  21724128.328  
  21329649.586   112088078.570    21329659.309    87341419.3704   21329659.812  
                
  19152619.172   102202085.363                                                  
  19152616.617  
  23927764.398   125741253.446    23927772.980    97980236.9534   23927773.082  
                
  21463413.805   112791012.055    21463422.816    87889162.2434   21463422.312  
                
 21  8 15 10 48 10.0000000  0 14R20G 1G22G21R 5R 7G27G32R21R22G 8R 6
                                G23G10
  21450596.531   114705994.258                    89215800.598    21450604.500  
  21450595.484  
  23586366.914   123947212.135    23586378.262    96582286.9084   23586378.062  
                
  23951601.281   125866526.149    23951607.836    98077845.1474                 
                
  22456352.914   118008966.921    22456359.168    91955078.6064                 
                
  21514138.469   115005408.357                    89448658.396    21514143.531  
  21514138.117  
  21893459.398   117197425.854                    91153563.428    21893466.438  
  21893458.102  
  21923677.789   115209684.987    21923687.551    89773844.8464   21923687.496  
                
  20764064.938   109115931.792    20764073.730    85025457.0224   20764074.078  
                
  19236018.992   102935855.169                    80061232.544    19236022.344  
  19236017.012  
  21717292.117   115928417.491                    90166564.550    21717295.633  
  21717290.305  
  21331167.383   112096054.661    21331177.102    87347634.4954   21331177.617  
                
  19151804.578   102197738.582                                                  
  19151802.039  
  23933550.742   125771660.714    23933559.293    98003930.8954   23933559.426  
                
  21467024.398   112809985.773    21467033.434    87903946.9564   21467032.934  
                
 21  8 15 10 48 20.0000000  0 14R20G 1G22G21R 5R 7G27G32R21R22G 8R 6
                                G23G10
  21457094.133   114740739.416                    89242824.605    21457102.059  
  21457093.141  
  23580039.969   123913963.885    23580051.379    96556379.2304   23580051.172  
                
  23946276.492   125838543.751    23946282.961    98056040.7044                 
                
  22452182.102   117987049.184    22452188.363    91937999.8544                 
                
  21520706.375   115040517.680                    89475965.638    21520711.480  
  21520705.977  
  21886979.469   117162738.262                    91126584.221    21886986.527  
  21886978.137  
  21928930.719   115237289.240    21928940.449    89795354.6474   21928940.406  
                
  20762540.094   109107918.668    20762548.848    85019213.0324   20762549.207  
                
  19234934.797   102930053.420                    80056720.059    19234938.141  
  19234932.805  
  21710459.547   115891944.839                    90138196.946    21710463.125  
  21710457.695  
  21332697.422   112104095.092    21332707.141    87353899.7574   21332707.648  
                
  19151003.211   102193462.362                                                  
  19151000.664  
  23939337.984   125802072.697    23939346.496    98027628.5264   23939346.672  
                
  21470639.602   112828983.767    21470648.660    87918750.5844   21470648.137  
                
 21  8 15 10 48 30.0000000  0 14R20G 1G22G21R 5R 7G27G32R21R22G 8R 6
                                G23G10
  21463600.266   114775530.199                    89269884.085    21463608.160  
  21463599.281  
  23573714.547   123880723.497    23573725.992    96530477.6874   23573725.699  
                
  23940954.523   125810576.492    23940960.973    98034248.0664                 
                
  22448014.586   117965148.795    22448020.859    91920934.6224                 
                
  21527278.992   115075652.256                    89503292.509    21527284.121  
  21527278.566  
  21880506.742   117128089.491                    91099635.218    21880513.863  
  21880505.379  
  21934191.875   115264936.691    21934201.539    89816898.1144   21934201.527  
                
  20761026.969   109099967.165    20761035.695    85013017.0554   20761036.070  
                
  19233865.078   102924329.152                    80052267.856    19233868.418  
  19233863.074  
  21703632.453   115855501.359                    90109852.036    21703636.000  
  21703630.586  
  21334239.641   112112199.493    21334249.355    87360214.8664   21334249.867  
                
  19150215.016   102189256.405                                                  
  19150212.465  
  23945126.086   125832489.113    23945134.566    98051329.6104   23945134.789  
                
  21474259.375   112848005.754    21474268.445    87933572.9104   21474267.918  
                
 21  8 15 10 48 40.0000000  0 14R20G 1G22G21R 5R 7G27G32R21R22G 8R 6
                                G23G10
  21470114.930   114810366.936                    89296979.294    21470122.828  
  21470113.945  
  23567390.625   123847491.190    23567402.121    96504582.4284   23567401.793  
                
  23935635.445   125782624.676    23935641.895    98012467.4504                 
                
  22443850.445   117943266.102    22443856.719    91903883.1874                 
                
  21533856.422   115110812.435                    89530639.324    21533861.570  
  21533855.977  
  21874041.305   117093480.081                    91072716.840    21874048.562  
  21874039.969  
  21939461.289   115292627.576    21939470.902    89838475.4104   21939470.926  
                
  20759525.617   109092077.575    20759534.336    85006869.3284   20759534.707  
                
  19232809.898   102918682.709                    80047876.179    19232813.246  
  19232807.883  
  21696810.844   115819087.448                    90081530.124    21696814.426  
  21696808.992  
  21335794.086   112120368.154    21335803.789    87366580.0484   21335804.320  
                
  19149440.031   102185120.925                                                  
  19149437.469  
  23950915.078   125862910.245    23950923.527    98075034.3674   23950923.758  
                
  21477883.758   112867051.981    21477892.836    87948414.1204   21477892.316  
                
 21  8 15 10 48 50.0000000  0 14R20G 1G22G21R 5R 7G27G32R21R22G 8R 6
                                G23G10
  21476638.211   114845249.520                    89324110.184    21476646.039  
  21476637.246  
  23561068.281   123814267.041    23561079.766    96478693.4874   23561079.418  
                
  23930319.328   125754688.365    23930325.742    97990698.9214                 
                
  22439689.688   117921401.191    22439695.969    91886845.6054                 
                
  21540438.602   115145998.063                    89558005.910    21540443.797  
  21540438.113  
  21867583.242   117058909.923                    91045828.960    21867590.586  
  21867581.902  
  21944738.945   115320361.782    21944748.504    89860086.4634   21944748.551  
                
  20758036.062   109084249.946    20758044.785    85000769.8934   20758045.148  
                
  19231769.281   102913114.173                    80043545.093    19231772.641  
  19231767.262  
  21689994.820   115782703.178                    90053231.246    21689998.387  
  21689992.984  
  21337360.750   112128601.027    21337370.430    87372995.2644   21337370.973  
                
  19148678.250   102181055.942                                                  
  19148675.680  
  23956704.953   125893336.078    23956713.410    98098742.7894   23956713.613  
                
  21481512.750   112886122.444    21481521.828    87963274.2234   21481521.316  
                
 21  8 15 10 49  0.0000000  0 14R20G 1G22G21R 5R 7G27G32R21R22G 8R 6
                                G23G10
  21483169.961   114880177.690                    89351276.546    21483177.770  
  21483169.031  
  23554747.516   123781051.134    23554759.039    96452810.9924   23554758.680  
                
  23925006.172   125726767.527    23925012.531    97968942.4504                 
                
  22435532.312   117899554.053    22435538.594    91869821.8644                 
                
  21547025.492   115181208.880                    89585392.085    21547030.711  
  21547024.996  
  21861132.523   117024379.084                    91018971.672    21861139.926  
  21861131.180  
  21950024.828   115348139.223    21950034.324    89881731.2154   21950034.406  
                
  20756558.297   109076484.263    20756567.012    84994718.7244   20756567.352  
                
  19230743.211   102907623.525                    80039274.592    19230746.566  
  19230741.184  
  21683184.375   115746348.633                    90024955.509    21683187.918  
  21683182.527  
  21338939.633   112136898.107    21338949.293    87379460.5194   21338949.855  
                
  19147929.648   102177061.307                                                  
  19147927.066  
  23962495.695   125923766.556    23962504.141    98122454.8454   23962504.348  
                
  21485146.344   112905217.073    21485155.426    87978153.1494   21485154.922  
                
 21  8 15 10 49 10.0000000  0 14R20G 1G22G21R 5R 7G27G32R21R22G 8R 6
                                G23G10
  21489710.188   114915151.170                    89378478.109    21489718.016  
  21489709.242  
  23548428.305   123747843.306    23548439.828    96426934.7834   23548439.469  
                
  23919696.039   125698861.999    23919702.270    97947197.9064                 
                
  22431378.273   117877724.479    22431384.555    91852811.8104                 
                
  21553617.023   115216444.491                    89612797.554    21553622.262  
  21553616.535  
  21854689.188   116989887.558                    90992144.949    21854696.582  
  21854687.863  
  21955318.875   115375959.533    21955328.328    89903409.3734   21955328.438  
                
  20755092.281   109068780.325    20755100.977    84988715.6654   20755101.320  
                
  19229731.680   102902210.631                    80035064.571    19229735.047  
  19229729.648  
  21676379.508   115710023.787                    89996702.865    21676382.996  
  21676377.676  
  21340530.688   112145259.161    21340540.336    87385975.6234   21340540.906  
                
  19147194.258   102173137.085                                                  
  19147191.648  
  23968287.281   125954201.383    23968295.688    98146170.2934   23968295.926  
                
  21488784.469   112924335.565    21488793.566    87993050.6794   21488793.066  
                
 21  8 15 10 49 20.0000000  0 14R20G 1G22G21R 5R 7G27G32R21R22G 8R 6
                                G23G10
  21496258.914   114950170.149                    89405715.057    21496266.777  
  21496257.949  
  23542110.609   123714643.801    23542122.250    96401065.0954   23542121.844  
                
  23914388.867   125670971.951    23914394.945    97925465.4174                 
                
  22427227.625   117855912.733    22427233.879    91835815.6534                 
                
  21560213.227   115251705.101                    89640222.475    21560218.512  
  21560212.715  
  21848253.297   116955435.515                    90965348.950    21848260.633  
  21848251.969  
  21960621.109   115403822.826    21960630.547    89925121.0254   21960630.672  
                
  20753638.055   109061138.307    20753646.707    84982760.8524   20753647.070  
                
  19228734.750   102896875.836                    80030915.281    19228738.113  
  19228732.727  
  21669580.273   115673729.028                    89968473.608    21669583.730  
  21669578.438  
  21342133.906   112153684.102    21342143.555    87392540.4994   21342144.125  
                
  19146472.016   102169283.052                                                  
  19146469.418  
  23974079.734   125984640.733    23974088.180    98169889.2584   23974088.410  
                
  21492427.180   112943478.088    21492436.297    88007966.9214   21492435.797  
                
 21  8 15 10 49 30.0000000  0 14R20G 1G22G21R 5R 7G27G32R21R22G 8R 6
                                G23G10
  21502816.195   114985234.829                    89432987.579    21502824.066  
  21502815.191  
  23535794.555   123681452.820    23535806.223    96375202.0514   23535805.816  
                
  23909084.539   125643097.521    23909090.605    97903745.0974                 
                
  22423080.414   117834119.059    22423086.656    91818833.5884                 
                
  21566814.117   115286990.762                    89667666.853    21566819.430  
  21566813.562  
  21841824.922   116921023.365                    90938583.963    21841832.113  
  21841823.586  
  21965931.531   115431729.177    21965940.965    89946866.2254   21965941.086  
                
  20752195.656   109053558.455    20752204.262    84976854.4814   20752204.652  
                
  19227752.453   102891619.345                    80026826.895    19227755.820  
  19227750.461  
  21662786.672   115637464.516                    89940267.913    21662790.160  
  21662784.809  
  21343749.375   112162173.403    21343759.020    87399155.5374   21343759.590  
                
  19145762.961   102165499.369                                                  
  19145760.359  
  23979873.062   126015084.782    23979881.598    98193611.8694   23979881.793  
                
  21496074.484   112962644.820    21496083.637    88022902.0324   21496083.125  
                
 21  8 15 10 49 40.0000000  0 14R20G 1G22G21R 5R 7G27G32R21R22G 8R 6
                                G23G10
  21509381.938   115020344.745                    89460295.274    21509389.805  
  21509380.922  
  23529480.070   123648270.254    23529491.730    96349345.5004   23529491.312  
                
  23903783.156   125615238.584    23903789.168    97882036.8624                 
                
  22418936.633   117812343.401    22418942.863    91801865.5454                 
                
  21573419.625   115322301.064                    89695130.406    21573424.992  
  21573419.109  
  21835403.898   116886650.815                    90911849.773    21835410.969  
  21835402.559  
  21971250.086   115459678.333    21971259.508    89968644.7654   21971259.648  
                
  20750765.055   109046040.612    20750773.629    84970996.4244   20750774.039  
                
  19226784.758   102886440.981                    80022799.277    19226788.113  
  19226782.789  
  21655998.734   115601230.243                    89912085.724    21656002.281  
  21655996.840  
  21345377.031   112170726.802    21345386.652    87405820.5084   21345387.238  
                
  19145067.141   102161786.372                                                  
  19145064.562  
  23985667.258   126045533.317    23985675.914    98217337.9924   23985676.035  
                
  21499726.352   112981835.527    21499735.535    88037855.8184   21499735.008  
                
 21  8 15 10 49 50.0000000  0 14R20G 1G22G21R 5R 7G27G32R21R22G 8R 6
                                G23G10
  21515956.125   115055500.059                    89487638.267    21515964.016  
  21515955.094  
  23523167.258   123615096.329    23523178.891    96323495.6974   23523178.488  
                
  23898484.758   125587395.275    23898490.684    97860340.7804                 
                
  22414796.305   117790585.907    22414802.520    91784911.6684                 
                
  21580029.812   115357636.304                    89722613.344    21580035.195  
  21580029.324  
  21828990.266   116852318.050                    90885146.516    21828997.230  
  21828988.945  
  21976576.797   115487670.342    21976586.207    89990456.7004   21976586.371  
                
  20749346.266   109038584.889    20749354.836    84965186.7804   20749355.230  
                
  19225831.727   102881341.153                    80018832.752    19225835.102  
  19225829.777  
  21649216.539   115565026.557                    89883927.330    21649220.082  
  21649214.602  
  21347016.867   112179344.210    21347026.469    87412535.3654   21347027.074  
                
  19144384.484   102158143.678                                                  
  19144381.914  
  23991462.320   126075986.419    23991471.086    98241067.6604   23991471.137  
                
  21503382.789   113001050.295    21503391.992    88052828.3594   21503391.453  
                
 21  8 15 10 50  0.0000000  0 14R20G 1G22G21R 5R 7G27G32R21R22G 8R 6
                                G23G10
  21522538.781   115090700.506                    89515016.365    21522546.703  
  21522537.762  
  23516856.102   123581931.021    23516867.672    96297652.6094   23516867.277  
                
  23893189.266   125559567.451    23893195.160    97838656.7834                 
                
  22410659.414   117768846.412    22410665.617    91767971.8124                 
                
  21586644.562   115392995.922                    89750115.279    21586649.949  
  21586644.062  
  21822584.109   116818025.093                    90858474.224    21822590.941  
  21822582.789  
  21981911.609   115515704.926    21981921.020    90012301.8334   21981921.195  
                
  20747939.289   109031191.187    20747947.871    84959425.4654   20747948.246  
                
  19224893.328   102876319.569                    80014927.077    19224896.707  
  19224891.387  
  21642440.070   115528853.330                    89855792.593    21642443.641  
  21642438.145  
  21348668.875   112188025.546    21348678.473    87419300.0374   21348679.086  
                
  19143714.961   102154570.981                                                  
  19143712.387  
  23997258.219   126106443.940    23997267.059    98264800.7724   23997267.086  
                
  21507043.781   113020288.963    21507052.977    88067819.5254   21507052.441  
                
 21  8 15 10 50 10.0000000  0 14R20G 1G22G21R 5R 7G27G32R21R22G 8R 6
                                G23G10
  21529129.922   115125945.830                    89542429.369    21529137.766  
  21529128.898  
  23510546.516   123548774.166    23510558.191    96271816.2084   23510557.766  
                
  23887896.742   125531755.079    23887902.582    97816984.8214                 
                
  22406525.930   117747124.819    22406532.125    91751045.8914                 
                
  21593263.867   115428379.829                    89777636.086    21593269.262  
  21593263.395  
  21816185.328   116783771.767                    90831832.760    21816192.066  
  21816183.977  
  21987254.477   115543781.848    21987263.895    90034179.9334   21987264.078  
                
  20746544.086   109023859.345    20746552.676    84953712.3434   20746553.027  
                
  19223969.539   102871376.218                    80011082.258    19223972.926  
  19223967.590  
  21635669.344   115492710.828                    89827681.759    21635672.906  
  21635667.422  
  21350333.000   112196770.558    21350342.609    87426114.3174   21350343.223  
                
  19143058.570   102151068.373                                                  
  19143055.996  
  24003054.938   126136905.671    24003063.801    98288537.1844   24003063.816  
                
  21510709.281   113039551.309    21510718.445    88082829.1414   21510717.926  
                
 21  8 15 10 50 20.0000000  0 14R20G 1G22G21R 5R 7G27G32R21R22G 8R 6
                                G23G10
  21535729.414   115161236.252                    89569877.464    21535737.270  
  21535728.418  
  23504238.602   123515626.046    23504250.246    96245986.5054   23504249.832  
                
  23882607.219   125503958.466    23882613.039    97795325.1304                 
                
  22402395.906   117725421.477    22402402.117    91734134.2144                 
                
  21599887.727   115463788.108                    89805175.846    21599893.121  
  21599887.277  
  21809793.961   116749558.455                    90805222.451    21809800.711  
  21809792.637  
  21992605.445   115571901.339    21992614.875    90056091.2044   21992615.059  
                
  20745160.719   109016589.717    20745169.301    84948047.7064   20745169.645  
                
  19223060.445   102866511.510                    80007298.605    19223063.844  
  19223058.465  
  21628904.398   115456599.247                    89799595.017    21628907.934  
  21628902.477  
  21352009.328   112205579.705    21352018.945    87432978.5854   21352019.555  
                
  19142415.359   102147636.063                                                  
  19142412.793  
  24008852.516   126167371.910    24008861.367    98312277.1024   24008861.367  
                
  21514379.336   113058837.616    21514388.473    88097857.4284   21514387.984  
                
 21  8 15 10 50 30.0000000  0 14R20G 1G22G21R 5R 7G27G32R21R22G 8R 6
                                G23G10
  21542337.289   115196571.651                    89597360.544    21542345.191  
  21542336.324  
  23497932.375   123482486.583    23497943.984    96220163.5144   23497943.531  
                
  23877320.625   125476177.331    23877326.461    97773677.5134                 
                
  22398269.344   117703736.308    22398275.586    91717236.6834                 
                
  21606516.109   115499220.590                    89832734.442    21606521.516  
  21606515.691  
  21803410.062   116715385.215                    90778643.286    21803416.836  
  21803408.750  
  21997964.453   115600063.073    21997973.914    90078035.4024   21997974.090  
                
  20743789.141   109009382.058    20743797.691    84942431.3584   20743798.051  
                
  19222166.008   102861725.253                    80003575.968    19222169.422  
  19222163.996  
  21622145.289   115420518.574                    89771532.295    21622148.805  
  21622143.383  
  21353697.773   112214452.500    21353707.383    87439892.4534   21353707.996  
                
  19141785.266   102144273.826                                                  
  19141782.699  
  24014650.898   126197842.381    24014659.758    98336020.3204   24014659.738  
                
  21518053.906   113078147.609    21518063.023    88112904.1774   21518062.551  
                
 21  8 15 10 50 40.0000000  0 14R20G 1G22G21R 5R 7G27G32R21R22G 8R 6
                                G23G10
  21548953.656   115231952.222                    89624878.742    21548961.555  
  21548952.715  
  23491627.930   123449356.544    23491639.465    96194347.9684   23491639.070  
                
  23872037.031   125448412.368    23872042.953    97752042.4894                 
                
  22394146.367   117682069.976    22394152.652    91700353.8384                 
                
  21613149.070   115534677.529                    89860312.057    21613154.465  
  21613148.680  
  21797033.711   116681252.601                    90752095.736    21797040.559  
  21797032.414  
  22003331.617   115628267.585    22003341.125    90100012.9484   22003341.281  
                
  20742429.484   109002237.068    20742437.996    84936863.8374   20742438.383  
                
  19221286.375   102857018.185                    79999914.921    19221289.801  
  19221284.328  
  21615392.086   115384469.530                    89743494.148    21615395.594  
  21615390.234  
  21355398.469   112223389.685    21355408.066    87446856.4894   21355408.703  
                
  19141168.422   102140982.244                                                  
  19141165.855  
  24020450.195   126228317.720    24020459.062    98359767.3134   24020459.027  
                
  21521733.102   113097481.914    21521742.215    88127969.8674   21521741.738  
                
 21  8 15 10 50 50.0000000  0 14R20G 1G22G21R 5R 7G27G32R21R22G 8R 6
                                G23G10
  21555578.273   115267377.012                    89652431.338    21555586.176  
  21555577.355  
  23485325.047   123416234.725    23485336.516    96168538.7664   23485336.102  
                
  23866756.281   125420662.427    23866762.277    97730419.1734                 
                
  22390026.758   117660421.322    22390033.094    91683484.7794                 
                
  21619786.398   115570157.739                    89887907.762    21619791.754  
  21619786.023  
  21790664.734   116647159.401                    90725578.832    21790671.641  
  21790663.422  
  22008706.664   115656513.626    22008716.219    90122022.8204   22008716.355  
                
  20741081.531   108995153.545    20741089.992    84931344.2154   20741090.406  
                
  19220421.344   102852389.257                    79996314.635    19220424.773  
  19220419.289  
  21608644.609   115348451.165                    89715479.873    21608648.105  
  21608642.777  
  21357111.203   112232390.117    21357120.801    87453869.8024   21357121.430  
                
  19140564.609   102137760.113                                                  
  19140562.055  
  24026250.172   126258796.722    24026259.000    98383517.1584   24026259.020  
                
  21525416.688   113116839.287    21525425.805    88143053.5334   21525425.324  
                
 21  8 15 10 51  0.0000000  0 14R20G 1G22G21R 5R 7G27G32R21R22G 8R 6
                                G23G10
  21562211.289   115302846.610                    89680018.776    21562219.164  
  21562210.375  
  23479023.883   123383121.907    23479035.328    96142736.6234   23479034.887  
                
  23861478.578   125392928.230    23861484.617    97708808.1204                 
                
  22385910.648   117638791.110    22385917.027    91666630.0824                 
                
  21626428.188   115605661.850                    89915522.078    21626433.551  
  21626427.855  
  21784303.297   116613106.423                    90699093.209    21784310.250  
  21784301.961  
  22014089.727   115684801.750    22014099.281    90144065.4954   22014099.406  
                
  20739745.406   108988132.193    20739753.832    84925873.0434   20739754.273  
                
  19219571.023   102847839.054                    79992775.590    19219574.453  
  19219568.973  
  21601903.031   115312464.196                    89687490.015    21601906.539  
  21601901.219  
  21358836.039   112241454.156    21358845.648    87460932.6924   21358846.273  
                
  19139973.938   102134608.254                                                  
  19139971.371  
  24032050.938   126289280.000    24032059.738    98407270.3344   24032059.820  
                
  21529104.789   113136220.394    21529113.906    88158155.6894   21529113.430  
                
 21  8 15 10 51 10.0000000  0 14R20G 1G22G21R 5R 7G27G32R21R22G 8R 6
                                G23G10
  21568852.617   115338360.722                    89707640.856    21568860.477  
  21568851.770  
  23472724.414   123350018.057    23472735.789    96116941.4324   23472735.367  
                
  23856203.875   125365209.683    23856209.918    97687209.2654                 
                
  22381798.055   117617179.331    22381804.488    91649789.7514                 
                
  21633074.383   115641189.609                    89943154.760    21633079.719  
  21633074.074  
  21777949.477   116579093.858                    90672639.007    21777956.422  
  21777948.133  
  22019480.773   115713131.811    22019490.312    90166140.8524   22019490.449  
                
  20738421.117   108981172.991    20738429.523    84920450.2994   20738429.980  
                
  19218735.453   102843367.737                    79989297.894    19218738.887  
  19218733.426  
  21595167.375   115276508.713                    89659524.661    21595170.816  
  21595165.566  
  21360573.039   112250582.117    21360582.656    87468045.3764   21360583.266  
                
  19139396.383   102131526.341                                                  
  19139393.824  
  24037852.531   126319767.521    24037861.336    98431026.8264   24037861.465  
                
  21532797.391   113155625.147    21532806.500    88173276.2764   21532806.020  
                
 21  8 15 10 51 20.0000000  0 14R20G 1G22G21R 5R 7G27G32R21R22G 8R 6
                                G23G10
  21575502.320   115373919.364                    89735297.571    21575510.141  
  21575501.461  
  23466426.703   123316923.324    23466438.035    96091153.3114   23466437.586  
                
  23850932.125   125337506.932    23850938.242    97665622.7594                 
                
  22377688.992   117595586.106    22377695.465    91632963.8754                 
                
  21639725.039   115676741.113                    89970805.934    21639730.336  
  21639724.742  
  21771603.156   116545121.573                    90646216.155    21771610.141  
  21771601.797  
  22024879.789   115741503.807    22024889.352    90188248.8914   22024889.473  
                
  20737108.672   108974276.032    20737117.070    84915076.0494   20737117.531  
                
  19217914.648   102838975.402                    79985881.633    19217918.074  
  19217912.637  
  21588437.641   115240585.089                    89631584.083    21588441.141  
  21588435.828  
  21362322.172   112259773.757    21362331.789    87475207.6904   21362332.406  
                
  19138831.930   102128514.328                                                  
  19138829.375  
  24043654.930   126350259.291    24043663.805    98454786.6224   24043663.914  
                
  21536494.500   113175053.585    21536503.602    88188415.3124   21536503.129  
                
 21  8 15 10 51 30.0000000  0 14R20G 1G22G21R 5R 7G27G32R21R22G 8R 6
                                G23G10
  21582160.242   115409522.134                    89762988.587    21582168.105  
  21582159.352  
  23460130.648   123283837.484    23460142.023    96065372.1834   23460141.555  
                
  23845663.453   125309819.993    23845669.531    97644048.5484                 
                
  22373583.430   117574011.276    22373589.926    91616152.3384                 
                
  21646380.055   115712315.887                    89998475.211    21646385.309  
  21646379.805  
  21765264.344   116511189.662                    90619824.709    21765271.375  
  21765262.977  
  22030286.719   115769917.388    22030296.301    90210389.3214   22030296.410  
                
  20735808.023   108967441.083    20735816.426    84909750.1124   20735816.875  
                
  19217108.562   102834661.861                    79982526.654    19217111.980  
  19217106.574  
  21581713.812   115204692.956                    89603667.988    21581717.336  
  21581711.965  
  21364083.391   112269029.005    21364093.012    87482419.5654   21364093.633  
                
  19138280.578   102125572.258                                                  
  19138278.020  
  24049458.102   126380755.057    24049467.020    98478549.5314   24049467.090  
                
  21540196.062   113194505.421    21540205.164    88203572.5834   21540204.684  
                
 21  8 15 10 51 40.0000000  0 14R20G 1G22G21R 5R 7G27G32R21R22G 8R 6
                                G23G10
  21588826.406   115445169.208                    89790714.043    21588834.340  
  21588825.523  
  23453836.289   123250760.703    23453847.695    96039598.0884   23453847.266  
                
  23840397.797   125282148.540    23840403.801    97622486.3904                 
                
  22369481.375   117552454.878    22369487.859    91599355.1484                 
                
  21653039.398   115747913.771                    90026162.460    21653044.609  
  21653039.172  
  21758933.109   116477298.062                    90593464.583    21758940.117  
  21758931.734  
  22035701.547   115798372.459    22035711.102    90232562.0944   22035711.211  
                
  20734519.164   108960668.148    20734527.566    84904472.5104   20734527.992  
                
  19216317.203   102830427.184                    79979233.010    19216320.602  
  19216315.234  
  21574995.984   115168832.858                    89575776.824    21574999.555  
  21574994.141  
  21365856.680   112278347.635    21365866.309    87489680.8324   21365866.922  
                
  19137742.273   102122699.810                                                  
  19137739.711  
  24055262.031   126411254.792    24055270.969    98502315.5474   24055271.000  
                
  21543902.070   113213980.610    21543911.152    88218748.0554   21543910.684  
                
 21  8 15 10 51 50.0000000  0 14R20G 1G22G21R 5R 7G27G32R21R22G 8R 6
                                G23G10
  21595500.844   115480860.427                    89818473.847    21595508.844  
  21595499.926  
  23447543.711   123217693.247    23447555.211    96013831.3274   23447554.738  
                
  23835135.094   125254492.801    23835141.066    97600936.4764                 
                
  22365382.859   117530917.052    22365389.316    91582572.4344                 
                
  21659703.086   115783534.928                    90053867.771    21659708.293  
  21659702.855  
  21752609.484   116443447.063                    90567136.035    21752616.441  
  21752608.094  
  22041124.281   115826869.119    22041133.801    90254767.2694   22041133.926  
                
  20733242.156   108953957.412    20733250.543    84899243.3734   20733250.984  
                
  19215540.641   102826271.588                    79976000.880    19215544.035  
  19215538.699  
  21568284.125   115133004.600                    89547910.412    21568287.734  
  21568282.309  
  21367642.055   112287729.785    21367651.699    87496991.5964   21367652.305  
                
  19137217.094   102119897.382                                                  
  19137214.547  
  24061066.734   126441758.623    24061075.676    98526084.7694   24061075.734  
                
  21547612.547   113233479.295    21547621.605    88233941.8374   21547621.148  
                
 21  8 15 10 52  0.0000000  0 14R20G 1G22G21R 5R 7G27G32R21R22G 8R 6
                                G23G10
  21602183.570   115516595.935                    89846268.113    21602191.574  
  21602182.645  
  23441252.922   123184635.048    23441264.457    95988071.7254   23441264.016  
                
  23829875.375   125226852.908    23829881.352    97579398.9174                 
                
  22361287.906   117509397.929    22361294.359    91565804.2984                 
                
  21666371.156   115819179.468                    90081591.293    21666376.344  
  21666370.941  
  21746293.422   116409636.800                    90540839.198    21746300.383  
  21746292.043  
  22046554.930   115855407.344    22046564.406    90277004.8324   22046564.543  
                
  20731977.000   108947308.980    20731985.363    84894062.7854   20731985.824  
                
  19214778.891   102822195.316                    79972830.447    19214782.289  
  19214776.973  
  21561578.336   115097208.757                    89520069.208    21561581.938  
  21561576.477  
  21369439.516   112297175.481    21369449.184    87504351.8684   21369449.781  
                
  19136704.984   102117164.613                                                  
  19136702.449  
  24066872.211   126472266.618    24066881.176    98549857.2184   24066881.270  
                
  21551327.516   113253001.534    21551336.555    88249153.9694   21551336.102  
                
 21  8 15 10 52 10.0000000  0 14R20G 1G22G21R 5R 7G27G32R21R22G 8R 6
                                G23G10
  21608874.539   115552375.522                    89874096.682    21608882.551  
  21608873.617  
  23434963.914   123151586.176    23434975.441    95962319.3504   23434974.973  
                
  23824618.695   125199228.793    23824624.633    97557873.6514                 
                
  22357196.516   117487897.548    22357202.984    91549050.7534                 
                
  21673043.492   115854846.840                    90109332.596    21673048.660  
  21673043.273  
  21739984.930   116375867.181                    90514573.972    21739991.910  
  21739983.586  
  22051993.445   115883986.869    22052002.848    90299274.5854   22052003.023  
                
  20730723.672   108940722.714    20730732.020    84888930.6404   20730732.504  
                
  19214031.922   102818198.155                    79969721.552    19214035.340  
  19214030.000  
  21554878.617   115061445.308                    89492253.222    21554882.176  
  21554876.699  
  21371249.055   112306684.626    21371258.750    87511761.5894   21371259.328  
                
  19136205.930   102114501.620                                                  
  19136203.422  
  24072678.453   126502778.595    24072687.512    98573632.7584   24072687.605  
                
  21555046.922   113272547.108    21555055.957    88264384.2854   21555055.496  
                
 21  8 15 10 52 20.0000000  0 14R20G 1G22G21R 5R 7G27G32R21R22G 8R 6
                                G23G10
  21615573.750   115588199.004                    89901959.383    21615581.715  
  21615572.805  
  23428676.664   123118546.527    23428688.215    95936574.2144   23428687.754  
                
  23819364.930   125171620.258    23819370.902    97536360.5404                 
                
  22353108.648   117466415.698    22353115.113    91532311.6614                 
                
  21679720.094   115890537.052                    90137091.642    21679725.254  
  21679719.863  
  21733684.023   116342138.101                    90488340.261    21733691.004  
  21733682.688  
  22057439.773   115912607.461    22057449.098    90321576.3454   22057449.305  
                
  20729482.156   108934198.508    20729490.516    84883846.8524   20729490.992  
                
  19213299.734   102814280.111                    79966674.191    19213303.164  
  19213297.801  
  21548184.969   115025714.092                    89464462.295    21548188.516  
  21548183.012  
  21373070.648   112316257.147    21373080.363    87519220.6914   21373080.922  
                
  19135719.945   102111908.387                                                  
  19135717.438  
  24078485.438   126533294.398    24078494.586    98597411.2834   24078494.629  
                
  21558770.742   113292115.871    21558779.781    88279632.6724   21558779.309  
                
 21  8 15 10 52 30.0000000  0 14R20G 1G22G21R 5R 7G27G32R21R22G 8R 6
                                G23G10
  21622281.148   115624066.366                    89929856.181    21622289.074  
  21622280.188  
  23422391.234   123085516.382    23422402.707    95910836.4394   23422402.258  
                
  23814114.250   125144027.697    23814120.223    97514859.8594                 
                
  22349024.391   117444952.819    22349030.848    91515587.3504                 
                
  21686400.930   115926249.901                    90164868.302    21686406.082  
  21686400.707  
  21727390.781   116308450.068                    90462138.487    21727397.773  
  21727389.410  
  22062893.953   115941269.310    22062903.250    90343910.2444   22062903.473  
                
  20728252.500   108927736.611    20728260.895    84878811.6074   20728261.332  
                
  19212582.398   102810441.526                    79963688.630    19212585.848  
  19212580.418  
  21541497.438   114990015.575                    89436696.796    21541500.965  
  21541495.496  
  21374904.320   112325893.122    21374914.051    87526729.2314   21374914.594  
                
  19135247.000   102109384.681                                                  
  19135244.492  
  24084293.180   126563814.234    24084302.410    98621192.9384   24084302.387  
                
  21562499.023   113311708.029    21562508.066    88294899.2884   21562507.578  
                
 21  8 15 10 52 40.0000000  0 14R20G 1G22G21R 5R 7G27G32R21R22G 8R 6
                                G23G10
  21628996.703   115659977.385                    89957786.944    21629004.613  
  21628995.711  
  23416107.586   123052495.712    23416119.051    95885106.1044   23416118.574  
                
  23808866.609   125116450.825    23808872.496    97493371.4054                 
                
  22344943.695   117423508.713    22344950.141    91498877.6604                 
                
  21693085.969   115961985.238                    90192662.447    21693091.102  
  21693085.738  
  21721105.062   116274802.553                    90435968.234    21721112.082  
  21721103.684  
  22068355.906   115969972.098    22068365.219    90366276.0274   22068365.434  
                
  20727034.656   108921336.838    20727043.109    84873824.7734   20727043.492  
                
  19211879.867   102806682.185                    79960764.690    19211883.312  
  19211877.867  
  21534816.016   114954349.783                    89408956.757    21534819.566  
  21534814.105  
  21376750.031   112335592.423    21376759.793    87534287.1284   21376760.328  
                
  19134787.086   102106930.562                                                  
  19134784.582  
  24090101.625   126594337.904    24090110.887    98644977.5874   24090110.836  
                
  21566231.688   113331323.346    21566240.738    88310183.9514   21566240.266  
                
 21  8 15 10 52 50.0000000  0 14R20G 1G22G21R 5R 7G27G32R21R22G 8R 6
                                G23G10
  21635720.430   115695931.616                    89985751.318    21635728.238  
  21635719.418  
  23409825.727   123019484.266    23409837.137    95859382.9074   23409836.664  
                
  23803621.906   125088889.436    23803627.762    97471895.0134                 
                
  22340866.547   117402083.188    22340872.977    91482182.4564                 
                
  21699775.188   115997742.914                    90220473.983    21699780.309  
  21699774.941  
  21714826.984   116241195.858                    90409829.726    21714834.027  
  21714825.594  
  22073825.602   115998715.504    22073834.910    90388673.4784   22073835.141  
                
  20725828.609   108914999.003    20725837.121    84868886.2064   20725837.453  
                
  19211192.125   102803001.980                    79957902.314    19211195.574  
  19211190.098  
  21528140.703   114918716.539                    89381242.016    21528144.258  
  21528138.832  
  21378607.750   112345354.740    21378617.551    87541894.1214   21378618.059  
                
  19134340.219   102104545.964                                                  
  19134337.723  
  24095910.766   126624865.133    24095920.027    98668765.0194   24095919.977  
                
  21569968.734   113350961.596    21569977.809    88325486.4784   21569977.324  
                
 21  8 15 10 53  0.0000000  0 14R20G 1G22G21R 5R 7G27G32R21R22G 8R 6
                                G23G10
  21642452.383   115731930.036                    90013750.098    21642460.113  
  21642451.363  
  23403545.758   122986482.819    23403557.125    95833667.4964   23403556.664  
                
  23798380.266   125061344.277    23798386.113    97450431.2774                 
                
  22336793.078   117380676.999    22336799.500    91465502.3244                 
                
  21706468.656   116033523.368                    90248303.209    21706473.770  
  21706468.348  
  21708556.609   116207630.552                    90383723.397    21708563.695  
  21708555.238  
  22079303.141   116027500.155    22079312.469    90411103.0734   22079312.711  
                
  20724634.469   108908723.794    20724643.027    84863996.4434   20724643.328  
                
  19210519.328   102799401.748                    79955102.133    19210522.777  
  19210517.301  
  21521471.648   114883116.601                    89353553.187    21521475.141  
  21521469.766  
  21380477.516   112355180.421    21380487.355    87549550.4924   21380487.852  
                
  19133906.414   102102231.183                                                  
  19133903.902  
  24101720.727   126655396.629    24101729.977    98692555.7644   24101729.938  
                
  21573710.250   113370623.416    21573719.363    88340807.3704   21573718.863  
                
 21  8 15 10 53 10.0000000  0 14R20G 1G22G21R 5R 7G27G32R21R22G 8R 6
                                G23G10
  21649192.469   115767971.967                    90041782.692    21649200.145  
  21649191.398  
  23397267.641   122953491.064    23397278.996    95807959.6694   23397278.562  
                
  23793141.617   125033814.934    23793147.469    97428979.8634                 
                
  22332723.211   117359289.731    22332729.633    91448836.9294                 
                
  21713166.305   116069326.081                    90276149.756    21713171.379  
  21713165.961  
  21702293.984   116174106.323                    90357649.011    21702301.039  
  21702292.590  
  22084788.430   116056325.508    22084797.824    90433564.3634   22084798.043  
                
  20723452.172   108902510.800    20723460.750    84859155.1624   20723461.047  
                
  19209861.398   102795881.032                    79952363.792    19209864.852  
  19209859.379  
  21514808.766   114847549.744                    89325890.097    21514812.297  
  21514806.914  
  21382359.375   112365069.617    21382369.242    87557256.3554   21382369.719  
                
  19133485.633   102099985.776                                                  
  19133483.133  
  24107531.422   126685931.887    24107540.648    98716349.4624   24107540.617  
                
  21577456.164   113390308.331    21577465.316    88356146.2654   21577464.809  
                
 21  8 15 10 53 20.0000000  0 14R20G 1G22G21R 5R 7G27G32R21R22G 8R 6
                                G23G10
  21655940.570   115804057.237                    90069848.967    21655948.312  
  21655939.547  
  23390991.320   122920508.924    23391002.695    95782259.3374   23391002.285  
                
  23787905.977   125006301.447    23787911.785    97407540.7904                 
                
  22328656.953   117337921.469    22328663.383    91432186.3474                 
                
  21719868.078   116105150.899                    90304013.501    21719873.125  
  21719867.688  
  21696039.055   116140623.230                    90331606.648    21696046.066  
  21696037.660  
  22090281.453   116085191.472    22090290.934    90456057.3094   22090291.105  
                
  20722281.727   108896360.062    20722290.293    84854362.3794   20722290.602  
                
  19209218.359   102792439.951                    79949687.389    19209221.801  
  19209216.379  
  21508152.117   114812016.151                    89298252.869    21508155.680  
  21508150.277  
  21384253.211   112375021.800    21384263.086    87565011.2974   21384263.562  
                
  19133077.875   102097809.961                                                  
  19133075.379  
  24113342.836   126716470.939    24113352.047    98740146.1074   24113352.008  
                
  21581206.469   113410016.334    21581215.633    88371503.1474   21581215.121  
                
 21  8 15 10 53 30.0000000  0 14R20G 1G22G21R 5R 7G27G32R21R22G 8R 6
                                G23G10
  21662696.797   115840185.954                    90097949.060    21662704.605  
  21662695.809  
  23384716.891   122887536.797    23384728.301    95756566.8314   23384727.906  
                
  23782673.383   124978803.942    23782679.180    97386114.1884                 
                
  22324594.375   117316572.498    22324600.797    91415550.7784                 
                
  21726574.000   116140997.942                    90331894.531    21726579.035  
  21726573.570  
  21689791.875   116107181.481                    90305596.416    21689798.816  
  21689790.449  
  22095782.219   116114098.141    22095791.738    90478581.9624   22095791.898  
                
  20721123.156   108890271.740    20721131.699    84849618.2294   20721132.027  
                
  19208590.258   102789078.820                    79947073.175    19208593.684  
  19208588.305  
  21501501.750   114776516.136                    89270641.746    21501505.262  
  21501499.934  
  21386159.141   112385037.462    21386169.012    87572815.7054   21386169.504  
                
  19132683.141   102095703.640                                                  
  19132680.641  
  24119154.953   126747013.883    24119164.164    98763945.7824   24119164.137  
                
  21584961.195   113429747.560    21584970.352    88386878.1194   21584969.840  
                
 21  8 15 10 53 40.0000000  0 14R20G 1G22G21R 5R 7G27G32R21R22G 8R 6
                                G23G10
  21669461.125   115876357.979                    90126082.840    21669468.980  
  21669460.125  
  23378444.312   122854574.433    23378455.695    95730881.8884   23378455.320  
                
  23777443.742   124951322.327    23777449.609    97364699.9794                 
                
  22320535.414   117295242.590    22320541.852    91398930.0834                 
                
  21733284.000   116176866.805                    90359792.535    21733289.066  
  21733283.547  
  21683552.352   116073780.792                    90279618.103    21683559.227  
  21683550.922  
  22101290.672   116143045.209    22101300.207    90501138.1064   22101300.371  
                
  20719976.430   108884245.663    20719984.957    84844922.5834   20719985.305  
                
  19207977.039   102785797.333                    79944520.920    19207980.473  
  19207975.105  
  21494857.695   114741049.755                    89243056.799    21494861.172  
  21494855.883  
  21388077.062   112395116.188    21388086.914    87580669.2544   21388087.422  
                
  19132301.445   102093666.873                                                  
  19132298.934  
  24124967.812   126777560.487    24124976.945    98787748.3174   24124976.977  
                
  21588720.289   113449501.770    21588729.430    88402271.0124   21588728.934  
                
 21  8 15 10 53 50.0000000  0 14R20G 1G22G21R 5R 7G27G32R21R22G 8R 6
                                G23G10
  21676233.562   115912573.152                    90154250.157    21676241.395  
  21676232.520  
  23372173.594   122821621.928    23372184.957    95705204.6414   23372184.609  
                
  23772217.125   124923856.694    23772223.051    97343298.2104                 
                
  22316480.102   117273931.794    22316486.543    91382324.2864                 
                
  21739998.078   116212757.497                    90387707.507    21740003.164  
  21739997.645  
  21677320.555   116040421.484                    90253672.015    21677327.398  
  21677319.137  
  22106806.805   116172032.589    22106816.352    90523725.6604   22106816.516  
                
  20718841.547   108878281.841    20718850.086    84840275.4544   20718850.438  
                
  19207378.727   102782595.663                    79942030.731    19207382.168  
  19207376.805  
  21488219.914   114705616.895                    89215497.925    21488223.379  
  21488218.066  
  21390006.961   112405257.832    21390016.785    87588571.8294   21390017.320  
                
  19131932.719   102091699.273                                                  
  19131930.191  
  24130781.391   126808110.799    24130790.457    98811553.7574   24130790.508  
                
  21592483.758   113469278.927    21592492.883    88417681.7824   21592492.398  
                
 21  8 15 10 54  0.0000000  0 14R20G 1G22G21R 5R 7G27G32R21R22G 8R 6
                                G23G10
  21683014.117   115948831.480                    90182451.068    21683021.875  
  21683013.066  
  23365904.812   122788679.472    23365916.098    95679535.1864   23365915.789  
                
  23766993.594   124896407.043    23766999.508    97321908.8874                 
                
  22312428.453   117252640.298    22312434.879    91365733.5184                 
                
  21746716.234   116248669.843                    90415639.317    21746721.328  
  21746715.789  
  21671096.492   116007103.568                    90227758.115    21671103.297  
  21671095.082  
  22112330.594   116201060.241    22112340.180    90546344.5914   22112340.336  
                
  20717718.523   108872380.351    20717727.090    84835676.9034   20717727.426  
                
  19206795.344   102779473.899                    79939602.693    19206798.785  
  19206793.398  
  21481588.500   114670218.109                    89187965.547    21481591.953  
  21481586.656  
  21391948.836   112415462.420    21391958.629    87596523.4534   21391959.180  
                
  19131576.992   102089801.063                                                  
  19131574.461  
  24136595.656   126838664.787    24136604.645    98835362.0424   24136604.730  
                
  21596251.594   113489079.078    21596260.734    88433110.4624   21596260.258  
                
 21  8 15 10 54 10.0000000  0 14R20G 1G22G21R 5R 7G27G32R21R22G 8R 6
                                G23G10
  21689802.594   115985132.417                    90210685.119    21689810.324  
  21689801.570  
  23359637.938   122755746.937    23359649.184    95653873.4804   23359648.895  
                
  23761773.141   124868973.221    23761778.957    97300531.9044                 
                
  22308380.461   117231367.921    22308386.875    91349157.6504                 
                
  21753438.375   116284603.573                    90443587.758    21753443.457  
  21753437.934  
  21664880.188   115973827.134                    90201876.454    21664886.961  
  21664878.789  
  22117862.008   116230127.906    22117871.629    90568994.6984   22117871.766  
                
  20716607.336   108866541.027    20716615.938    84831126.7934   20716616.258  
                
  19206226.875   102776431.961                    79937236.749    19206230.328  
  19206224.902  
  21474963.375   114634852.933                    89160459.323    21474966.812  
  21474961.496  
  21393902.688   112425729.935    21393912.457    87604524.1064   21393913.008  
                
  19131234.211   102087971.927                                                  
  19131231.688  
  24142410.578   126869222.277    24142419.527    98859173.0734   24142419.617  
                
  21600023.758   113508902.005    21600032.930    88448556.8944   21600032.445  
                
 21  8 15 10 54 20.0000000  0 14R20G 1G22G21R 5R 7G27G32R21R22G 8R 6
                                G23G10
  21696599.102   116021476.412                    90238952.653    21696606.832  
  21696598.125  
  23353373.000   122722824.495    23353384.254    95628219.6644   23353383.961  
                
  23756555.680   124841555.347    23756561.465    97279167.3414                 
                
  22304336.148   117210114.924    22304342.566    91332596.8814                 
                
  21760164.547   116320558.821                    90471552.974    21760169.621  
  21760164.109  
  21658671.602   115940592.084                    90176027.018    21658678.363  
  21658670.203  
  22123401.031   116259235.600    22123410.664    90591676.0144   22123410.797  
                
  20715508.008   108860764.008    20715516.637    84826625.2374   20715516.926  
                
  19205673.359   102773470.060                    79934933.051    19205676.824  
  19205671.348  
  21468344.680   114599521.920                    89132979.665    21468348.094  
  21468342.789  
  21395868.516   112436060.441    21395878.270    87612573.8464   21395878.820  
                
  19130904.445   102086212.215                                                  
  19130901.934  
  24148226.211   126899783.382    24148235.156    98882986.9104   24148235.219  
                
  21603800.281   113528747.781    21603809.480    88464021.1364   21603808.988  
                
 21  8 15 10 54 30.0000000  0 14R20G 1G22G21R 5R 7G27G32R21R22G 8R 6
                                G23G10
  21703403.586   116057862.946                    90267253.279    21703411.309  
  21703402.656  
  23347109.984   122689912.104    23347121.242    95602573.6894   23347120.977  
                
  23751341.203   124814153.316    23751347.012    97257815.1464                 
                
  22300295.500   117188881.192    22300301.910    91316051.1274                 
                
  21766894.719   116356535.387                    90499534.715    21766899.754  
  21766894.258  
  21652470.766   115907398.630                    90150209.915    21652477.484  
  21652469.355  
  22128947.641   116288383.130    22128957.242    90614388.3604   22128957.379  
                
  20714420.516   108855049.211    20714429.148    84822172.1424   20714429.434  
                
  19205134.789   102770588.138                    79932691.550    19205138.266  
  19205132.754  
  21461732.359   114564225.019                    89105526.539    21461735.781  
  21461730.438  
  21397846.242   112446453.466    21397855.988    87620672.3104   21397856.539  
                
  19130587.523   102084521.116                                                  
  19130585.023  
  24154042.492   126930347.934    24154051.422    98906803.4214   24154051.477  
                
  21607581.125   113548616.291    21607590.355    88479503.0854   21607589.855  
                
 21  8 15 10 54 40.0000000  0 14R20G 1G22G21R 5R 7G27G32R21R22G 8R 6
                                G23G10
  21710216.070   116094292.288                    90295587.192    21710223.793  
  21710215.133  
  23340848.891   122657009.922    23340860.141    95576935.6434   23340859.887  
                
  23746129.828   124786767.329    23746135.598    97236475.4424                 
                
  22296258.555   117167666.909    22296264.949    91299520.5274                 
                
  21773628.828   116392533.036                    90527532.902    21773633.848  
  21773628.367  
  21646277.711   115874246.776                    90124425.154    21646284.367  
  21646276.305  
  22134501.836   116317570.516    22134511.406    90637131.7614   22134511.555  
                
  20713344.891   108849396.740    20713353.508    84817767.6214   20713353.801  
                
  19204611.180   102767786.234                    79930512.292    19204614.664  
  19204609.129  
  21455126.492   114528962.480                    89078100.132    21455129.922  
  21455124.578  
  21399835.953   112456909.440    21399845.703    87628819.8264   21399846.250  
                
  19130283.602   102082899.344                                                  
  19130281.078  
  24159859.414   126960916.055    24159868.352    98930622.7044   24159868.387  
                
  21611366.312   113568507.578    21611375.578    88495002.7914   21611375.059  
                
 21  8 15 10 54 50.0000000  0 14R20G 1G22G21R 5R 7G27G32R21R22G 8R 6
                                G23G10
  21717036.547   116130764.158                    90323954.179    21717044.250  
  21717035.598  
  23334589.750   122624117.920    23334601.004    95551305.5494   23334600.734  
                
  23740921.492   124759397.306    23740927.203    97215148.1544                 
                
  22292225.312   117146472.095    22292231.688    91283005.0884                 
                
  21780366.891   116428551.743                    90555547.439    21780371.906  
  21780366.438  
  21640092.469   115841136.600                    90098672.807    21640099.047  
  21640091.078  
  22140063.570   116346797.570    22140073.098    90659906.0674   22140073.266  
                
  20712281.109   108843806.526    20712289.699    84813411.6104   20712290.016  
                
  19204102.539   102765064.377                    79928395.294    19204106.016  
  19204100.480  
  21448527.055   114493734.385                    89050700.511    21448530.543  
  21448525.180  
  21401837.609   112467428.145    21401847.367    87637016.2094   21401847.910  
                
  19129992.625   102081346.663                                                  
  19129990.109  
  24165676.992   126991487.640    24165685.949    98954444.7044   24165685.961  
                
  21615155.820   113588421.562    21615165.105    88510520.1674   21615164.578  
                
 21  8 15 10 55  0.0000000  0 14R20G 1G22G21R 5R 7G27G32R21R22G 8R 6
                                G23G10
  21723865.016   116167278.618                    90352354.295    21723872.668  
  21723864.016  
  23328332.578   122591236.366    23328343.793    95525683.5554   23328343.543  
                
  23735716.242   124732043.421    23735721.898    97193833.4534                 
                
  22288195.797   117125296.888    22288202.160    91266504.9454                 
                
  21787108.906   116464591.632                    90583578.435    21787113.906  
  21787108.434  
  21633915.047   115808068.291                    90072953.038    21633921.582  
  21633913.672  
  22145632.875   116376064.381    22145642.328    90682711.3694   22145642.539  
                
  20711229.211   108838278.780    20711237.789    84809104.2834   20711238.125  
                
  19203608.930   102762422.972                    79926340.867    19203612.414  
  19203606.891  
  21441934.156   114458541.067                    89023327.942    21441937.633  
  21441932.293  
  21403851.242   112478009.813    21403861.012    87645261.6584   21403861.535  
                
  19129714.617   102079863.200                                                  
  19129712.098  
  24171495.289   127022062.807    24171504.227    98978269.5084   24171504.238  
                
  21618949.680   113608358.366    21618958.973    88526055.3434   21618958.441  
                
 21  8 15 10 55 10.0000000  0 14R20G 1G22G21R 5R 7G27G32R21R22G 8R 6
                                G23G10
  21730701.430   116203835.674                    90380787.538    21730709.039  
  21730700.375  
  23322077.391   122558365.338    23322088.613    95500069.8014   23322088.359  
                
  23730514.055   124704705.696    23730519.707    97172531.3564                 
                
  22284170.031   117104141.384    22284176.391    91250020.1444                 
                
  21793854.852   116500652.578                    90611625.824    21793859.840  
  21793854.398  
  21627745.453   115775041.932                    90047265.910    21627751.953  
  21627744.105  
  22151209.734   116405370.835    22151219.102    90705547.5604   22151219.355  
                
  20710189.195   108832813.480    20710197.785    84804845.6234   20710198.121  
                
  19203130.367   102759862.016                    79924349.012    19203133.840  
  19203128.348  
  21435347.805   114423382.695                    88995982.540    21435351.211  
  21435345.934  
  21405876.789   112488654.115    21405886.570    87653555.9114   21405887.090  
                
  19129449.578   102078448.916                                                  
  19129447.059  
  24177314.227   127052641.472    24177323.172    99002097.0304   24177323.160  
                
  21622747.867   113628317.968    21622757.152    88541608.2774   21622756.633  
                
 21  8 15 10 55 20.0000000  0 14R20G 1G22G21R 5R 7G27G32R21R22G 8R 6
                                G23G10
  21737545.680   116240434.885                    90409253.574    21737553.336  
  21737544.598  
  23315824.195   122525504.712    23315835.422    95474464.1614   23315835.180  
                
  23725314.914   124677383.980    23725320.613    97151241.7354                 
                
  22280147.992   117083005.491    22280154.352    91233550.6374                 
                
  21800604.648   116536734.103                    90639689.228    21800609.641  
  21800604.207  
  21621583.680   115742057.411                    90021611.299    21621590.129  
  21621582.332  
  22156794.078   116434716.646    22156803.406    90728414.4164   22156803.676  
                
  20709161.031   108827410.464    20709169.652    84800635.4904   20709169.969  
                
  19202666.773   102757381.226                    79922419.509    19202670.242  
  19202664.785  
  21428767.992   114388259.193                    88968664.279    21428771.324  
  21428766.137  
  21407914.234   112499360.929    21407924.023    87661898.8804   21407924.543  
                
  19129197.430   102077103.396                                                  
  19129194.910  
  24183133.797   127083223.502    24183142.746    99025927.1164   24183142.699  
                
  21626550.344   113648300.114    21626559.609    88557178.7744   21626559.090  
                
 21  8 15 10 55 30.0000000  0 14R20G 1G22G21R 5R 7G27G32R21R22G 8R 6
                                G23G10
  21744397.836   116277076.510                    90437752.591    21744405.566  
  21744396.719  
  23309573.000   122492654.658    23309584.234    95448866.7174   23309583.996  
                
  23720118.812   124650078.430    23720124.609    97129964.7064                 
                
  22276129.727   117061889.428    22276136.082    91217096.5734                 
                
  21807358.359   116572836.454                    90667768.804    21807363.344  
  21807357.941  
  21615429.781   115709114.982                    89995989.433    21615436.191  
  21615428.434  
  22162385.938   116464101.948    22162395.258    90751312.0424   22162395.516  
                
  20708144.766   108822069.937    20708153.426    84796474.0454   20708153.707  
                
  19202218.258   102754981.094                    79920552.734    19202221.723  
  19202216.285  
  21422194.719   114353170.727                    88941373.259    21422198.047  
  21422192.875  
  21409963.648   112510130.602    21409973.445    87670290.8284   21409973.965  
                
  19128958.219   102075826.910                                                  
  19128955.676  
  24188954.039   127113809.196    24188963.031    99049760.1574   24188962.965  
                
  21630357.148   113668305.000    21630366.395    88572766.9984   21630365.902  
                
 21  8 15 10 55 40.0000000  0 14R20G 1G22G21R 5R 7G27G32R21R22G 8R 6
                                G23G10
  21751257.758   116313760.268                    90466284.366    21751265.652  
  21751256.707  
  23303323.789   122459815.079    23303335.047    95423277.4734   23303334.812  
                
  23714925.773   124622788.804    23714931.617    97108700.0974                 
                
  22272115.195   117040792.976    22272121.531    91200657.7924                 
                
  21814115.875   116608959.204                    90695864.285    21814120.855  
  21814115.531  
  21609283.695   115676214.422                    89970400.134    21609290.078  
  21609282.359  
  22167985.227   116493526.316    22167994.535    90774240.0954   22167994.805  
                
  20707140.336   108816791.600    20707149.023    84792361.0534   20707149.277  
                
  19201784.727   102752661.158                    79918748.347    19201788.180  
  19201782.758  
  21415628.070   114318117.500                    88914109.651    21415631.379  
  21415626.219  
  21412024.906   112520962.564    21412034.707    87678731.3094   21412035.219  
                
  19128731.859   102074619.014                                                  
  19128729.305  
  24194774.883   127144397.976    24194783.863    99073595.5584   24194783.816  
                
  21634168.219   113688332.264    21634177.430    88588372.6564   21634176.949  
                
 21  8 15 10 55 50.0000000  0 14R20G 1G22G21R 5R 7G27G32R21R22G 8R 6
                                G23G10
  21758125.727   116350486.219                    90494848.973    21758133.645  
  21758124.684  
  23297076.648   122426986.216    23297087.926    95397696.5584   23297087.715  
                
  23709735.867   124595515.415    23709741.691    97087448.1104                 
                
  22268104.445   117019716.426    22268110.777    91184234.5124                 
                
  21820877.250   116645102.606                    90723975.814    21820882.219  
  21820876.965  
  21603145.453   115643356.002                    89944843.598    21603151.816  
  21603144.105  
  22173591.961   116522989.873    22173601.258    90797198.7054   22173601.539  
                
  20706147.789   108811575.717    20706156.480    84788296.7274   20706156.727  
                
  19201366.258   102750421.847                    79917006.658    19201369.711  
  19201364.293  
  21409068.008   114283099.510                    88886873.456    21409071.254  
  21409066.145  
  21414098.109   112531857.271    21414107.934    87687220.6804   21414108.449  
                
  19128518.445   102073480.166                                                  
  19128515.910  
  24200596.367   127174990.134    24200605.328    99097433.5854   24200605.297  
                
  21637983.578   113708382.140    21637992.738    88603995.9364   21637992.281  
                
 21  8 15 10 56  0.0000000  0 14R20G 1G22G21R 5R 7G27G32R21R22G 8R 6
                                G23G10
  21765001.461   116387253.934                    90523446.062    21765009.410  
  21765000.445  
  23290831.562   122394168.021    23290842.863    95372123.9684   23290842.613  
                
  23704549.000   124568258.175    23704554.812    97066208.7104                 
                
  22264097.484   116998659.724    22264103.812    91167826.7094                 
                
  21827642.406   116681266.143                    90752103.006    21827647.355  
  21827642.172  
  21597015.086   115610539.770                    89919319.900    21597021.445  
  21597013.715  
  22179206.125   116552492.487    22179215.398    90820187.7374   22179215.688  
                
  20705167.102   108806422.192    20705175.777    84784280.9954   20705176.051  
                
  19200962.828   102748263.075                    79915327.616    19200966.277  
  19200960.844  
  21402514.609   114248117.118                    88859664.938    21402517.863  
  21402512.762  
  21416183.188   112542814.439    21416193.043    87695758.7284   21416193.539  
                
  19128317.922   102072410.153                                                  
  19128315.387  
  24206418.484   127205585.596    24206427.438    99121274.1914   24206427.449  
                
  21641803.219   113728454.465    21641812.324    88619636.7134   21641811.883  
                
 21  8 15 10 56 10.0000000  0 14R20G 1G22G21R 5R 7G27G32R21R22G 8R 6
                                G23G10
  21771884.953   116424063.568                    90552075.759    21771893.020  
  21771883.957  
  23284588.516   122361360.546    23284599.801    95346559.7064   23284599.539  
                
  23699365.141   124541016.947    23699370.980    97044981.8064                 
                
  22260094.289   116977622.859    22260100.605    91151434.3704                 
                
  21834411.305   116717449.741                    90780245.790    21834416.289  
  21834411.105  
  21590892.609   115577765.740                    89893829.005    21590898.945  
  21590891.254  
  22184827.680   116582033.938    22184836.930    90843207.0314   22184837.242  
                
  20704198.266   108801330.955    20704206.906    84780313.8104   20704207.207  
                
  19200574.461   102746184.895                    79913711.266    19200577.926  
  19200572.461  
  21395967.844   114213170.100                    88832483.940    21395971.117  
  21395965.984  
  21418280.133   112553833.946    21418290.004    87704345.3534   21418290.492  
                
  19128130.258   102071408.724                                                  
  19128127.723  
  24212241.227   127236184.257    24212250.172    99145117.2574   24212250.219  
                
  21645627.109   113748549.149    21645636.168    88635294.9214   21645635.746  
                
 21  8 15 10 56 20.0000000  0 14R20G 1G22G21R 5R 7G27G32R21R22G 8R 6
                                G23G10
  21778776.273   116460914.999                    90580737.955    21778784.449  
  21778775.344  
  23278347.531   122328563.905    23278358.781    95321003.8944   23278358.516  
                
  23694184.359   124513791.959    23694190.234    97023767.5624                 
                
  22256094.891   116956605.881    22256101.191    91135057.5114                 
                
  21841183.984   116753653.552                    90808404.298    21841188.988  
  21841183.773  
  21584778.047   115545034.042                    89868371.028    21584784.383  
  21584776.672  
  22190456.641   116611614.230    22190465.902    90866256.5974   22190466.215  
                
  20703241.312   108796302.133    20703249.906    84776395.2564   20703250.230  
                
  19200201.180   102744187.396                    79912157.656    19200204.652  
  19200199.152  
  21389427.789   114178258.967                    88805330.841    21389431.105  
  21389425.898  
  21420388.945   112564915.802    21420398.812    87712980.5564   21420399.312  
                
  19127955.453   102070475.997                                                  
  19127952.926  
  24218064.586   127266786.145    24218073.535    99168962.8334   24218073.602  
                
  21649455.281   113768666.279    21649464.293    88650970.5994   21649463.883  
                
 21  8 15 10 56 30.0000000  0 14R20G 1G22G21R 5R 7G27G32R21R22G 8R 6
                                G23G10
  21785675.414   116497808.012                    90609432.528    21785683.637  
  21785674.500  
  23272108.594   122295778.046    23272119.797    95295456.4684   23272119.512  
                
  23689006.641   124486583.035    23689012.578    97002565.8224                 
                
  22252099.258   116935608.813    22252105.547    91118696.1614                 
                
  21847960.359   116789877.174                    90836578.204    21847965.375  
  21847960.121  
  21578671.336   115512344.541                    89842945.905    21578677.676  
  21578669.961  
  22196092.938   116641233.156    22196102.203    90889336.2594   22196102.508  
                
  20702296.211   108791335.602    20702304.770    84772525.2334   20702305.117  
                
  19199842.953   102742270.531                    79910666.772    19199846.434  
  19199840.895  
  21382894.430   114143383.480                    88778205.494    21382897.750  
  21382892.504  
  21422509.602   112576059.938    21422519.453    87721664.2944   21422519.957  
                
  19127793.484   102069611.753                                                  
  19127790.938  
  24223888.539   127297391.172    24223897.500    99192810.8664   24223897.559  
                
  21653287.680   113788805.662    21653296.672    88666663.6294   21653296.258  
                
 21  8 15 10 56 40.0000000  0 14R20G 1G22G21R 5R 7G27G32R21R22G 8R 6
                                G23G10
  21792582.531   116534742.777                    90638159.548    21792590.645  
  21792581.469  
  23265871.766   122263003.294    23265882.965    95269917.7214   23265882.664  
                
  23683832.047   124459390.430    23683838.035    96981376.7994                 
                
  22248107.492   116914631.973    22248113.754    91102350.5764                 
                
  21854740.484   116826120.866                    90864767.724    21854745.523  
  21854740.234  
  21572572.555   115479697.581                    89817553.847    21572578.914  
  21572571.180  
  22201736.633   116670890.886    22201745.879    90912446.1644   22201746.180  
                
  20701363.023   108786431.635    20701371.566    84768703.9584   20701371.922  
                
  19199499.859   102740434.644                    79909238.857    19199503.340  
  19199497.773  
  21376367.852   114108544.345                    88751108.401    21376371.188  
  21376365.930  
  21424642.195   112587266.734    21424652.039    87730396.8514   21424652.562  
                
  19127644.391   102068816.203                                                  
  19127641.828  
  24229713.156   127327999.553    24229722.113    99216661.5334   24229722.176  
                
  21657124.359   113808967.550    21657133.355    88682374.1824   21657132.934  
                
 21  8 15 10 56 50.0000000  0 14R20G 1G22G21R 5R 7G27G32R21R22G 8R 6
                                G23G10
  21799497.211   116571719.199                    90666918.944    21799505.445  
  21799496.180  
  23259637.039   122230239.605    23259648.227    95244387.6044   23259647.922  
                
  23678660.547   124432214.142    23678666.613    96960200.5064                 
                
  22244119.555   116893675.237    22244125.773    91086020.6684                 
                
  21861524.328   116862384.306                    90892972.620    21861529.359  
  21861524.082  
  21566481.742   115447093.135                    89792194.836    21566488.090  
  21566480.363  
  22207387.664   116700587.175    22207396.922    90935586.1214   22207397.234  
                
  20700441.719   108781590.114    20700450.254    84764931.3424   20700450.598  
                
  19199171.891   102738679.630                    79907873.839    19199175.355  
  19199169.793  
  21369848.070   114073741.385                    88724039.447    21369851.383  
  21369846.152  
  21426786.609   112598535.679    21426796.457    87739177.8444   21426796.980  
                
  19127508.172   102068089.335                                                  
  19127505.613  
  24235538.398   127358611.200    24235547.383    99240514.7784   24235547.422  
                
  21660965.297   113829151.765    21660974.301    88698102.1394   21660973.871  
                
 21  8 15 10 57  0.0000000  0 14R20G 1G22G21R 5R 7G27G32R21R22G 8R 6
                                G23G10
  21806419.641   116608736.590                    90695710.204    21806427.930  
  21806418.605  
  23253404.258   122197486.465    23253415.469    95218865.7064   23253415.152  
                
  23673492.047   124405053.599    23673498.180    96939036.4704                 
                
  22240135.344   116872738.132    22240141.508    91069706.0474                 
                
  21868311.719   116898666.870                    90921192.403    21868316.770  
  21868311.438  
  21560398.789   115414530.784                    89766868.595    21560405.117  
  21560397.402  
  22213045.914   116730321.407    22213055.199    90958755.6374   22213055.508  
                
  20699532.172   108776810.478    20699540.699    84761206.9544   20699541.039  
                
  19198858.953   102737005.043                    79906571.379    19198862.410  
  19198856.852  
  21363334.984   114038974.170                    88696998.309    21363338.246  
  21363333.070  
  21428942.773   112609866.358    21428952.621    87748006.9364   21428953.152  
                
  19127384.672   102067430.381                                                  
  19127382.133  
  24241364.133   127389225.437    24241373.094    99264370.0234   24241373.137  
                
  21664810.359   113849357.746    21664819.363    88713847.0584   21664818.922  
                
 21  8 15 10 57 10.0000000  0 14R20G 1G22G21R 5R 7G27G32R21R22G 8R 6
                                G23G10
  21813349.945   116645795.585                    90724533.847    21813358.176  
  21813348.895  
  23247173.727   122164744.947    23247184.930    95193352.8584   23247184.629  
                
  23668326.734   124377909.761    23668332.914    96917885.4564                 
                
  22236155.086   116851821.741    22236161.207    91053407.5694                 
                
  21875102.867   116934969.483                    90949427.740    21875107.934  
  21875102.551  
  21554323.906   115382011.540                    89741575.865    21554330.203  
  21554322.516  
  22218711.547   116760094.442    22218720.848    90981955.3934   22218721.156  
                
  20698634.602   108772093.706    20698643.102    84757531.5564   20698643.445  
                
  19198561.234   102735411.877                    79905332.249    19198564.691  
  19198559.137  
  21356828.820   114004243.791                    88669985.795    21356832.086  
  21356826.930  
  21431110.859   112621259.690    21431120.703    87756884.8534   21431121.227  
                
  19127274.109   102066840.352                                                  
  19127271.570  
  24247190.531   127419843.247    24247199.527    99288228.0434   24247199.559  
                
  21668659.758   113869586.399    21668668.770    88729609.6464   21668668.324  
                
 21  8 15 10 57 20.0000000  0 14R20G 1G22G21R 5R 7G27G32R21R22G 8R 6
                                G23G10
  21820288.023   116682895.809                    90753389.546    21820296.152  
  21820286.867  
  23240945.312   122132014.530    23240956.531    95167848.6654   23240956.238  
                
  23663164.484   124350781.996    23663170.695    96896746.9544                 
                
  22232178.648   116830925.466    22232184.758    91037124.7764                 
                
  21881897.617   116971291.295                    90977678.046    21881902.668  
  21881897.281  
  21548256.977   115349534.853                    89716316.238    21548263.266  
  21548255.566  
  22224384.430   116789905.595    22224393.758    91005184.8444   22224394.066  
                
  20697748.891   108767439.228    20697757.336    84753904.6984   20697757.711  
                
  19198278.633   102733899.582                    79904156.008    19198282.086  
  19198276.551  
  21350329.516   113969550.013                    88643001.756    21350332.730  
  21350327.629  
  21433290.734   112632714.962    21433300.566    87765811.0344   21433301.105  
                
  19127176.336   102066318.639                                                  
  19127173.809  
  24253017.484   127450464.023    24253026.574    99312088.3744   24253026.543  
                
  21672513.344   113889837.103    21672522.359    88745389.4144   21672521.910  
                
 21  8 15 10 57 30.0000000  0 14R20G 1G22G21R 5R 7G27G32R21R22G 8R 6
                                G23G10
  21827233.727   116720037.318                    90782277.363    21827241.812  
  21827232.578  
  23234719.000   122099295.340    23234730.305    95142353.2384   23234729.984  
                
  23658005.344   124323670.620    23658011.559    96875621.2114                 
                
  22228206.086   116810049.546    22228212.199    91020857.8274                 
                
  21888695.961   117007632.404                    91005943.340    21888701.031  
  21888695.605  
  21542198.016   115317100.883                    89691089.831    21542204.309  
  21542196.598  
  22230064.562   116819754.847    22230073.949    91028443.9834   22230074.234  
                
  20696875.039   108762847.154    20696883.418    84750326.4664   20696883.844  
                
  19198011.156   102732468.275                    79903042.770    19198014.617  
  19198009.090  
  21343837.086   113934892.975                    88616046.311    21343840.320  
  21343835.184  
  21435482.406   112644232.222    21435492.242    87774785.5184   21435492.801  
                
  19127091.367   102065865.286                                                  
  19127088.836  
  24258845.008   127481087.841    24258854.152    99335951.0944   24258854.066  
                
  21676371.148   113910109.960    21676380.152    88761186.4394   21676379.719  
                
 21  8 15 10 57 40.0000000  0 14R20G 1G22G21R 5R 7G27G32R21R22G 8R 6
                                G23G10
  21834186.961   116757219.992                    90811197.203    21834195.195  
  21834185.914  
  23228494.914   122066587.705    23228506.254    95116866.7944   23228505.902  
                
  23652849.359   124296575.752    23652855.566    96854508.3364                 
                
  22224237.430   116789194.188    22224243.547    91004606.9084                 
                
  21895497.938   117043992.938                    91034223.732    21895503.023  
  21895497.559  
  21536147.102   115284710.038                    89665896.988    21536153.414  
  21536145.664  
  22235751.969   116849642.350    22235761.402    91051732.9274   22235761.684  
                
  20696013.117   108758317.710    20696021.434    84746797.0344   20696021.898  
                
  19197758.883   102731118.305                    79901992.796    19197762.344  
  19197756.828  
  21337351.562   113900272.916                    88589119.619    21337354.816  
  21337349.688  
  21437685.930   112655811.861    21437695.781    87783808.6064   21437696.340  
                
  19127019.312   102065480.816                                                  
  19127016.750  
  24264673.141   127511714.895    24264682.293    99359816.3214   24264682.180  
                
  21680233.188   113930405.146    21680242.176    88777000.8694   21680241.734  
                
 21  8 15 10 57 50.0000000  0 14R20G 1G22G21R 5R 7G27G32R21R22G 8R 6
                                G23G10
  21841147.945   116794443.587                    90840148.860    21841156.227  
  21841146.879  
  23222272.992   122033891.395    23222284.336    95091389.1794   23222283.965  
                
  23647696.453   124269497.114    23647702.645    96833408.1184                 
                
  22220272.648   116768359.146    22220278.758    90988371.8244                 
                
  21902303.477   117080372.436                    91062518.891    21902308.551  
  21902303.102  
  21530104.180   115252361.873                    89640737.320    21530110.512  
  21530102.719  
  22241446.594   116879567.682    22241456.062    91075051.3534   22241456.328  
                
  20695163.062   108753850.590    20695171.344    84743316.1604   20695171.832  
                
  19197521.766   102729849.429                    79901005.893    19197525.238  
  19197519.711  
  21330872.961   113865689.769                    88562221.622    21330876.238  
  21330871.074  
  21439901.227   112667453.258    21439911.078    87792879.8154   21439911.629  
                
  19126959.938   102065164.022                                                  
  19126957.340  
  24270501.820   127542344.815    24270510.965    99383683.7724   24270510.844  
                
  21684099.422   113950722.280    21684108.391    88792832.4124   21684107.965  
                
 21  8 15 10 58  0.0000000  0 14R20G 1G22G21R 5R 7G27G32R21R22G 8R 6
                                G23G10
  21848116.562   116831707.914                    90869132.207    21848124.820  
  21848115.441  
  23216053.258   122001206.410    23216064.590    95065920.3734   23216064.219  
                
  23642546.656   124242434.654    23642552.777    96812320.4914                 
                
  22216311.727   116747544.405    22216317.836    90972152.5454                 
                
  21909112.547   117116770.756                    91090828.690    21909117.602  
  21909112.180  
  21524069.242   115220056.444                    89615610.892    21524075.578  
  21524067.762  
  22247148.375   116909530.725    22247157.891    91098399.1584   22247158.121  
                
  20694324.852   108749445.787    20694333.133    84739883.8444   20694333.605  
                
  19197299.797   102728661.711                    79900082.110    19197303.277  
  19197297.734  
  21324401.305   113831143.721                    88535352.481    21324404.602  
  21324399.445  
  21442128.305   112679156.625    21442138.152    87801999.3164   21442138.711  
                
  19126913.383   102064915.645                                                  
  19126910.770  
  24276331.047   127572977.600    24276340.199    99407553.4564   24276340.078  
                
  21687969.820   113971061.345    21687978.754    88808681.0304   21687978.348  
                
 21  8 15 10 58 10.0000000  0 14R20G 1G22G21R 5R 7G27G32R21R22G 8R 6
                                G23G10
  21855092.898   116869012.905                    90898147.179    21855101.012  
  21855091.715  
  23209835.672   121968532.782    23209846.996    95040460.4224   23209846.633  
                
  23637399.922   124215388.427    23637406.012    96791245.5234                 
                
  22212354.688   116726750.045    22212360.801    90955949.1644                 
                
  21915925.117   117153187.919                    91119153.133    21915930.160  
  21915924.742  
  21518042.305   115187793.832                    89590517.779    21518048.664  
  21518040.820  
  22252857.312   116939531.349    22252866.883    91121776.2494   22252867.078  
                
  20693498.484   108745103.238    20693506.789    84736500.0474   20693507.238  
                
  19197092.992   102727555.078                    79899221.400    19197096.477  
  19197090.918  
  21317936.641   113796634.896                    88508512.291    21317939.930  
  21317934.770  
  21444367.117   112690921.645    21444376.961    87811166.8534   21444377.527  
                
  19126879.562   102064735.238                                                  
  19126876.953  
  24282160.797   127603613.166    24282169.961    99431425.3084   24282169.863  
                
  21691844.375   113991422.263    21691853.289    88824546.6874   21691852.902  
                
 21  8 15 10 58 20.0000000  0 14R20G 1G22G21R 5R 7G27G32R21R22G 8R 6
                                G23G10
  21862076.812   116906358.890                    90927194.024    21862084.926  
  21862075.617  
  23203620.320   121935870.939    23203631.645    95015009.6614   23203631.270  
                
  23632256.336   124188358.771    23632262.430    96770183.4684                 
                
  22208401.602   116705976.467    22208407.711    90939761.9824                 
                
  21922741.234   117189623.952                    91147492.265    21922746.262  
  21922740.840  
  21512023.461   115155574.595                    89565458.400    21512029.840  
  21512021.969  
  22258573.438   116969569.782    22258583.066    91145182.7964   22258583.230  
                
  20692684.039   108740823.307    20692692.363    84733165.0454   20692692.789  
                
  19196901.422   102726529.976                    79898424.106    19196904.926  
  19196899.340  
  21311478.969   113762163.611                    88481701.327    21311482.355  
  21311477.102  
  21446617.742   112702748.727    21446627.602    87820382.7594   21446628.172  
                
  19126858.594   102064623.315                                                  
  19126855.969  
  24287991.125   127634251.757    24288000.262    99455299.4954   24288000.191  
                
  21695723.148   114011805.331    21695732.070    88840429.5924   21695731.691  
                
 21  8 15 10 58 30.0000000  0 14R20G 1G22G21R 5R 7G27G32R21R22G 8R 6
                                G23G10
  21869068.281   116943745.284                    90956272.300    21869076.422  
  21869067.121  
  23197407.148   121903220.718    23197418.469    94989567.9504   23197418.090  
                
  23627115.812   124161345.451    23627121.945    96749134.1644                 
                
  22204452.445   116685223.521    22204458.551    90923590.8594                 
                
  21929560.820   117226078.555                    91175845.835    21929565.816  
  21929560.414  
  21506012.656   115123398.507                    89540432.578    21506019.055  
  21506011.176  
  22264296.703   116999645.714    22264306.363    91168618.5754   22264306.500  
                
  20691881.469   108736605.805    20691889.809    84729878.6914   20691890.215  
                
  19196725.047   102725586.207                    79897690.050    19196728.559  
  19196722.957  
  21305028.375   113727729.888                    88454919.554    21305031.703  
  21305026.465  
  21448880.094   112714637.479    21448889.969    87829646.7064   21448890.539  
                
  19126850.305   102064579.129                                                  
  19126847.691  
  24293822.008   127664893.376    24293831.121    99479176.1054   24293831.082  
                
  21699606.086   114032210.318    21699615.043    88856329.5844   21699614.652  
                
 21  8 15 10 58 40.0000000  0 14R20G 1G22G21R 5R 7G27G32R21R22G 8R 6
                                G23G10
  21876067.336   116981172.280                    90985382.179    21876075.504  
  21876066.230  
  23191196.195   121870582.280    23191207.531    94964135.4164   23191207.148  
                
  23621978.422   124134348.534    23621984.590    96728097.6274                 
                
  22200507.211   116664491.262    22200513.297    90907435.8584                 
                
  21936383.891   117262551.792                    91204213.907    21936388.863  
  21936383.504  
  21500009.906   115091265.415                    89515440.189    21500016.301  
  21500008.430  
  22270027.102   117029759.140    22270036.762    91192083.5674   22270036.875  
                
  20691090.789   108732450.788    20691099.121    84726641.0264   20691099.523  
                
  19196563.898   102724723.864                    79897019.343    19196567.398  
  19196561.801  
  21298584.789   113693333.712                    88428166.991    21298588.094  
  21298582.863  
  21451154.172   112726587.839    21451164.051    87838958.6674   21451164.613  
                
  19126854.773   102064603.067                                                  
  19126852.172  
  24299653.461   127695537.969    24299662.523    99503055.0434   24299662.543  
                
  21703493.195   114052637.254    21703502.180    88872246.6774   21703501.773  
                
 21  8 15 10 58 50.0000000  0 14R20G 1G22G21R 5R 7G27G32R21R22G 8R 6
                                G23G10
  21883074.008   117018639.714                    91014523.491    21883082.145  
  21883072.844  
  23184987.461   121837955.433    23184998.809    94938711.9444   23184998.441  
                
  23616844.133   124107367.881    23616850.340    96707073.7684                 
                
  22196565.898   116643779.540    22196571.969    90891296.8604                 
                
  21943210.375   117299043.247                    91232596.171    21943215.340  
  21943209.992  
  21494015.227   115059175.519                    89490481.405    21494021.605  
  21494013.738  
  22275764.578   117059909.716    22275774.180    91215577.5114   22275774.316  
                
  20690311.977   108728358.047    20690320.285    84723451.8724   20690320.699  
                
  19196417.969   102723942.951                    79896411.965    19196421.469  
  19196415.891  
  21292148.312   113658975.390                    88401443.843    21292151.629  
  21292146.391  
  21453439.969   112738599.793    21453449.836    87848318.6284   21453450.418  
                
  19126872.000   102064694.993                                                  
  19126869.398  
  24305485.391   127726185.055    24305494.441    99526935.8254   24305494.496  
                
  21707384.445   114073085.865    21707393.465    88888180.6574   21707393.043  
                
 21  8 15 10 59  0.0000000  0 14R20G 1G22G21R 5R 7G27G32R21R22G 8R 6
                                G23G10
  21890088.172   117056147.851                    91043696.470    21890096.371  
  21890087.055  
  23178781.078   121805340.774    23178792.422    94913297.9444   23178792.070  
                
  23611713.016   124080403.958    23611719.246    96686062.9424                 
                
  22192628.602   116623088.903    22192634.656    90875174.2944                 
                
  21950040.336   117335553.471                    91260992.986    21950045.371  
  21950039.961  
  21488028.711   115027129.328                    89465556.606    21488035.070  
  21488027.230  
  22281509.203   117090097.814    22281518.746    91239100.6944   22281518.887  
                
  20689545.086   108724328.036    20689553.371    84720311.6044   20689553.785  
                
  19196287.320   102723243.791                    79895868.178    19196290.828  
  19196285.258  
  21285719.008   113624655.347                    88374750.508    21285722.285  
  21285717.098  
  21455737.547   112750673.635    21455747.414    87857726.8184   21455748.008  
                
  19126901.977   102064854.985                                                  
  19126899.363  
  24311317.906   127756835.258    24311326.996    99550819.0814   24311327.074  
                
  21711279.906   114093556.593    21711288.953    88904131.8784   21711288.520  
                
 21  8 15 10 59 10.0000000  0 14R20G 1G22G21R 5R 7G27G32R21R22G 8R 6
                                G23G10
  21897109.680   117093695.980                    91072900.545    21897118.066  
  21897108.734  
  23172576.938   121772737.910    23172588.340    94887893.1594   23172587.965  
                
  23606584.992   124053456.351    23606591.273    96665064.8464                 
                
  22188695.242   116602418.998    22188701.277    90859067.8874                 
                
  21956873.695   117372081.701                    91289403.808    21956878.750  
  21956873.324  
  21482050.281   114995126.269                    89440665.354    21482056.594  
  21482048.770  
  22287260.867   117120322.904    22287270.363    91262652.7064   22287270.488  
                
  20688790.047   108720360.326    20688798.320    84717219.8864   20688798.734  
                
  19196171.898   102722626.102                    79895387.744    19196175.398  
  19196169.863  
  21279296.852   113590373.391                    88348086.766    21279300.070  
  21279294.941  
  21458046.812   112762808.872    21458056.680    87867182.8394   21458057.246  
                
  19126944.664   102065082.806                                                  
  19126942.027  
  24317150.961   127787488.175    24317160.082    99574704.4774   24317160.172  
                
  21715179.484   114114048.996    21715188.539    88920099.9804   21715188.102  
                
 21  8 15 10 59 20.0000000  0 14R20G 1G22G21R 5R 7G27G32R21R22G 8R 6
                                G23G10
  21904138.953   117131284.230                    91102135.823    21904147.293  
  21904138.004  
  23166375.047   121740146.909    23166386.477    94862497.6224   23166386.102  
                
  23601460.148   124026525.188    23601466.438    96644079.5484                 
                
  22184765.844   116581769.905    22184771.855    90842977.6974                 
                
  21963710.438   117408627.979                    91317828.671    21963715.523  
  21963710.055  
  21476079.898   114963166.473                    89415807.763    21476086.180  
  21476078.371  
  22293019.562   117150584.939    22293029.004    91286233.5044   22293029.156  
                
  20688046.891   108716455.002    20688055.180    84714176.7834   20688055.594  
                
  19196071.711   102722089.972                    79894970.738    19196075.195  
  19196069.699  
  21272881.812   113556129.568                    88321452.701    21272885.066  
  21272879.906  
  21460367.805   112775005.735    21460377.660    87876686.8814   21460378.230  
                
  19127000.055   102065378.436                                                  
  19126997.414  
  24322984.516   127818143.733    24322993.645    99598591.9234   24322993.738  
                
  21719083.188   114134563.056    21719092.266    88936084.9674   21719091.809  
                
 21  8 15 10 59 30.0000000  0 14R20G 1G22G21R 5R 7G27G32R21R22G 8R 6
                                G23G10
  21911175.836   117168912.407                    91131402.154    21911183.977  
  21911174.703  
  23160175.398   121707567.751    23160186.828    94837111.3064   23160186.449  
                
  23596338.383   123999610.329    23596344.688    96623106.9584                 
                
  22180840.398   116561141.597    22180846.406    90826903.6984                 
                
  21970550.500   117445191.997                    91346267.359    21970555.605  
  21970550.086  
  21470117.625   114931250.055                    89390983.891    21470123.898  
  21470116.113  
  22298785.234   117180883.728    22298794.637    91309842.9364   22298794.812  
                
  20687315.570   108712611.913    20687323.883    84711182.1834   20687324.277  
                
  19195986.750   102721635.250                    79894617.071    19195990.230  
  19195984.754  
  21266473.906   113521923.834                    88294848.254    21266477.145  
  21266472.000  
  21462700.438   112787263.825    21462710.270    87886238.6314   21462710.852  
                
  19127068.102   102065741.598                                                  
  19127065.449  
  24328818.547   127848801.855    24328827.699    99622481.3584   24328827.793  
                
  21722990.984   114155098.658    21723000.086    88952086.7264   21722999.609  
                
 21  8 15 10 59 40.0000000  0 14R20G 1G22G21R 5R 7G27G32R21R22G 8R 6
                                G23G10
  21918220.078   117206580.379                    91160699.456    21918228.090  
  21918218.863  
  23153978.055   121675000.569    23153989.414    94811734.3164   23153989.051  
                
  23591219.766   123972711.793    23591226.035    96602147.0864                 
                
  22176918.922   116540534.124    22176924.914    90810845.9364                 
                
  21977393.852   117481773.757                    91374719.836    21977399.016  
  21977393.438  
  21464163.461   114899377.077                    89366193.812    21464169.711  
  21464161.945  
  22304557.883   117211219.183    22304567.273    91333480.9434   22304567.461  
                
  20686596.102   108708831.120    20686604.430    84708236.1214   20686604.801  
                
  19195917.023   102721262.158                    79894326.889    19195920.500  
  19195915.051  
  21260073.203   113487756.550                    88268273.712    21260076.422  
  21260071.270  
  21465044.758   112799583.292    21465054.566    87895838.2134   21465055.148  
                
  19127148.852   102066172.534                                                  
  19127146.195  
  24334653.078   127879462.488    24334662.242    99646372.7704   24334662.328  
                
  21726902.875   114175655.785    21726911.996    88968105.2674   21726911.527  
                
 21  8 15 10 59 50.0000000  0 14R20G 1G22G21R 5R 7G27G32R21R22G 8R 6
                                G23G10
  21925271.547   117244288.211                    91190027.743    21925279.703  
  21925270.422  
  23147783.078   121642445.626    23147794.320    94786366.8294   23147793.973  
                
  23586104.336   123945829.856    23586110.559    96581200.1234                 
                
  22173001.469   116519947.762    22173007.445    90794804.6204                 
                
  21984240.578   117518373.384                    91403186.193    21984245.742  
  21984240.168  
  21458217.445   114867547.708                    89341437.658    21458223.691  
  21458215.949  
  22310337.547   117241591.389    22310346.973    91357147.5884   22310347.129  
                
  20685888.539   108705112.835    20685896.859    84705338.7574   20685897.215  
                
  19195862.602   102720970.865                    79894100.326    19195866.078  
  19195860.648  
  21253679.773   113453628.071                    88241729.354    21253682.992  
  21253677.844  
  21467400.758   112811964.149    21467410.555    87905485.6294   21467411.125  
                
  19127242.273   102066671.034                                                  
  19127239.625  
  24340488.102   127910125.784    24340497.293    99670266.2144   24340497.367  
                
  21730818.891   114196234.600    21730828.031    88984140.7034   21730827.555  
                
 21  8 15 11  0  0.0000000  0 14R20G 1G22G21R 5R 7G27G32R21R22G 8R 6
                                G23G10
  21932330.562   117282035.656                    91219386.842    21932338.730  
  21932329.387  
  23141590.383   121609902.799    23141601.539    94761008.7974   23141601.199  
                
  23580992.031   123918964.434    23580998.219    96560266.0454                 
                
  22169088.016   116499382.456    22169093.992    90778779.7224                 
                
  21991090.594   117554990.598                    91431666.232    21991095.773  
  21991090.164  
  21452279.617   114835762.040                    89316715.491    21452285.867  
  21452278.141  
  22316124.148   117272000.125    22316133.625    91380842.6894   22316133.734  
                
  20685192.836   108701456.888    20685201.133    84702489.9704   20685201.504  
                
  19195823.422   102720761.248                    79893937.298    19195826.898  
  19195821.473  
  21247293.633   113419538.375                    88215215.173    21247296.816  
  21247291.684  
  21469768.391   112824406.164    21469778.168    87915180.6944   21469778.746  
                
  19127348.336   102067237.044                                                  
  19127345.707  
  24346323.633   127940791.640    24346332.809    99694161.6684   24346332.879  
                
  21734739.000   114216834.918    21734748.164    89000192.8964   21734747.676  
                
 21  8 15 11  0 10.0000000  0 14R20G 1G22G21R 5R 7G27G32R21R22G 8R 6
                                G23G10
  21939396.859   117319822.840                    91248776.837    21939405.184  
  21939395.762  
  23135400.000   121577372.252    23135411.133    94735660.3444   23135410.812  
                
  23575882.844   123892115.503    23575888.996    96539344.8084                 
                
  22165178.578   116478838.260    22165184.559    90762771.2624                 
                
  21997943.828   117591625.108                    91460159.715    21997949.043  
  21997943.387  
  21446349.922   114804019.915                    89292027.192    21446356.191  
  21446348.465  
  22321917.688   117302445.330    22321927.207    91404566.2054   22321927.293  
                
  20684509.008   108697863.360    20684517.262    84699689.8134   20684517.668  
                
  19195799.562   102720633.587                    79893837.993    19195803.027  
  19195797.613  
  21240914.758   113385487.691                    88188731.318    21240917.969  
  21240912.809  
  21472147.719   112836909.586    21472157.473    87924923.6134   21472158.070  
                
  19127467.078   102067870.725                                                  
  19127464.445  
  24352159.664   127971460.085    24352168.844    99718059.1154   24352168.906  
                
  21738663.211   114237456.777    21738672.391    89016261.8744   21738671.891  
                
 21  8 15 11  0 20.0000000  0 14R20G 1G22G21R 5R 7G27G32R21R22G 8R 6
                                G23G10
  21946470.625   117357649.590                    91278197.623    21946479.008  
  21946469.523  
  23129211.930   121544854.031    23129223.109    94710321.5144   23129222.777  
                
  23570776.781   123865283.116    23570782.875    96518436.4644                 
                
  22161273.164   116458315.230    22161279.141    90746779.3014                 
                
  22004800.375   117628277.226                    91488666.914    22004805.598  
  22004799.957  
  21440428.383   114772321.609                    89267372.982    21440434.691  
  21440426.938  
  22327718.156   117332926.973    22327727.695    91428318.1164   22327727.770  
                
  20683837.047   108694332.275    20683845.266    84696938.3264   20683845.711  
                
  19195791.000   102720587.818                    79893802.411    19195794.457  
  19195789.035  
  21234543.250   113351476.154                    88162277.903    21234546.453  
  21234541.273  
  21474538.680   112849474.200    21474548.402    87934714.2134   21474549.016  
                
  19127598.484   102068571.972                                                  
  19127595.836  
  24357996.188   128002131.178    24358005.414    99741958.6894   24358005.453  
                
  21742591.508   114258100.176    21742600.684    89032347.6374   21742600.172  
                
 21  8 15 11  0 30.0000000  0 14R20G 1G22G21R 5R 7G27G32R21R22G 8R 6
                                G23G10
  21953551.938   117395515.913                    91307649.194    21953560.188  
  21953550.762  
  23123026.266   121512348.388    23123037.473    94684992.4994   23123037.148  
                
  23565673.922   123838467.447    23565679.969    96497541.1554                 
                
  22157371.844   116437813.669    22157377.801    90730804.0724                 
                
  22011660.211   117664946.847                    91517187.721    22011665.426  
  22011659.809  
  21434515.062   114740667.236                    89242752.939    21434521.395  
  21434513.621  
  22333525.586   117363445.064    22333535.141    91452098.4334   22333535.230  
                
  20683177.016   108690863.782    20683185.215    84694235.6104   20683185.676  
                
  19195797.789   102720624.136                    79893830.658    19195801.254  
  19195795.805  
  21228179.109   113317503.963                    88135855.114    21228182.371  
  21228177.102  
  21476941.336   112862100.171    21476951.031    87944552.6324   21476951.645  
                
  19127742.609   102069341.069                                                  
  19127739.949  
  24363833.250   128032805.065    24363842.527    99765860.4324   24363842.543  
                
  21746523.945   114278765.222    21746533.113    89048450.2654   21746532.613  
                
 21  8 15 11  0 40.0000000  0 14R20G 1G22G21R 5R 7G27G32R21R22G 8R 6
                                G23G10
  21960640.695   117433421.573                    91337131.361    21960648.727  
  21960639.367  
  23116843.008   121479855.085    23116854.219    94659673.0644   23116853.879  
                
  23560574.180   123811668.181    23560580.230    96476658.6384                 
                
  22153474.539   116417333.233    22153480.477    90714845.2924                 
                
  22018523.227   117701633.424                    91545721.717    22018528.422  
  22018522.871  
  21428609.891   114709056.447                    89218166.783    21428616.254  
  21428608.461  
  22339339.852   117393999.161    22339349.445    91475906.8074   22339349.520  
                
  20682528.820   108687457.520    20682537.031    84691581.3954   20682537.484  
                
  19195819.852   102720742.236                    79893922.515    19195823.336  
  19195817.840  
  21221822.258   113283570.857                    88109462.715    21221825.613  
  21221820.277  
  21479355.562   112874786.978    21479365.234    87954438.4494   21479365.855  
                
  19127899.281   102070177.130                                                  
  19127896.641  
  24369670.734   128063481.271    24369680.035    99789764.0144   24369680.031  
                
  21750460.414   114299451.550    21750469.574    89064569.4834   21750469.078  
                
 21  8 15 11  0 50.0000000  0 14R20G 1G22G21R 5R 7G27G32R21R22G 8R 6
                                G23G10
  21967736.766   117471366.426                    91366644.009    21967744.605  
  21967735.312  
  23110662.117   121447374.336    23110673.309    94634363.3954   23110672.980  
                
  23555477.586   123784885.510    23555483.676    96455789.0504                 
                
  22149581.297   116396874.182    22149587.234    90698903.1874                 
                
  22025389.422   117738337.065                    91574269.002    22025394.609  
  22025389.105  
  21422712.953   114677489.828                    89193614.996    21422719.352  
  21422711.520  
  22345160.977   117424589.348    22345170.602    91499743.2954   22345170.664  
                
  20681892.500   108684113.672    20681900.730    84688975.8024   20681901.168  
                
  19195857.250   102720942.374                    79894078.174    19195860.746  
  19195855.223  
  21215472.867   113249677.445                    88083101.176    21215476.234  
  21215470.895  
  21481781.430   112887534.994    21481791.082    87964371.9634   21481791.715  
                
  19128068.609   102071080.672                                                  
  19128065.965  
  24375508.672   128094159.900    24375517.977    99813669.3944   24375517.953  
                
  21754400.961   114320159.261    21754410.102    89080705.3564   21754409.621  
                
 21  8 15 11  1  0.0000000  0 14R20G 1G22G21R 5R 7G27G32R21R22G 8R 6
                                G23G10
  21974840.055   117509350.455                    91396187.126    21974847.832  
  21974838.566  
  23104483.594   121414906.055    23104494.766    94609063.4454   23104494.441  
                
  23550384.141   123758119.322    23550390.250    96434932.2904                 
                
  22145692.133   116376436.508    22145698.070    90682977.7334                 
                
  22032258.789   117775057.513                    91602829.329    22032263.977  
  22032258.527  
  21416824.234   114645967.084                    89169097.322    21416830.637  
  21416822.801  
  22350988.938   117455215.408    22350998.555    91523607.7474   22350998.621  
                
  20681268.047   108680832.133    20681276.305    84686418.7604   20681276.723  
                
  19195909.961   102721224.407                    79894297.530    19195913.469  
  19195907.922  
  21209130.883   113215823.512                    88056770.339    21209134.266  
  21209128.922  
  21484218.883   112900343.842    21484228.523    87974352.8804   21484229.152  
                
  19128250.516   102072051.347                                                  
  19128247.879  
  24381347.109   128124840.878    24381356.348    99837576.6704   24381356.336  
                
  21758345.555   114340888.234    21758354.684    89096857.8014   21758354.199  
                
 21  8 15 11  1 10.0000000  0 14R20G 1G22G21R 5R 7G27G32R21R22G 8R 6
                                G23G10
  21981950.438   117547373.633                    91425760.687    21981958.387  
  21981949.129  
  23098307.469   121382450.505    23098318.652    94583773.4314   23098318.340  
                
  23545293.883   123731369.939    23545300.027    96414088.6374                 
                
  22141807.047   116356020.318    22141812.988    90667069.0334                 
                
  22039131.328   117811795.002                    91631402.933    22039136.500  
  22039131.105  
  21410943.781   114614488.633                    89144614.112    21410950.160  
  21410942.328  
  22356823.727   117485877.422    22356833.344    91547500.1994   22356833.410  
                
  20680655.477   108677613.078    20680663.750    84683910.4054   20680664.152  
                
  19195978.031   102721588.672                    79894580.850    19195981.539  
  19195976.000  
  21202796.391   113182009.592                    88030470.637    21202799.758  
  21202794.422  
  21486667.945   112913213.722    21486677.586    87984381.3484   21486678.219  
                
  19128445.008   102073089.255                                                  
  19128442.430  
  24387186.000   128155524.345    24387195.152    99861485.8614   24387195.176  
                
  21762294.227   114361638.623    21762303.328    89113026.9324   21762302.852  
                
 21  8 15 11  1 20.0000000  0 14R20G 1G22G21R 5R 7G27G32R21R22G 8R 6
                                G23G10
  21989068.320   117585435.827                    91455364.583    21989076.258  
  21989066.965  
  23092133.797   121350007.789    23092145.027    94558493.4334   23092144.707  
                
  23540206.805   123704637.299    23540212.988    96393258.0404                 
                
  22137926.070   116335625.679    22137932.016    90651177.1114                 
                
  22046007.008   117848549.383                    91659989.666    22046012.215  
  22046006.840  
  21405071.555   114583054.218                    89120165.130    21405077.906  
  21405070.082  
  22362665.336   117516575.306    22362674.969    91571420.6114   22362675.031  
                
  20680054.797   108674456.531    20680063.078    84681450.7614   20680063.477  
                
  19196061.477   102722035.211                    79894928.159    19196064.992  
  19196059.465  
  21196469.383   113148235.561                    88004201.965    21196472.766  
  21196467.410  
  21489128.586   112926144.486    21489138.250    87994457.2624   21489138.871  
                
  19128652.133   102074194.516                                                  
  19128649.562  
  24393025.391   128186210.328    24393034.445    99885396.9864   24393034.512  
                
  21766246.961   114382410.404    21766256.020    89129212.7314   21766255.566  
                
 21  8 15 11  1 30.0000000  0 14R20G 1G22G21R 5R 7G27G32R21R22G 8R 6
                                G23G10
  21996193.336   117623536.950                    91484998.764    21996201.406  
  21996192.078  
  23085962.555   121317577.838    23085973.836    94533223.3894   23085973.500  
                
  23535122.891   123677921.260    23535129.094    96372440.3604                 
                
  22134049.195   116315252.588    22134055.141    90635301.9814                 
                
  22052885.789   117885320.372                    91688589.309    22052891.023  
  22052885.637  
  21399207.594   114551663.920                    89095750.477    21399213.922  
  21399206.098  
  22368513.742   117547308.831    22368523.414    91595368.7954   22368523.469  
                
  20679465.992   108671362.347    20679474.270    84679039.7174   20679474.664  
                
  19196160.266   102722563.818                    79895339.281    19196163.758  
  19196158.270  
  21190149.859   113114501.616                    87977964.468    21190153.266  
  21190147.895  
  21491600.820   112939136.101    21491610.500    88004580.5894   21491611.109  
                
  19128871.820   102075366.839                                                  
  19128869.277  
  24398865.227   128216898.677    24398874.207    99909309.9824   24398874.293  
                
  21770203.742   114403203.416    21770212.766    89145415.0814   21770212.328  
                
 21  8 15 11  1 40.0000000  0 14R20G 1G22G21R 5R 7G27G32R21R22G 8R 6
                                G23G10
  22003325.656   117661677.023                    91514663.225    22003333.801  
  22003324.434  
  23079793.789   121285160.743    23079805.031    94507963.3324   23079804.715  
                
  23530042.141   123651221.842    23530048.320    96351635.6234                 
                
  22130176.422   116294901.068    22130182.371    90619443.6614                 
                
  22059767.672   117922107.901                    91717201.821    22059772.895  
  22059767.531  
  21393351.898   114520317.977                    89071370.323    21393358.238  
  21393350.398  
  22374368.922   117578077.929    22374378.625    91619344.6934   22374378.664  
                
  20678889.055   108668330.545    20678897.324    84676677.2844   20678897.738  
                
  19196274.430   102723174.696                    79895814.418    19196277.910  
  19196272.445  
  21183837.883   113080807.840                    87951758.212    21183841.266  
  21183835.895  
  21494084.633   112952188.584    21494094.312    88014751.3484   21494094.926  
                
  19129104.055   102076606.094                                                  
  19129101.508  
  24404705.500   128247589.378    24404714.426    99933224.8114   24404714.500  
                
  21774164.570   114424017.644    21774173.570    89161633.9574   21774173.145  
                
 21  8 15 11  1 50.0000000  0 14R20G 1G22G21R 5R 7G27G32R21R22G 8R 6
                                G23G10
  22010465.312   117699855.632                    91544357.686    22010473.391  
  22010464.039  
  23073627.453   121252756.459    23073638.617    94482713.2414   23073638.305  
                
  23524964.531   123624538.978    23524970.676    96330843.8154                 
                
  22126307.758   116274571.113    22126313.727    90603602.1484                 
                
  22066652.633   117958911.781                    91745827.062    22066657.844  
  22066652.512  
  21387504.438   114489016.121                    89047024.472    21387510.758  
  21387502.926  
  22380230.820   117608882.329    22380240.535    91643348.1144   22380240.570  
                
  20678323.969   108665361.008    20678332.234    84674363.3674   20678332.645  
                
  19196403.930   102723867.672                    79896353.398    19196407.406  
  19196401.945  
  21177533.453   113047154.431                    87925583.331    21177536.793  
  21177531.469  
  21496579.938   112965301.458    21496589.617    88024969.1664   21496590.230  
                
  19129348.852   102077912.353                                                  
  19129346.277  
  24410546.172   128278282.293    24410555.090    99957141.3334   24410555.109  
                
  21778129.398   114444852.921    21778138.363    89177869.2444   21778137.941  
                
 21  8 15 11  2  0.0000000  0 14R20G 1G22G21R 5R 7G27G32R21R22G 8R 6
                                G23G10
  22017612.180   117738072.985                    91574082.269    22017620.223  
  22017610.848  
  23067463.578   121220365.214    23067474.680    94457473.3364   23067474.383  
                
  23519890.125   123597872.909    23519896.238    96310065.0994                 
                
  22122443.227   116254262.892    22122449.207    90587777.5734                 
                
  22073540.617   117995732.035                    91774465.035    22073545.844  
  22073540.484  
  21381665.289   114457758.716                    89022713.169    21381671.594  
  21381663.770  
  22386099.469   117639722.176    22386109.172    91667379.1524   22386109.191  
                
  20677770.773   108662453.941    20677779.055    84672098.1214   20677779.441  
                
  19196548.828   102724643.039                    79896956.463    19196552.293  
  19196546.840  
  21171236.602   113013541.463                    87899439.924    21171239.934  
  21171234.605  
  21499086.828   112978475.229    21499096.516    88035234.4404   21499097.141  
                
  19129606.242   102079285.810                                                  
  19129603.660  
  24416387.273   128308977.580    24416396.184    99981059.7214   24416396.176  
                
  21782098.266   114465709.433    21782107.195    89194121.0624   21782106.793  
                
 21  8 15 11  2 10.0000000  0 14R20G 1G22G21R 5R 7G27G32R21R22G 8R 6
                                G23G10
  22024766.172   117776328.649                    91603836.649    22024774.223  
  22024764.922  
  23061302.203   121187987.027    23061313.254    94432243.5964   23061312.969  
                
  23514818.891   123571223.586    23514825.004    96289299.4144                 
                
  22118582.836   116233976.461    22118588.820    90571969.9754                 
                
  22080431.656   118032568.600                    91803115.672    22080436.910  
  22080431.480  
  21375834.445   114426545.832                    88998436.506    21375840.742  
  21375832.941  
  22391974.820   117670597.259    22391984.504    91691437.6364   22391984.516  
                
  20677229.445   108659609.244    20677237.758    84669881.4754   20677238.121  
                
  19196709.109   102725500.758                    79897623.579    19196712.578  
  19196707.117  
  21164947.391   112979969.304                    87873328.257    21164950.773  
  21164945.383  
  21501605.266   112991709.658    21501614.969    88045546.9744   21501615.578  
                
  19129876.141   102080726.060                                                  
  19129873.578  
  24422228.789   128339675.104    24422237.672   100004979.8274   24422237.703  
                
  21786071.148   114486587.018    21786080.047    89210389.3194   21786079.672  
                
 21  8 15 11  2 20.0000000  0 14R20G 1G22G21R 5R 7G27G32R21R22G 8R 6
                                G23G10
  22031927.445   117814622.891                    91633621.038    22031935.438  
  22031926.195  
  23055143.312   121155621.931    23055154.367    94407024.0774   23055154.074  
                
  23509750.867   123544591.026    23509756.938    96268546.7914                 
                
  22114726.617   116213711.884    22114732.613    90556179.4024                 
                
  22087325.711   118069421.145                    91831778.754    22087331.008  
  22087325.562  
  21370011.898   114395377.301                    88974194.335    21370018.180  
  21370010.418  
  22397856.859   117701507.484    22397866.488    91715523.5184   22397866.523  
                
  20676699.992   108656826.946    20676708.324    84667713.4524   20676708.668  
                
  19196884.797   102726440.898                    79898354.801    19196888.258  
  19196882.801  
  21158665.789   112946437.826                    87847248.245    21158669.180  
  21158663.773  
  21504135.234   113005004.680    21504144.969    88055906.7254   21504145.562  
                
  19130158.578   102082233.270                                                  
  19130156.031  
  24428070.758   128370374.911    24428079.637   100028901.7524   24428079.684  
                
  21790048.039   114507485.709    21790056.902    89226674.0094   21790056.555  
                
 21  8 15 11  2 30.0000000  0 14R20G 1G22G21R 5R 7G27G32R21R22G 8R 6
                                G23G10
  22039095.750   117852955.311                    91663435.121    22039103.828  
  22039094.578  
  23048986.922   121123269.895    23048997.945    94381814.7044   23048997.645  
                
  23504686.016   123517975.049    23504691.992    96247807.0814                 
                
  22110874.508   116193468.995    22110880.508    90540405.7334                 
                
  22094222.734   118106289.634                    91860454.235    22094228.043  
  22094222.621  
  21364197.617   114364253.111                    88949986.650    21364203.887  
  21364196.137  
  22403745.523   117732452.581    22403755.070    91739636.5704   22403755.148  
                
  20676182.359   108654106.818    20676190.695    84665593.8824   20676191.039  
                
  19197075.852   102727463.326                    79899150.022    19197079.324  
  19197073.855  
  21152391.875   112912947.203                    87821199.998    21152395.258  
  21152389.820  
  21506676.680   113018360.054    21506686.453    88066313.5014   21506687.031  
                
  19130453.492   102083807.022                                                  
  19130450.953  
  24433913.102   128401076.701    24433921.980   100052825.2094   24433922.012  
                
  21794028.898   114528405.251    21794037.746    89242974.9514   21794037.402  
                
 21  8 15 11  2 40.0000000  0 14R20G 1G22G21R 5R 7G27G32R21R22G 8R 6
                                G23G10
  22046271.289   117891325.998                    91693278.969    22046279.387  
  22046270.109  
  23042833.055   121090931.144    23042844.086    94356615.6974   23042843.762  
                
  23499624.352   123491375.817    23499630.277    96227080.4274                 
                
  22107026.602   116173248.156    22107032.586    90524649.2454                 
                
  22101122.734   118143174.006                    91889142.099    22101128.043  
  22101122.641  
  21358391.664   114333173.566                    88925813.712    21358397.969  
  21358390.164  
  22409640.859   117763432.669    22409650.312    91763776.8934   22409650.449  
                
  20675676.594   108651449.070    20675684.906    84663522.9254   20675685.262  
                
  19197282.312   102728568.170                    79900009.350    19197285.777  
  19197280.316  
  21146125.609   112879497.541                    87795183.608    21146128.949  
  21146123.531  
  21509229.594   113031775.704    21509239.395    88076767.2514   21509239.957  
                
  19130760.938   102085447.654                                                  
  19130758.406  
  24439755.891   128431780.736    24439764.730   100076750.4184   24439764.781  
                
  21798013.758   114549345.831    21798022.613    89259292.2914   21798022.266  
                
 21  8 15 11  2 50.0000000  0 14R20G 1G22G21R 5R 7G27G32R21R22G 8R 6
                                G23G10
  22053453.898   117929734.757                    91723152.417    22053462.039  
  22053452.746  
  23036681.711   121058605.708    23036692.770    94331427.0674   23036692.426  
                
  23494565.883   123464793.413    23494571.758    96206366.8754                 
                
  22103182.898   116153049.378    22103188.879    90508909.9414                 
                
  22108025.672   118180074.139                    91917842.176    22108031.023  
  22108025.555  
  21352594.094   114302138.770                    88901675.559    21352600.402  
  21352592.582  
  22415542.820   117794447.588    22415552.234    91787944.3514   22415552.398  
                
  20675182.719   108648853.729    20675190.988    84661500.5804   20675191.375  
                
  19197504.227   102729755.660                    79900932.957    19197507.695  
  19197502.223  
  21139867.078   112846089.211                    87769199.356    21139870.410  
  21139865.016  
  21511794.039   113045251.877    21511803.855    88087268.1554   21511804.410  
                
  19131080.898   102087155.021                                                  
  19131078.359  
  24445599.125   128462486.958    24445607.871   100100677.3314   24445607.977  
                
  21802002.617   114570307.424    21802011.480    89275625.9764   21802011.133  
                
 21  8 15 11  3  0.0000000  0 14R20G 1G22G21R 5R 7G27G32R21R22G 8R 6
                                G23G10
  22060643.742   117968181.584                    91753055.455    22060651.812  
  22060642.480  
  23030532.914   121026293.656    23030544.008    94306248.8674   23030543.648  
                
  23489510.609   123438227.812    23489516.461    96185666.4234                 
                
  22099343.383   116132872.660    22099349.363    90493187.8354                 
                
  22114931.555   118216989.949                    91946554.461    22114936.922  
  22114931.426  
  21346804.852   114271148.536                    88877572.065    21346811.137  
  21346803.328  
  22421451.391   117825497.239    22421460.793    91812138.8734   22421460.957  
                
  20674700.711   108646320.736    20674708.930    84659526.8244   20674709.344  
                
  19197741.539   102731025.597                    79901920.685    19197745.004  
  19197739.523  
  21133616.305   112812722.137                    87743247.196    21133619.609  
  21133614.238  
  21514369.984   113058788.535    21514379.824    88097816.1944   21514380.367  
                
  19131413.344   102088928.999                                                  
  19131410.793  
  24451442.773   128493195.300    24451451.414   100124605.9084   24451451.586  
                
  21805995.453   114591289.917    21806004.309    89291975.9774   21806003.969  
                
 21  8 15 11  3 10.0000000  0 14R20G 1G22G21R 5R 7G27G32R21R22G 8R 6
                                G23G10
  22067840.555   118006666.170                    91782987.870    22067848.641  
  22067839.332  
  23024386.648   120993994.876    23024397.812    94281081.0184   23024397.438  
                
  23484458.492   123411678.855    23484464.312    96164978.9364                 
                
  22095508.039   116112717.855    22095514.016    90477482.8014                 
                
  22121840.312   118253921.211                    91975278.756    22121845.684  
  22121840.156  
  21341023.914   114240202.921                    88853503.264    21341030.188  
  21341022.375  
  22427366.523   117856581.369    22427375.914    91836360.2544   22427376.094  
                
  20674230.523   108643849.916    20674238.695    84657601.5124   20674239.148  
                
  19197994.258   102732377.966                    79902972.525    19197997.719  
  19197992.238  
  21127373.266   112779396.463                    87717327.235    21127376.562  
  21127371.234  
  21516957.352   113072385.213    21516967.227    88108410.9994   21516967.777  
                
  19131758.203   102090769.309                                                  
  19131755.656  
  24457286.773   128523905.620    24457295.332   100148536.0364   24457295.539  
                
  21809992.242   114612293.139    21810001.086    89308342.1154   21810000.750  
                
 21  8 15 11  3 20.0000000  0 14R20G 1G22G21R 5R 7G27G32R21R22G 8R 6
                                G23G10
  22075044.539   118045188.566                    91812949.733    22075052.535  
  22075043.266  
  23018242.914   120961709.449    23018254.141    94255923.5654   23018253.766  
                
  23479409.539   123385146.580    23479415.344    96144304.4604                 
                
  22091676.859   116092584.935    22091682.836    90461794.8284                 
                
  22128751.945   118290867.718                    92004014.937    22128757.293  
  22128751.766  
  21335251.328   114209302.022                    88829469.271    21335257.605  
  21335249.785  
  22433288.172   117887699.843    22433297.551    91860608.3964   22433297.758  
                
  20673772.172   108641441.282    20673780.316    84655724.6524   20673780.785  
                
  19198262.383   102733812.777                    79904088.494    19198265.844  
  19198260.355  
  21121137.930   112746112.156                    87691439.459    21121141.289  
  21121135.988  
  21519556.125   113086041.833    21519566.027    88119052.5114   21519566.547  
                
  19132115.539   102092676.140                                                  
  19132113.004  
  24463131.133   128554617.869    24463139.594   100172467.6404   24463139.855  
                
  21813992.961   114633317.050    21814001.793    89324724.3764   21814001.457  
                
 21  8 15 11  3 30.0000000  0 14R20G 1G22G21R 5R 7G27G32R21R22G 8R 6
                                G23G10
  22082255.406   118083749.155                    91842941.288    22082263.594  
  22082254.352  
  23012101.859   120929438.139    23012113.137    94230777.1214   23012112.746  
                
  23474363.914   123358631.751    23474369.715    96123643.5544                 
                
  22087850.016   116072474.741    22087855.988    90446124.5554                 
                
  22135666.547   118327830.212                    92032763.530    22135671.871  
  22135666.316  
  21329487.211   114178446.425                    88805470.488    21329493.496  
  21329485.672  
  22439216.484   117918853.290    22439225.879    91884883.7914   22439226.109  
                
  20673325.773   108639095.502    20673333.910    84653896.7804   20673334.387  
                
  19198546.047   102735330.760                    79905269.146    19198549.512  
  19198544.016  
  21114910.578   112712870.239                    87665584.640    21114913.914  
  21114908.645  
  21522166.461   113099759.161    21522176.371    88129741.3294   21522176.887  
                
  19132485.398   102094649.812                                                  
  19132482.859  
  24468975.953   128585332.712    24468984.383   100196401.2604   24468984.668  
                
  21817997.742   114654362.330    21818006.562    89341123.2924   21818006.238  
                
