     2.11           OBSERVATION DATA    M (MIXED)           RINEX VERSION / TYPE
EFT-CORS.RU                             20210817 144947 UTC PGM / RUN BY / DATE 
MDNG                                                        MARKER NAME         
                                                            MARKER NUMBER       
MDNG                EFT-CORS.RU                             OBSERVER / AGENCY   
0                   TRIMBLE BD970       2.0                 REC # / TYPE / VERS 
0                   UNKNOWN EXT NONE                        ANT # / TYPE        
  3463911.2830  3030468.2400  4402179.3760                  APPROX POSITION XYZ 
        0.0000        0.0000        0.0000                  ANTENNA: DELTA H/E/N
     1     1                                                WAVELENGTH FACT L1/2
     6    C1    L1    P2    L2    C2    P1                  # / TYPES OF OBSERV 
    10.000                                                  INTERVAL            
  2021     8    16    23    30    0.0000000     GPS         TIME OF FIRST OBS   
  2021     8    17     0    30    0.0000000     GPS         TIME OF LAST OBS    
     0                                                      RCV CLOCK OFFS APPL 
                                                            END OF HEADER       
 21  8 16 23 30  0.0000000  0 16G 6R 7G17G15G13G14R16G24R17R 6G12G19
                                R15R24R18R14
  24159251.719   126957727.115    24159260.828    98928132.3734   24159261.543  
                
  23313367.109   124798280.546                    97065317.515    23313371.316  
  23313366.078  
  21365792.609   112278013.053    21365798.441    87489398.7514   21365798.539  
                
  22549485.094   118498343.083    22549491.516    92336404.8064   22549491.402  
                
  22611954.109   118826632.957    22611960.465    92592210.8954                 
                
  22698480.297   119281358.852    22698486.770    92946551.4994   22698486.871  
                
  21022138.180   112296496.370                    87341709.216    21022139.820  
  21022137.809  
  21138655.945   111084385.318    21138664.504    86559311.6474   21138664.660  
                
  19889850.461   106434617.800                    82782477.727    19889853.836  
  19889848.770  
  22030610.625   117559531.920                                                  
  22030608.145  
  23704119.312   124565992.384    23704125.324    97064440.5304   23704125.750  
                
  20337623.109   106874941.128    20337628.242    83279200.8714                 
                
  19769228.539   105640782.312                    82165062.958    19769232.418  
  19769228.766  
  22236828.688   118910327.719                    92485819.214    22236832.160  
  22236827.473  
  21603318.516   115319979.724                    89693316.256    21603321.496  
  21603316.988  
  22824462.156   121667249.572                    94630088.652    22824466.828  
  22824461.766  
 21  8 16 23 30 10.0000000  0 16G 6R 7G17G15G13G14R16G24R17R 6G12G19
                                R15R24R18R14
  24152991.578   126924829.693    24153000.609    98902498.0054   24153001.312  
                
  23309959.648   124780040.315                    97051130.626    23309963.879  
  23309958.570  
  21369039.188   112295073.961    21369045.031    87502692.9664   21369045.125  
                
  22554258.273   118523426.235    22554264.672    92355950.1144   22554264.562  
                
  22618310.859   118860037.941    22618317.219    92618240.7534                 
                
  22703507.414   119307776.459    22703513.910    92967136.6504   22703513.988  
                
  21017464.016   112271527.859                    87322289.272    21017465.645  
  21017463.652  
  21134724.703   111063726.511    21134733.281    86543213.8704   21134733.426  
                
  19888433.617   106427036.022                    82776580.793    19888436.977  
  19888431.898  
  22033554.625   117575241.679                                                  
  22033552.125  
  23698372.703   124535793.962    23698378.742    97040909.2784   23698379.180  
                
  20336654.750   106869852.402    20336659.867    83275235.6314                 
                
  19770522.523   105647696.949                    82170441.015    19770526.414  
  19770522.742  
  22242526.586   118940796.955                    92509517.513    22242530.051  
  22242525.355  
  21595678.062   115279194.459                    89661594.390    21595681.016  
  21595676.535  
  22829961.219   121696562.590                    94652887.651    22829965.879  
  22829960.797  
 21  8 16 23 30 20.0000000  0 16G 6R 7G17G15G13G14R16G24R17R 6G12G19
                                R15R24R18R14
  24146733.242   126891941.425    24146742.121    98876870.7754   24146742.836  
                
  23306566.367   124761875.868                    97037002.700    23306570.605  
  23306565.270  
  21372294.805   112312182.342    21372300.668    87516024.1734   21372300.766  
                
  22559039.156   118548549.899    22559045.539    92375527.0004   22559045.438  
                
  22624672.938   118893470.833    22624679.227    92644292.3714                 
                
  22708536.969   119334206.841    22708543.469    92987731.7544   22708543.520  
                
  21012793.398   112246578.296                    87302884.045    21012795.012  
  21012793.023  
  21130801.328   111043109.025    21130809.934    86527148.2934   21130810.070  
                
  19887034.055   106419546.717                    82770755.781    19887037.395  
  19887032.309  
  22036512.898   117591027.548                                                  
  22036510.387  
  23692628.789   124505609.565    23692634.898    97017388.9744   23692635.309  
                
  20335699.297   106864831.444    20335704.379    83271323.1904                 
                
  19771823.609   105654649.556                    82175848.581    19771827.512  
  19771823.828  
  22248235.930   118971327.465                    92533263.458    22248239.391  
  22248234.688  
  21588045.047   115238448.951                    89629903.436    21588047.996  
  21588043.531  
  22835463.578   121725893.287                    94675700.398    22835468.309  
  22835463.156  
 21  8 16 23 30 30.0000000  0 16G 6R 7G17G15G13G14R16G24R17R 6G12G19
                                R15R24R18R14
  24140476.727   126859062.710    24140485.441    98851250.9854   24140486.195  
                
  23303187.297   124743787.431                    97022933.931    23303191.559  
  23303186.238  
  21375559.500   112329338.383    21375565.383    87529392.5204   21375565.461  
                
  22563827.758   118573714.112    22563834.160    92395135.4744   22563834.043  
                
  22631040.375   118926931.816    22631046.586    92670365.8874                 
                
  22713569.000   119360650.234    22713575.461    93008336.9874   22713575.523  
                
  21008126.367   112221647.869                    87283493.725    21008127.977  
  21008125.992  
  21126885.875   111022533.203    21126894.512    86511115.1744   21126894.633  
                
  19885651.828   106412150.193                    82765002.931    19885655.145  
  19885650.066  
  22039485.555   117606890.017                                                  
  22039483.031  
  23686887.617   124475439.402    23686893.691    96993879.7454   23686894.113  
                
  20334756.789   106859878.539    20334761.844    83267463.7874                 
                
  19773131.898   105661640.622                    82181286.080    19773135.805  
  19773132.117  
  22253956.758   119001919.373                    92557057.175    22253960.230  
  22253955.500  
  21580419.578   115197743.804                    89598243.877    21580422.543  
  21580418.086  
  22840969.367   121755241.817                    94698527.003    22840974.066  
  22840968.902  
 21  8 16 23 30 40.0000000  0 16G 6R 7G17G15G13G14R16G24R17R 6G12G19
                                R15R24R18R14
  24134222.094   126826193.966    24134230.684    98825638.9474   24134231.449  
                
  23299822.500   124725775.341                    97008924.530    23299826.770  
  23299821.406  
  21378833.305   112346542.341    21378839.215    87542798.2044   21378839.281  
                
  22568624.125   118598919.185    22568630.562    92414775.7834   22568630.430  
                
  22637413.195   118960420.997    22637419.371    92696461.3674                 
                
  22718603.547   119387106.936    22718609.996    93028952.5934   22718610.055  
                
  21003463.039   112196737.194                    87264118.767    21003464.617  
  21003462.668  
  21122978.422   111001999.397    21122987.082    86495114.8084   21122987.180  
                
  19884287.023   106404846.834                    82759322.537    19884290.316  
  19884285.238  
  22042472.516   117622828.989                                                  
  22042469.973  
  23681149.211   124445283.863    23681155.262    96970381.9304   23681155.684  
                
  20333827.289   106854994.003    20333832.332    83263657.6654                 
                
  19774447.422   105668670.381                    82186753.659    19774451.344  
  19774447.625  
  22259689.148   119032573.028                    92580898.915    22259692.645  
  22259687.824  
  21572801.812   115157079.534                    89566616.127    21572804.758  
  21572800.316  
  22846478.516   121784608.657                    94721367.857    22846483.250  
  22846478.055  
 21  8 16 23 30 50.0000000  0 16G 6R 7G17G15G13G14R16G24R17R 6G12G19
                                R15R24R18R14
  24127969.273   126793335.175    24127977.879    98800034.7014   24127978.617  
                
  23296471.992   124707839.764                    96994974.659    23296476.238  
  23296470.887  
  21382116.180   112363793.958    21382122.121    87556241.0254   21382122.172  
                
  22573428.258   118624165.023    22573434.715    92434447.8634   22573434.578  
                
  22643791.305   118993938.137    22643797.500    92722578.6114                 
                
  22723640.602   119413576.781    22723647.074    93049578.4334   22723647.109  
                
  20998803.383   112171846.170                    87244759.071    20998804.977  
  20998803.016  
  21119078.977   110981507.602    21119087.660    86479147.1724   21119087.738  
                
  19882939.578   106397636.422                    82753714.449    19882942.867  
  19882937.785  
  22045473.820   117638844.470                                                  
  22045471.289  
  23675413.625   124415142.856    23675419.715    96946895.4394   23675420.094  
                
  20332910.766   106850177.660    20332915.816    83259904.6724                 
                
  19775770.188   105675738.838                    82192251.351    19775774.105  
  19775770.379  
  22265432.992   119063288.024                    92604788.356    22265436.531  
  22265431.629  
  21565191.586   115116455.955                    89535020.014    21565194.590  
  21565190.129  
  22851991.070   121813993.456                    94744222.699    22851995.789  
  22851990.586  
 21  8 16 23 31  0.0000000  0 16G 6R 7G17G15G13G14R16G24R17R 6G12G19
                                R15R24R18R14
  24121718.305   126760486.507    24121727.023    98774438.3474   24121727.715  
                
  23293135.758   124689980.722                    96981084.310    23293140.027  
  23293134.590  
  21385408.133   112381093.287    21385414.102    87569721.0144   21385414.141  
                
  22578240.133   118649451.585    22578246.609    92454151.6714   22578246.480  
                
  22650174.703   119027483.286    22650180.953    92748717.6554                 
                
  22728680.164   119440059.783    22728686.656    93070214.5534   22728686.688  
                
  20994147.422   112146974.917                    87225414.762    20994148.996  
  20994147.043  
  21115187.539   110961057.936    21115196.234    86463212.3594   21115196.316  
                
  19881609.539   106390519.174                    82748178.809    19881612.820  
  19881607.730  
  22048489.383   117654936.002                                                  
  22048486.867  
  23669680.805   124385016.418    23669686.875    96923420.3044   23669687.242  
                
  20332007.234   106845429.568    20332012.297    83256204.8664                 
                
  19777100.172   105682845.849                    82197779.021    19777104.102  
  19777100.352  
  22271188.305   119094064.392                    92628725.521    22271191.895  
  22271186.926  
  21557589.086   115075873.500                    89503455.890    21557592.109  
  21557587.629  
  22857507.062   121843396.475                    94767091.703    22857511.762  
  22857506.590  
 21  8 16 23 31 10.0000000  0 16G 6R 7G17G15G13G14R16G24R17R 6G12G19
                                R15R24R18R14
  24115469.352   126727648.384    24115478.152    98748850.1934   24115478.840  
                
  23289813.867   124672198.498                    96967253.666    23289818.148  
  23289812.691  
  21388709.188   112398440.498    21388715.184    87583238.3234   21388715.207  
                
  22583059.766   118674778.971    22583066.242    92473887.2934   22583066.117  
                
  22656563.477   119061056.555    22656569.723    92774878.6524                 
                
  22733722.273   119466556.204    22733728.785    93090861.0964   22733728.812  
                
  20989495.094   112122123.108                    87206085.587    20989496.664  
  20989494.691  
  21111304.172   110940650.709    21111312.871    86447310.6224   21111312.945  
                
  19880296.945   106383495.287                    82742715.796    19880300.234  
  19880295.117  
  22051519.297   117671104.100                                                  
  22051516.770  
  23663950.891   124354904.829    23663956.820    96899956.7164   23663957.191  
                
  20331116.742   106840750.006    20331121.812    83252558.4534                 
                
  19778437.453   105689991.890                    82203337.050    19778441.387  
  19778437.621  
  22276955.109   119124902.183                    92652710.453    22276958.723  
  22276953.703  
  21549994.344   115035332.451                    89471923.957    21549997.371  
  21549992.914  
  22863026.422   121872817.836                    94789974.941    22863031.164  
  22863025.988  
 21  8 16 23 31 20.0000000  0 16G 6R 7G17G15G13G14R16G24R17R 6G12G19
                                R15R24R18R14
  24109222.492   126694820.816    24109231.285    98723270.2854   24109231.984  
                
  23286506.422   124654493.483                    96953483.114    23286510.746  
  23286505.227  
  21392019.336   112415835.482    21392025.363    87596792.8514   21392025.375  
                
  22587887.148   118700147.014    22587893.598    92493654.5964   22587893.496  
                
  22662957.586   119094657.838    22662963.805    92801061.4684                 
                
  22738766.914   119493065.928    22738773.480    93111518.0214   22738773.477  
                
  20984846.578   112097291.596                    87186772.187    20984848.156  
  20984846.168  
  21107428.898   110920285.979    21107437.594    86431441.9964   21107437.672  
                
  19879001.812   106376564.837                    82737325.446    19879005.094  
  19878999.969  
  22054563.484   117687348.480                                                  
  22054560.973  
  23658223.766   124324808.026    23658229.629    96876504.6564   23658229.977  
                
  20330239.273   106836138.898    20330244.336    83248965.3834                 
                
  19779782.023   105697176.880                    82208925.374    19779785.965  
  19779782.184  
  22282733.398   119155801.264                    92676743.074    22282737.023  
  22282731.984  
  21542407.477   114994833.124                    89440424.466    21542410.445  
  21542406.031  
  22868549.195   121902257.448                    94812872.401    22868554.012  
  22868548.805  
 21  8 16 23 31 30.0000000  0 16G 6R 7G17G15G13G14R16G24R17R 6G12G19
                                R15R24R18R14
  24102977.750   126662004.018    24102986.461    98697698.7434   24102987.184  
                
  23283213.359   124636865.315                    96939772.282    23283217.664  
  23283212.219  
  21395338.578   112433278.261    21395344.633    87610384.6274   21395344.633  
                
  22592722.227   118725555.565    22592728.664    92513453.4614   22592728.570  
                
  22669357.000   119128287.027    22669363.188    92827266.0284                 
                
  22743814.078   119519588.980    22743820.707    93132185.3274   22743820.660  
                
  20980201.805   112072480.050                    87167474.311    20980203.383  
  20980201.426  
  21103561.727   110899963.838    21103570.422    86415606.5564   21103570.508  
                
  19877724.180   106369728.006                    82732007.911    19877727.453  
  19877722.320  
  22057622.000   117703669.311                                                  
  22057619.492  
  23652499.367   124294726.086    23652505.277    96853064.1814   23652505.598  
                
  20329374.844   106831596.290    20329379.863    83245425.6804                 
                
  19781133.867   105704400.722                    82214543.925    19781137.816  
  19781134.023  
  22288523.055   119186761.291                    92700823.112    22288526.730  
  22288521.660  
  21534828.406   114954375.469                    89408957.382    21534831.383  
  21534826.957  
  22874075.461   121931715.333                    94835784.102    22874080.305  
  22874075.051  
 21  8 16 23 31 40.0000000  0 16G 6R 7G17G15G13G14R16G24R17R 6G12G19
                                R15R24R18R14
  24096735.086   126629198.134    24096743.758    98672135.7044   24096744.469  
                
  23279934.695   124619314.314                    96926121.515    23279938.977  
  23279933.648  
  21398666.891   112450768.641    21398672.980    87624013.4984   21398672.965  
                
  22597565.031   118751004.659    22597571.484    92533283.9214   22597571.371  
                
  22675761.695   119161943.945    22675767.887    92853492.2054                 
                
  22748863.789   119546125.352    22748870.430    93152863.0134   22748870.383  
                
  20975560.773   112047688.506                    87148192.001    20975562.363  
  20975560.398  
  21099702.688   110879684.404    21099711.391    86399804.3964   21099711.469  
                
  19876464.008   106362984.595                    82726763.042    19876467.273  
  19876462.133  
  22060694.797   117720066.300                                                  
  22060692.305  
  23646777.789   124264659.150    23646783.742    96829635.4074   23646784.035  
                
  20328523.461   106827122.240    20328528.422    83241939.4144                 
                
  19782493.023   105711663.606                    82220192.823    19782496.984  
  19782493.152  
  22294324.133   119217782.407                    92724950.643    22294327.852  
  22294322.719  
  21527257.180   114913959.925                    89377523.095    21527260.242  
  21527255.750  
  22879605.117   121961191.587                    94858710.071    22879609.969  
  22879604.734  
 21  8 16 23 31 50.0000000  0 16G 6R 7G17G15G13G14R16G24R17R 6G12G19
                                R15R24R18R14
  24090494.406   126596403.084    24090503.125    98646581.1234   24090503.820  
                
  23276670.398   124601840.449                    96912530.735    23276674.707  
  23276669.344  
  21402004.195   112468306.371    21402010.312    87637679.2604   21402010.266  
                
  22602415.484   118776494.014    22602421.953    92553145.7484   22602421.832  
                
  22682171.625   119195628.382    22682177.832    92879739.8164                 
                
  22753915.984   119572674.827    22753922.613    93173550.9154   22753922.582  
                
  20970923.508   112022917.109                    87128925.359    20970925.105  
  20970923.121  
  21095851.750   110859447.578    21095860.465    86384035.4394   21095860.543  
                
  19875221.289   106356334.640                    82721590.866    19875224.539  
  19875219.414  
  22063781.859   117736539.349                                                  
  22063779.398  
  23641059.023   124234606.995    23641065.020    96806218.1304   23641065.297  
                
  20327685.086   106822716.586    20327689.980    83238506.4414                 
                
  19783859.445   105718965.416                    82225872.006    19783863.406  
  19783859.566  
  22300136.562   119248864.243                    92749125.391    22300140.316  
  22300135.148  
  21519693.742   114873586.194                    89346121.312    21519696.914  
  21519692.367  
  22885138.219   121990686.077                    94881650.220    22885143.062  
  22885137.809  
 21  8 16 23 32  0.0000000  0 16G 6R 7G17G15G13G14R16G24R17R 6G12G19
                                R15R24R18R14
  24084255.727   126563619.131    24084264.652    98621035.2074   24084265.320  
                
  23273420.555   124584443.924                    96899000.119    23273424.930  
  23273419.410  
  21405350.555   112485891.607    21405356.699    87651382.0364   21405356.629  
                
  22607273.609   118802023.644    22607280.082    92573038.9554   22607279.953  
                
  22688586.844   119229340.434    22688593.047    92906008.9454                 
                
  22758970.719   119599237.576    22758977.363    93194249.1574   22758977.320  
                
  20966289.984   111998165.679                    87109674.261    20966291.621  
  20966289.570  
  21092008.969   110839253.596    21092017.680    86368299.8614   21092017.750  
                
  19873996.070   106349778.282                    82716491.477    19873999.316  
  19873994.180  
  22066883.117   117753088.127                                                  
  22066880.688  
  23635343.180   124204569.809    23635349.148    96782812.5024   23635349.398  
                
  20326859.773   106818379.529    20326864.609    83235126.9174                 
                
  19785233.188   105726306.255                    82231581.546    19785237.168  
  19785233.301  
  22305960.398   119280006.975                    92773347.494    22305964.180  
  22305959.000  
  21512138.344   114833254.908                    89314752.534    21512141.551  
  21512136.969  
  22890674.734   122020198.830                    94904604.564    22890679.566  
  22890674.332  
 21  8 16 23 32 10.0000000  0 16G 6R 7G17G15G13G14R16G24R17R 6G12G19
                                R15R24R18R14
  24078019.219   126530846.337    24078028.285    98595497.9774   24078028.938  
                
  23270185.141   124567124.667                    96885529.592    23270189.551  
  23270183.926  
  21408705.922   112503524.237    21408712.086    87665121.7504   21408712.012  
                
  22612139.359   118827593.329    22612145.832    92592963.3854   22612145.699  
                
  22695007.266   119263079.899    22695013.426    92932299.4564                 
                
  22764027.945   119625813.473    22764034.594    93214957.6404   22764034.547  
                
  20961660.266   111973434.555                    87090438.938    20961661.906  
  20961659.840  
  21088174.336   110819102.435    21088183.043    86352597.6564   21088183.117  
                
  19872788.320   106343315.460                    82711464.849    19872791.551  
  19872786.414  
  22069998.578   117769712.681                                                  
  22069996.145  
  23629630.148   124174547.586    23629636.102    96759418.5404   23629636.324  
                
  20326047.477   106814110.888    20326052.277    83231800.7104                 
                
  19786614.203   105733686.046                    82237321.378    19786618.176  
  19786614.305  
  22311795.523   119311210.035                    92797616.561    22311799.332  
  22311794.125  
  21504590.875   114792965.898                    89283416.648    21504594.109  
  21504589.477  
  22896214.664   122049729.877                    94927573.147    22896219.523  
  22896214.242  
 21  8 16 23 32 20.0000000  0 16G 6R 7G17G15G13G14R16G24R17R 6G12G19
                                R15R24R18R14
  24071784.922   126498084.822    24071794.051    98569969.5384   24071794.688  
                
  23266964.234   124549882.894                    96872119.303    23266968.668  
  23266963.047  
  21412070.289   112521204.138    21412076.465    87678898.2964   21412076.387  
                
  22617012.727   118853203.025    22617019.195    92612918.9954   22617019.062  
                
  22701432.875   119296846.711    22701438.973    92958611.2554                 
                
  22769087.672   119652402.485    22769094.316    93235676.3504   22769094.293  
                
  20957034.336   111948723.646                    87071219.340    20957035.992  
  20957033.926  
  21084347.867   110798994.204    21084356.570    86336928.9034   21084356.641  
                
  19871598.070   106336946.245                    82706511.009    19871601.285  
  19871596.156  
  22073128.250   117786413.079                                                  
  22073125.840  
  23623919.891   124144540.134    23623925.875    96736036.1044   23623926.090  
                
  20325248.211   106809910.732    20325252.992    83228527.8664                 
                
  19788002.547   105741104.903                    82243091.589    19788006.527  
  19788002.633  
  22317641.930   119342473.426                    92821932.546    22317645.723  
  22317640.539  
  21497051.312   114752719.438                    89252113.852    21497054.617  
  21497049.957  
  22901758.031   122079279.102                    94950555.892    22901762.867  
  22901757.586  
 21  8 16 23 32 30.0000000  0 16G 6R 7G17G15G13G14R16G24R17R 6G12G19
                                R15R24R18R14
  24065552.891   126465334.789    24065562.004    98544450.0184   24065562.625  
                
  23263757.836   124532718.612                    96858769.316    23263762.238  
  23263756.699  
  21415443.664   112538931.318    21415449.848    87692711.6894   21415449.770  
                
  22621893.680   118878852.596    22621900.133    92632905.6674   22621900.008  
                
  22707863.680   119330640.752    22707869.734    92984944.2834                 
                
  22774149.906   119679004.673    22774156.574    93256405.3074   22774156.551  
                
  20952412.203   111924033.066                    87052015.560    20952413.848  
  20952411.793  
  21080529.602   110778929.036    21080538.309    86321293.7064   21080538.375  
                
  19870425.328   106330670.672                    82701630.006    19870428.543  
  19870423.398  
  22076272.023   117803188.842                                                  
  22076269.598  
  23618212.453   124114547.800    23618218.586    96712665.4684   23618218.777  
                
  20324462.000   106805779.147    20324466.773    83225308.4484                 
                
  19789398.203   105748562.871                    82248892.230    19789402.184  
  19789398.254  
  22323499.609   119373797.119                    92846295.405    22323503.414  
  22323498.238  
  21489519.766   114712515.802                    89220844.369    21489523.145  
  21489518.434  
  22907304.789   122108846.539                    94973552.769    22907309.625  
  22907304.371  
 21  8 16 23 32 40.0000000  0 16G 6R 7G17G15G13G14R16G24R17R 6G12G19
                                R15R24R18R14
  24059322.961   126432596.197    24059332.109    98518939.4254   24059332.688  
                
  23260565.906   124515631.840                    96845479.608    23260570.258  
  23260564.789  
  21418825.992   112556705.602    21418832.191    87706561.7834   21418832.109  
                
  22626782.188   118904541.831    22626788.637    92652923.2574   22626788.508  
                
  22714299.617   119364461.775    22714305.652    93011298.3274                 
                
  22779214.609   119705619.851    22779221.281    93277144.3894   22779221.254  
                
  20947793.852   111899362.759                    87032827.551    20947795.527  
  20947793.434  
  21076719.500   110758906.824    21076728.215    86305691.9764   21076728.281  
                
  19869270.055   106324488.669                    82696821.795    19869273.258  
  19869268.109  
  22079429.945   117820040.187                                                  
  22079427.516  
  23612507.922   124084570.472    23612514.086    96689306.5194   23612514.277  
                
  20323688.805   106801716.000    20323693.559    83222142.3674                 
                
  19790801.148   105756059.834                    82254723.192    19790805.137  
  19790801.191  
  22329368.523   119405180.844                    92870704.955    22329372.332  
  22329367.152  
  21481996.250   114672354.944                    89189608.156    21481999.668  
  21481994.918  
  22912854.922   122138432.124                    94996563.759    22912859.812  
  22912854.543  
 21  8 16 23 32 50.0000000  0 16G 6R 7G17G15G13G14R16G24R17R 6G12G19
                                R15R24R18R14
  24053095.211   126399869.299    24053104.445    98493437.9634   24053105.000  
                
  23257388.492   124498622.862                    96832250.431    23257392.883  
  23257387.344  
  21422217.312   112574527.100    21422223.543    87720448.6624   21422223.457  
                
  22631678.281   118930270.914    22631684.727    92672971.9024   22631684.598  
                
  22720740.711   119398309.864    22720746.801    93037673.4664                 
                
  22784281.820   119732248.135    22784288.461    93297893.7154   22784288.461  
                
  20943179.359   111874712.978                    87013655.495    20943181.043  
  20943178.934  
  21072917.641   110738927.875    21072926.352    86290123.9644   21072926.410  
                
  19868132.312   106318400.439                    82692086.506    19868135.500  
  19868130.348  
  22082602.000   117836966.818                                                  
  22082599.508  
  23606806.297   124054608.252    23606812.438    96665959.3164   23606812.637  
                
  20322928.672   106797721.480    20322933.387    83219029.7534                 
                
  19792211.422   105763595.914                    82260584.585    19792215.426  
  19792211.461  
  22335248.703   119436624.784                    92895161.343    22335252.543  
  22335247.363  
  21474480.820   114632237.259                    89158405.524    21474484.254  
  21474479.473  
  22918408.500   122168035.918                    95019588.929    22918413.395  
  22918408.141  
 21  8 16 23 33  0.0000000  0 16G 6R 7G17G15G13G14R16G24R17R 6G12G19
                                R15R24R18R14
  24046869.711   126367154.286    24046879.004    98467945.7594   24046879.551  
                
  23254225.602   124481691.747                    96819081.790    23254230.031  
  23254224.449  
  21425617.602   112592395.704    21425623.867    87734372.2464   21425623.781  
                
  22636581.922   118956039.703    22636588.410    92693051.4644   22636588.258  
                
  22727186.914   119432184.934    22727193.070    93064069.6184                 
                
  22789351.523   119758889.563    22789358.168    93318653.2634   22789358.172  
                
  20938568.695   111850083.619                    86994499.332    20938570.383  
  20938568.258  
  21069124.031   110718992.272    21069132.742    86274589.7204   21069132.789  
                
  19867012.125   106312406.092                    82687424.241    19867015.309  
  19867010.137  
  22085788.164   117853968.854                                                  
  22085785.633  
  23601107.477   124024661.196    23601113.688    96642623.9454   23601113.883  
                
  20322181.602   106793795.564    20322186.277    83215970.6024                 
                
  19793629.055   105771171.281                    82266476.527    19793633.051  
  19793629.094  
  22341140.047   119468128.394                    92919664.189    22341143.895  
  22341138.766  
  21466973.508   114592162.860                    89127236.556    21466976.934  
  21466972.152  
  22923965.586   122197658.110                    95042628.423    22923970.453  
  22923965.191  
 21  8 16 23 33 10.0000000  0 16G 6R 7G17G15G13G14R16G24R17R 6G12G19
                                R15R24R18R14
  24040646.508   126334450.978    24040655.781    98442462.6554   24040656.332  
                
  23251077.219   124464838.227                    96805973.461    23251081.660  
  23251076.086  
  21429026.773   112610311.037    21429033.086    87748332.2484   21429032.980  
                
  22641493.047   118981847.826    22641499.586    92713161.6864   22641499.430  
                
  22733638.172   119466086.594    22733644.367    93090486.4724                 
                
  22794423.648   119785543.764    22794430.332    93339422.7464   22794430.305  
                
  20933961.812   111825474.584                    86975358.978    20933963.523  
  20933961.352  
  21065338.609   110699099.729    21065347.320    86259089.0314   21065347.367  
                
  19865909.406   106306505.324                    82682834.748    19865912.578  
  19865907.406  
  22088988.336   117871045.655                                                  
  22088985.801  
  23595411.539   123994728.999    23595417.699    96619300.1374   23595417.926  
                
  20321447.508   106789937.890    20321452.133    83212964.6224                 
                
  19795053.969   105778785.602                    82272398.779    19795057.953  
  19795054.016  
  22347042.508   119499691.512                    92944213.267    22347046.324  
  22347041.219  
  21459474.289   114552131.645                    89096101.172    21459477.734  
  21459472.941  
  22929526.078   122227298.241                    95065681.847    22929530.883  
  22929525.633  
 21  8 16 23 33 20.0000000  0 16G 6R 7G17G15G13G14R16G24R17R 6G12G19
                                R15R24R18R14
  24034425.570   126301759.707    24034434.848    98416988.9344   24034435.406  
                
  23247943.414   124448062.535                    96792925.706    23247947.867  
  23247942.336  
  21432444.867   112628273.247    21432451.211    87762328.7774   21432451.098  
                
  22646411.664   119007695.326    22646418.238    92733302.5904   22646418.078  
                
  22740094.547   119500014.989    22740100.766    93116924.1724                 
                
  22799498.258   119812210.935    22799504.941    93360202.3644   22799504.906  
                
  20929358.805   111800886.087                    86956234.582    20929360.516  
  20929358.328  
  21061561.453   110679250.590    21061570.156    86243622.1684   21061570.199  
                
  19864824.211   106300698.289                    82678318.163    19864827.371  
  19864822.195  
  22092202.641   117888197.790                                                  
  22092200.156  
  23589718.445   123964811.897    23589724.617    96595988.1024   23589724.887  
                
  20320726.445   106786148.667    20320731.043    83210011.9824                 
                
  19796486.219   105786439.064                    82278351.461    19796490.207  
  19796486.266  
  22352956.141   119531314.326                    92968808.781    22352959.934  
  22352954.824  
  21451983.273   114512143.867                    89064999.575    21451986.660  
  21451981.895  
  22935090.008   122256956.655                    95088749.500    22935094.742  
  22935089.531  
 21  8 16 23 33 30.0000000  0 16G 6R 7G17G15G13G14R16G24R17R 6G12G19
                                R15R24R18R14
  24028207.164   126269081.227    24028216.348    98391525.1674   24028216.879  
                
  23244824.312   124431365.631                    96779939.240    23244828.797  
  23244823.266  
  21435871.984   112646282.849    21435878.348    87776362.2324   21435878.230  
                
  22651337.883   119033582.743    22651344.488    92753474.6014   22651344.324  
                
  22746556.109   119533970.653    22746562.316    93143383.1334                 
                
  22804575.453   119838891.721    22804582.078    93380992.5794   22804582.070  
                
  20924759.758   111776318.847                    86937126.718    20924761.465  
  20924759.277  
  21057792.695   110659445.591    21057801.387    86228189.6954   21057801.438  
                
  19863756.688   106294985.782                    82673875.109    19863759.840  
  19863754.656  
  22095431.094   117905425.496                                                  
  22095428.594  
  23584028.398   123934910.559    23584034.566    96572688.3744   23584034.863  
                
  20320018.539   106782428.614    20320023.121    83207113.2434                 
                
  19797925.914   105794132.377                    82284335.146    19797929.898  
  19797925.961  
  22358880.992   119562997.126                    92993450.978    22358884.777  
  22358879.691  
  21444500.602   114472200.719                    89033932.676    21444503.922  
  21444499.199  
  22940657.469   122286633.821                    95111831.737    22940662.133  
  22940656.988  
 21  8 16 23 33 40.0000000  0 16G 6R 7G17G15G13G14R16G24R17R 6G12G19
                                R15R24R18R14
  24021990.773   126236413.722    24021999.906    98366069.9534   24022000.414  
                
  23241719.523   124414745.473                    96767012.447    23241724.039  
  23241718.512  
  21439307.742   112664337.867    21439314.113    87790431.0794   21439314.000  
                
  22656271.312   119059508.072    22656277.934    92773676.1464   22656277.773  
                
  22753022.445   119567951.445    22753028.637    93169861.6694                 
                
  22809654.852   119865584.134    22809661.445    93401791.8594   22809661.449  
                
  20920164.336   111751770.970                    86918033.936    20920166.062  
  20920163.855  
  21054031.969   110639682.846    21054040.645    86212790.1454   21054040.707  
                
  19862706.461   106289365.888                    82669504.084    19862709.613  
  19862704.418  
  22098673.289   117922726.516                                                  
  22098670.762  
  23578341.016   123905023.059    23578347.152    96549399.4024   23578347.457  
                
  20319323.430   106778775.818    20319328.004    83204266.9064                 
                
  19799372.703   105801863.577                    82290348.298    19799376.688  
  19799372.754  
  22364816.672   119594737.902                    93018138.260    22364820.492  
  22364815.410  
  21437025.828   114432300.019                    89002898.794    21437029.105  
  21437024.430  
  22946228.023   122316327.877                    95134927.160    22946232.668  
  22946227.543  
 21  8 16 23 33 50.0000000  0 16G 6R 7G17G15G13G14R16G24R17R 6G12G19
                                R15R24R18R14
  24015776.750   126203758.869    24015785.875    98340624.6094   24015786.355  
                
  23238629.383   124398203.760                    96754146.661    23238633.922  
  23238628.348  
  21442752.422   112682439.767    21442758.805    87804536.4594   21442758.684  
                
  22661212.234   119085472.750    22661218.871    92793908.3614   22661218.707  
                
  22759493.844   119601958.820    22759500.004    93196360.9264                 
                
  22814736.766   119892289.699    22814743.355    93422601.3924   22814743.367  
                
  20915572.820   111727243.940                    86898957.351    20915574.566  
  20915572.328  
  21050279.602   110619964.003    21050288.262    86197424.8174   21050288.324  
                
  19861673.820   106283840.051                    82665206.216    19861676.957  
  19861671.758  
  22101929.461   117940102.456                                                  
  22101927.004  
  23572656.641   123875151.067    23572662.688    96526122.5044   23572662.973  
                
  20318641.406   106775191.752    20318645.980    83201474.1304                 
                
  19800826.875   105809634.241                    82296392.144    19800830.867  
  19800826.922  
  22370763.461   119626538.056                    93042871.708    22370767.293  
  22370762.234  
  21429559.383   114392443.606                    88971899.348    21429562.598  
  21429558.000  
  22951802.000   122346040.300                    95158036.811    22951806.578  
  22951801.492  
 21  8 16 23 34  0.0000000  0 16G 6R 7G17G15G13G14R16G24R17R 6G12G19
                                R15R24R18R14
  24009565.102   126171116.594    24009574.227    98315189.0614   24009574.688  
                
  23235553.883   124381740.382                    96741341.823    23235558.434  
  23235552.809  
  21446205.969   112700588.267    21446212.359    87818678.1424   21446212.254  
                
  22666160.555   119111476.262    22666167.199    92814170.8424   22666167.039  
                
  22765970.250   119635992.577    22765976.391    93222880.7334                 
                
  22819821.125   119919008.198    22819827.703    93443420.9844   22819827.746  
                
  20910985.250   111702737.921                    86879897.121    20910986.980  
  20910984.762  
  21046535.555   110600288.886    21046544.188    86182093.5594   21046544.254  
                
  19860658.742   106278408.215                    82660981.458    19860661.883  
  19860656.672  
  22105199.695   117957552.866                                                  
  22105197.246  
  23566975.172   123845294.384    23566981.121    96502857.5354   23566981.422  
                
  20317972.406   106771676.183    20317976.969    83198734.7344                 
                
  19802288.414   105817444.265                    82302466.604    19802292.398  
  19802288.469  
  22376721.281   119658397.139                    93067650.961    22376725.121  
  22376720.082  
  21422101.227   114352631.371                    88940934.275    21422104.410  
  21422099.855  
  22957379.398   122375770.929                    95181160.625    22957383.922  
  22957378.883  
 21  8 16 23 34 10.0000000  0 16G 6R 7G17G15G13G14R16G24R17R 6G12G19
                                R15R24R18R14
  24003355.828   126138486.606    24003364.902    98289763.0914   24003365.371  
                
  23232493.008   124365355.217                    96728597.805    23232497.527  
  23232491.926  
  21449668.297   112718782.936    21449674.699    87832855.7994   21449674.582  
                
  22671116.195   119137518.343    22671122.867    92834463.3724   22671122.680  
                
  22772451.578   119670052.151    22772457.680    93249420.6584                 
                
  22824907.867   119945739.211    22824914.461    93464250.3354   22824914.508  
                
  20906401.516   111678252.485                    86860852.889    20906403.215  
  20906401.012  
  21042799.781   110580657.250    21042808.383    86166796.1744   21042808.477  
                
  19859661.156   106273069.986                    82656829.513    19859664.289  
  19859659.090  
  22108483.875   117975077.702                                                  
  22108481.418  
  23561296.516   123815452.697    23561302.426    96479604.2684   23561302.727  
                
  20317316.398   106768228.825    20317320.930    83196048.4794                 
                
  19803757.234   105825293.226                    82308571.351    19803761.234  
  19803757.270  
  22382690.039   119690314.752                    93092475.790    22382693.914  
  22382688.871  
  21414651.281   114312863.161                    88910003.465    21414654.484  
  21414649.926  
  22962960.117   122405519.329                    95204298.259    22962964.656  
  22962959.594  
 21  8 16 23 34 20.0000000  0 16G 6R 7G17G15G13G14R16G24R17R 6G12G19
                                R15R24R18R14
  23997148.906   126105868.984    23997157.957    98264346.7524   23997158.430  
                
  23229446.664   124349047.713                    96715914.209    23229451.141  
  23229445.652  
  21453139.398   112737023.674    21453145.805    87847069.3574   21453145.684  
                
  22676079.156   119163598.868    22676085.836    92854785.8544   22676085.645  
                
  22778937.805   119704137.413    22778943.824    93275980.5964                 
                
  22829996.984   119972482.657    22830003.605    93485089.3744   22830003.641  
                
  20901821.617   111653787.458                    86841824.519    20901823.285  
  20901821.121  
  21039072.281   110561069.051    21039080.859    86151532.6424   21039080.965  
                
  19858681.070   106267825.367                    82652750.370    19858684.184  
  19858679.020  
  22111781.906   117992676.682                                                  
  22111779.449  
  23555620.664   123785625.864    23555626.555    96456362.5884   23555626.855  
                
  20316673.359   106764849.629    20316677.855    83193415.3464                 
                
  19805233.344   105833181.063                    82314706.332    19805237.348  
  19805233.387  
  22388669.695   119722290.601                    93117345.901    22388673.602  
  22388668.512  
  21407209.594   114273139.183                    88879107.062    21407212.848  
  21407208.262  
  22968544.094   122435285.425                    95227449.665    22968548.703  
  22968543.652  
 21  8 16 23 34 30.0000000  0 16G 6R 7G17G15G13G14R16G24R17R 6G12G19
                                R15R24R18R14
  23990944.438   126073264.693    23990953.539    98238940.8034   23990954.031  
                
  23226415.094   124332819.336                    96703292.163    23226419.547  
  23226414.125  
  21456619.398   112755311.228    21456625.789    87861319.4064   21456625.656  
                
  22681049.570   119189718.544    22681056.258    92875138.8404   22681056.066  
                
  22785429.055   119738249.095    22785434.988    93302561.1434                 
                
  22835088.617   119999239.352    22835095.246    93505938.7294   22835095.285  
                
  20897245.688   111629343.686                    86822812.713    20897247.332  
  20897245.184  
  21035353.219   110541525.240    21035361.777    86136303.7014   21035361.898  
                
  19857718.633   106262675.188                    82648744.670    19857721.746  
  19857716.590  
  22115093.859   118010350.015                                                  
  22115091.438  
  23549947.805   123755814.775    23549953.688    96433133.1724   23549954.008  
                
  20316043.445   106761539.408    20316047.902    83190835.9574                 
                
  19806716.883   105841108.692                    82320872.264    19806720.895  
  19806716.910  
  22394660.383   119754325.530                    93142261.945    22394664.312  
  22394659.172  
  21399776.391   114233460.456                    88848245.842    21399779.691  
  21399775.066  
  22974131.633   122465070.117                    95250615.545    22974136.191  
  22974131.195  
 21  8 16 23 34 40.0000000  0 16G 6R 7G17G15G13G14R16G24R17R 6G12G19
                                R15R24R18R14
  23984742.492   126040673.586    23984751.648    98213545.1584   23984752.164  
                
  23223398.219   124316669.694                    96690731.362    23223402.648  
  23223397.262  
  21460108.250   112773645.238    21460114.598    87875605.6494   21460114.473  
                
  22686027.359   119215876.973    22686034.066    92895522.0344   22686033.840  
                
  22791925.266   119772386.801    22791931.082    93329161.9584                 
                
  22840182.719   120026009.010    22840189.324    93526798.1994   22840189.391  
                
  20892673.734   111604921.147                    86803817.395    20892675.367  
  20892673.234  
  21031642.570   110522025.651    21031651.109    86121109.2124   21031651.227  
                
  19856773.805   106257619.270                    82644812.291    19856776.918  
  19856771.766  
  22118419.859   118028098.070                                                  
  22118417.465  
  23544277.953   123726019.258    23544283.812    96409915.8784   23544284.121  
                
  20315426.625   106758298.014    20315431.062    83188310.1994                 
                
  19808207.852   105849075.960                    82327069.024    19808211.871  
  19808207.867  
  22400662.055   119786419.115                    93167223.625    22400665.992  
  22400660.836  
  21392351.648   114193826.647                    88817419.535    21392354.934  
  21392350.340  
  22979722.648   122494873.201                    95273795.711    22979727.133  
  22979722.145  
 21  8 16 23 34 50.0000000  0 16G 6R 7G17G15G13G14R16G24R17R 6G12G19
                                R15R24R18R14
  23978543.031   126008095.546    23978552.207    98188159.6894   23978552.762  
                
  23220395.992   124300598.648                    96678231.653    23220400.445  
  23220394.965  
  21463605.859   112792025.275    21463612.156    87889927.7554   21463612.051  
                
  22691012.453   119242073.788    22691019.145    92915935.1444   22691018.906  
                
  22798426.352   119806550.201    22798432.098    93355782.7874                 
                
  22845279.234   120052791.365    22845285.789    93547667.5554   22845285.898  
                
  20888105.703   111580519.663                    86784838.483    20888107.375  
  20888105.203  
  21027940.305   110502570.100    21027948.832    86105949.0424   21027948.957  
                
  19855846.547   106252657.337                    82640953.014    19855849.660  
  19855844.504  
  22121759.641   118045919.813                                                  
  22121757.270  
  23538610.945   123696238.930    23538616.852    96386710.4374   23538617.168  
                
  20314822.836   106755125.084    20314827.270    83185837.7924                 
                
  19809706.148   105857082.400                    82333296.250    19809710.188  
  19809706.148  
  22406674.602   119818570.868                    93192230.538    22406678.516  
  22406673.367  
  21384935.336   114154237.946                    88786628.310    21384938.578  
  21384934.047  
  22985317.078   122524694.226                    95296989.875    22985321.465  
  22985316.531  
 21  8 16 23 35  0.0000000  0 16G 6R 7G17G15G13G14R16G24R17R 6G12G19
                                R15R24R18R14
  23972346.062   125975530.582    23972355.246    98162784.3874   23972355.840  
                
  23217408.445   124284606.156                    96665793.008    23217412.883  
  23217407.344  
  21467112.219   112810451.325    21467118.477    87904285.7184   21467118.398  
                
  22696004.812   119268308.771    22696011.453    92936377.9974   22696011.211  
                
  22804932.273   119840739.044    22804938.008    93382423.4364                 
                
  22850378.148   120079586.238    22850384.648    93568546.6714   22850384.801  
                
  20883541.609   111556139.129                    86765875.834    20883543.254  
  20883541.113  
  21024246.406   110483158.520    21024254.926    86090823.1294   21024255.039  
                
  19854936.828   106247789.310                    82637166.773    19854939.949  
  19854934.793  
  22125113.273   118063815.358                                                  
  22125110.883  
  23532946.836   123666473.731    23532952.754    96363516.7684   23532953.102  
                
  20314232.055   106752020.514    20314236.500    83183418.6514                 
                
  19811211.789   105865128.119                    82339554.029    19811215.832  
  19811211.777  
  22412697.977   119850780.570                    93217282.520    22412701.887  
  22412696.727  
  21377527.477   114114694.245                    88755872.101    21377530.707  
  21377526.184  
  22990914.859   122554533.181                    95320197.963    22990919.141  
  22990914.293  
 21  8 16 23 35 10.0000000  0 16G 6R 7G17G15G13G14R16G24R17R 6G12G19
                                R15R24R18R14
  23966151.625   125942978.952    23966160.875    98137419.4984   23966161.461  
                
  23214435.625   124268692.377                    96653415.631    23214440.039  
  23214434.562  
  21470627.359   112828923.486    21470633.582    87918679.6104   21470633.508  
                
  22701004.461   119294582.030    22701011.066    92956850.6704   22701010.824  
                
  22811443.086   119874953.478    22811448.812    93409084.0254                 
                
  22855479.469   120106393.796    22855485.984    93589435.6824   22855486.117  
                
  20878981.445   111531779.556                    86746929.506    20878983.102  
  20878980.953  
  21020560.938   110463791.195    21020569.469    86075731.7054   21020569.574  
                
  19854044.695   106243015.372                    82633453.717    19854047.820  
  19854042.664  
  22128480.742   118081784.710                                                  
  22128478.391  
  23527285.641   123636724.007    23527291.598    96340335.1704   23527291.957  
                
  20313654.312   106748984.449    20313658.770    83181052.8884                 
                
  19812724.797   105873213.184                    82345842.421    19812728.844  
  19812724.777  
  22418732.203   119883048.352                    93242379.689    22418736.148  
  22418730.965  
  21370128.125   114075195.863                    88725151.146    21370131.375  
  21370126.824  
  22996516.039   122584390.198                    95343420.087    22996520.254  
  22996515.430  
 21  8 16 23 35 20.0000000  0 16G 6R 7G17G15G13G14R16G24R17R 6G12G19
                                R15R24R18R14
  23959959.820   125910440.893    23959969.098    98112065.1814   23959969.684  
                
  23211477.602   124252857.661                    96641099.739    23211481.957  
  23211476.605  
  21474151.250   112847441.648    21474157.449    87933109.3464   21474157.383  
                
  22706011.359   119320893.460    22706017.957    92977353.0924   22706017.715  
                
  22817958.742   119909193.407    22817964.465    93435764.4894                 
                
  22860583.219   120133214.077    22860589.762    93610334.6084   22860589.852  
                
  20874425.281   111507441.329                    86727999.753    20874426.914  
  20874424.793  
  21016883.898   110444468.226    21016892.441    86060674.8514   21016892.527  
                
  19853170.141   106238335.445                    82629813.775    19853173.293  
  19853168.113  
  22131861.938   118099827.664                                                  
  22131859.590  
  23521627.320   123606989.714    23521633.336    96317165.6054   23521633.688  
                
  20313089.617   106746016.931    20313094.086    83178740.5384                 
                
  19814245.211   105881337.822                    82352161.572    19814249.273  
  19814245.191  
  22424777.266   119915374.035                    93267521.886    22424781.207  
  22424776.043  
  21362737.273   114035742.997                    88694465.600    21362740.531  
  21362735.953  
  23002120.578   122614265.340                    95366656.309    23002124.777  
  23002119.969  
 21  8 16 23 35 30.0000000  0 16G 6R 7G17G15G13G14R16G24R17R 6G12G19
                                R15R24R18R14
  23953770.539   125877916.417    23953779.914    98086721.4524   23953780.500  
                
  23208534.312   124237101.883                    96628845.258    23208538.602  
  23208533.340  
  21477683.867   112866005.725    21477690.051    87947574.8624   21477689.977  
                
  22711025.477   119347242.870    22711032.062    92997885.0904   22711031.824  
                
  22824479.219   119943458.621    22824484.980    93462464.6634                 
                
  22865689.359   120160046.997    22865695.875    93631243.3674   22865695.973  
                
  20869873.094   111483124.412                    86709086.595    20869874.715  
  20869872.609  
  21013215.312   110425189.657    21013223.859    86045652.5824   21013223.941  
                
  19852313.203   106233749.853                    82626247.206    19852316.363  
  19852311.184  
  22135257.000   118117944.397                                                  
  22135254.605  
  23515971.992   123577271.004    23515978.059    96294008.1754   23515978.383  
                
  20312537.945   106743117.935    20312542.422    83176481.5774                 
                
  19815773.008   105889501.919                    82358511.424    19815777.082  
  19815772.984  
  22430833.094   119947757.287                    93292708.851    22430837.059  
  22430831.871  
  21355354.922   113996335.953                    88663815.697    21355358.266  
  21355353.602  
  23007728.523   122644158.612                    95389906.616    23007732.711  
  23007727.898  
 21  8 16 23 35 40.0000000  0 16G 6R 7G17G15G13G14R16G24R17R 6G12G19
                                R15R24R18R14
  23947583.969   125845405.487    23947593.281    98061388.2594   23947593.875  
                
  23205605.719   124221424.842                    96616652.046    23205609.996  
  23205604.770  
  21481225.180   112884615.431    21481231.340    87962075.9294   21481231.266  
                
  22716046.781   119373629.981    22716053.352    93018446.4734   22716053.113  
                
  22831004.461   119977748.750    22831010.285    93489184.2364                 
                
  22870797.867   120186892.319    22870804.352    93652161.7904   22870804.480  
                
  20865324.867   111458828.596                    86690189.860    20865326.473  
  20865324.375  
  21009555.156   110405955.322    21009563.703    86030664.7904   21009563.766  
                
  19851473.812   106229258.108                    82622753.633    19851476.984  
  19851471.801  
  22138665.781   118136134.352                                                  
  22138663.418  
  23510319.664   123547567.633    23510325.711    96270862.6874   23510326.035  
                
  20311999.281   106740287.214    20312003.762    83174275.8294                 
                
  19817308.148   105897705.245                    82364891.776    19817312.223  
  19817308.117  
  22436899.703   119980198.105                    93317940.588    22436903.688  
  22436898.477  
  21347981.164   113956974.516                    88633201.256    21347984.516  
  21347979.852  
  23013339.781   122674069.683                    95413170.793    23013343.969  
  23013339.172  
 21  8 16 23 35 50.0000000  0 16G 6R 7G17G15G13G14R16G24R17R 6G12G19
                                R15R24R18R14
  23941400.047   125812908.247    23941409.250    98036065.7404   23941409.855  
                
  23202691.836   124205826.682                    96604520.156    23202696.129  
  23202690.820  
  21484775.141   112903270.640    21484781.289    87976612.4644   21484781.219  
                
  22721075.242   119400054.805    22721081.824    93039037.2474   22721081.578  
                
  22837534.422   120012063.908    22837540.336    93515923.2954                 
                
  22875908.734   120213750.081    22875915.262    93673089.9084   22875915.363  
                
  20860780.633   111434554.149                    86671309.730    20860782.223  
  20860780.133  
  21005903.430   110386765.402    21005911.980    86015711.6054   21005912.043  
                
  19850652.000   106224860.486                    82619333.258    19850655.164  
  19850649.992  
  22142088.320   118154397.474                                                  
  22142085.930  
  23504670.227   123517879.594    23504676.277    96247729.1504   23504676.613  
                
  20311473.625   106737524.864    20311478.098    83172123.3414                 
                
  19818850.641   105905947.841                    82371302.675    19818854.711  
  19818850.629  
  22442977.008   120012696.212                    93343216.900    22442981.031  
  22442975.773  
  21340616.023   113917658.882                    88602622.440    21340619.340  
  21340614.707  
  23018954.289   122703998.494                    95436448.765    23018958.559  
  23018953.773  
 21  8 16 23 36  0.0000000  0 16G 6R 7G17G15G13G14R16G24R17R 6G12G19
                                R15R24R18R14
  23935218.773   125780424.934    23935227.848    98010754.0494   23935228.473  
                
  23199792.742   124190307.740                    96592449.826    23199797.031  
  23199791.625  
  21488333.797   112921971.497    21488339.926    87991184.5504   21488339.844  
                
  22726110.875   119426517.274    22726117.469    93059657.3444   22726117.219  
                
  22844069.109   120046404.028    22844075.133    93542681.8084                 
                
  22881021.977   120240620.313    22881028.539    93694027.7404   22881028.629  
                
  20856240.383   111410300.997                    86652446.162    20856241.969  
  20856239.891  
  21002260.188   110367620.034    21002268.746    86000793.1334   21002268.801  
                
  19849847.781   106220556.980                    82615986.101    19849850.965  
  19849845.770  
  22145524.539   118172733.834                                                  
  22145522.125  
  23499023.656   123488206.990    23499029.746    96224607.6434   23499030.090  
                
  20310960.992   106734830.956    20310965.457    83170024.1964                 
                
  19820400.516   105914229.930                    82377744.300    19820404.578  
  19820400.523  
  22449064.984   120045251.382                    93368537.568    22449069.027  
  22449063.770  
  21333259.531   113878389.398                    88572079.502    21333262.820  
  21333258.199  
  23024572.219   122733945.317                    95459740.738    23024576.500  
  23024571.730  
 21  8 16 23 36 10.0000000  0 16G 6R 7G17G15G13G14R16G24R17R 6G12G19
                                R15R24R18R14
  23929040.219   125747955.726    23929049.113    97985453.3544   23929049.762  
                
  23196908.469   124174868.046                    96580441.175    23196912.770  
  23196907.320  
  21491901.148   112940718.079    21491907.273    88005792.2814   21491907.188  
                
  22731153.695   119453017.437    22731160.301    93080306.8194   22731160.074  
                
  22850608.570   120080769.078    22850614.652    93569459.7614                 
                
  22886137.609   120267503.138    22886144.199    93714975.3774   22886144.289  
                
  20851704.148   111386069.270                    86633599.260    20851705.727  
  20851703.664  
  20998625.469   110348519.404    20998634.039    85985909.5224   20998634.082  
                
  19849061.172   106216347.735                    82612712.245    19849064.359  
  19849059.160  
  22148974.406   118191143.123                                                  
  22148972.008  
  23493380.078   123458549.970    23493386.199    96201498.2774   23493386.535  
                
  20310461.398   106732205.546    20310465.863    83167978.4304                 
                
  19821957.820   105922551.662                    82384216.747    19821961.883  
  19821957.836  
  22455163.648   120077863.722                    93393902.712    22455167.727  
  22455162.434  
  21325911.711   113839166.299                    88541572.650    21325915.004  
  21325910.371  
  23030193.555   122763910.307                    95483046.833    23030197.852  
  23030193.074  
 21  8 16 23 36 20.0000000  0 16G 6R 7G17G15G13G14R16G24R17R 6G12G19
                                R15R24R18R14
  23922864.234   125715500.589    23922873.078    97960163.6234   23922873.742  
                
  23194039.016   124159507.493                    96568494.079    23194043.289  
  23194037.965  
  21495477.133   112959509.997    21495483.258    88020435.3354   21495483.172  
                
  22736203.609   119479554.936    22736210.250    93100985.3884   22736210.012  
                
  22857152.703   120115158.768    22857158.820    93596256.9164                 
                
  22891255.594   120294398.304    22891262.234    93735932.6534   22891262.309  
                
  20847171.898   111361858.857                    86614768.932    20847173.480  
  20847171.422  
  20994999.227   110329463.354    20995007.801    85971060.6594   20995007.848  
                
  19848292.148   106212232.536                    82609511.532    19848295.344  
  19848290.148  
  22152437.992   118209625.546                                                  
  22152435.562  
  23487739.461   123428908.332    23487745.578    96178400.9034   23487745.918  
                
  20309974.805   106729648.471    20309979.277    83165985.9094                 
                
  19823522.492   105930912.749                    82390719.811    19823526.551  
  19823522.516  
  22461272.945   120110532.815                    93419312.006    22461277.008  
  22461271.750  
  21318572.539   113799989.529                    88511101.843    21318575.887  
  21318571.203  
  23035818.133   122793893.054                    95506366.741    23035822.570  
  23035817.715  
 21  8 16 23 36 30.0000000  0 16G 6R 7G17G15G13G14R16G24R17R 6G12G19
                                R15R24R18R14
  23916690.914   125683059.677    23916699.770    97934885.0024   23916700.445  
                
  23191184.359   124144226.267                    96556608.692    23191188.648  
  23191183.363  
  21499061.766   112978347.372    21499067.891    88035113.8094   21499067.789  
                
  22741260.641   119506129.784    22741267.328    93121693.0544   22741267.078  
                
  22863701.508   120149572.993    22863707.684    93623073.2004                 
                
  22896375.945   120321305.869    22896382.641    93756899.5754   22896382.688  
                
  20842643.719   111337670.162                    86595955.506    20842645.316  
  20842643.250  
  20991381.508   110310452.112    20991390.094    85956246.7034   20991390.137  
                
  19847540.742   106208211.599                    82606384.143    19847543.941  
  19847538.754  
  22155915.141   118228180.605                                                  
  22155912.746  
  23482101.867   123399282.273    23482107.879    96155315.6464   23482108.242  
                
  20309501.242   106727159.845    20309505.727    83164046.7264                 
                
  19825094.562   105939313.385                    82397253.636    19825098.617  
  19825094.594  
  22467392.867   120143258.769                    93444765.524    22467396.902  
  22467391.672  
  21311242.141   113760859.356                    88480667.270    21311245.504  
  21311240.816  
  23041446.047   122823893.647                    95529700.532    23041450.613  
  23041445.734  
 21  8 16 23 36 40.0000000  0 16G 6R 7G17G15G13G14R16G24R17R 6G12G19
                                R15R24R18R14
  23910520.312   125650633.092    23910529.176    97909617.5414   23910529.867  
                
  23188344.516   124129024.351                    96544784.990    23188348.801  
  23188343.496  
  21502655.016   112997230.012    21502661.137    88049827.5584   21502661.043  
                
  22746324.742   119532741.835    22746331.465    93142429.7124   22746331.207  
                
  22870254.953   120184011.710    22870261.199    93649908.5494                 
                
  22901498.633   120348225.772    22901505.352    93777876.1144   22901505.383  
                
  20838119.539   111313502.821                    86577158.690    20838121.148  
  20838119.059  
  20987772.312   110291485.655    20987780.902    85941467.6484   20987780.949  
                
  19846806.922   106204284.804                    82603329.967    19846810.117  
  19846804.961  
  22159405.898   118246808.343                                                  
  22159403.574  
  23476467.227   123369671.735    23476473.152    96132242.5014   23476473.539  
                
  20309040.664   106724739.490    20309045.148    83162160.7404                 
                
  19826674.008   105947753.465                    82403818.146    19826678.062  
  19826674.051  
  22473523.383   120176041.388                    93470263.118    22473527.391  
  22473522.184  
  21303920.531   113721776.004                    88450269.112    21303923.895  
  21303919.234  
  23047077.422   122853912.067                    95553048.180    23047082.008  
  23047077.113  
 21  8 16 23 36 50.0000000  0 16G 6R 7G17G15G13G14R16G24R17R 6G12G19
                                R15R24R18R14
  23904352.477   125618220.985    23904361.363    97884361.3564   23904362.059  
                
  23185519.500   124113901.933                    96533023.106    23185523.797  
  23185518.410  
  21506256.859   113016157.829    21506262.965    88064576.5124   21506262.871  
                
  22751395.906   119559390.917    22751402.637    93163195.2314   22751402.395  
                
  22876813.047   120218474.857    22876819.332    93676762.9354                 
                
  22906623.672   120375157.984    22906630.391    93798862.2434   22906630.418  
                
  20833599.438   111289357.217                    86558378.759    20833601.066  
  20833598.930  
  20984171.664   110272564.082    20984180.246    85926723.5654   20984180.305  
                
  19846090.703   106200452.163                    82600349.038    19846093.902  
  19846088.758  
  22162910.406   118265508.749                                                  
  22162908.000  
  23470835.492   123340076.753    23470841.375    96109181.4654   23470841.793  
                
  20308593.094   106722387.489    20308597.570    83160328.0124                 
                
  19828260.852   105956233.074                    82410413.391    19828264.895  
  19828260.902  
  22479664.438   120208880.388                    93495804.560    22479668.406  
  22479663.254  
  21296607.695   113682739.455                    88419907.357    21296611.023  
  21296606.395  
  23052712.188   122883948.374                    95576409.755    23052716.762  
  23052711.871  
 21  8 16 23 37  0.0000000  0 16G 6R 7G17G15G13G14R16G24R17R 6G12G19
                                R15R24R18R14
  23898187.297   125585823.383    23898196.312    97859116.4794   23898197.012  
                
  23182709.289   124098858.907                    96521322.980    23182713.625  
  23182708.129  
  21509867.266   113035130.633    21509873.340    88079360.5114   21509873.270  
                
  22756474.094   119586076.916    22756480.840    93183989.5194   22756480.605  
                
  22883375.742   120252962.201    22883382.016    93703636.1864                 
                
  22911751.023   120402102.377    22911757.754    93819857.8624   22911757.773  
                
  20829083.391   111265233.350                    86539615.770    20829085.051  
  20829082.887  
  20980579.531   110253687.355    20980588.105    85912014.4334   20980588.188  
                
  19845392.078   106196713.713                    82597441.352    19845395.277  
  19845390.148  
  22166428.406   118284281.653                                                  
  22166425.977  
  23465206.766   123310497.290    23465212.551    96086132.5224   23465212.973  
                
  20308158.500   106720103.699    20308162.957    83158548.4404                 
                
  19829855.078   105964752.139                    82417039.327    19829859.117  
  19829855.133  
  22485816.039   120241775.664                    93521389.772    22485819.934  
  22485814.832  
  21289303.586   113643749.647                    88389581.945    21289306.887  
  21289302.285  
  23058350.211   122914002.433                    95599785.131    23058354.812  
  23058349.898  
 21  8 16 23 37 10.0000000  0 16G 6R 7G17G15G13G14R16G24R17R 6G12G19
                                R15R24R18R14
  23892024.930   125553440.404    23892034.074    97833883.0114   23892034.770  
                
  23179913.992   124083895.474                    96509684.736    23179918.320  
  23179912.840  
  21513486.203   113054148.293    21513492.254    88094179.4734   21513492.199  
                
  22761559.273   119612799.690    22761566.043    93204812.4574   22761565.777  
                
  22889943.055   120287473.594    22889949.285    93730528.1924                 
                
  22916880.695   120429058.988    22916887.422    93840863.0224   22916887.453  
                
  20824571.367   111241130.938                    86520869.440    20824573.047  
  20824570.863  
  20976995.969   110234855.614    20977004.539    85897340.3474   20977004.629  
                
  19844711.047   106193069.350                    82594606.863    19844714.250  
  19844709.117  
  22169959.969   118303126.748                                                  
  22169957.551  
  23459580.984   123280933.328    23459586.695    96063095.6554   23459587.129  
                
  20307736.906   106717888.188    20307741.336    83156822.0704                 
                
  19831456.688   105973310.623                    82423695.932    19831460.727  
  19831456.750  
  22491978.109   120274726.990                    93547018.573    22491981.926  
  22491976.922  
  21282008.320   113604807.182                    88359293.357    21282011.625  
  21282007.016  
  23063991.539   122944074.378                    95623174.416    23063996.246  
  23063991.273  
 21  8 16 23 37 20.0000000  0 16G 6R 7G17G15G13G14R16G24R17R 6G12G19
                                R15R24R18R14
  23885865.531   125521072.379    23885874.719    97808661.1844   23885875.387  
                
  23177133.602   124069011.722                    96498108.492    23177137.926  
  23177132.516  
  21517113.727   113073210.997    21517119.754    88109033.5264   21517119.707  
                
  22766651.484   119639559.336    22766658.266    93225664.1274   22766658.000  
                
  22896514.930   120322008.999    22896521.133    93757438.9024                 
                
  22922012.719   120456027.963    22922019.445    93861877.7914   22922019.477  
                
  20820063.422   111217050.337                    86502140.084    20820065.109  
  20820062.910  
  20973421.016   110216069.099    20973429.590    85882701.5034   20973429.684  
                
  19844047.633   106189519.323                    82591845.724    19844050.844  
  19844045.727  
  22173505.102   118322044.143                                                  
  22173502.715  
  23453958.172   123251385.086    23453963.867    96040071.0444   23453964.324  
                
  20307328.336   106715741.156    20307332.746    83155149.0604                 
                
  19833065.742   105981908.879                    82430383.453    19833069.781  
  19833065.820  
  22498150.688   120307734.424                    93572691.040    22498154.426  
  22498149.578  
  21274721.969   113565912.183                    88329041.702    21274725.277  
  21274720.629  
  23069636.258   122974164.203                    95646577.597    23069641.039  
  23069636.051  
 21  8 16 23 37 30.0000000  0 16G 6R 7G17G15G13G14R16G24R17R 6G12G19
                                R15R24R18R14
  23879709.047   125488719.324    23879718.219    97783451.0174   23879718.879  
                
  23174368.094   124054207.667                    96486594.222    23174372.461  
  23174367.070  
  21520749.797   113092318.658    21520755.812    88123922.6144   21520755.770  
                
  22771750.648   119666355.569    22771757.441    93246544.3064   22771757.180  
                
  22903091.359   120356568.401    22903097.539    93784368.2954                 
                
  22927147.070   120483009.147    22927153.785    93882902.0894   22927153.824  
                
  20815559.547   111192991.519                    86483427.673    20815561.207  
  20815559.047  
  20969854.656   110197327.758    20969863.227    85868097.8624   20969863.320  
                
  19843401.828   106186063.467                    82589157.841    19843405.059  
  19843399.938  
  22177063.609   118341033.560                                                  
  22177061.270  
  23448338.266   123221852.446    23448344.020    96017058.6124   23448344.449  
                
  20306932.773   106713662.438    20306937.160    83153529.2804                 
                
  19834682.188   105990546.676                    82437101.745    19834686.223  
  19834682.273  
  22504333.703   120340797.713                    93598406.938    22504337.336  
  22504332.629  
  21267444.469   113527064.657                    88298826.969    21267447.805  
  21267443.113  
  23075284.445   123004271.823                    95669994.641    23075289.191  
  23075284.195  
 21  8 16 23 37 40.0000000  0 16G 6R 7G17G15G13G14R16G24R17R 6G12G19
                                R15R24R18R14
  23873555.312   125456381.311    23873564.543    97758252.5514   23873565.207  
                
  23171617.492   124039483.406                    96475142.042    23171621.871  
  23171616.438  
  21524394.383   113111471.122    21524400.402    88138846.6184   21524400.359  
                
  22776856.750   119693188.246    22776863.559    93267452.8804   22776863.301  
                
  22909672.344   120391151.688    22909678.512    93811316.3194                 
                
  22932283.734   120510002.488    22932290.477    93903935.8544   22932290.492  
                
  20811059.805   111168954.711                    86464732.376    20811061.492  
  20811059.305  
  20966296.898   110178631.643    20966305.457    85853529.4654   20966305.559  
                
  19842773.641   106182701.925                    82586543.332    19842776.883  
  19842771.777  
  22180635.594   118360094.870                                                  
  22180633.340  
  23442721.297   123192335.379    23442727.168    95994058.3284   23442727.570  
                
  20306550.172   106711651.853    20306554.543    83151962.5904                 
                
  19836306.047   105999224.044                    82443850.803    19836310.082  
  19836306.145  
  22510527.141   120373916.698                    93624166.148    22510530.688  
  22510526.051  
  21260175.922   113488264.753                    88268649.280    21260179.273  
  21260174.578  
  23080935.961   123034397.161                    95693425.487    23080940.652  
  23080935.660  
 21  8 16 23 37 50.0000000  0 16G 6R 7G17G15G13G14R16G24R17R 6G12G19
                                R15R24R18R14
  23867404.500   125424058.560    23867413.762    97733065.9894   23867414.430  
                
  23168881.781   124024839.114                    96463752.026    23168886.148  
  23168880.691  
  21528047.523   113130668.450    21528053.551    88153805.5774   21528053.496  
                
  22781969.789   119720057.406    22781976.617    93288389.8834   22781976.355  
                
  22916257.891   120425758.856    22916264.035    93838282.9384                 
                
  22937422.734   120537008.074    22937429.492    93924979.1544   22937429.484  
                
  20806564.156   111144939.834                    86446054.137    20806565.855  
  20806563.652  
  20962747.797   110159980.942    20962756.344    85838996.4484   20962756.445  
                
  19842163.109   106179434.833                    82584002.255    19842166.359  
  19842161.262  
  22184221.172   118379228.093                                                  
  22184218.906  
  23437107.367   123162834.070    23437113.320    95971070.3034   23437113.719  
                
  20306180.617   106709709.768    20306184.988    83150449.2824                 
                
  19837937.328   106007941.088                    82450630.724    19837941.344  
  19837937.430  
  22516731.000   120407091.415                    93649968.691    22516734.523  
  22516729.906  
  21252916.383   113449512.877                    88238508.922    21252919.699  
  21252915.039  
  23086590.781   123064540.349                    95716870.204    23086595.410  
  23086590.469  
 21  8 16 23 38  0.0000000  0 16G 6R 7G17G15G13G14R16G24R17R 6G12G19
                                R15R24R18R14
  23861256.578   125391750.974    23861265.855    97707891.2614   23861266.531  
                
  23166160.992   124010274.639                    96452424.106    23166165.332  
  23166159.816  
  21531709.117   113149910.277    21531715.141    88168799.2104   21531715.090  
                
  22787089.719   119746962.826    22787096.512    93309355.1414   22787096.266  
                
  22922847.898   120460389.506    22922854.051    93865267.8664                 
                
  22942564.023   120564025.643    22942570.766    93946031.8034   22942570.773  
                
  20802072.594   111120946.757                    86427392.855    20802074.277  
  20802072.082  
  20959207.297   110141375.511    20959215.852    85824498.7174   20959215.953  
                
  19841570.156   106176261.856                    82581534.383    19841573.418  
  19841568.324  
  22187820.164   118398432.816                                                  
  22187817.875  
  23431496.422   123133348.373    23431502.398    95948094.4364   23431502.781  
                
  20305824.039   106707835.964    20305828.422    83148989.1794                 
                
  19839575.992   106016697.643                    82457441.371    19839580.020  
  19839576.094  
  22522945.164   120440321.347                    93675814.191    22522948.688  
  22522944.070  
  21245665.797   113410808.867                    88208405.808    21245669.109  
  21245664.422  
  23092248.828   123094701.200                    95740328.647    23092253.484  
  23092248.555  
 21  8 16 23 38 10.0000000  0 16G 6R 7G17G15G13G14R16G24R17R 6G12G19
                                R15R24R18R14
  23855111.656   125359458.933    23855120.898    97682728.6364   23855121.582  
                
  23163455.156   123995790.060                    96441158.311    23163459.500  
  23163453.984  
  21535379.219   113169196.768    21535385.227    88183827.6494   21535385.191  
                
  22792216.570   119773904.552    22792223.336    93330348.6974   22792223.082  
                
  22929442.336   120495043.743    22929448.562    93892271.1644                 
                
  22947707.633   120591055.425    22947714.375    93967093.9654   22947714.406  
                
  20797585.219   111096975.990                    86408748.924    20797586.922  
  20797584.719  
  20955675.477   110122815.652    20955684.039    85810036.4914   20955684.141  
                
  19840994.867   106173183.309                    82579139.955    19840998.145  
  19840993.059  
  22191432.617   118417709.234                                                  
  22191430.270  
  23425888.484   123103878.553    23425894.523    95925130.9514   23425894.859  
                
  20305480.492   106706030.571    20305484.879    83147582.3834                 
                
  19841222.109   106025493.945                    82464282.939    19841226.117  
  19841222.211  
  22529169.703   120473606.668                    93701702.780    22529173.203  
  22529168.613  
  21238424.266   113372153.147                    88178340.249    21238427.609  
  21238422.867  
  23097910.359   123124879.947                    95763801.006    23097914.969  
  23097910.039  
 21  8 16 23 38 20.0000000  0 16G 6R 7G17G15G13G14R16G24R17R 6G12G19
                                R15R24R18R14
  23848969.641   125327182.268    23848978.855    97657577.9754   23848979.543  
                
  23160764.266   123981385.442                    96429954.712    23160768.570  
  23160763.141  
  21539057.758   113188527.608    21539063.770    88198890.6384   21539063.742  
                
  22797350.250   119800882.247    22797357.031    93351370.2804   22797356.781  
                
  22936041.164   120529721.199    22936047.500    93919292.5264                 
                
  22952853.508   120618097.085    22952860.270    93988165.3854   22952860.301  
                
  20793101.906   111073026.965                    86390121.897    20793103.605  
  20793101.422  
  20952152.281   110104301.169    20952160.840    85795609.6164   20952160.938  
                
  19840437.141   106170198.816                    82576818.698    19840440.434  
  19840435.363  
  22195058.422   118437057.104                                                  
  22195056.020  
  23420283.531   123074424.366    23420289.574    95902179.6444   23420289.910  
                
  20305149.906   106704293.354    20305154.297    83146228.7164                 
                
  19842875.609   106034329.768                    82471155.241    19842879.625  
  19842875.707  
  22535404.508   120506946.929                    93727634.085    22535407.984  
  22535403.477  
  21231191.734   113333545.532                    88148312.106    21231195.137  
  21231190.324  
  23103575.211   123155076.232                    95787287.041    23103579.727  
  23103574.840  
 21  8 16 23 38 30.0000000  0 16G 6R 7G17G15G13G14R16G24R17R 6G12G19
                                R15R24R18R14
  23842830.570   125294921.401    23842839.809    97632439.6314   23842840.500  
                
  23158088.367   123967061.067                    96418813.518    23158092.664  
  23158087.270  
  21542744.773   113207902.998    21542750.793    88213988.3464   21542750.754  
                
  22802490.852   119827896.292    22802497.660    93372420.1814   22802497.402  
                
  22942644.469   120564422.104    22942650.906    93946332.1744                 
                
  22958001.703   120645150.916    22958008.504    94009246.2954   22958008.504  
                
  20788622.773   111049100.241                    86371512.213    20788624.469  
  20788622.316  
  20948637.797   110085832.419    20948646.348    85781218.3824   20948646.449  
                
  19839897.086   106167308.845                    82574570.932    19839900.398  
  19839895.336  
  22198697.656   118456476.257                                                  
  22198695.188  
  23414681.602   123044985.998    23414687.641    95879240.6594   23414687.969  
                
  20304832.367   106702624.608    20304836.750    83144928.3944                 
                
  19844536.578   106043205.424                    82478058.524    19844540.586  
  19844536.691  
  22541649.648   120540342.444                    93753608.398    22541653.105  
  22541648.680  
  21223968.320   113294986.589                    88118321.834    21223971.781  
  21223966.906  
  23109243.242   123185290.332                    95810786.888    23109247.805  
  23109242.902  
 21  8 16 23 38 40.0000000  0 16G 6R 7G17G15G13G14R16G24R17R 6G12G19
                                R15R24R18R14
  23836694.531   125262676.365    23836703.781    97607313.6314   23836704.445  
                
  23155427.430   123952816.862                    96407734.698    23155431.770  
  23155426.273  
  21546440.242   113227322.778    21546446.277    88229120.6434   21546446.230  
                
  22807638.289   119854946.242    22807645.109    93393498.0634   22807644.828  
                
  22949252.195   120599146.212    22949258.707    93973389.9104                 
                
  22963152.172   120672216.840    22963158.984    94030336.6034   22963158.980  
                
  20784147.820   111025195.821                    86352919.891    20784149.520  
  20784147.395  
  20945132.008   110067409.405    20945140.547    85766862.7924   20945140.656  
                
  19839374.664   106164513.261                    82572396.603    19839377.992  
  19839372.926  
  22202350.164   118475966.660                                                  
  22202347.711  
  23409082.672   123015563.480    23409088.777    95856314.0214   23409089.078  
                
  20304527.820   106701024.208    20304532.188    83143681.3294                 
                
  19846204.977   106052120.783                    82484992.687    19846208.980  
  19846205.094  
  22547905.055   120573792.780                    93779625.321    22547908.473  
  22547904.102  
  21216754.016   113256476.268                    88088369.374    21216757.492  
  21216752.609  
  23114914.609   123215522.252                    95834300.591    23114919.207  
  23114914.305  
 21  8 16 23 38 50.0000000  0 16G 6R 7G17G15G13G14R16G24R17R 6G12G19
                                R15R24R18R14
  23830561.523   125230447.301    23830570.762    97582200.0764   23830571.406  
                
  23152781.469   123938653.055                    96396718.404    23152785.844  
  23152780.250  
  21550144.148   113246786.895    21550150.195    88244287.4884   21550150.152  
                
  22812792.539   119882032.016    22812799.371    93414603.8574   22812799.094  
                
  22955864.367   120633893.437    22955870.926    94000465.6704                 
                
  22968304.930   120699294.825    22968311.738    94051436.3134   22968311.727  
                
  20779677.008   111001313.528                    86334344.776    20779678.707  
  20779676.617  
  20941634.945   110049032.227    20941643.473    85752542.9124   20941643.586  
                
  19838869.891   106161812.118                    82570295.708    19838873.230  
  19838868.168  
  22206016.039   118495528.362                                                  
  22206013.590  
  23403486.789   122986156.966    23403492.965    95833399.8664   23403493.215  
                
  20304236.281   106699492.144    20304240.629    83142487.5154                 
                
  19847880.812   106061075.943                    82491957.811    19847884.816  
  19847880.938  
  22554170.688   120607297.776                    93805684.746    22554174.062  
  22554169.727  
  21209548.898   113218014.862                    88058454.943    21209552.371  
  21209547.477  
  23120589.312   123245771.839                    95857828.067    23120593.961  
  23120589.043  
 21  8 16 23 39  0.0000000  0 16G 6R 7G17G15G13G14R16G24R17R 6G12G19
                                R15R24R18R14
  23824431.547   125198234.201    23824440.773    97557098.9404   23824441.402  
                
  23150150.539   123924569.533                    96385764.550    23150154.926  
  23150149.262  
  21553856.445   113266295.099    21553862.508    88259488.6854   21553862.445  
                
  22817953.562   119909153.362    22817960.398    93435737.3744   22817960.113  
                
  22962480.922   120668663.613    22962487.504    94027559.3124                 
                
  22973459.961   120726384.664    22973466.758    94072545.2864   22973466.746  
                
  20775210.375   110977453.623                    86315787.074    20775212.094  
  20775209.965  
  20938146.594   110030700.801    20938155.109    85738258.6894   20938155.242  
                
  19838382.711   106159205.102                    82568268.037    19838386.070  
  19838380.988  
  22209695.211   118515160.902                                                  
  22209692.727  
  23397893.914   122956766.240    23397900.152    95810498.0094   23397900.348  
                
  20303957.719   106698028.269    20303962.047    83141346.8394                 
                
  19849564.086   106070070.855                    82498953.862    19849568.098  
  19849564.207  
  22560446.508   120640857.219                    93831786.542    22560449.832  
  22560445.570  
  21202352.922   113179602.319                    88028578.525    21202356.426  
  21202351.492  
  23126267.258   123276039.150                    95881369.286    23126272.035  
  23126267.074  
 21  8 16 23 39 10.0000000  0 16G 6R 7G17G15G13G14R16G24R17R 6G12G19
                                R15R24R18R14
  23818304.680   125166037.221    23818313.871    97532010.3904   23818314.500  
                
  23147534.609   123910566.277                    96374873.123    23147538.992  
  23147533.332  
  21557577.141   113285847.449    21557583.199    88274724.2844   21557583.141  
                
  22823121.352   119936310.201    22823128.203    93456898.5414   22823127.898  
                
  22969101.836   120703456.610    22969108.426    94054670.7244                 
                
  22978617.266   120753486.451    22978624.066    94093663.5454   22978624.027  
                
  20770747.945   110953616.093                    86297246.775    20770749.656  
  20770747.527  
  20934666.969   110012415.256    20934675.480    85724010.2104   20934675.621  
                
  19837913.172   106156692.516                    82566313.812    19837916.539  
  19837911.469  
  22213387.680   118534864.173                                                  
  22213385.102  
  23392304.039   122927391.365    23392310.316    95787608.4814   23392310.492  
                
  20303692.164   106696632.732    20303696.465    83140259.4094                 
                
  19851254.805   106079105.529                    82505980.812    19851258.805  
  19851254.910  
  22566732.500   120674471.177                    93857930.758    22566735.816  
  22566731.605  
  21195166.141   113141238.870                    87998740.305    21195169.672  
  21195164.719  
  23131948.578   123306324.045                    95904924.173    23131953.426  
  23131948.406  
 21  8 16 23 39 20.0000000  0 16G 6R 7G17G15G13G14R16G24R17R 6G12G19
                                R15R24R18R14
  23812180.922   125133856.577    23812190.074    97506934.5614   23812190.680  
                
  23144933.742   123896643.559                    96364044.359    23144938.102  
  23144932.527  
  21561306.219   113305443.875    21561312.270    88289994.2284   21561312.211  
                
  22828295.891   119963502.546    22828302.730    93478087.3824   22828302.410  
                
  22975727.086   120738272.457    22975733.660    94081799.9624                 
                
  22983776.844   120780600.214    22983783.594    94114791.1524   22983783.590  
                
  20766289.719   110929801.075                    86278723.987    20766291.457  
  20766289.293  
  20931196.109   109994175.797    20931204.625    85709797.6434   20931204.758  
                
  19837461.289   106154274.372                    82564433.037    19837464.668  
  19837459.598  
  22217093.344   118554638.274                                                  
  22217090.750  
  23386717.188   122898032.426    23386723.500    95764731.3944   23386723.656  
                
  20303439.594   106695305.457    20303443.883    83139225.1704                 
                
  19852952.977   106088180.055                    82513038.775    19852956.969  
  19852953.066  
  22573028.672   120708139.540                    93884117.265    22573031.969  
  22573027.801  
  21187988.648   113102924.886                    87968940.526    21187992.164  
  21187987.254  
  23137633.188   123336626.736                    95928492.946    23137638.160  
  23137633.062  
 21  8 16 23 39 30.0000000  0 16G 6R 7G17G15G13G14R16G24R17R 6G12G19
                                R15R24R18R14
  23806060.320   125101692.316    23806069.426    97481871.5004   23806070.000  
                
  23142347.883   123882801.249                    96353278.114    23142352.234  
  23142346.684  
  21565043.656   113325084.180    21565049.695    88305298.3694   21565049.652  
                
  22833477.148   119990730.247    22833483.973    93499303.7644   22833483.676  
                
  22982356.672   120773110.935    22982363.176    94108946.8204                 
                
  22988938.688   120807725.807    22988945.332    94135927.9664   22988945.414  
                
  20761835.680   110906008.465                    86260218.621    20761837.414  
  20761835.262  
  20927734.016   109975982.336    20927742.543    85695620.9274   20927742.672  
                
  19837027.031   106151950.589                    82562625.661    19837030.426  
  19837025.340  
  22220812.203   118574482.818                                                  
  22220809.598  
  23381133.359   122868689.241    23381139.707    95741866.5974   23381139.871  
                
  20303199.992   106694046.341    20303204.262    83138244.0394                 
                
  19854658.609   106097294.437                    82520127.737    19854662.586  
  19854658.691  
  22579334.914   120741861.754                    93910345.650    22579338.227  
  22579334.055  
  21180820.383   113064660.226                    87939179.108    21180823.887  
  21180818.988  
  23143321.250   123366946.974                    95952075.323    23143326.180  
  23143321.039  
 21  8 16 23 39 40.0000000  0 16G 6R 7G17G15G13G14R16G24R17R 6G12G19
                                R15R24R18R14
  23799942.844   125069544.464    23799951.914    97456821.2164   23799952.492  
                
  23139777.078   123869039.527                    96342574.564    23139781.434  
  23139775.871  
  21568789.422   113344768.276    21568795.449    88320636.6284   21568795.406  
                
  22838665.102   120017993.074    22838671.926    93520547.5224   22838671.625  
                
  22988990.516   120807971.832    22988996.949    94136111.1554                 
                
  22994102.773   120834863.165    22994109.375    94157073.9634   22994109.496  
                
  20757385.828   110882238.166                    86241730.609    20757387.562  
  20757385.402  
  20924280.672   109957834.915    20924289.219    85681480.0804   20924289.340  
                
  19836610.398   106149721.075                    82560891.599    19836613.797  
  19836608.723  
  22224544.273   118594397.938                                                  
  22224541.695  
  23375552.547   122839361.950    23375558.961    95719014.1794   23375559.109  
                
  20302973.367   106692855.380    20302977.621    83137316.0204                 
                
  19856371.648   106106448.369                    82527247.450    19856375.625  
  19856371.723  
  22585651.227   120775637.828                    93936615.934    22585654.559  
  22585650.379  
  21173661.391   113026445.171                    87909456.310    21173664.922  
  21173659.992  
  23149012.688   123397284.687                    95975671.334    23149017.461  
  23149012.332  
 21  8 16 23 39 50.0000000  0 16G 6R 7G17G15G13G14R16G24R17R 6G12G19
                                R15R24R18R14
  23793828.492   125037413.135    23793837.547    97431783.8344   23793838.121  
                
  23137221.281   123855358.244                    96331933.540    23137225.676  
  23137220.051  
  21572543.500   113364496.062    21572549.516    88336008.9334   21572549.473  
                
  22843859.719   120045290.944    22843866.531    93541818.5864   22843866.242  
                
  22995628.641   120842855.077    22995634.957    94163292.9314                 
                
  22999269.086   120862012.260    22999275.711    94178229.0944   22999275.832  
                
  20752940.195   110858490.429                    86223260.153    20752941.934  
  20752939.750  
  20920836.102   109939733.587    20920844.668    85667375.1594   20920844.773  
                
  19836211.391   106147585.900                    82559230.910    19836214.766  
  19836209.738  
  22228289.516   118614383.161                                                  
  22228286.965  
  23369974.750   122810050.550    23369981.227    95696174.1444   23369981.355  
                
  20302759.695   106691732.524    20302763.922    83136441.0724                 
                
  19858092.141   106115642.211                    82534398.219    19858096.109  
  19858092.219  
  22591977.633   120809467.860                    93962928.184    22591980.953  
  22591976.773  
  21166511.703   112988279.827                    87879772.152    21166515.285  
  21166510.324  
  23154707.195   123427640.003                    95999281.018    23154712.047  
  23154706.895  
 21  8 16 23 40  0.0000000  0 16G 6R 7G17G15G13G14R16G24R17R 6G12G19
                                R15R24R18R14
  23787717.305   125005298.630    23787726.391    97406759.5504   23787726.973  
                
  23134680.586   123841757.680                    96321355.294    23134685.016  
  23134679.406  
  21576305.898   113384267.593    21576311.910    88351415.3174   21576311.875  
                
  22849061.008   120072623.866    22849067.801    93563116.9684   22849067.512  
                
  23002270.961   120877760.698    23002277.242    94190492.1104                 
                
  23004437.656   120889173.255    23004444.309    94199393.4744   23004444.426  
                
  20748498.859   110834765.600                    86204807.500    20748500.605  
  20748498.383  
  20917400.352   109921678.609    20917408.922    85653306.3464   20917409.020  
                
  19835830.031   106145545.138                    82557643.648    19835833.383  
  19835828.387  
  22232047.984   118634438.872                                                  
  22232045.395  
  23364400.008   122780755.249    23364406.551    95673346.6434   23364406.668  
                
  20302559.023   106690677.942    20302563.215    83135619.3184                 
                
  19859820.102   106124875.884                    82541579.954    19859824.059  
  19859820.184  
  22598314.062   120843351.593                    93989282.225    22598317.391  
  22598313.188  
  21159371.391   112950164.407                    87850126.830    21159375.000  
  21159370.008  
  23160404.969   123458012.904                    96022904.399    23160409.973  
  23160404.766  
 21  8 16 23 40 10.0000000  0 16G 6R 7G17G15G13G14R16G24R17R 6G12G19
                                R15R24R18R14
  23781609.281   124973200.990    23781618.449    97381748.4154   23781619.031  
                
  23132155.016   123828238.011                    96310840.009    23132159.461  
  23132153.902  
  21580076.602   113404082.756    21580082.613    88366855.6994   21580082.582  
                
  22854268.953   120099991.748    22854275.742    93584442.5924   22854275.441  
                
  23008917.477   120912688.511    23008923.777    94217708.5784                 
                
  23009608.469   120916346.013    23009615.137    94220567.0464   23009615.238  
                
  20744061.734   110811063.304                    86186372.395    20744063.488  
  20744061.262  
  20913973.430   109903669.980    20913982.008    85639273.6454   20913982.098  
                
  19835466.305   106143598.728                    82556129.782    19835469.656  
  19835464.676  
  22235819.539   118654564.731                                                  
  22235817.008  
  23358828.273   122751475.953    23358834.930    95650531.6314   23358835.023  
                
  20302371.297   106689691.433    20302375.449    83134850.6134                 
                
  19861555.539   106134149.524                    82548792.778    19861559.488  
  19861555.617  
  22604660.461   120877288.677                    94015677.740    22604663.840  
  22604659.578  
  21152240.453   112912099.119                    87820520.490    21152244.074  
  21152239.062  
  23166106.219   123488403.440                    96046541.525    23166111.148  
  23166105.941  
 21  8 16 23 40 20.0000000  0 16G 6R 7G17G15G13G14R16G24R17R 6G12G19
                                R15R24R18R14
  23775504.633   124941120.412    23775513.723    97356750.5634   23775514.312  
                
  23129644.531   123814799.115                    96300387.550    23129648.961  
  23129643.461  
  21583855.602   113423941.513    21583861.613    88382330.0554   21583861.586  
                
  22859483.523   120127394.477    22859490.328    93605795.3584   22859490.027  
                
  23015568.195   120947638.455    23015574.527    94244942.2954                 
                
  23014781.531   120943530.579    23014788.215    94241749.8074   23014788.305  
                
  20739628.883   110787383.843                    86167955.028    20739630.613  
  20739628.426  
  20910555.344   109885707.846    20910563.930    85625277.1804   20910564.008  
                
  19835120.242   106141746.867                    82554689.453    19835123.582  
  19835118.625  
  22239604.156   118674760.299                                                  
  22239601.660  
  23353259.594   122722212.797    23353266.375    95627729.2044   23353266.441  
                
  20302196.555   106688773.163    20302200.676    83134135.0854                 
                
  19863298.453   106143463.093                    82556036.667    19863302.406  
  19863298.547  
  22611016.914   120911279.376                    94042114.925    22611020.309  
  22611015.992  
  21145118.938   112874084.156                    87790953.294    21145122.574  
  21145117.531  
  23171810.727   123518811.642                    96070192.373    23171815.582  
  23171810.410  
 21  8 16 23 40 30.0000000  0 16G 6R 7G17G15G13G14R16G24R17R 6G12G19
                                R15R24R18R14
  23769403.234   124909056.776    23769412.230    97331765.9074   23769412.832  
                
  23127149.148   123801441.149                    96289998.056    23127153.570  
  23127148.105  
  21587642.836   113443843.627    21587648.848    88397838.1984   21587648.812  
                
  22864704.656   120154831.736    22864711.445    93627175.0364   22864711.160  
                
  23022223.047   120982610.113    23022229.367    94272192.9354                 
                
  23019956.789   120970726.716    23019963.480    94262941.5944   23019963.559  
                
  20735200.273   110763727.045                    86149555.281    20735201.984  
  20735199.836  
  20907146.070   109867791.987    20907154.660    85611316.7764   20907154.730  
                
  19834791.781   106139989.205                    82553322.375    19834795.098  
  19834790.191  
  22243401.844   118695025.913                                                  
  22243399.445  
  23347694.008   122692965.459    23347700.816    95604939.0924   23347700.871  
                
  20302034.734   106687922.771    20302038.840    83133472.4474                 
                
  19865048.797   106152816.378                    82563311.426    19865052.742  
  19865048.906  
  22617383.234   120945322.932                    94068593.245    22617386.613  
  22617382.270  
  21138006.805   112836119.286                    87761425.062    21138010.488  
  21138005.371  
  23177518.469   123549237.355                    96093856.810    23177523.297  
  23177518.133  
 21  8 16 23 40 40.0000000  0 16G 6R 7G17G15G13G14R16G24R17R 6G12G19
                                R15R24R18R14
  23763305.000   124877010.466    23763314.023    97306794.7564   23763314.637  
                
  23124668.867   123788164.125                    96279671.490    23124673.316  
  23124667.781  
  21591438.359   113463789.242    21591444.371    88413380.2324   21591444.328  
                
  22869932.383   120182303.631    22869939.133    93648581.7034   22869938.883  
                
  23028882.086   121017603.815    23028888.402    94299460.7554                 
                
  23025134.289   120997934.625    23025141.008    94284142.5594   23025141.051  
                
  20730776.000   110740093.347                    86131173.514    20730777.719  
  20730775.570  
  20903745.672   109849922.788    20903754.262    85597392.7284   20903754.336  
                
  19834480.977   106138326.031                    82552028.791    19834484.277  
  19834479.402  
  22247212.578   118715361.054                                                  
  22247210.191  
  23342131.523   122663734.359    23342138.348    95582161.6434   23342138.406  
                
  20301885.898   106687140.624    20301890.008    83132862.9794                 
                
  19866806.625   106162209.666                    82570617.315    19866810.570  
  19866806.750  
  22623759.516   120979419.755                    94095113.025    22623762.887  
  22623758.523  
  21130904.164   112798205.087                    87731936.263    21130907.926  
  21130902.730  
  23183229.516   123579680.550                    96117534.887    23183234.344  
  23183229.168  
 21  8 16 23 40 50.0000000  0 16G 6R 7G17G15G13G14R16G24R17R 6G12G19
                                R15R24R18R14
  23757210.086   124844981.440    23757219.102    97281837.0704   23757219.727  
                
  23122203.727   123774968.001                    96269407.819    23122208.156  
  23122202.609  
  21595242.125   113483778.116    21595248.125    88428955.9874   21595248.082  
                
  22875166.680   120209809.999    22875173.410    93670015.2294   22875173.172  
                
  23035545.273   121052619.263    23035551.609    94326745.5044                 
                
  23030314.008   121025154.171    23030320.746    94305352.5794   23030320.754  
                
  20726355.984   110716482.450                    86112809.491    20726357.734  
  20726355.590  
  20900354.141   109832100.143    20900362.727    85583504.9494   20900362.809  
                
  19834187.797   106136757.107                    82550808.534    19834191.074  
  19834186.242  
  22251036.484   118735765.852                                                  
  22251034.035  
  23336572.117   122634519.327    23336578.949    95559396.6934   23336578.977  
                
  20301750.031   106686426.600    20301754.145    83132306.5944                 
                
  19868571.938   106171642.908                    82577954.269    19868575.883  
  19868572.062  
  22630145.648   121013569.305                    94121673.807    22630149.008  
  22630144.648  
  21123811.047   112760341.612                    87702486.902    21123814.836  
  21123809.625  
  23188943.867   123610141.278                    96141226.561    23188948.586  
  23188943.492  
 21  8 16 23 41  0.0000000  0 16G 6R 7G17G15G13G14R16G24R17R 6G12G19
                                R15R24R18R14
  23751118.484   124812969.810    23751127.484    97256892.9484   23751128.125  
                
  23119753.719   123761852.904                    96259207.157    23119758.156  
  23119752.598  
  21599054.102   113503810.191    21599060.078    88444565.3904   21599060.051  
                
  22880407.508   120237350.698    22880414.215    93691475.5074   22880413.996  
                
  23042212.602   121087656.344    23042218.941    94354047.1144                 
                
  23035495.922   121052385.252    23035502.621    94326571.6094   23035502.633  
                
  20721940.266   110692894.406                    86094463.227    20721941.988  
  20721939.867  
  20896971.477   109814324.129    20896980.059    85569653.5154   20896980.137  
                
  19833912.250   106135282.598                    82549661.686    19833915.508  
  19833910.680  
  22254873.438   118756240.133                                                  
  22254870.883  
  23331015.773   122605320.355    23331022.598    95536644.2554   23331022.602  
                
  20301627.109   106685780.655    20301631.227    83131803.2624                 
                
  19870344.711   106181116.064                    82585322.287    19870348.664  
  19870344.836  
  22636541.656   121047771.624                    94148275.621    22636545.012  
  22636540.633  
  21116727.445   112722528.910                    87673077.035    21116731.242  
  21116726.012  
  23194661.469   123640619.481                    96164931.805    23194666.191  
  23194661.082  
 21  8 16 23 41 10.0000000  0 16G 6R 7G17G15G13G14R16G24R17R 6G12G19
                                R15R24R18R14
  23745030.180   124780975.590    23745039.164    97231962.3824   23745039.805  
                
  23117318.820   123748818.618                    96249069.382    23117323.250  
  23117317.699  
  21602874.234   113523885.192    21602880.195    88460208.2434   21602880.176  
                
  22885654.805   120264925.443    22885661.520    93712962.3244   22885661.316  
                
  23048884.000   121122714.817    23048890.352    94381365.4034                 
                
  23040680.016   121079627.759    23040686.695    94347799.5374   23040686.711  
                
  20717528.797   110669329.136                    86076134.678    20717530.512  
  20717528.398  
  20893597.672   109796594.689    20893606.254    85555838.3754   20893606.332  
                
  19833654.305   106133902.328                    82548588.164    19833657.559  
  19833652.715  
  22258723.125   118776783.511                                                  
  22258720.680  
  23325462.469   122576137.298    23325469.238    95513904.2104   23325469.242  
                
  20301517.094   106685202.569    20301521.188    83131352.8134                 
                
  19872124.898   106190628.845                    82592721.106    19872128.855  
  19872125.031  
  22642947.469   121082026.382                    94174918.207    22642950.836  
  22642946.418  
  21109653.383   112684767.179                    87643706.785    21109657.172  
  21109651.961  
  23200382.258   123671114.890                    96188650.439    23200387.078  
  23200381.855  
 21  8 16 23 41 20.0000000  0 16G 6R 7G17G15G13G14R16G24R17R 6G12G19
                                R15R24R18R14
  23738945.172   124748998.732    23738954.156    97207045.3544   23738954.805  
                
  23114898.977   123735865.090                    96238994.421    23114903.398  
  23114897.840  
  21606702.508   113544002.946    21606708.453    88475884.4194   21606708.426  
                
  22890908.547   120292533.946    22890915.258    93734475.4294   22890915.066  
                
  23055559.438   121157794.430    23055565.824    94408700.1524                 
                
  23045866.258   121106881.541    23045872.941    94369036.2394   23045872.934  
                
  20713121.594   110645786.666                    86057823.877    20713123.316  
  20713121.172  
  20890232.734   109778911.759    20890241.320    85542059.4664   20890241.410  
                
  19833413.953   106132616.143                    82547587.786    19833417.195  
  19833412.359  
  22262585.820   118797395.693                                                  
  22262583.371  
  23319912.141   122546969.939    23319918.859    95491176.3924   23319918.871  
                
  20301419.977   106684692.204    20301424.023    83130955.1224                 
                
  19873912.539   106200181.394                    82600150.877    19873916.488  
  19873912.680  
  22649363.055   121116333.470                    94201601.486    22649366.461  
  22649361.965  
  21102588.836   112647056.187                    87614376.014    21102592.617  
  21102587.406  
  23206106.281   123701627.513                    96212382.468    23206111.176  
  23206105.895  
 21  8 16 23 41 30.0000000  0 16G 6R 7G17G15G13G14R16G24R17R 6G12G19
                                R15R24R18R14
  23732863.547   124717039.806    23732872.527    97182142.2974   23732873.180  
                
  23112494.367   123722993.029                    96228982.818    23112498.805  
  23112493.238  
  21610538.984   113564163.782    21610544.906    88491594.1574   21610544.883  
                
  22896168.773   120320176.610    22896175.477    93756015.1644   22896175.309  
                
  23062238.945   121192895.447    23062245.348    94436051.5884                 
                
  23051054.711   121134146.994    23051061.406    94390282.0444   23051061.379  
                
  20708718.742   110622267.418                    86039531.126    20708720.484  
  20708718.332  
  20886876.727   109761275.848    20886885.324    85528317.1994   20886885.414  
                
  19833191.250   106131424.437                    82546660.911    19833194.480  
  19833189.648  
  22266461.539   118818077.167                                                  
  22266459.070  
  23314364.891   122517818.963    23314371.562    95468461.3594   23314371.574  
                
  20301335.820   106684249.969    20301339.816    83130610.5234                 
                
  19875707.703   106209774.183                    82607611.922    19875711.648  
  19875707.844  
  22655788.398   121150692.798                    94228325.402    22655791.836  
  22655787.258  
  21095533.906   112609396.580                    87585085.212    21095537.703  
  21095532.465  
  23211833.648   123732157.682                    96236128.163    23211838.562  
  23211833.324  
 21  8 16 23 41 40.0000000  0 16G 6R 7G17G15G13G14R16G24R17R 6G12G19
                                R15R24R18R14
  23726785.484   124685099.090    23726794.383    97157253.4314   23726795.020  
                
  23110104.992   123710202.559                    96219034.694    23110109.445  
  23110103.863  
  21614383.680   113584367.806    21614389.574    88507337.5534   21614389.566  
                
  22901435.500   120347853.477    22901442.184    93777581.5464   22901442.039  
                
  23068922.547   121228017.988    23068928.949    94463419.7934                 
                
  23056245.406   121161424.267    23056252.129    94411537.0434   23056252.086  
                
  20704320.312   110598771.774                    86021256.727    20704322.062  
  20704319.898  
  20883529.727   109743687.206    20883538.332    85514611.7664   20883538.414  
                
  19832986.242   106130327.359                    82545807.631    19832989.465  
  19832984.637  
  22270350.164   118838827.807                                                  
  22270347.699  
  23308820.797   122488684.492    23308827.414    95445759.1804   23308827.441  
                
  20301264.672   106683876.065    20301268.613    83130319.1734                 
                
  19877510.383   106219407.142                    82615104.233    19877514.320  
  19877510.535  
  22662223.586   121185104.809                    94255090.323    22662227.062  
  22662222.438  
  21088488.680   112571788.824                    87555834.749    21088492.500  
  21088487.223  
  23217564.430   123762705.569                    96259887.639    23217569.270  
  23217564.027  
 21  8 16 23 41 50.0000000  0 16G 6R 7G17G15G13G14R16G24R17R 6G12G19
                                R15R24R18R14
  23720710.836   124653176.585    23720719.715    97132378.7454   23720720.332  
                
  23107730.844   123697493.559                    96209149.934    23107735.320  
  23107729.711  
  21618236.547   113604614.799    21618242.418    88523114.4324   21618242.418  
                
  22906708.688   120375564.286    22906715.328    93799174.3914   22906715.191  
                
  23075610.250   121263161.863    23075616.586    94490804.6454                 
                
  23061438.312   121188713.179    23061445.035    94432801.1264   23061444.980  
                
  20699926.203   110575299.245                    86003000.327    20699927.961  
  20699925.789  
  20880191.688   109726145.723    20880200.301    85500943.0794   20880200.379  
                
  19832798.898   106129324.876                    82545027.921    19832802.117  
  19832797.285  
  22274251.734   118859647.509                                                  
  22274249.293  
  23303279.805   122459566.356    23303286.352    95423069.7314   23303286.402  
                
  20301206.492   106683570.323    20301210.375    83130080.9324                 
                
  19879320.594   106229080.345                    82622627.823    19879324.527  
  19879320.750  
  22668668.508   121219568.776                    94281895.617    22668672.012  
  22668667.324  
  21081453.172   112534232.897                    87526624.603    21081457.004  
  21081451.699  
  23223298.477   123793271.023                    96283660.767    23223303.289  
  23223298.035  
 21  8 16 23 42  0.0000000  0 16G 6R 7G17G15G13G14R16G24R17R 6G12G19
                                R15R24R18R14
  23714639.695   124621272.351    23714648.512    97107518.2894   23714649.125  
                
  23105371.945   123684866.149                    96199328.616    23105376.395  
  23105370.820  
  21622097.531   113624904.443    21622103.371    88538924.5454   21622103.391  
                
  22911988.312   120403308.923    22911994.926    93820793.5934   22911994.793  
                
  23082301.914   121298326.837    23082308.254    94518205.9044                 
                
  23066633.422   121216013.633    23066640.098    94454074.1984   23066640.078  
                
  20695536.492   110551850.254                    85984762.227    20695538.277  
  20695536.098  
  20876862.641   109708651.446    20876871.250    85487311.1774   20876871.332  
                
  19832629.219   106128416.867                    82544321.693    19832632.426  
  19832627.602  
  22278166.219   118880535.945                                                  
  22278163.762  
  23297741.930   122430464.626    23297748.426    95400393.0654   23297748.496  
                
  20301161.273   106683332.709    20301165.102    83129895.7844                 
                
  19881138.320   106238793.691                    82630182.651    19881142.250  
  19881138.488  
  22675123.188   121254084.883                    94308741.482    22675126.707  
  22675121.922  
  21074427.359   112496728.705                    87497454.668    21074431.184  
  21074425.879  
  23229035.852   123823854.098                    96307447.605    23229040.625  
  23229035.344  
 21  8 16 23 42 10.0000000  0 16G 6R 7G17G15G13G14R16G24R17R 6G12G19
                                R15R24R18R14
  23708572.016   124589386.282    23708580.785    97082672.0124   23708581.375  
                
  23103028.203   123672319.948                    96189570.447    23103032.633  
  23103027.109  
  21625966.625   113645236.672    21625972.457    88554767.8404   21625972.492  
                
  22917274.305   120431086.999    22917280.891    93842438.8414   22917280.762  
                
  23088997.609   121333512.631    23089003.922    94545623.4014                 
                
  23071830.680   121243325.391    23071837.355    94475356.0834   23071837.340  
                
  20691151.164   110528424.560                    85966542.247    20691152.926  
  20691150.777  
  20873542.539   109691204.222    20873551.156    85473715.9414   20873551.227  
                
  19832477.148   106127603.109                    82543688.784    19832480.348  
  19832475.535  
  22282093.453   118901492.535                                                  
  22282091.070  
  23292207.102   122401379.011    23292213.590    95377728.9674   23292213.664  
                
  20301128.969   106683162.975    20301132.754    83129763.5304                 
                
  19882963.531   106248547.056                    82637768.590    19882967.449  
  19882963.699  
  22681587.477   121288652.473                    94335627.381    22681591.008  
  22681586.168  
  21067411.289   112459276.487                    87468325.156    21067415.121  
  21067409.812  
  23234776.430   123854454.379                    96331247.816    23234781.172  
  23234775.922  
 21  8 16 23 42 20.0000000  0 16G 6R 7G17G15G13G14R16G24R17R 6G12G19
                                R15R24R18R14
  23702507.797   124557518.546    23702516.547    97057840.0004   23702517.129  
                
  23100699.680   123659855.168                    96179875.597    23100704.059  
  23100698.590  
  21629843.805   113665611.400    21629849.629    88570644.2514   21629849.664  
                
  22922566.648   120458898.462    22922573.242    93864110.1074   22922573.074  
                
  23095697.188   121368719.141    23095703.508    94573057.0414                 
                
  23077030.086   121270648.504    23077036.785    94496646.7904   23077036.777  
                
  20686770.148   110505021.987                    85948340.248    20686771.895  
  20686769.770  
  20870231.422   109673804.169    20870240.047    85460157.4594   20870240.109  
                
  19832342.719   106126883.718                    82543129.257    19832345.906  
  19832341.094  
  22286033.547   118922517.730                                                  
  22286031.180  
  23286675.359   122372309.632    23286681.840    95355077.5154   23286681.945  
                
  20301109.562   106683060.985    20301113.316    83129684.0634                 
                
  19884796.219   106258340.337                    82645385.585    19884800.145  
  19884796.387  
  22688061.414   121323271.618                    94362553.385    22688064.941  
  22688060.102  
  21060404.953   112421876.224                    87439236.072    21060408.809  
  21060403.461  
  23240520.250   123885072.028                    96355061.524    23240524.914  
  23240519.680  
 21  8 16 23 42 30.0000000  0 16G 6R 7G17G15G13G14R16G24R17R 6G12G19
                                R15R24R18R14
  23696447.156   124525669.557    23696455.895    97033022.6054   23696456.465  
                
  23098386.430   123647472.138                    96170244.361    23098390.770  
  23098385.359  
  21633729.133   113686028.949    21633734.926    88586554.0304   21633734.977  
                
  22927865.383   120486743.482    22927871.988    93885807.5224   22927871.812  
                
  23102400.688   121403946.605    23102407.082    94600507.0004                 
                
  23082231.719   121297983.209    23082238.379    94517946.5484   23082238.414  
                
  20682393.633   110481643.349                    85930156.866    20682395.348  
  20682393.250  
  20866929.344   109656451.631    20866937.969    85446636.0134   20866938.047  
                
  19832225.961   106126258.895                    82542643.280    19832229.148  
  19832224.324  
  22289986.516   118943611.249                                                  
  22289984.082  
  23281146.703   122343256.787    23281153.211    95332438.9684   23281153.348  
                
  20301103.125   106683027.172    20301106.855    83129657.7204                 
                
  19886636.453   106268173.969                    82653033.964    19886640.387  
  19886636.621  
  22694545.000   121357942.267                    94389519.460    22694548.508  
  22694543.656  
  21053408.461   112384528.534                    87410187.882    21053412.336  
  21053406.945  
  23246267.281   123915707.262                    96378888.917    23246272.023  
  23246266.762  
 21  8 16 23 42 40.0000000  0 16G 6R 7G17G15G13G14R16G24R17R 6G12G19
                                R15R24R18R14
  23690390.055   124493839.229    23690398.789    97008219.7664   23690399.363  
                
  23096088.445   123635170.844                    96160676.692    23096092.754  
  23096087.379  
  21637622.516   113706488.783    21637628.262    88602496.7614   21637628.344  
                
  22933170.438   120514621.702    22933177.047    93907530.8204   22933176.883  
                
  23109108.102   121439194.598    23109114.555    94627972.9584                 
                
  23087435.508   121325329.269    23087442.133    94539255.1704   23087442.199  
                
  20678021.477   110458288.089                    85911991.671    20678023.172  
  20678021.070  
  20863636.281   109639146.501    20863644.902    85433151.4974   20863644.992  
                
  19832126.828   106125728.470                    82542230.750    19832130.031  
  19832125.184  
  22293952.211   118964772.823                                                  
  22293949.738  
  23275621.148   122314220.082    23275627.633    95309812.9814   23275627.797  
                
  20301109.625   106683061.337    20301113.336    83129684.3454                 
                
  19888484.219   106278047.809                    82660713.613    19888488.160  
  19888484.391  
  22701038.172   121392664.347                    94416525.523    22701041.715  
  22701036.793  
  21046421.773   112347233.244                    87381180.450    21046425.672  
  21046420.254  
  23252017.680   123946359.795                    96402729.796    23252022.367  
  23252017.129  
 21  8 16 23 42 50.0000000  0 16G 6R 7G17G15G13G14R16G24R17R 6G12G19
                                R15R24R18R14
  23684336.492   124462027.577    23684345.207    96983431.4644   23684345.801  
                
  23093805.672   123622950.958                    96151172.358    23093809.965  
  23093804.574  
  21641523.930   113726990.844    21641529.625    88618472.3934   21641529.730  
                
  22938481.781   120542533.021    22938488.418    93929279.8854   22938488.250  
                
  23115819.406   121474462.886    23115825.883    94655454.7414                 
                
  23092641.438   121352686.600    23092648.070    94560572.5494   23092648.148  
                
  20673653.758   110434956.483                    85893844.867    20673655.430  
  20673653.344  
  20860352.234   109621888.731    20860360.852    85419703.8864   20860360.934  
                
  19832045.320   106125292.279                    82541891.494    19832048.516  
  19832043.648  
  22297930.586   118986002.473                                                  
  22297928.199  
  23270098.727   122285199.770    23270105.199    95287199.7614   23270105.352  
                
  20301129.031   106683163.331    20301132.723    83129763.8224                 
                
  19890339.461   106287961.651                    82668424.375    19890343.398  
  19890339.648  
  22707540.859   121427437.295                    94443571.133    22707544.434  
  22707539.445  
  21039444.930   112309990.423                    87352213.806    21039448.840  
  21039443.438  
  23257771.219   123977029.686                    96426584.132    23257775.922  
  23257770.680  
 21  8 16 23 43  0.0000000  0 16G 6R 7G17G15G13G14R16G24R17R 6G12G19
                                R15R24R18R14
  23678286.523   124430234.545    23678295.156    96958657.6734   23678295.758  
                
  23091538.094   123610812.600                    96141731.417    23091542.418  
  23091536.949  
  21645433.344   113747534.953    21645438.996    88634480.7954   21645439.125  
                
  22943799.352   120570477.082    22943806.023    93951054.4784   22943805.836  
                
  23122534.555   121509751.269    23122541.000    94682952.1984                 
                
  23097849.477   121380054.946    23097856.125    94581898.5204   23097856.195  
                
  20669290.398   110411648.166                    85875716.173    20669292.059  
  20669289.984  
  20857077.188   109604678.200    20857085.801    85406293.0894   20857085.879  
                
  19831981.367   106124950.083                    82541625.348    19831984.582  
  19831979.680  
  22301921.648   119007299.829                                                  
  22301919.305  
  23264579.398   122256195.535    23264585.895    95264599.0864   23264586.035  
                
  20301161.305   106683332.907    20301164.980    83129895.9544                 
                
  19892202.172   106297915.366                    82676166.154    19892206.109  
  19892202.367  
  22714053.047   121462261.096                    94470656.292    22714056.672  
  22714051.582  
  21032477.906   112272800.040                    87323287.948    21032481.812  
  21032476.438  
  23263527.906   124007716.503                    96450451.662    23263532.672  
  23263527.426  
 21  8 16 23 43 10.0000000  0 16G 6R 7G17G15G13G14R16G24R17R 6G12G19
                                R15R24R18R14
  23672240.109   124398460.421    23672248.691    96933898.5954   23672249.309  
                
  23089285.766   123598755.783                    96132353.900    23089290.133  
  23089284.590  
  21649350.781   113768121.194    21649356.395    88650522.0324   21649356.527  
                
  22949123.141   120598453.908    22949129.836    93972854.5864   22949129.660  
                
  23129253.523   121545059.771    23129259.957    94710465.3184                 
                
  23103059.625   121407434.472    23103066.285    94603233.2104   23103066.324  
                
  20664931.461   110388363.464                    85857605.860    20664933.094  
  20664931.043  
  20853811.164   109587515.160    20853819.773    85392919.3004   20853819.863  
                
  19831935.047   106124702.227                    82541432.574    19831938.270  
  19831933.352  
  22305925.516   119028664.968                                                  
  22305923.105  
  23259063.180   122227207.620    23259069.707    95242011.1394   23259069.855  
                
  20301206.445   106683570.169    20301210.117    83130080.8374                 
                
  19894072.367   106307909.125                    82683939.069    19894076.301  
  19894072.559  
  22720574.734   121497135.585                    94497780.894    22720578.379  
  22720573.227  
  21025520.789   112235662.529                    87294403.220    21025524.699  
  21025519.332  
  23269287.844   124038420.457                    96474332.534    23269292.633  
  23269287.398  
 21  8 16 23 43 20.0000000  0 16G 6R 7G17G15G13G14R16G24R17R 6G12G19
                                R15R24R18R14
  23666197.180   124366705.265    23666205.863    96909154.3104   23666206.488  
                
  23087048.734   123586780.748                    96123039.977    23087053.117  
  23087047.613  
  21653276.195   113788749.357    21653281.773    88666595.9244   21653281.910  
                
  22954453.156   120626463.440    22954459.863    93994680.1864   22954459.695  
                
  23135976.312   121580388.287    23135982.766    94737994.0144                 
                
  23108271.906   121434825.093    23108278.562    94624576.5374   23108278.586  
                
  20660576.914   110365102.286                    85839513.830    20660578.531  
  20660576.508  
  20850554.188   109570399.640    20850562.789    85379582.5264   20850562.883  
                
  19831906.336   106124548.561                    82541313.062    19831909.574  
  19831904.629  
  22309941.930   119050097.478                                                  
  22309939.559  
  23253550.070   122198236.014    23253556.605    95219435.8784   23253556.754  
                
  20301264.477   106683875.097    20301268.152    83130318.4454                 
                
  19895950.070   106317942.955                    82691743.164    19895953.996  
  19895950.250  
  22727105.891   121532060.736                    94524944.899    22727109.555  
  22727104.375  
  21018573.578   112198577.841                    87265559.578    21018577.484  
  21018572.137  
  23275051.023   124069141.724                    96498226.852    23275055.832  
  23275050.633  
 21  8 16 23 43 30.0000000  0 16G 6R 7G17G15G13G14R16G24R17R 6G12G19
                                R15R24R18R14
  23660158.023   124334969.684    23660166.758    96884425.2904   23660167.387  
                
  23084827.078   123574887.885                    96113789.981    23084831.473  
  23084825.980  
  21657209.680   113809419.904    21657215.230    88682702.8404   21657215.375  
                
  22959789.477   120654505.979    22959796.188    94016531.5224   22959796.016  
                
  23142703.000   121615737.168    23142709.449    94765538.6014                 
                
  23113486.383   121462227.294    23113493.086    94645928.8964   23113493.090  
                
  20656226.914   110341865.369                    85821440.663    20656228.492  
  20656226.535  
  20847306.367   109553332.194    20847314.969    85366283.2244   20847315.055  
                
  19831895.312   106124489.564                    82541267.184    19831898.555  
  19831893.594  
  22313971.023   119071597.737                                                  
  22313968.711  
  23248040.180   122169281.160    23248046.680    95196873.6714   23248046.836  
                
  20301335.477   106684248.208    20301339.164    83130609.1834                 
                
  19897835.352   106328017.325                    82699578.779    19897839.277  
  19897835.523  
  22733646.555   121567036.605                    94552148.347    22733650.242  
  22733645.016  
  21011636.383   112161546.688                    87236757.590    21011640.320  
  21011634.957  
  23280817.609   124099880.556                    96522134.821    23280822.340  
  23280817.195  
 21  8 16 23 43 40.0000000  0 16G 6R 7G17G15G13G14R16G24R17R 6G12G19
                                R15R24R18R14
  23654122.578   124303253.665    23654131.379    96859711.5174   23654131.996  
                
  23082620.727   123563077.094                    96104603.809    23082625.145  
  23082619.629  
  21661151.164   113830132.508    21661156.688    88698842.5384   21661156.836  
                
  22965132.031   120682581.310    22965138.750    94038408.3944   22965138.559  
                
  23149433.555   121651106.126    23149439.969    94793098.8294                 
                
  23118703.031   121489640.902    23118709.762    94667290.1254   23118709.754  
                
  20651881.398   110318652.402                    85803386.126    20651882.961  
  20651881.043  
  20844067.672   109536312.732    20844076.270    85353021.3024   20844076.348  
                
  19831901.945   106124525.109                    82541294.828    19831905.199  
  19831900.211  
  22318012.805   119093165.602                                                  
  22318010.527  
  23242533.469   122140342.975    23242539.902    95174324.4394   23242540.082  
                
  20301419.414   106684689.327    20301423.117    83130952.9214                 
                
  19899728.188   106338132.069                    82707445.807    19899732.129  
  19899728.355  
  22740196.656   121602063.022                    94579391.124    22740200.359  
  22740195.145  
  21004709.250   112124569.204                    87207997.324    21004713.176  
  21004707.844  
  23286587.484   124130636.841                    96546056.393    23286592.137  
  23286587.008  
 21  8 16 23 43 50.0000000  0 16G 6R 7G17G15G13G14R16G24R17R 6G12G19
                                R15R24R18R14
  23648090.859   124271557.365    23648099.754    96835013.1094   23648100.379  
                
  23080429.734   123551348.573                    96095481.633    23080434.148  
  23080428.637  
  21665100.641   113850887.163    21665106.141    88715014.9994   21665106.305  
                
  22970480.812   120710689.349    22970487.523    94060310.7634   22970487.324  
                
  23156167.961   121686495.123    23156174.332    94820674.6774                 
                
  23123921.852   121517065.904    23123928.578    94688660.2484   23123928.543  
                
  20647540.406   110295463.538                    85785350.345    20647541.957  
  20647540.055  
  20840838.133   109519341.396    20840846.727    85339796.8914   20840846.809  
                
  19831926.250   106124655.193                    82541396.005    19831929.523  
  19831924.516  
  22322067.266   119114800.841                                                  
  22322064.949  
  23237029.922   122111421.520    23237036.336    95151788.2554   23237036.531  
                
  20301516.320   106685198.575    20301520.035    83131349.7384                 
                
  19901628.602   106348287.310                    82715344.324    19901632.551  
  19901628.754  
  22746756.195   121637139.934                    94606673.171    22746759.938  
  22746754.676  
  20997792.164   112087645.390                    87179278.799    20997796.090  
  20997790.785  
  23292360.664   124161410.654                    96569991.590    23292365.227  
  23292360.160  
 21  8 16 23 44  0.0000000  0 16G 6R 7G17G15G13G14R16G24R17R 6G12G19
                                R15R24R18R14
  23642062.992   124239880.875    23642071.957    96810330.1484   23642072.566  
                
  23078254.117   123539702.360                    96086423.457    23078258.492  
  23078253.027  
  21669058.109   113871683.795    21669063.578    88731220.1734   21669063.766  
                
  22975835.797   120738829.935    22975842.461    94082238.4844   22975842.254  
                
  23162906.141   121721904.034    23162912.500    94848266.0394                 
                
  23129142.828   121544502.245    23129149.547    94710039.2014   23129149.500  
                
  20643203.930   110272298.871                    85767333.381    20643205.492  
  20643203.594  
  20837617.750   109502418.196    20837626.336    85326609.9814   20837626.398  
                
  19831968.227   106124879.841                    82541570.737    19831971.504  
  19831966.492  
  22326134.336   119136503.302                                                  
  22326131.996  
  23231529.562   122082516.830    23231535.992    95129265.1294   23231536.168  
                
  20301626.156   106685775.760    20301629.871    83131799.4944                 
                
  19903536.609   106358483.140                    82723274.410    19903540.570  
  19903536.734  
  22753325.109   121672267.066                    94633994.278    22753328.875  
  22753323.535  
  20990885.180   112050775.455                    87150602.200    20990889.117  
  20990883.793  
  23298137.109   124192201.817                    96593940.266    23298141.602  
  23298136.523  
 21  8 16 23 44 10.0000000  0 16G 6R 7G17G15G13G14R16G24R17R 6G12G19
                                R15R24R18R14
  23636038.828   124208223.585    23636047.809    96785662.1444   23636048.406  
                
  23076093.727   123528137.637                    96077428.695    23076098.074  
  23076092.609  
  21673023.406   113892521.521    21673028.863    88747457.3694   21673029.047  
                
  22981196.812   120767002.181    22981203.402    94104190.8924   22981203.211  
                
  23169647.938   121757332.034    23169654.293    94875872.2734                 
                
  23134365.836   121571949.177    23134372.547    94731426.4174   23134372.484  
                
  20638871.875   110249157.784                    85749334.763    20638873.453  
  20638871.555  
  20834406.414   109485542.472    20834414.988    85313460.0654   20834415.059  
                
  19832027.734   106125198.258                    82541818.399    19832031.020  
  19832026.000  
  22330213.859   119158272.299                                                  
  22330211.516  
  23226032.211   122053628.079    23226038.648    95106754.4404   23226038.824  
                
  20301748.758   106686420.030    20301752.480    83132301.5214                 
                
  19905452.031   106368718.581                    82731235.300    19905456.004  
  19905452.133  
  22759903.250   121707443.626                    94661353.823    22759907.047  
  22759901.609  
  20983988.188   112013958.838                    87121967.068    20983992.148  
  20983986.797  
  23303916.641   124223009.625                    96617901.910    23303921.113  
  23303916.012  
 21  8 16 23 44 20.0000000  0 16G 6R 7G17G15G13G14R16G24R17R 6G12G19
                                R15R24R18R14
  23630018.305   124176585.827    23630027.348    96761009.3544   23630027.949  
                
  23073948.617   123516654.737                    96068497.562    23073952.957  
  23073947.461  
  21676996.547   113913400.525    21677002.008    88763726.7164   21677002.180  
                
  22986563.883   120795206.333    22986570.418    94126168.1454   22986570.230  
                
  23176393.328   121792779.199    23176399.711    94903493.4404                 
                
  23139590.875   121599406.859    23139597.531    94752822.0174   23139597.465  
                
  20634544.242   110226040.394                    85731354.572    20634545.805  
  20634543.934  
  20831204.148   109468714.499    20831212.711    85300347.3584   20831212.789  
                
  19832104.789   106125610.611                    82542139.121    19832108.082  
  19832103.047  
  22334305.820   119180107.872                                                  
  22334303.484  
  23220537.938   122024755.614    23220544.348    95084256.4264   23220544.543  
                
  20301884.203   106687131.804    20301887.930    83132856.1484                 
                
  19907374.938   106378994.053                    82739227.334    19907378.934  
  19907375.020  
  22766490.617   121742669.539                    94688751.752    22766494.469  
  22766488.879  
  20977101.266   111977195.939                    87093373.701    20977105.211  
  20977099.902  
  23309699.242   124253834.288                    96641876.645    23309703.762  
  23309698.664  
 21  8 16 23 44 30.0000000  0 16G 6R 7G17G15G13G14R16G24R17R 6G12G19
                                R15R24R18R14
  23624001.656   124144968.449    23624010.711    96736372.4434   23624011.344  
                
  23071818.930   123505254.261                    96059630.525    23071823.254  
  23071817.793  
  21680977.688   113934321.520    21680983.176    88780028.7894   21680983.324  
                
  22991937.156   120823442.959    22991943.641    94148170.7074   22991943.473  
                
  23183142.484   121828246.160    23183148.879    94931130.0314                 
                
  23144818.109   121626876.062    23144824.684    94774226.5814   23144824.668  
                
  20630221.234   110202947.660                    85713393.555    20630222.801  
  20630220.926  
  20828011.141   109451935.104    20828019.695    85287272.5114   20828019.777  
                
  19832199.539   106126117.636                    82542533.481    19832202.852  
  19832197.809  
  22338410.414   119202010.455                                                  
  22338408.035  
  23215046.883   121995899.957    23215053.223    95061771.5064   23215053.461  
                
  20302032.609   106687911.685    20302036.340    83133463.8564                 
                
  19909305.477   106389310.265                    82747251.047    19909309.473  
  19909305.547  
  22773087.359   121777945.470                    94716188.565    22773091.258  
  22773085.613  
  20970224.539   111940487.493                    87064822.689    20970228.477  
  20970223.176  
  23315485.125   124284676.548                    96665865.038    23315489.730  
  23315484.574  
 21  8 16 23 44 40.0000000  0 16G 6R 7G17G15G13G14R16G24R17R 6G12G19
                                R15R24R18R14
  23617988.836   124113370.809    23617997.812    96711750.9134   23617998.480  
                
  23069704.570   123493935.854                    96050827.309    23069708.863  
  23069703.418  
  21684966.648   113955283.640    21684972.168    88796362.9074   21684972.309  
                
  22997316.445   120851711.145    22997322.848    94170197.8714   22997322.703  
                
  23189895.195   121863731.986    23189901.637    94958781.3184                 
                
  23150047.367   121654355.972    23150053.910    94795639.4954   23150053.906  
                
  20625902.719   110179878.913                    85695451.203    20625904.312  
  20625902.395  
  20824827.234   109435203.572    20824835.785    85274234.9544   20824835.863  
                
  19832311.828   106126718.546                    82543000.858    19832315.141  
  19832310.098  
  22342527.383   119223979.333                                                  
  22342525.023  
  23209558.906   121967060.617    23209565.188    95039299.3094   23209565.496  
                
  20302193.828   106688758.909    20302197.562    83134124.0384                 
                
  19911243.492   106399666.426                    82755305.835    19911247.504  
  19911243.562  
  22779693.328   121813270.643                    94743663.677    22779697.270  
  22779691.617  
  20963357.938   111903833.058                    87036313.695    20963361.848  
  20963356.594  
  23321274.023   124315535.643                    96689866.542    23321278.848  
  23321273.629  
 21  8 16 23 44 50.0000000  0 16G 6R 7G17G15G13G14R16G24R17R 6G12G19
                                R15R24R18R14
  23611979.820   124081792.871    23611988.668    96687144.7224   23611989.359  
                
  23067605.422   123482699.048                    96042087.587    23067609.711  
  23067604.262  
  21688963.375   113976286.610    21688968.934    88812728.8624   21688969.078  
                
  23002701.695   120880010.599    23002708.000    94192249.4044   23002707.883  
                
  23196651.430   121899236.453    23196657.938    94986447.1374                 
                
  23155278.617   121681846.350    23155285.129    94817060.5704   23155285.133  
                
  20621588.617   110156833.769                    85677527.204    20621590.238  
  20621588.297  
  20821652.414   109418519.802    20821660.977    85261234.6234   20821661.047  
                
  19832441.633   106127413.155                    82543541.119    19832444.938  
  19832439.914  
  22346656.664   119246014.036                                                  
  22346654.344  
  23204074.000   121938237.467    23204080.230    95016839.7254   23204080.539  
                
  20302367.836   106689673.318    20302371.574    83134836.5704                 
                
  19913188.953   106410062.373                    82763391.573    19913192.977  
  19913189.020  
  22786308.438   121848644.545                    94771176.718    22786312.402  
  22786306.758  
  20956501.414   111867232.457                    87007846.562    20956505.301  
  20956500.113  
  23327066.234   124346411.404                    96713881.009    23327071.082  
  23327065.797  
 21  8 16 23 45  0.0000000  0 16G 6R 7G17G15G13G14R16G24R17R 6G12G19
                                R15R24R18R14
  23605974.703   124050235.625    23605983.480    96662554.6574   23605984.191  
                
  23065521.742   123471544.981                    96033412.189    23065526.016  
  23065520.578  
  21692968.031   113997331.221    21692973.629    88829127.2614   21692973.770  
                
  23008093.023   120908342.094    23008099.234    94214325.9044   23008099.145  
                
  23203411.328   121934760.331    23203417.945    95014128.0794                 
                
  23160512.023   121709348.132    23160518.465    94838490.5174   23160518.531  
                
  20617279.133   110133813.253                    85659622.373    20617280.773  
  20617278.812  
  20818486.867   109401884.758    20818495.449    85248272.2534   20818495.500  
                
  19832589.141   106128202.488                    82544155.042    19832592.434  
  19832587.426  
  22350798.547   119268115.473                                                  
  22350796.176  
  23198592.312   121909431.319    23198598.543    94994393.3894   23198598.859  
                
  20302554.797   106690655.791    20302558.527    83135602.1304                 
                
  19915142.047   106420499.112                    82771509.027    19915146.078  
  19915142.109  
  22792932.797   121884067.960                    94798728.255    22792936.793  
  22792931.184  
  20949655.227   111830687.025                    86979422.334    20949659.070  
  20949653.980  
  23332861.734   124377304.682                    96737909.111    23332866.578  
  23332861.320  
 21  8 16 23 45 10.0000000  0 16G 6R 7G17G15G13G14R16G24R17R 6G12G19
                                R15R24R18R14
  23599973.453   124018698.987    23599982.188    96637980.6524   23599982.922  
                
  23063453.508   123460473.588                    96024801.091    23063457.750  
  23063452.367  
  21696980.562   114018417.222    21696986.199    88845557.9174   21696986.324  
                
  23013490.391   120936705.399    23013496.531    94236427.1794   23013496.453  
                
  23210174.859   121970303.366    23210181.555    95041823.9474                 
                
  23165747.539   121736861.050    23165753.969    94859929.1434   23165754.066  
                
  20612974.266   110110817.451                    85641736.746    20612975.891  
  20612973.938  
  20815330.570   109385298.317    20815339.164    85235347.7554   20815339.191  
                
  19832754.281   106129086.175                    82544842.370    19832757.582  
  19832752.570  
  22354952.781   119290283.198                                                  
  22354950.383  
  23193113.828   121880641.837    23193120.078    94971960.0534   23193120.371  
                
  20302754.656   106691706.060    20302758.391    83136420.5264                 
                
  19917102.711   106430976.309                    82779657.962    19917106.746  
  19917102.777  
  22799566.344   121919540.535                    94826318.060    22799570.348  
  22799564.789  
  20942819.312   111794196.391                    86951040.731    20942823.125  
  20942818.094  
  23338660.359   124408215.142                    96761950.541    23338665.277  
  23338659.977  
 21  8 16 23 45 20.0000000  0 16G 6R 7G17G15G13G14R16G24R17R 6G12G19
                                R15R24R18R14
  23593976.078   123987182.751    23593984.809    96613422.5334   23593985.555  
                
  23061400.648   123449484.366                    96016253.918    23061404.844  
  23061399.566  
  21701000.883   114039544.171    21701006.555    88862020.4724   21701006.672  
                
  23018893.719   120965099.988    23018899.824    94258552.8474   23018899.742  
                
  23216941.961   122005865.111    23216948.699    95069534.3954                 
                
  23170985.117   121764384.723    23170991.578    94881376.1494   23170991.688  
                
  20608673.945   110087845.914                    85623869.991    20608675.598  
  20608673.621  
  20812183.469   109368760.196    20812192.074    85222460.9154   20812192.090  
                
  19832937.000   106130063.937                    82545602.852    19832940.297  
  19832935.301  
  22359119.352   119312516.818                                                  
  22359116.949  
  23187638.539   121851868.982    23187644.797    94949539.6524   23187645.066  
                
  20302967.344   106692823.739    20302971.082    83137291.4434                 
                
  19919070.914   106441493.790                    82787838.213    19919074.961  
  19919070.984  
  22806209.023   121955061.965                    94853945.840    22806213.035  
  22806207.465  
  20935993.641   111757760.414                    86922701.643    20935997.414  
  20935992.426  
  23344462.156   124439142.548                    96786005.203    23344467.164  
  23344461.836  
 21  8 16 23 45 30.0000000  0 16G 6R 7G17G15G13G14R16G24R17R 6G12G19
                                R15R24R18R14
  23587982.625   123955687.211    23587991.426    96588880.5534   23587992.168  
                
  23059363.188   123438577.560                    96007770.879    23059367.359  
  23059362.117  
  21705029.008   114060712.110    21705034.703    88878514.9614   21705034.809  
                
  23024303.023   120993525.960    23024309.125    94280702.9504   23024309.043  
                
  23223712.625   122041445.570    23223719.418    95097259.4224                 
                
  23176224.781   121791919.318    23176231.270    94902831.6694   23176231.383  
                
  20604378.227   110064898.903                    85606022.315    20604379.867  
  20604377.898  
  20809045.617   109352270.671    20809054.234    85209611.9374   20809054.250  
                
  19833137.312   106131135.856                    82546436.569    19833140.613  
  19833135.613  
  22363298.219   119334816.023                                                  
  22363295.793  
  23182166.438   121823112.931    23182172.680    94927132.3574   23182172.953  
                
  20303192.898   106694009.014    20303196.652    83138215.0374                 
                
  19921046.695   106452051.709                    82796049.927    19921050.742  
  19921046.773  
  22812860.797   121990632.143                    94881611.519    22812864.836  
  22812859.215  
  20929178.297   111721379.563                    86894405.432    20929182.055  
  20929177.082  
  23350267.281   124470087.190                    96810073.268    23350272.285  
  23350266.930  
 21  8 16 23 45 40.0000000  0 16G 6R 7G17G15G13G14R16G24R17R 6G12G19
                                R15R24R18R14
  23581993.117   123924212.590    23582002.020    96564354.8824   23582002.754  
                
  23057341.148   123427753.445                    95999352.134    23057345.324  
  23057340.043  
  21709064.922   114081921.071    21709070.633    88895041.4164   21709070.734  
                
  23029718.281   121021983.287    23029724.406    94302877.4884   23029724.336  
                
  23230486.922   122077044.707    23230493.652    95124999.0134                 
                
  23181466.539   121819464.940    23181473.031    94924295.7654   23181473.160  
                
  20600087.094   110041976.477                    85588193.758    20600088.742  
  20600086.766  
  20805917.039   109335829.867    20805925.676    85196800.9214   20805925.680  
                
  19833355.242   106132302.066                    82547343.630    19833358.555  
  19833353.547  
  22367489.398   119357181.382                                                  
  22367486.992  
  23176697.539   121794373.728    23176703.777    94904738.2044   23176704.047  
                
  20303431.305   106695261.850    20303435.082    83139191.2854                 
                
  19923030.039   106462650.135                    82804293.133    19923034.098  
  19923030.121  
  22819521.688   122026250.931                    94909315.004    22819525.730  
  22819520.148  
  20922373.312   111685054.050                    86866152.271    20922377.047  
  20922372.090  
  23356075.570   124501048.956                    96834154.633    23356080.629  
  23356075.227  
 21  8 16 23 45 50.0000000  0 16G 6R 7G17G15G13G14R16G24R17R 6G12G19
                                R15R24R18R14
  23576007.555   123892758.943    23576016.605    96539845.5634   23576017.328  
                
  23055334.508   123417011.873                    95990997.588    23055338.715  
  23055333.332  
  21713108.617   114103170.862    21713114.332    88911599.7044   21713114.434  
                
  23035139.461   121050471.817    23035145.637    94325076.3424   23035145.574  
                
  23237264.789   122112662.365    23237271.422    95152753.0274                 
                
  23186710.383   121847021.488    23186716.871    94945768.3874   23186717.027  
                
  20595800.594   110019078.800                    85570384.456    20595802.254  
  20595800.277  
  20802797.742   109319437.816    20802806.406    85184027.9044   20802806.391  
                
  19833590.805   106133562.595                    82548324.032    19833594.117  
  19833589.113  
  22371692.867   119379612.104                                                  
  22371690.445  
  23171231.844   121765651.207    23171238.059    94882357.0324   23171238.312  
                
  20303682.562   106696582.204    20303686.359    83140220.1324                 
                
  19925020.984   106473289.099                    82812567.890    19925025.043  
  19925021.078  
  22826191.664   122061918.339                    94937056.334    22826195.715  
  22826190.199  
  20915578.711   111648783.927                    86837942.175    20915582.406  
  20915577.500  
  23361887.086   124532027.712                    96858249.218    23361892.129  
  23361886.738  
 21  8 16 23 46  0.0000000  0 16G 6R 7G17G15G13G14R16G24R17R 6G12G19
                                R15R24R18R14
  23570026.023   123861326.411    23570035.234    96515352.6984   23570035.949  
                
  23053343.336   123406353.110                    95982707.423    23053347.559  
  23053342.070  
  21717160.086   114124461.464    21717165.793    88928189.7844   21717165.906  
                
  23040566.562   121078991.448    23040572.797    94347299.4274   23040572.746  
                
  23244046.125   122148298.481    23244052.703    95180521.4404                 
                
  23191956.297   121874588.922    23191962.824    94967249.4884   23191962.961  
                
  20591518.734   109996205.854                    85552594.391    20591520.402  
  20591518.430  
  20799687.734   109303094.598    20799696.422    85171292.9274   20799696.391  
                
  19833843.969   106134917.332                    82549377.735    19833847.273  
  19833842.266  
  22375908.742   119402108.624                                                  
  22375906.258  
  23165769.359   121736945.584    23165775.539    94859989.0144   23165775.789  
                
  20303946.672   106697970.085    20303950.492    83141301.5984                 
                
  19927019.492   106483968.538                    82820874.114    19927023.559  
  19927019.582  
  22832870.648   122097633.846                    94964835.066    22832874.691  
  22832869.230  
  20908794.539   111612569.444                    86809775.342    20908798.207  
  20908793.355  
  23367701.875   124563023.661                    96882357.177    23367706.855  
  23367701.477  
 21  8 16 23 46 10.0000000  0 16G 6R 7G17G15G13G14R16G24R17R 6G12G19
                                R15R24R18R14
  23564048.625   123829915.016    23564057.875    96490876.3014   23564058.578  
                
  23051367.602   123395776.823                    95974481.418    23051371.789  
  23051366.309  
  21721219.297   114145792.814    21721224.988    88944811.6124   21721225.121  
                
  23045999.523   121107541.904    23046005.844    94369546.5294   23046005.789  
                
  23250831.000   122183952.844    23250837.457    95208304.0624                 
                
  23197204.289   121902167.145    23197210.805    94988739.0054   23197210.949  
                
  20587241.484   109973357.558                    85534823.506    20587243.188  
  20587241.176  
  20796587.008   109286800.203    20796595.715    85158596.0034   20796595.680  
                
  19834114.727   106136366.229                    82550504.660    19834118.023  
  19834113.020  
  22380136.734   119424670.286                                                  
  22380134.309  
  23160310.070   121708256.820    23160316.238    94837634.1474   23160316.480  
                
  20304223.641   106699425.521    20304227.484    83142435.7064                 
                
  19929025.578   106494688.406                    82829211.772    19929029.641  
  19929025.672  
  22839558.656   122133397.575                    94992651.291    22839562.652  
  22839557.246  
  20902020.789   111576410.654                    86781651.832    20902024.461  
  20902019.625  
  23373519.898   124594036.609                    96906478.356    23373524.801  
  23373519.418  
 21  8 16 23 46 20.0000000  0 16G 6R 7G17G15G13G14R16G24R17R 6G12G19
                                R15R24R18R14
  23558075.375   123798524.970    23558084.574    96466416.5314   23558085.262  
                
  23049407.359   123385283.432                    95966319.903    23049411.504  
  23049406.074  
  21725286.266   114167164.890    21725291.926    88961465.1774   21725292.074  
                
  23051438.367   121136123.244    23051444.773    94391817.6924   23051444.715  
                
  23257619.367   122219625.489    23257625.703    95236100.9474                 
                
  23202454.328   121929756.223    23202460.836    95010236.9944   23202461.000  
                
  20582968.906   109950534.176                    85517072.003    20582970.613  
  20582968.617  
  20793495.609   109270554.763    20793504.324    85145937.2194   20793504.297  
                
  19834403.094   106137909.339                    82551704.864    19834406.395  
  19834401.387  
  22384377.000   119447297.155                                                  
  22384374.574  
  23154854.008   121679584.967    23154860.215    94815292.4744   23154860.438  
                
  20304513.445   106700948.454    20304517.305    83143622.4094                 
                
  19931039.250   106505448.838                    82837581.005    19931043.312  
  19931039.340  
  22846255.648   122169209.362                    95020504.921    22846259.625  
  22846254.258  
  20895257.516   111540307.695                    86753571.777    20895261.203  
  20895256.355  
  23379341.219   124625066.593                    96930612.785    23379345.898  
  23379340.621  
 21  8 16 23 46 30.0000000  0 16G 6R 7G17G15G13G14R16G24R17R 6G12G19
                                R15R24R18R14
  23552106.086   123767156.134    23552115.293    96441973.2764   23552115.980  
                
  23047462.508   123374872.453                    95958222.488    23047466.605  
  23047461.293  
  21729360.914   114188577.357    21729366.539    88978150.2184   21729366.711  
                
  23056883.000   121164735.081    23056889.492    94414112.6214   23056889.418  
                
  23264411.062   122255316.095    23264417.371    95263911.8114                 
                
  23207706.375   121957355.903    23207712.914    95031743.2244   23207713.074  
                
  20578700.953   109927735.575                    85499339.753    20578702.672  
  20578700.664  
  20790413.477   109254358.093    20790422.195    85133316.4364   20790422.176  
                
  19834708.992   106139546.271                    82552978.035    19834712.297  
  19834707.301  
  22388629.461   119469988.881                                                  
  22388627.055  
  23149401.117   121650929.732    23149407.383    94792963.7354   23149407.574  
                
  20304816.047   106702538.633    20304819.926    83144861.5074                 
                
  19933060.453   106516249.554                    82845981.574    19933064.523  
  19933060.547  
  22852961.516   122205068.641                    95048395.469    22852965.473  
  22852960.188  
  20888504.680   111504260.587                    86725535.153    20888508.359  
  20888503.535  
  23385165.492   124656113.444                    96954760.347    23385170.141  
  23385164.992  
 21  8 16 23 46 40.0000000  0 16G 6R 7G17G15G13G14R16G24R17R 6G12G19
                                R15R24R18R14
  23546140.992   123735809.037    23546150.168    96417546.9814   23546150.848  
                
  23045533.188   123364544.565                    95950189.692    23045537.289  
  23045531.969  
  21733443.320   114210030.497    21733448.926    88994866.9514   21733449.109  
                
  23062333.484   121193377.515    23062340.039    94436431.3974   23062339.953  
                
  23271206.141   122291024.783    23271212.484    95291736.7634                 
                
  23212960.523   121984966.522    23212967.070    95053257.9904   23212967.219  
                
  20574437.648   109904961.719                    85481626.753    20574439.355  
  20574437.328  
  20787340.734   109238210.688    20787349.449    85120734.0454   20787349.441  
                
  19835032.508   106141277.447                    82554324.508    19835035.812  
  19835030.820  
  22392894.133   119492745.848                                                  
  22392891.715  
  23143951.453   121622291.490    23143957.754    94770648.2194   23143957.895  
                
  20305131.531   106704196.447    20305135.426    83146153.3134                 
                
  19935089.297   106527091.037                    82854413.846    19935093.395  
  19935089.398  
  22859676.383   122240975.898                    95076323.330    22859680.328  
  22859675.102  
  20881762.398   111468269.801                    86697542.321    20881766.070  
  20881761.281  
  23390993.125   124687177.451                    96978921.243    23390997.648  
  23390992.570  
 21  8 16 23 46 50.0000000  0 16G 6R 7G17G15G13G14R16G24R17R 6G12G19
                                R15R24R18R14
  23540180.016   123704483.583    23540189.148    96393137.5424   23540189.816  
                
  23043619.289   123354299.428                    95942221.256    23043623.418  
  23043617.969  
  21737533.422   114231524.127    21737539.004    89011615.2424   21737539.219  
                
  23067789.766   121222050.471    23067796.375    94458773.9604   23067796.262  
                
  23278004.641   122326751.289    23278010.965    95319575.5924                 
                
  23218216.703   122012587.827    23218223.250    95074781.1044   23218223.359  
                
  20570179.062   109882213.126                    85463933.416    20570180.758  
  20570178.711  
  20784277.336   109222112.395    20784286.051    85108189.9264   20784286.043  
                
  19835373.602   106143102.722                    82555744.170    19835376.898  
  19835371.910  
  22397171.000   119515567.686                                                  
  22397168.504  
  23138504.969   121593670.068    23138511.270    94748345.8204   23138511.398  
                
  20305459.828   106705921.618    20305463.727    83147497.6054                 
                
  19937125.727   106537973.123                    82862877.683    19937129.832  
  19937125.832  
  22866400.148   122276930.708                    95104288.180    22866404.047  
  22866398.895  
  20875030.688   111432335.350                    86669593.315    20875034.352  
  20875029.578  
  23396823.867   124718258.448                    97003095.372    23396828.336  
  23396823.285  
 21  8 16 23 47  0.0000000  0 16G 6R 7G17G15G13G14R16G24R17R 6G12G19
                                R15R24R18R14
  23534223.156   123673179.732    23534232.227    96368744.9154   23534232.891  
                
  23041720.867   123344137.141                    95934317.231    23041725.039  
  23041719.441  
  21741631.141   114253057.840    21741636.711    89028394.7644   21741636.949  
                
  23073251.812   121250753.627    23073258.445    94481140.0594   23073258.320  
                
  23284806.484   122362495.413    23284812.836    95347428.1614                 
                
  23223474.867   122040219.663    23223481.398    95096312.3924   23223481.516  
                
  20565925.117   109859489.275                    85446259.315    20565926.816  
  20565924.742  
  20781223.242   109206063.054    20781231.957    85095683.9494   20781231.961  
                
  19835732.242   106145021.877                    82557236.848    19835735.527  
  19835730.547  
  22401459.938   119538453.972                                                  
  22401457.355  
  23133061.695   121565065.449    23133068.004    94726056.5344   23133068.109  
                
  20305800.898   106707713.952    20305804.785    83148894.2324                 
                
  19939169.703   106548895.532                    82871372.891    19939173.809  
  19939169.809  
  22873132.711   122312932.655                    95132289.712    22873136.559  
  22873131.488  
  20868309.500   111396457.107                    86641688.021    20868313.133  
  20868308.402  
  23402657.750   124749356.174                    97027282.484    23402662.168  
  23402657.145  
 21  8 16 23 47 10.0000000  0 16G 6R 7G17G15G13G14R16G24R17R 6G12G19
                                R15R24R18R14
  23528270.430   123641897.811    23528279.477    96344369.3934   23528280.125  
                
  23039837.930   123334057.730                    95926477.684    23039842.133  
  23039836.441  
  21745736.531   114274631.732    21745742.102    89045205.5904   21745742.352  
                
  23078719.633   121279487.080    23078726.285    94503529.7674   23078726.145  
                
  23291611.695   122398257.320    23291618.094    95375294.5674                 
                
  23228735.055   122067862.213    23228741.562    95117852.0204   23228741.688  
                
  20561675.898   109836790.714                    85428604.883    20561677.586  
  20561675.512  
  20778178.547   109190063.039    20778187.246    85083216.4064   20778187.258  
                
  19836108.484   106147035.220                    82558802.793    19836111.766  
  19836106.777  
  22405760.938   119561404.925                                                  
  22405758.371  
  23127621.680   121536477.897    23127627.996    94703780.5364   23127628.086  
                
  20306154.789   106709573.645    20306158.648    83150343.3504                 
                
  19941221.289   106559858.546                    82879899.681    19941225.402  
  19941221.395  
  22879874.117   122348981.830                    95160327.966    22879877.934  
  22879872.965  
  20861598.953   111360635.729                    86613826.963    20861602.574  
  20861597.852  
  23408494.906   124780470.884                    97051482.801    23408499.203  
  23408494.238  
 21  8 16 23 47 20.0000000  0 16G 6R 7G17G15G13G14R16G24R17R 6G12G19
                                R15R24R18R14
  23522321.875   123610637.873    23522330.934    96320011.0134   23522331.574  
                
  23037970.492   123324061.158                    95918702.566    23037974.695  
  23037969.039  
  21749849.523   114296245.639    21749855.113    89062047.5974   21749855.363  
                
  23084193.188   121308250.724    23084199.844    94525942.9914   23084199.703  
                
  23298420.250   122434036.733    23298426.684    95403174.6264                 
                
  23233997.273   122095515.391    23234003.781    95139399.9524   23234003.906  
                
  20557431.344   109814117.130                    85410969.881    20557433.043  
  20557430.957  
  20775143.227   109174112.330    20775151.898    85070787.2834   20775151.930  
                
  19836502.281   106149142.539                    82560441.829    19836505.562  
  19836500.566  
  22410073.992   119584420.124                                                  
  22410071.461  
  23122184.867   121507907.340    23122191.188    94681517.7624   23122191.281  
                
  20306521.492   106711500.648    20306525.312    83151844.9154                 
                
  19943280.453   106570862.072                    82888457.976    19943284.570  
  19943280.562  
  22886624.344   122385078.175                    95188402.891    22886628.148  
  22886623.199  
  20854899.016   111324870.915                    86586009.869    20854902.617  
  20854897.902  
  23414335.055   124811602.517                    97075696.286    23414339.410  
  23414334.461  
 21  8 16 23 47 30.0000000  0 16G 6R 7G17G15G13G14R16G24R17R 6G12G19
                                R15R24R18R14
  23516377.477   123579399.891    23516386.570    96295669.7344   23516387.195  
                
  23036118.523   123314147.453                    95910991.914    23036122.707  
  23036117.176  
  21753970.102   114317899.448    21753975.734    89078920.6964   21753975.969  
                
  23089672.422   121337044.209    23089679.082    94548379.4704   23089678.898  
                
  23305232.164   122469833.365    23305238.562    95431068.1174                 
                
  23239261.484   122123179.040    23239268.035    95160956.0274   23239268.152  
                
  20553191.508   109791468.712                    85393354.450    20553193.191  
  20553191.121  
  20772117.266   109158210.822    20772125.914    85058396.5024   20772125.949  
                
  19836913.609   106151343.662                    82562153.807    19836916.879  
  19836911.879  
  22414399.055   119607499.264                                                  
  22414396.512  
  23116751.242   121479353.575    23116757.551    94659268.0904   23116757.688  
                
  20306900.961   106713494.782    20306904.730    83153398.7854                 
                
  19945347.188   106581906.063                    82897047.740    19945351.309  
  19945347.293  
  22893383.289   122421221.215                    95216514.147    22893387.117  
  22893382.191  
  20848209.695   111289162.868                    86558236.952    20848213.273  
  20848208.574  
  23420178.469   124842750.829                    97099922.739    23420182.766  
  23420177.809  
 21  8 16 23 47 40.0000000  0 16G 6R 7G17G15G13G14R16G24R17R 6G12G19
                                R15R24R18R14
  23510437.344   123548184.336    23510446.500    96271345.9214   23510447.098  
                
  23034282.117   123304316.994                    95903346.013    23034286.281  
  23034280.828  
  21758098.344   114339593.501    21758104.023    89095825.1514   21758104.219  
                
  23095157.383   121365867.751    23095163.984    94570839.3754   23095163.801  
                
  23312047.344   122505647.414    23312053.770    95458975.1714                 
                
  23244527.719   122150853.444    23244534.332    95182520.4814   23244534.406  
                
  20548956.430   109768845.695                    85375758.784    20548958.082  
  20548956.035  
  20769100.742   109142358.900    20769109.359    85046044.3564   20769109.414  
                
  19837342.523   106153638.841                    82563938.939    19837345.797  
  19837340.781  
  22418736.117   119630642.668                                                  
  22418733.578  
  23111320.867   121450816.893    23111327.184    94637031.7264   23111327.309  
                
  20307293.266   106715556.317    20307296.984    83155005.1784                 
                
  19947421.539   106592990.754                    82905669.167    19947425.664  
  19947421.645  
  22900151.000   122457411.175                    95244661.904    22900154.832  
  22900149.941  
  20841531.086   111253511.937                    86530508.454    20841534.664  
  20841529.984  
  23426024.984   124873916.229                    97124162.500    23426029.328  
  23426024.340  
 21  8 16 23 47 50.0000000  0 16G 6R 7G17G15G13G14R16G24R17R 6G12G19
                                R15R24R18R14
  23504501.477   123516990.930    23504510.652    96247039.3684   23504511.219  
                
  23032461.164   123294569.354                    95895764.492    23032465.348  
  23032459.895  
  21762234.125   114361327.116    21762239.859    89112760.4374   21762240.039  
                
  23100647.992   121394720.921    23100654.477    94593322.3784   23100654.336  
                
  23318865.750   122541478.457    23318872.223    95486895.4574                 
                
  23249795.922   122178538.193    23249802.551    95204092.9874   23249802.625  
                
  20544726.062   109746247.846                    85358182.671    20544727.695  
  20544725.668  
  20766093.609   109126556.301    20766102.195    85033730.6414   20766102.270  
                
  19837788.961   106156027.823                    82565797.044    19837792.238  
  19837787.195  
  22423085.172   119653849.769                                                  
  22423082.613  
  23105893.711   121422297.050    23105900.047    94614808.4874   23105900.160  
                
  20307698.320   106717684.847    20307701.996    83156663.7764                 
                
  19949503.453   106604115.835                    82914321.991    19949507.578  
  19949503.570  
  22906927.398   122493647.532                    95272845.742    22906931.211  
  22906926.352  
  20834863.180   111217918.088                    86502824.356    20834866.730  
  20834862.098  
  23431874.516   124905098.142                    97148415.105    23431878.973  
  23431873.934  
 21  8 16 23 48  0.0000000  0 16G 6R 7G17G15G13G14R16G24R17R 6G12G19
                                R15R24R18R14
  23498569.883   123485819.765    23498579.043    96222750.1534   23498579.578  
                
  23030655.680   123284904.473                    95888247.382    23030659.891  
  23030654.418  
  21766377.406   114383100.216    21766383.176    89129726.4854   21766383.328  
                
  23106144.188   121423603.597    23106150.605    94615828.3694   23106150.480  
                
  23325687.406   122577326.392    23325693.832    95514828.9164                 
                
  23255066.102   122206233.262    23255072.715    95225673.5524   23255072.809  
                
  20540500.375   109723675.006                    85340626.023    20540502.000  
  20540499.969  
  20763095.867   109110803.038    20763104.426    85021455.3744   20763104.516  
                
  19838252.883   106158510.378                    82567727.920    19838256.168  
  19838251.105  
  22427446.156   119677120.630                                                  
  22427443.582  
  23100469.742   121393793.994    23100476.094    94592598.3304   23100476.195  
                
  20308116.102   106719880.287    20308119.738    83158374.5204                 
                
  19951592.938   106615281.397                    82923006.317    19951597.066  
  19951593.043  
  22913712.391   122529929.900                    95301065.344    22913716.195  
  22913711.297  
  20828205.969   111182381.401                    86475184.708    20828209.508  
  20828204.898  
  23437727.180   124936296.672                    97172680.633    23437731.738  
  23437726.672  
 21  8 16 23 48 10.0000000  0 16G 6R 7G17G15G13G14R16G24R17R 6G12G19
                                R15R24R18R14
  23492642.492   123454671.096    23492651.699    96198478.4684   23492652.215  
                
  23028865.719   123275322.673                    95880794.876    23028869.930  
  23028864.477  
  21770528.242   114404912.975    21770534.039    89146723.4404   21770534.188  
                
  23111645.984   121452515.698    23111652.336    94638357.2824   23111652.223  
                
  23332512.297   122613191.197    23332518.586    95542775.5254                 
                
  23260338.266   122233938.696    23260344.887    95247262.1954   23260344.980  
                
  20536279.461   109701127.665                    85323089.205    20536281.086  
  20536279.051  
  20760107.547   109095099.307    20760116.074    85009218.6954   20760116.176  
                
  19838734.344   106161086.773                    82569731.776    19838737.625  
  19838732.547  
  22431818.922   119700454.923                                                  
  22431816.398  
  23095049.023   121365307.900    23095055.324    94570401.3764   23095055.426  
                
  20308546.656   106722142.821    20308550.250    83160137.5354                 
                
  19953690.000   106626487.398                    82931722.100    19953694.129  
  19953690.105  
  22920506.023   122566258.489                    95329320.910    22920509.793  
  22920504.895  
  20821559.516   111146902.078                    86447589.680    20821563.012  
  20821558.426  
  23443583.078   124967511.998                    97196959.189    23443587.652  
  23443582.535  
 21  8 16 23 48 20.0000000  0 16G 6R 7G17G15G13G14R16G24R17R 6G12G19
                                R15R24R18R14
  23486719.414   123423545.424    23486728.734    96174224.7024   23486729.242  
                
  23027091.367   123265824.443                    95873407.357    23027095.566  
  23027090.168  
  21774686.688   114426765.710    21774692.516    89163751.5414   21774692.645  
                
  23117153.445   121481457.533    23117159.734    94660909.3654   23117159.617  
                
  23339340.445   122649073.203    23339346.641    95570735.5394                 
                
  23265612.500   122261654.909    23265619.109    95268859.2364   23265619.203  
                
  20532063.359   109678606.007                    85305572.382    20532064.973  
  20532062.957  
  20757128.734   109079445.558    20757137.234    84997020.9784   20757137.348  
                
  19839233.383   106163757.292                    82571808.857    19839236.676  
  19839231.570  
  22436203.609   119723852.988                                                  
  22436201.113  
  23089631.578   121336839.122    23089637.824    94548217.9104   23089637.938  
                
  20308990.023   106724472.739    20308993.594    83161953.0624                 
                
  19955794.742   106637734.507                    82940469.843    19955798.875  
  19955794.844  
  22927308.367   122602633.753                    95357612.779    22927312.137  
  22927307.254  
  20814923.914   111111480.807                    86420039.825    20814927.395  
  20814922.812  
  23449442.281   124998744.380                    97221251.056    23449446.777  
  23449441.672  
 21  8 16 23 48 30.0000000  0 16G 6R 7G17G15G13G14R16G24R17R 6G12G19
                                R15R24R18R14
  23480800.789   123392442.871    23480810.191    96149988.9694   23480810.688  
                
  23025332.594   123256409.631                    95866084.731    23025336.805  
  23025331.422  
  21778852.703   114448658.255    21778858.566    89180810.6744   21778858.668  
                
  23122666.523   121510429.025    23122672.785    94683484.5514   23122672.668  
                
  23346171.836   122684972.170    23346177.980    95598708.7564                 
                
  23270888.789   122289381.868    23270895.363    95290464.6524   23270895.477  
                
  20527852.094   109656110.211                    85288075.653    20527853.691  
  20527851.707  
  20754159.453   109063841.886    20754167.926    84984862.2774   20754168.047  
                
  19839750.031   106166521.975                    82573959.166    19839753.324  
  19839748.211  
  22440600.305   119747314.786                                                  
  22440597.805  
  23084217.414   121308387.566    23084223.613    94526047.8624   23084223.734  
                
  20309446.219   106726870.041    20309449.777    83163821.0884                 
                
  19957907.141   106649022.538                    82949249.417    19957911.289  
  19957907.238  
  22934119.344   122639055.117                    95385940.520    22934123.141  
  22934118.242  
  20808299.180   111076117.504                    86392535.034    20808302.641  
  20808298.070  
  23455304.609   125029993.817                    97245556.145    23455309.117  
  23455303.977  
 21  8 16 23 48 40.0000000  0 16G 6R 7G17G15G13G14R16G24R17R 6G12G19
                                R15R24R18R14
  23474886.617   123361363.228    23474896.008    96125771.0814   23474896.484  
                
  23023589.391   123247078.185                    95858826.929    23023593.594  
  23023588.207  
  21783026.211   114470590.184    21783032.102    89197900.4904   21783032.188  
                
  23128185.141   121539429.719    23128191.391    94706082.4944   23128191.273  
                
  23353006.344   122720887.773    23353012.484    95626694.9384                 
                
  23276167.070   122317119.223    23276173.648    95312078.1754   23276173.781  
                
  20523645.633   109633639.999                    85270598.808    20523647.215  
  20523645.246  
  20751199.648   109048287.995    20751208.094    84972742.3604   20751208.223  
                
  19840284.195   106169380.409                    82576182.401    19840287.500  
  19840282.355  
  22445008.914   119770839.658                                                  
  22445006.418  
  23078806.500   121279953.138    23078812.695    94503891.1794   23078812.824  
                
  20309915.180   106729334.400    20309918.723    83165741.3614                 
                
  19960027.148   106660351.191                    82958060.589    19960031.297  
  19960027.242  
  22940938.930   122675522.469                    95414304.021    22940942.754  
  22940937.863  
  20801685.281   111040812.048                    86365075.232    20801688.734  
  20801684.172  
  23461170.102   125061259.984                    97269874.256    23461174.609  
  23461169.473  
 21  8 16 23 48 50.0000000  0 16G 6R 7G17G15G13G14R16G24R17R 6G12G19
                                R15R24R18R14
  23468976.844   123330306.577    23468986.152    96101571.0864   23468986.613  
                
  23021861.688   123237829.697                    95851633.657    23021865.871  
  23021860.500  
  21787207.188   114492561.384    21787213.098    89215020.9014   21787213.164  
                
  23133709.258   121568459.367    23133715.484    94728702.9944   23133715.379  
                
  23359843.953   122756819.810    23359850.113    95654693.9224                 
                
  23281447.289   122344866.860    23281453.918    95333699.7034   23281454.035  
                
  20519443.938   109611195.301                    85253141.831    20519445.516  
  20519443.547  
  20748249.312   109032783.883    20748257.742    84960661.2394   20748257.883  
                
  19840835.844   106172332.517                    82578478.483    19840839.160  
  19840833.996  
  22449429.297   119794427.598                                                  
  22449426.762  
  23073398.812   121251535.674    23073405.051    94481747.7234   23073405.164  
                
  20310396.867   106731865.704    20310400.406    83167713.8204                 
                
  19962154.734   106671720.425                    82966903.312    19962158.895  
  19962154.820  
  22947767.000   122712035.211                    95442702.812    22947770.840  
  22947765.953  
  20795082.242   111005564.566                    86337660.536    20795085.664  
  20795081.113  
  23467038.609   125092542.765                    97294205.284    23467043.180  
  23467038.016  
 21  8 16 23 49  0.0000000  0 16G 6R 7G17G15G13G14R16G24R17R 6G12G19
                                R15R24R18R14
  23463071.664   123299273.953    23463080.836    96077389.8114   23463081.312  
                
  23020149.766   123228665.598                    95844506.048    23020153.949  
  23020148.551  
  21791395.836   114514572.832    21791401.762    89232172.6784   21791401.805  
                
  23139239.070   121597518.863    23139245.289    94751346.7564   23139245.195  
                
  23366684.852   122792769.145    23366691.039    95682706.3904                 
                
  23286729.656   122372625.744    23286736.348    95355329.9934   23286736.457  
                
  20515247.242   109588777.308                    85235705.618    20515248.816  
  20515246.859  
  20745308.656   109017330.597    20745317.078    84948619.7174   20745317.211  
                
  19841405.203   106175379.250                    82580848.165    19841408.535  
  19841403.352  
  22453861.703   119818079.442                                                  
  22453859.152  
  23067994.594   121223136.352    23068000.906    94459618.4024   23068000.984  
                
  20310891.477   106734464.860    20310894.996    83169739.1404                 
                
  19964290.125   106683131.262                    82975778.416    19964294.293  
  19964290.199  
  22954603.820   122748594.515                    95471137.837    22954607.668  
  22954602.738  
  20788490.281   110970376.247                    86310291.852    20788493.676  
  20788489.117  
  23472910.531   125123843.143                    97318550.017    23472915.078  
  23472909.898  
 21  8 16 23 49 10.0000000  0 16G 6R 7G17G15G13G14R16G24R17R 6G12G19
                                R15R24R18R14
  23457170.406   123268262.885    23457179.574    96053225.3384   23457180.066  
                
  23018453.039   123219582.932                    95837441.734    23018457.246  
  23018451.836  
  21795591.602   114536621.753    21795597.527    89249353.6554   21795597.570  
                
  23144774.031   121626605.445    23144780.223    94774011.6284   23144780.164  
                
  23373528.531   122828733.010    23373534.688    95710730.1834                 
                
  23292013.641   122400393.229    23292020.383    95376966.9724   23292020.496  
                
  20511055.070   109566383.458                    85218288.203    20511056.648  
  20511054.691  
  20742377.172   109001925.577    20742385.598    84936615.8094   20742385.723  
                
  19841991.742   106178517.969                    82583289.389    19841995.078  
  19841989.883  
  22458305.523   119841792.091                                                  
  22458302.902  
  23062593.312   121194752.516    23062599.641    94437501.1244   23062599.715  
                
  20311398.492   106737129.230    20311401.984    83171815.2804                 
                
  19966432.805   106694581.104                    82984683.840    19966436.961  
  19966432.863  
  22961448.742   122785197.312                    95499606.684    22961452.586  
  22961447.617  
  20781908.938   110935244.582                    86282967.219    20781912.312  
  20781907.750  
  23478785.164   125155158.463                    97342906.394    23478789.766  
  23478784.586  
 21  8 16 23 49 20.0000000  0 16G 6R 7G17G15G13G14R16G24R17R 6G12G19
                                R15R24R18R14
  23451273.734   123237275.750    23451282.879    96029079.5214   23451283.391  
                
  23016771.992   123210584.258                    95830442.764    23016776.230  
  23016770.766  
  21799794.898   114558710.313    21799800.801    89266565.5214   21799800.855  
                
  23150314.578   121655721.318    23150320.738    94796699.3334   23150320.707  
                
  23380375.375   122864713.582    23380381.527    95738766.9994                 
                
  23297299.688   122428171.538    23297306.508    95398612.4084   23297306.602  
                
  20506867.789   109544015.777                    85200891.129    20506869.344  
  20506867.426  
  20739455.320   108986571.164    20739463.758    84924651.3284   20739463.863  
                
  19842595.875   106181750.837                    82585803.854    19842599.211  
  19842594.012  
  22462761.133   119865568.064                                                  
  22462758.508  
  23057195.391   121166386.386    23057201.707    94415397.6644   23057201.789  
                
  20311918.336   106739861.033    20311921.785    83173943.9624                 
                
  19968583.203   106706072.184                    82993621.352    19968587.355  
  19968583.246  
  22968302.219   122821845.867                    95528111.104    22968306.078  
  22968301.082  
  20775338.633   110900171.916                    86255688.484    20775342.004  
  20775337.438  
  23484663.094   125186490.976                    97367276.115    23484667.641  
  23484662.500  
 21  8 16 23 49 30.0000000  0 16G 6R 7G17G15G13G14R16G24R17R 6G12G19
                                R15R24R18R14
  23445381.547   123206312.283    23445390.707    96004952.1314   23445391.207  
                
  23015106.578   123201669.175                    95823508.806    23015110.828  
  23015105.398  
  21804005.656   114580837.966    21804011.543    89283807.8464   21804011.605  
                
  23155860.594   121684865.968    23155866.785    94819409.4444   23155866.770  
                
  23387225.273   122900710.215    23387231.441    95766816.3084                 
                
  23302587.719   122455960.280    23302594.605    95420265.9534   23302594.680  
                
  20502685.406   109521674.266                    85183514.401    20502686.949  
  20502685.066  
  20736543.039   108971267.000    20736551.492    84912726.0124   20736551.594  
                
  19843217.547   106185077.543                    82588391.285    19843220.883  
  19843215.672  
  22467228.336   119889406.548                                                  
  22467225.773  
  23051800.789   121138037.630    23051807.082    94393307.7144   23051807.156  
                
  20312450.938   106742659.822    20312454.352    83176124.8404                 
                
  19970741.234   106717604.086                    83002590.606    19970745.391  
  19970741.266  
  22975164.188   122858539.748                    95556650.819    22975168.039  
  22975163.031  
  20768779.352   110865158.065                    86228455.497    20768782.695  
  20768778.148  
  23490544.141   125217840.350                    97391658.948    23490548.688  
  23490543.562  
 21  8 16 23 49 40.0000000  0 16G 6R 7G17G15G13G14R16G24R17R 6G12G19
                                R15R24R18R14
  23439493.984   123175372.675    23439503.086    95980843.3474   23439503.566  
                
  23013456.812   123192837.758                    95816639.914    23013461.039  
  23013455.715  
  21808223.836   114603004.729    21808229.719    89301080.6504   21808229.781  
                
  23161412.070   121714039.352    23161418.340    94842141.9454   23161418.324  
                
  23394078.289   122936723.186    23394084.500    95794878.3544                 
                
  23307877.734   122483759.491    23307884.652    95441927.6724   23307884.711  
                
  20498507.945   109499359.001                    85166158.090    20498509.445  
  20498507.598  
  20733640.352   108956013.280    20733648.828    84900840.0034   20733648.914  
                
  19843856.734   106188498.002                    82591051.659    19843860.086  
  19843854.848  
  22471707.273   119913307.534                                                  
  22471704.770  
  23046409.523   121109706.361    23046415.805    94371231.4354   23046415.867  
                
  20312996.289   106745525.612    20312999.660    83178357.9244                 
                
  19972906.961   106729177.061                    83011591.810    19972911.098  
  19972907.004  
  22982034.531   122895278.602                    95585225.472    22982038.383  
  22982033.371  
  20762231.148   110830203.308                    86201268.458    20762234.488  
  20762229.938  
  23496428.398   125249206.507                    97416054.880    23496432.891  
  23496427.789  
 21  8 16 23 49 50.0000000  0 16G 6R 7G17G15G13G14R16G24R17R 6G12G19
                                R15R24R18R14
  23433610.914   123144457.139    23433620.051    95956753.3214   23433620.516  
                
  23011822.695   123184090.083                    95809836.178    23011826.906  
  23011821.633  
  21812449.469   114625210.572    21812455.340    89318383.9004   21812455.410  
                
  23166969.047   121743241.454    23166975.402    94864896.8224   23166975.363  
                
  23400934.430   122972752.345    23400940.641    95822953.0224                 
                
  23313169.750   122511569.274    23313176.672    95463597.6304   23313176.723  
                
  20494335.414   109477070.094                    85148822.279    20494336.898  
  20494335.059  
  20730747.289   108940810.138    20730755.797    84888993.3974   20730755.859  
                
  19844513.500   106192012.514                    82593785.155    19844516.840  
  19844511.609  
  22476198.094   119937271.170                                                  
  22476195.578  
  23041021.570   121081392.550    23041027.852    94349168.7264   23041027.926  
                
  20313554.406   106748458.531    20313557.742    83180643.3204                 
                
  19975080.344   106740790.949                    83020624.828    19975084.477  
  19975080.383  
  22988913.297   122932062.545                    95613835.202    22988917.160  
  22988912.125  
  20755694.039   110795307.822                    86174127.521    20755697.367  
  20755692.801  
  23502315.867   125280589.583                    97440463.915    23502320.270  
  23502315.172  
 21  8 16 23 50  0.0000000  0 16G 6R 7G17G15G13G14R16G24R17R 6G12G19
                                R15R24R18R14
  23427732.320   123113565.377    23427741.504    95932681.8214   23427741.988  
                
  23010204.125   123175425.722                    95803097.247    23010208.344  
  23010203.066  
  21816682.453   114647455.085    21816688.320    89335717.2944   21816688.383  
                
  23172531.398   121772471.800    23172537.805    94887673.7084   23172537.766  
                
  23407793.547   123008797.227    23407799.797    95851039.9374                 
                
  23318463.680   122539389.177    23318470.645    95485275.4564   23318470.676  
                
  20490167.750   109454807.202                    85131506.696    20490169.211  
  20490167.375  
  20727863.789   108925657.247    20727872.328    84877185.9474   20727872.367  
                
  19845187.727   106195620.467                    82596591.343    19845191.062  
  19845185.828  
  22480700.547   119961296.673                                                  
  22480697.965  
  23035636.914   121053095.971    23035643.176    94327119.4434   23035643.258  
                
  20314125.227   106751458.193    20314128.531    83182980.7254                 
                
  19977261.359   106752445.616                    83029689.574    19977265.484  
  19977261.410  
  22995800.414   122968891.026                    95642479.575    22995804.250  
  22995799.215  
  20749168.000   110760471.384                    86147032.517    20749171.348  
  20749166.723  
  23508206.438   125311989.147                    97464885.782    23508210.766  
  23508205.648  
 21  8 16 23 50 10.0000000  0 16G 6R 7G17G15G13G14R16G24R17R 6G12G19
                                R15R24R18R14
  23421858.344   123082697.568    23421867.508    95908628.9874   23421868.023  
                
  23008601.172   123166844.916                    95796423.280    23008605.355  
  23008600.113  
  21820922.789   114669738.275    21820928.660    89353080.8214   21820928.723  
                
  23178099.094   121801730.262    23178105.562    94910472.5064   23178105.516  
                
  23414655.594   123044857.773    23414661.930    95879139.0584                 
                
  23323759.547   122567219.203    23323766.586    95506961.1654   23323766.594  
                
  20486004.953   109432570.254                    85114211.292    20486006.398  
  20486004.562  
  20724989.875   108910554.682    20724998.445    84865417.7154   20724998.465  
                
  19845879.414   106199321.833                    82599470.193    19845882.742  
  19845877.520  
  22485214.555   119985384.200                                                  
  22485211.992  
  23030255.539   121024816.653    23030261.785    94305083.6174   23030261.879  
                
  20314708.758   106754524.639    20314712.031    83185370.1644                 
                
  19979449.984   106764140.969                    83038785.951    19979454.098  
  19979450.016  
  23002695.812   123005763.799                    95671158.411    23002699.629  
  23002694.527  
  20742653.039   110725694.140                    86119983.552    20742656.414  
  20742651.734  
  23514099.938   125343405.224                    97489320.515    23514104.363  
  23514099.254  
 21  8 16 23 50 20.0000000  0 16G 6R 7G17G15G13G14R16G24R17R 6G12G19
                                R15R24R18R14
  23415988.961   123051853.642    23415998.078    95884594.7654   23415998.598  
                
  23007013.789   123158347.503                    95789814.181    23007017.934  
  23007012.738  
  21825170.430   114692059.857    21825176.316    89370474.2584   21825176.383  
                
  23183672.109   121831016.560    23183678.637    94933293.0124   23183678.570  
                
  23421520.586   123080933.616    23421526.984    95907250.1144                 
                
  23329057.297   122595059.131    23329064.379    95528654.6134   23329064.383  
                
  20481846.977   109410359.185                    85096936.025    20481848.410  
  20481846.574  
  20722125.500   108895502.346    20722134.102    84853688.6274   20722134.105  
                
  19846588.523   106203116.468                    82602421.580    19846591.852  
  19846586.637  
  22489740.086   120009533.195                                                  
  22489737.523  
  23024877.406   120996554.324    23024883.645    94283061.0314   23024883.719  
                
  20315304.953   106757657.687    20315308.203    83187811.5114                 
                
  19981646.188   106775876.903                    83047913.901    19981650.301  
  19981646.219  
  23009599.461   123042680.724                    95699871.571    23009603.273  
  23009598.117  
  20736149.164   110690976.076                    86092980.622    20736152.566  
  20736147.836  
  23519996.562   125374837.546                    97513767.858    23520000.996  
  23519995.906  
 21  8 16 23 50 30.0000000  0 16G 6R 7G17G15G13G14R16G24R17R 6G12G19
                                R15R24R18R14
  23410124.281   123021034.228    23410133.320    95860579.6254   23410133.844  
                
  23005442.078   123149934.020                    95783270.359    23005446.211  
  23005441.023  
  21829425.477   114714420.274    21829431.387    89387897.9504   21829431.438  
                
  23189250.516   121860331.090    23189257.082    94956135.4914   23189257.000  
                
  23428388.641   123117025.169    23428395.055    95935373.3954                 
                
  23334357.016   122622909.450    23334364.160    95550356.1484   23334364.145  
                
  20477693.992   109388174.657                    85079681.381    20477695.441  
  20477693.582  
  20719270.797   108880500.773    20719279.426    84841999.0884   20719279.418  
                
  19847315.156   106207004.816                    82605445.857    19847318.465  
  19847313.262  
  22494277.180   120033743.920                                                  
  22494274.629  
  23019502.617   120968309.603    23019508.895    94261052.1744   23019508.965  
                
  20315913.914   106760857.740    20315917.137    83190305.0574                 
                
  19983850.086   106787653.853                    83057073.737    19983854.199  
  19983850.105  
  23016511.406   123079642.116                    95728619.353    23016515.223  
  23016510.082  
  20729656.508   110656317.917                    86066024.295    20729659.922  
  20729655.160  
  23525896.391   125406286.732                    97538228.344    23525900.801  
  23525895.719  
 21  8 16 23 50 40.0000000  0 16G 6R 7G17G15G13G14R16G24R17R 6G12G19
                                R15R24R18R14
  23404264.227   122990239.226    23404273.207    95836583.5154   23404273.750  
                
  23003885.984   123141604.116                    95776791.554    23003890.102  
  23003884.949  
  21833687.805   114736819.004    21833693.746    89405351.5024   21833693.785  
                
  23194834.211   121889673.464    23194840.805    94978999.6774   23194840.703  
                
  23435259.562   123153132.079    23435266.035    95963508.6384                 
                
  23339658.680   122650769.961    23339665.848    95572065.6034   23339665.809  
                
  20473545.977   109366016.686                    85062447.424    20473547.461  
  20473545.566  
  20716425.742   108865549.873    20716434.395    84830349.0374   20716434.375  
                
  19848059.258   106210986.681                    82608542.873    19848062.543  
  19848057.363  
  22498825.875   120058016.307                                                  
  22498823.293  
  23014131.141   120940082.370    23014137.453    94239056.9384   23014137.547  
                
  20316535.523   106764124.315    20316538.727    83192850.4474                 
                
  19986061.656   106799471.807                    83066265.475    19986065.785  
  19986061.676  
  23023431.562   123116647.547                    95757401.331    23023435.398  
  23023430.215  
  20723175.047   110621719.515                    86039114.427    20723178.477  
  20723173.664  
  23531799.328   125437752.581                    97562701.776    23531803.742  
  23531798.625  
 21  8 16 23 50 50.0000000  0 16G 6R 7G17G15G13G14R16G24R17R 6G12G19
                                R15R24R18R14
  23398408.828   122959468.708    23398417.793    95812606.4834   23398418.328  
                
  23002345.539   123133357.930                    95770377.832    23002349.652  
  23002344.531  
  21837957.453   114759256.199    21837963.438    89422835.0324   21837963.449  
                
  23200423.188   121919043.605    23200429.809    95001885.5114   23200429.652  
                
  23442133.383   123189254.181    23442139.910    95991655.7354                 
                
  23344962.258   122678640.528    23344969.418    95593782.9424   23344969.371  
                
  20469402.883   109343885.069                    85045233.943    20469404.359  
  20469402.461  
  20713590.320   108850649.626    20713598.992    84818738.4564   20713598.961  
                
  19848820.820   106215062.028                    82611712.591    19848824.117  
  19848818.910  
  22503386.055   120082350.147                                                  
  22503383.523  
  23008763.016   120911872.607    23008769.332    94217075.3154   23008769.434  
                
  20317169.820   106767457.537    20317173.004    83195447.7674                 
                
  19988280.867   106811330.584                    83075488.961    19988284.992  
  19988280.879  
  23030359.922   123153696.705                    95786217.367    23030363.746  
  23030358.570  
  20716704.805   110587181.031                    86012251.149    20716708.234  
  20716703.395  
  23537705.336   125469234.853                    97587187.961    23537709.746  
  23537704.637  
 21  8 16 23 51  0.0000000  0 16G 6R 7G17G15G13G14R16G24R17R 6G12G19
                                R15R24R18R14
  23392558.031   122928722.688    23392567.051    95788648.5494   23392567.594  
                
  23000820.695   123125195.347                    95764029.144    23000824.805  
  23000819.664  
  21842234.367   114781731.595    21842240.383    89440348.3174   21842240.383  
                
  23206017.383   121948441.278    23206024.023    95024792.7874   23206023.855  
                
  23449010.078   123225391.308    23449016.609    96019814.5344                 
                
  23350267.766   122706521.084    23350274.871    95615508.0454   23350274.852  
                
  20465264.688   109321779.690                    85028040.882    20465266.188  
  20465264.262  
  20710764.531   108835800.026    20710773.223    84807167.3364   20710773.176  
                
  19849599.820   106219230.658                    82614954.862    19849603.105  
  19849597.918  
  22507957.594   120106744.913                                                  
  22507955.129  
  23003398.141   120883680.147    23003404.453    94195107.1814   23003404.574  
                
  20317816.766   106770857.278    20317819.930    83198096.9164                 
                
  19990507.695   106823230.108                    83084744.146    19990511.820  
  19990507.707  
  23037296.445   123190789.531                    95815067.349    23037300.273  
  23037295.039  
  20710245.758   110552702.316                    85985434.379    20710249.215  
  20710244.336  
  23543614.383   125500733.573                    97611686.971    23543618.828  
  23543613.699  
 21  8 16 23 51 10.0000000  0 16G 6R 7G17G15G13G14R16G24R17R 6G12G19
                                R15R24R18R14
  23386711.930   122898001.327    23386721.004    95764709.8434   23386721.559  
                
  22999311.453   123117116.328                    95757745.474    22999315.574  
  22999310.340  
  21846518.547   114804245.123    21846524.559    89457891.3304   21846524.566  
                
  23211616.781   121977866.425    23211623.445    95047721.4624   23211623.281  
                
  23455889.602   123261543.365    23455896.145    96047984.9634                 
                
  23355575.156   122734411.607    23355582.230    95637240.9154   23355582.246  
                
  20461131.477   109299700.856                    85010868.453    20461132.984  
  20461131.047  
  20707948.398   108821001.141    20707957.094    84795635.7374   20707957.055  
                
  19850396.250   106223492.519                    82618269.644    19850399.527  
  19850394.340  
  22512540.664   120131200.650                                                  
  22512538.203  
  22998036.578   120855504.958    22998042.855    94173152.4844   22998043.020  
                
  20318476.375   106774323.542    20318479.523    83200797.9044                 
                
  19992742.164   106835170.404                    83094031.029    19992746.285  
  19992742.188  
  23044241.109   123227925.908                    95843951.201    23044244.930  
  23044239.652  
  20703797.969   110518283.737                    85958664.380    20703801.449  
  20703796.539  
  23549526.492   125532248.753                    97636198.747    23549530.977  
  23549525.844  
 21  8 16 23 51 20.0000000  0 16G 6R 7G17G15G13G14R16G24R17R 6G12G19
                                R15R24R18R14
  23380870.641   122867304.743    23380879.691    95740790.4344   23380880.246  
                
  22997817.859   123109121.106                    95751526.980    22997821.992  
  22997816.664  
  21850809.977   114826796.718    21850815.941    89475464.0064   21850815.961  
                
  23217221.391   122007318.896    23217228.070    95070671.4234   23217227.914  
                
  23462771.953   123297710.299    23462778.523    96076166.9994                 
                
  23360884.445   122762312.110    23360891.531    95658981.5444   23360891.555  
                
  20457003.219   109277648.452                    84993716.593    20457004.746  
  20457002.770  
  20705141.938   108806253.048    20705150.633    84784143.7244   20705150.602  
                
  19851210.094   106227847.584                    82621656.922    19851213.359  
  19851208.176  
  22517135.188   120155717.290                                                  
  22517132.684  
  22992678.312   120827347.026    22992684.574    94151211.2674   22992684.758  
                
  20319148.648   106777856.328    20319151.770    83203550.7274                 
                
  19994984.289   106847151.584                    83103349.731    19994988.406  
  19994984.324  
  23051193.859   123265105.593                    95872868.752    23051197.691  
  23051192.453  
  20697361.500   110483925.484                    85931941.314    20697364.992  
  20697360.055  
  23555441.625   125563780.240                    97660723.251    23555446.266  
  23555441.051  
 21  8 16 23 51 30.0000000  0 16G 6R 7G17G15G13G14R16G24R17R 6G12G19
                                R15R24R18R14
  23375034.086   122836633.049    23375043.121    95716890.4174   23375043.648  
                
  22996339.906   123101209.642                    95745373.605    22996344.039  
  22996338.672  
  21855108.625   114849386.263    21855114.543    89493066.2504   21855114.570  
                
  23222831.188   122036798.798    23222837.887    95093642.7704   23222837.715  
                
  23469657.016   123333891.934    23469663.672    96104360.4754                 
                
  23366195.617   122790222.533    23366202.688    95680729.9044   23366202.730  
                
  20452879.922   109255622.674                    84976585.444    20452881.477  
  20452879.465  
  20702345.141   108791555.818    20702353.824    84772691.3324   20702353.793  
                
  19852041.359   106232295.912                    82625116.735    19852044.641  
  19852039.434  
  22521741.031   120180294.539                                                  
  22521738.500  
  22987323.352   120799206.585    22987329.648    94129283.6584   22987329.809  
                
  20319833.555   106781455.565    20319836.664    83206355.3324                 
                
  19997234.039   106859173.566                    83112700.155    19997238.156  
  19997234.098  
  23058154.703   123302328.481                    95901819.895    23058158.555  
  23058153.293  
  20690936.320   110449627.541                    85905265.132    20690939.820  
  20690934.867  
  23561359.891   125595328.072                    97685260.440    23561364.570  
  23561359.324  
 21  8 16 23 51 40.0000000  0 16G 6R 7G17G15G13G14R16G24R17R 6G12G19
                                R15R24R18R14
  23369202.352   122805986.619    23369211.363    95693010.0784   23369211.855  
                
  22994877.641   123093382.043                    95739285.459    22994881.785  
  22994876.383  
  21859414.523   114872013.934    21859420.406    89510698.2084   21859420.453  
                
  23228446.195   122066305.950    23228452.883    95116635.3494   23228452.699  
                
  23476544.898   123370088.354    23476551.648    96132565.4724                 
                
  23371508.734   122818143.080    23371515.770    95702486.1784   23371515.832  
                
  20448761.664   109233623.716                    84959475.153    20448763.246  
  20448761.180  
  20699558.078   108776909.718    20699566.750    84761278.7914   20699566.734  
                
  19852890.086   106236837.672                    82628649.212    19852893.348  
  19852888.137  
  22526358.250   120204932.716                                                  
  22526355.684  
  22981971.773   120771083.853    22981978.066    94107369.8444   22981978.219  
                
  20320531.148   106785121.429    20320534.258    83209211.8494                 
                
  19999491.492   106871236.658                    83122082.559    19999495.605  
  19999491.574  
  23065123.594   123339594.474                    95930804.514    23065127.500  
  23065122.109  
  20684522.539   110415390.389                    85878636.242    20684526.051  
  20684521.070  
  23567281.320   125626892.415                    97709810.473    23567286.000  
  23567280.754  
 21  8 16 23 51 50.0000000  0 16G 6R 7G17G15G13G14R16G24R17R 6G12G19
                                R15R24R18R14
  23363375.359   122775365.325    23363384.375    95669149.3304   23363384.871  
                
  22993431.039   123085638.291                    95733262.545    22993435.211  
  22993429.766  
  21863727.609   114894679.381    21863733.461    89528359.5964   21863733.504  
                
  23234066.359   122095840.057    23234073.008    95139648.9534   23234072.793  
                
  23483435.633   123406299.284    23483442.371    96160781.7914                 
                
  23376823.727   122846073.507    23376830.688    95724250.1494   23376830.785  
                
  20444648.398   109211651.395                    84942385.568    20444649.996  
  20444647.910  
  20696780.727   108762314.618    20696789.375    84749905.9864   20696789.375  
                
  19853756.211   106241472.495                    82632254.079    19853759.465  
  19853754.258  
  22530986.773   120229631.317                                                  
  22530984.180  
  22976623.508   120742978.579    22976629.730    94085469.6514   22976629.898  
                
  20321241.383   106788853.747    20321244.508    83212120.1544                 
                
  20001756.586   106883340.627                    83131496.744    20001760.699  
  20001756.684  
  23072100.586   123376903.611                    95959822.724    23072104.543  
  23072099.078  
  20678120.125   110381213.921                    85852054.564    20678123.641  
  20678118.652  
  23573205.875   125658473.163                    97734373.276    23573210.488  
  23573205.230  
 21  8 16 23 52  0.0000000  0 16G 6R 7G17G15G13G14R16G24R17R 6G12G19
                                R15R24R18R14
  23357553.273   122744769.535    23357562.211    95645308.4434   23357562.711  
                
  22992000.133   123077978.586                    95727304.958    22992004.332  
  22991998.887  
  21868047.938   114917382.828    21868053.762    89546050.5974   21868053.797  
                
  23239691.672   122125401.302    23239698.266    95162683.6874   23239698.062  
                
  23490329.164   123442524.856    23490335.871    96189009.5174                 
                
  23382140.641   122874014.049    23382147.539    95746021.9784   23382147.652  
                
  20440540.203   109189706.193                    84925317.076    20440541.801  
  20440539.711  
  20694013.125   108747770.820    20694021.750    84738573.1574   20694021.781  
                
  19854639.789   106246200.687                    82635931.568    19854643.027  
  19854637.824  
  22535626.547   120254390.370                                                  
  22535623.961  
  22971278.594   120714890.858    22971284.727    94063583.1174   22971284.906  
                
  20321964.289   106792652.662    20321967.441    83215080.3544                 
                
  20004029.375   106895485.710                    83140942.920    20004033.496  
  20004029.488  
  23079085.594   123414255.737                    95988874.352    23079089.598  
  23079084.016  
  20671729.172   110347098.606                    85825520.430    20671732.672  
  20671727.688  
  23579133.406   125690070.393                    97758948.904    23579138.070  
  23579132.785  
 21  8 16 23 52 10.0000000  0 16G 6R 7G17G15G13G14R16G24R17R 6G12G19
                                R15R24R18R14
  23351736.008   122714199.626    23351744.953    95621487.7304   23351745.457  
                
  22990584.992   123070403.265                    95721413.034    22990589.234  
  22990583.789  
  21872375.516   114940124.428    21872381.328    89563771.3244   21872381.371  
                
  23245322.133   122154989.603    23245328.672    95185739.5114   23245328.473  
                
  23497225.570   123478765.251    23497232.207    96217248.7964                 
                
  23387459.555   122901964.974    23387466.406    95767801.9034   23387466.539  
                
  20436437.102   109167788.183                    84908269.739    20436438.719  
  20436436.609  
  20691255.352   108733278.639    20691263.949    84727280.5514   20691263.992  
                
  19855540.859   106251022.545                    82639681.885    19855544.082  
  19855538.891  
  22540277.758   120279210.108                                                  
  22540275.113  
  22965937.133   120686821.219    22965943.199    94041710.6584   22965943.395  
                
  20322699.914   106796518.380    20322703.102    83218092.5994                 
                
  20006309.906   106907672.132                    83150421.238    20006314.023  
  20006310.027  
  23086078.641   123451650.764                    96017959.363    23086082.672  
  23086077.039  
  20665349.734   110313044.801                    85799034.146    20665353.211  
  20665348.270  
  23585064.023   125721684.425                    97783537.579    23585068.805  
  23585063.512  
 21  8 16 23 52 20.0000000  0 16G 6R 7G17G15G13G14R16G24R17R 6G12G19
                                R15R24R18R14
  23345923.516   122683654.937    23345932.508    95597686.6674   23345932.992  
                
  22989185.484   123062911.599                    95715586.181    22989189.742  
  22989184.250  
  21876710.188   114962903.277    21876716.004    89581521.0734   21876716.055  
                
  23250957.625   122184604.400    23250964.129    95208815.9834   23250963.930  
                
  23504124.461   123515019.520    23504131.195    96245498.8724                 
                
  23392780.266   122929925.401    23392787.113    95789589.2544   23392787.246  
                
  20432339.016   109145896.936                    84891243.211    20432340.617  
  20432338.539  
  20688507.266   108718837.364    20688515.828    84716027.6134   20688515.887  
                
  19856459.258   106255937.122                    82643504.353    19856462.477  
  19856457.289  
  22544940.039   120304089.557                                                  
  22544937.492  
  22960598.922   120658768.747    22960604.969    94019851.6104   22960605.172  
                
  20323448.094   106800450.091    20323451.312    83221156.2774                 
                
  20008598.055   106919899.321                    83159931.270    20008602.164  
  20008598.172  
  23093079.570   123489088.002                    96047077.224    23093083.633  
  23093077.969  
  20658981.695   110279051.876                    85772595.186    20658985.152  
  20658980.246  
  23590997.703   125753314.462                    97808138.718    23591002.543  
  23590997.273  
 21  8 16 23 52 30.0000000  0 16G 6R 7G17G15G13G14R16G24R17R 6G12G19
                                R15R24R18R14
  23340115.984   122653135.976    23340124.973    95573905.6554   23340125.441  
                
  22987801.688   123055503.958                    95709824.678    22987805.953  
  22987800.445  
  21881052.016   114985719.726    21881057.824    89599300.1234   21881057.879  
                
  23256598.188   122214245.922    23256604.676    95231913.2544   23256604.480  
                
  23511026.109   123551287.990    23511032.891    96273760.0104                 
                
  23398102.859   122957895.719    23398109.723    95811384.2884   23398109.836  
                
  20428245.992   109124032.731                    84874237.721    20428247.609  
  20428245.500  
  20685768.953   108704447.408    20685777.488    84704814.6634   20685777.570  
                
  19857395.047   106260944.748                    82647399.175    19857398.258  
  19857393.086  
  22549613.656   120329028.755                                                  
  22549611.051  
  22955264.102   120630734.018    22955270.121    93998006.3764   22955270.293  
                
  20324208.906   106804448.222    20324212.152    83224271.7064                 
                
  20010893.883   106932167.519                    83169473.197    20010897.988  
  20010894.004  
  23100088.414   123526567.547                    96076227.982    23100092.520  
  23100086.855  
  20652625.156   110245120.257                    85746203.923    20652628.633  
  20652623.727  
  23596934.625   125784960.907                    97832752.610    23596939.355  
  23596934.102  
 21  8 16 23 52 40.0000000  0 15G 6R 7G17G15G13G14R16G24R17R 6G12G19
                                R15R24R18
  23334313.273   122622642.510    23334322.281    95550144.5124   23334322.742  
                
  22986433.469   123048179.852                    95704128.165    22986437.766  
  22986432.219  
  21885400.898   115008573.276    21885406.691    89617108.0884   21885406.750  
                
  23262243.758   122243913.629    23262250.238    95255030.9504   23262250.039  
                
  23517930.398   123587570.210    23517937.141    96302031.8504                 
                
  23403427.250   122985875.575    23403434.145    95833186.7554   23403434.266  
                
  20424157.953   109102195.228                    84857253.008    20424159.598  
  20424157.473  
  20683040.352   108690108.552    20683048.867    84693641.5314   20683048.965  
                
  19858348.180   106266045.194                    82651366.190    19858351.391  
  19858346.207  
  22554298.438   120354027.597                                                  
  22554295.812  
  22949932.586   120602716.560    22949938.551    93976174.5674   22949938.703  
                
  20324982.266   106808512.297    20324985.547    83227438.5214                 
                
  20013197.328   106944476.431                    83179046.793    20013201.418  
  20013197.453  
  23107105.125   123564089.139                    96105411.454    23107109.246  
  23107103.590  
  20646280.086   110211249.850                    85719860.285    20646283.555  
  20646278.633  
 21  8 16 23 52 50.0000000  0 15G 6R 7G17G15G13G14R16G24R17R 6G12G19
                                R15R24R18
  23328515.508   122592175.041    23328524.520    95526403.6174   23328524.980  
                
  22985081.000   123040940.044                    95698497.198    22985085.309  
  22985079.746  
  21889756.906   115031464.228    21889762.668    89634945.1854   21889762.730  
                
  23267894.367   122273607.817    23267900.844    95278169.2884   23267900.672  
                
  23524837.383   123623866.431    23524844.070    96330314.6084                 
                
  23408753.531   123013865.327    23408760.473    95854996.9374   23408760.578  
                
  20420075.023   109080384.917                    84840289.437    20420076.695  
  20420074.523  
  20680321.562   108675821.194    20680330.070    84682508.5254   20680330.172  
                
  19859318.688   106271238.586                    82655405.487    19859321.887  
  19859316.711  
  22558994.359   120379086.044                                                  
  22558991.730  
  22944604.461   120574716.954    22944610.426    93954356.6904   22944610.543  
                
  20325768.250   106812642.640    20325771.566    83230656.9724                 
                
  20015508.492   106956826.504                    83188652.398    20015512.574  
  20015508.617  
  23114129.711   123601652.828                    96134627.677    23114133.824  
  23114128.215  
  20639946.602   110177441.327                    85693564.770    20639950.070  
  20639945.133  
 21  8 16 23 53  0.0000000  0 15G 6R 7G17G15G13G14R16G24R17R 6G12G19
                                R15R24R18
  23322722.672   122561733.762    23322731.723    95502683.1364   23322732.199  
                
  22983744.258   123033784.361                    95692931.655    22983748.586  
  22983743.020  
  21894120.023   115054392.599    21894125.762    89652811.4424   21894125.832  
                
  23273550.016   122303328.453    23273556.477    95301328.2254   23273556.324  
                
  23531747.016   123660176.590    23531753.664    96358608.2574                 
                
  23414081.703   123041865.013    23414088.688    95876814.8574   23414088.770  
                
  20415997.211   109058601.990                    84823347.170    20415998.910  
  20415996.715  
  20677612.594   108661585.494    20677621.094    84671415.7794   20677621.195  
                
  19860306.594   106276525.130                    82659517.260    19860309.801  
  19860304.633  
  22563701.422   120404204.125                                                  
  22563698.848  
  22939279.711   120546735.219    22939285.754    93932552.7744   22939285.820  
                
  20326566.844   106816839.289    20326570.207    83233927.0964                 
                
  20017827.344   106969217.705                    83198289.984    20017831.418  
  20017827.488  
  23121162.125   123639258.465                    96163876.522    23121166.270  
  23121160.660  
  20633624.703   110143694.638                    85667317.353    20633628.176  
  20633623.246  
 21  8 16 23 53 10.0000000  0 15G 6R 7G17G15G13G14R16G24R17R 6G12G19
                                R15R24R18
  23316934.688   122531318.550    23316943.883    95478982.9784   23316944.375  
                
  22982423.211   123026712.662                    95687431.457    22982427.562  
  22982421.969  
  21898490.203   115077358.054    21898495.930    89670706.6084   21898495.996  
                
  23279210.633   122333075.096    23279217.105    95324507.4304   23279216.953  
                
  23538659.234   123696500.379    23538665.805    96386912.5124                 
                
  23419411.734   123069874.383    23419418.727    95898640.3444   23419418.812  
                
  20411924.461   109036846.130                    84806425.940    20411926.168  
  20411923.988  
  20674913.422   108647401.269    20674921.914    84660363.1324   20674922.020  
                
  19861311.844   106281904.462                    82663701.176    19861315.031  
  19861309.887  
  22568419.641   120429381.204                                                  
  22568417.027  
  22933958.336   120518771.164    22933964.422    93910762.6064   22933964.477  
                
  20327378.008   106821102.037    20327381.426    83237248.7174                 
                
  20020153.844   106981649.824                    83207959.412    20020157.914  
  20020154.004  
  23128202.320   123676905.694                    96193157.687    23128206.492  
  23128200.867  
  20627314.383   110110009.765                    85641118.011    20627317.855  
  20627312.941  
 21  8 16 23 53 20.0000000  0 15G 6R 7G17G15G13G14R16G24R17R 6G12G19
                                R15R24R18
  23311151.812   122500929.613    23311161.016    95455303.2754   23311161.527  
                
  22981117.875   123019725.031                    95681996.616    22981122.227  
  22981116.668  
  21902867.445   115100360.570    21902873.168    89688630.6424   21902873.219  
                
  23284876.250   122362847.851    23284882.738    95347706.9844   23284882.574  
                
  23545574.078   123732837.698    23545580.539    96415227.3134                 
                
  23424743.602   123097893.472    23424750.625    95920473.3854   23424750.707  
                
  20407856.844   109015117.660                    84789526.023    20407858.555  
  20407856.387  
  20672224.078   108633268.663    20672232.555    84649350.7154   20672232.660  
                
  19862334.469   106287376.760                    82667957.416    19862337.660  
  19862332.527  
  22573148.984   120454617.600                                                  
  22573146.305  
  22928640.328   120490824.801    22928646.434    93888986.2114   22928646.480  
                
  20328201.766   106825430.944    20328205.254    83240621.8934                 
                
  20022488.039   106994123.011                    83217660.779    20022492.121  
  20022488.199  
  23135250.359   123714594.623                    96222471.289    23135254.543  
  23135248.898  
  20621015.680   110076386.878                    85614966.873    20621019.152  
  20621014.262  
 21  8 16 23 53 30.0000000  0 15G 6R 7G17G15G13G14R16G24R17R 6G12G19
                                R15R24R18
  23305373.852   122470567.124    23305383.238    95431644.2014   23305383.754  
                
  22979828.250   123012821.516                    95676627.234    22979832.621  
  22979827.047  
  21907251.742   115123400.165    21907257.480    89706583.5794   21907257.500  
                
  23290546.789   122392646.595    23290553.293    95370926.7834   23290553.137  
                
  23552491.453   123769188.454    23552497.855    96443552.5834                 
                
  23430077.336   123125922.361    23430084.387    95942314.0584   23430084.465  
                
  20403794.375   108993416.687                    84772647.500    20403796.125  
  20403793.918  
  20669544.586   108619187.812    20669553.059    84638378.6274   20669553.164  
                
  19863374.438   106292941.831                    82672285.803    19863377.609  
  19863372.504  
  22577889.367   120479912.950                                                  
  22577886.625  
  22923325.688   120462896.207    22923331.836    93867223.7004   22923331.863  
                
  20329038.117   106829825.974    20329041.680    83244046.5924                 
                
  20024829.938   107006637.367                    83227394.155    20024834.004  
  20024830.098  
  23142306.156   123752325.057                    96251817.179    23142310.340  
  23142304.688  
  20614728.680   110042826.431                    85588864.309    20614732.164  
  20614727.270  
 21  8 16 23 53 40.0000000  0 15G 6R 7G17G15G13G14R16G24R17R 6G12G19
                                R15R24R18
  23299600.867   122440230.794    23299610.449    95408005.5184   23299610.949  
                
  22978554.250   123006001.766                    95671322.948    22978558.621  
  22978553.020  
  21911643.008   115146476.382    21911648.750    89724565.0444   21911648.758  
                
  23296222.141   122422470.769    23296228.688    95394166.3994   23296228.543  
                
  23559411.234   123805552.307    23559417.645    96471888.0524                 
                
  23435412.836   123153960.570    23435419.953    95964162.0034   23435419.984  
                
  20399736.961   108971742.771                    84755790.010    20399738.715  
  20399736.504  
  20666874.867   108605158.348    20666883.332    84627446.5774   20666883.422  
                
  19864431.664   106298599.254                    82676686.026    19864434.832  
  19864429.746  
  22582640.680   120505267.033                                                  
  22582637.930  
  22918014.312   120434984.945    22918020.527    93845474.6824   22918020.543  
                
  20329886.953   106834286.725    20329890.590    83247522.5004                 
                
  20027179.430   107019192.363                    83237159.153    20027183.496  
  20027179.605  
  23149369.562   123790096.362                    96281194.866    23149373.773  
  23149368.113  
  20608453.305   110009328.068                    85562810.033    20608456.781  
  20608451.910  
 21  8 16 23 53 50.0000000  0 15G 6R 7G17G15G13G14R16G24R17R 6G12G19
                                R15R24R18
  23293833.211   122409921.461    23293842.762    95384387.8674   23293843.285  
                
  22977296.078   122999266.724                    95666084.593    22977300.445  
  22977294.836  
  21916041.352   115169589.771    21916047.098    89742575.4744   21916047.113  
                
  23301902.469   122452321.038    23301909.074    95417426.3384   23301908.934  
                
  23566333.602   123841929.801    23566340.039    96500234.1474                 
                
  23440750.250   123182008.810    23440757.391    95986017.7824   23440757.418  
                
  20395684.789   108950096.803                    84738954.264    20395686.559  
  20395684.344  
  20664215.078   108591181.050    20664223.539    84616555.1744   20664223.633  
                
  19865506.289   106304349.845                    82681158.703    19865509.449  
  19865504.355  
  22587403.086   120530680.120                                                  
  22587400.355  
  22912706.422   120407091.845    22912712.676    93823739.8124   22912712.684  
                
  20330748.430   106838813.852    20330752.129    83251050.1394                 
                
  20029536.711   107031788.883                    83246956.447    20029540.773  
  20029536.887  
  23156440.758   123827909.169                    96310604.840    23156444.965  
  23156439.355  
  20602189.680   109975892.409                    85536804.520    20602193.156  
  20602188.293  
 21  8 16 23 54  0.0000000  0 15G 6R 7G17G15G13G14R16G24R17R 6G12G19
                                R15R24R18
  23288070.695   122379638.862    23288080.137    95360791.0184   23288080.676  
                
  22976053.648   122992615.808                    95660911.639    22976058.008  
  22976052.430  
  21920446.664   115192739.790    21920452.426    89760614.4464   21920452.426  
                
  23307587.641   122482196.836    23307594.320    95440706.1654   23307594.164  
                
  23573258.547   123878320.444    23573264.918    96528590.5034                 
                
  23446089.484   123210066.656    23446096.695    96007881.0114   23446096.711  
                
  20391637.773   108928478.305                    84722139.877    20391639.527  
  20391637.316  
  20661565.148   108577255.578    20661573.609    84605704.1554   20661573.703  
                
  19866598.258   106310193.134                    82685703.481    19866601.414  
  19866596.324  
  22592176.352   120556151.585                                                  
  22592173.656  
  22907401.891   120379216.419    22907408.160    93802018.7174   22907408.184  
                
  20331622.445   106843406.803    20331626.195    83254629.0564                 
                
  20031901.641   107044426.305                    83256785.548    20031905.711  
  20031901.820  
  23163519.609   123865762.843                    96340046.614    23163523.797  
  23163518.227  
  20595937.781   109942519.336                    85510847.695    20595941.258  
  20595936.395  
 21  8 16 23 54 10.0000000  0 15G 6R 7G17G15G13G14R16G24R17R 6G12G19
                                R15R24R18
  23282313.180   122349383.149    23282322.578    95337215.1234   23282323.152  
                
  22974826.914   122986049.011                    95655804.145    22974831.246  
  22974825.750  
  21924858.969   115215926.612    21924864.723    89778682.1004   21924864.734  
                
  23313277.641   122512098.149    23313284.379    95464005.8744   23313284.227  
                
  23580185.953   123914724.208    23580192.309    96556957.0644                 
                
  23451430.531   123238134.189    23451437.828    96029751.7784   23451437.816  
                
  20387595.914   108906887.563                    84705347.078    20387597.676  
  20387595.453  
  20658925.094   108563382.063    20658933.551    84594893.6244   20658933.641  
                
  19867707.516   106316129.057                    82690320.316    19867710.676  
  19867705.594  
  22596960.656   120581681.544                                                  
  22596957.910  
  22902100.742   120351358.882    22902107.004    93780311.5504   22902107.043  
                
  20332508.992   106848065.721    20332512.781    83258259.3864                 
                
  20034274.305   107057105.149                    83266646.875    20034278.383  
  20034274.484  
  23170606.094   123903657.460                    96369520.201    23170610.254  
  23170604.699  
  20589697.664   109909209.173                    85484939.780    20589701.148  
  20589696.285  
 21  8 16 23 54 20.0000000  0 15G 6R 7G17G15G13G14R16G24R17R 6G12G19
                                R15R24R18
  23276560.820   122319154.628    23276570.195    95313660.4444   23276570.809  
                
  22973615.945   122979566.586                    95650762.248    22973620.273  
  22973614.777  
  21929278.305   115239150.304    21929284.031    89796778.4934   21929284.051  
                
  23318972.555   122542025.105    23318979.301    95487325.5664   23318979.145  
                
  23587115.875   123951141.183    23587122.227    96585333.9314                 
                
  23456773.469   123266211.501    23456780.828    96051630.1854   23456780.785  
                
  20383559.281   108885324.582                    84688575.883    20383561.051  
  20383558.812  
  20656295.000   108549560.785    20656303.453    84584123.8014   20656303.543  
                
  19868834.141   106322157.865                    82695009.385    19868837.293  
  19868832.223  
  22601755.875   120607269.924                                                  
  22601753.148  
  22896803.055   120323519.434    22896809.281    93758618.4924   22896809.363  
                
  20333408.133   106852790.776    20333411.957    83261941.2544                 
                
  20036654.719   107069825.376                    83276540.380    20036658.805  
  20036654.875  
  23177700.227   123941593.005                    96399025.606    23177704.383  
  23177698.797  
  20583469.375   109875962.153                    85459080.998    20583472.871  
  20583468.023  
 21  8 16 23 54 30.0000000  0 15G 6R 7G17G15G13G14R16G24R17R 6G12G19
                                R15R24R18
  23270813.664   122288953.342    23270822.973    95290126.9674   23270823.629  
                
  22972420.719   122973168.495                    95645785.955    22972425.062  
  22972419.543  
  21933704.625   115262410.751    21933710.332    89814903.5164   21933710.359  
                
  23324672.281   122571977.371    23324679.055    95510664.9994   23324678.879  
                
  23594048.250   123987571.172    23594054.637    96613720.9264                 
                
  23462118.266   123294298.518    23462125.637    96073516.1884   23462125.562  
                
  20379527.883   108863789.613                    84671826.449    20379529.637  
  20379527.402  
  20653674.820   108535791.670    20653683.262    84573394.6184   20653683.348  
                
  19869978.078   106328279.354                    82699770.541    19869981.211  
  19869976.172  
  22606561.992   120632916.495                                                  
  22606559.336  
  22891508.836   120295698.043    22891515.008    93736939.4834   22891515.098  
                
  20334319.844   106857581.915    20334323.707    83265674.6064                 
                
  20039042.844   107082586.770                    83286465.907    20039046.938  
  20039042.977  
  23184801.953   123979569.189                    96428562.651    23184806.117  
  23184800.508  
  20577252.922   109842778.293                    85433271.346    20577256.426  
  20577251.590  
 21  8 16 23 54 40.0000000  0 15G 6R 7G17G15G13G14R16G24R17R 6G12G19
                                R15R24R18
  23265071.711   122258779.127    23265080.922    95266614.5834   23265081.590  
                
  22971241.203   122966854.584                    95640875.125    22971245.555  
  22971240.020  
  21938137.852   115285707.433    21938143.562    89833056.7794   21938143.570  
                
  23330376.758   122601954.651    23330383.566    95534023.9064   23330383.387  
                
  23600982.922   124024013.693    23600989.410    96642117.7014                 
                
  23467464.852   123322394.895    23467472.207    96095409.4684   23467472.141  
                
  20375501.672   108842282.348                    84655098.586    20375503.410  
  20375501.195  
  20651064.531   108522074.506    20651072.969    84562705.9234   20651073.051  
                
  19871139.266   106334493.050                    82704603.419    19871142.383  
  19871137.375  
  22611378.914   120658621.007                                                  
  22611376.355  
  22886218.000   120267894.413    22886224.133    93715274.3194   22886224.254  
                
  20335244.062   106862438.738    20335247.953    83269459.1534                 
                
  20041438.609   107095389.033                    83296423.209    20041442.719  
  20041438.727  
  23191911.141   124017585.438                    96458130.860    23191915.340  
  23191909.723  
  20571048.312   109809657.641                    85407510.834    20571051.801  
  20571047.008  
 21  8 16 23 54 50.0000000  0 15G 6R 7G17G15G13G14R16G24R17R 6G12G19
                                R15R24R18
  23259335.055   122228632.595    23259344.172    95243123.7624   23259344.824  
                
  22970077.500   122960625.183                    95636030.029    22970081.828  
  22970076.309  
  21942578.047   115309040.739    21942583.770    89851238.5774   21942583.754  
                
  23336086.055   122631957.216    23336092.891    95557402.5124   23336092.699  
                
  23607920.086   124060469.190    23607926.707    96670524.5634                 
                
  23472813.312   123350501.151    23472820.656    96117310.4314   23472820.625  
                
  20371480.742   108820803.290                    84638392.658    20371482.488  
  20371480.266  
  20648464.234   108508409.871    20648472.672    84552058.1594   20648472.746  
                
  19872317.789   106340799.570                    82709508.497    19872320.902  
  19872315.910  
  22616206.781   120684383.356                                                  
  22616204.258  
  22880930.617   120240108.989    22880936.719    93693623.3544   22880936.871  
                
  20336180.859   106867361.690    20336184.777    83273295.2224                 
                
  20043842.164   107108232.905                    83306412.881    20043846.289  
  20043842.262  
  23199027.945   124055642.216                    96487730.586    23199032.172  
  23199026.586  
  20564855.602   109776600.493                    85381799.727    20564859.082  
  20564854.320  
 21  8 16 23 55  0.0000000  0 15G 6R 7G17G15G13G14R16G24R17R 6G12G19
                                R15R24R18
  23253603.625   122198513.493    23253612.645    95219654.3204   23253613.289  
                
  22968929.578   122954480.273                    95631250.659    22968933.887  
  22968928.383  
  21947025.117   115332410.243    21947030.852    89869448.5904   21947030.820  
                
  23341800.070   122661984.579    23341806.906    95580800.4554   23341806.719  
                
  23614859.695   124096937.174    23614866.371    96698941.1694                 
                
  23478163.578   123378616.884    23478170.938    96139218.7914   23478170.887  
                
  20367465.000   108799351.890                    84621708.241    20367466.727  
  20367464.527  
  20645873.875   108494797.446    20645882.312    84541451.0714   20645882.387  
                
  19873513.578   106347198.515                    82714485.450    19873516.672  
  19873511.727  
  22621045.648   120710203.629                                                  
  22621043.047  
  22875646.617   120212341.370    22875652.691    93671986.2624   22875652.859  
                
  20337130.164   106872350.342    20337134.113    83277182.4854                 
                
  20046253.414   107121117.890                    83316434.518    20046257.551  
  20046253.496  
  23206152.258   124093739.125                    96517361.521    23206156.527  
  23206150.922  
  20558674.789   109743606.944                    85356138.086    20558678.270  
  20558673.508  
 21  8 16 23 55 10.0000000  0 15G 6R 7G17G15G13G14R16G24R17R 6G12G19
                                R15R24R18
  23247877.367   122168421.837    23247886.336    95196206.2714   23247886.988  
                
  22967797.336   122948419.306                    95626536.593    22967801.633  
  22967796.160  
  21951479.055   115355815.820    21951484.801    89887686.6954   21951484.762  
                
  23347518.797   122692036.643    23347525.602    95604217.6384   23347525.391  
                
  23621801.586   124133417.342    23621808.328    96727367.2744                 
                
  23483515.617   123406741.927    23483522.980    96161134.4204   23483522.914  
                
  20363454.516   108777928.629                    84605045.707    20363456.219  
  20363454.051  
  20643293.445   108481237.173    20643301.883    84530884.6264   20643301.953  
                
  19874726.633   106353689.794                    82719534.226    19874729.711  
  19874724.789  
  22625895.102   120736081.007                                                  
  22625892.520  
  22870366.016   120184591.582    22870372.047    93650363.0564   22870372.230  
                
  20338091.930   106877404.553    20338095.922    83281120.8364                 
                
  20048672.344   107134043.944                    83326488.104    20048676.496  
  20048672.426  
  23213284.000   124131875.811                    96547023.375    23213288.266  
  23213282.641  
  20552505.898   109710676.984                    85330525.900    20552509.352  
  20552504.621  
 21  8 16 23 55 20.0000000  0 15G 6R 7G17G15G13G14R16G24R17R 6G12G19
                                R15R24R18
  23242156.328   122138357.704    23242165.348    95172779.6734   23242166.000  
                
  22966680.836   122942442.617                    95621888.035    22966685.121  
  22966679.637  
  21955939.828   115379257.329    21955945.586    89905952.8024   21955945.543  
                
  23353242.180   122722113.265    23353248.945    95627653.9664   23353248.746  
                
  23628745.898   124169909.687    23628752.570    96755802.8544                 
                
  23488869.414   123434876.290    23488876.789    96183057.2714   23488876.723  
                
  20359449.258   108756533.305                    84588404.892    20359450.953  
  20359448.820  
  20640722.938   108467729.080    20640731.379    84520358.8424   20640731.438  
                
  19875956.891   106360273.157                    82724654.628    19875959.953  
  19875955.059  
  22630755.320   120762015.726                                                  
  22630752.762  
  22865088.828   120156859.629    22865094.832    93628753.7424   22865095.031  
                
  20339066.172   106882524.285    20339070.207    83285110.2384                 
                
  20051098.961   107147011.045                    83336573.635    20051103.129  
  20051099.047  
  23220423.125   124170052.006                    96576715.965    23220427.422  
  23220421.777  
  20546348.906   109677810.510                    85304963.084    20546352.348  
  20546347.613  
 21  8 16 23 55 30.0000000  0 15G 6R 7G17G15G13G14R16G24R17R 6G12G19
                                R15R24R18
  23236440.625   122108321.450    23236449.688    95149374.8064   23236450.309  
                
  22965580.109   122936550.267                    95617305.084    22965584.406  
  22965578.910  
  21960407.461   115402734.861    21960413.230    89924246.9884   21960413.199  
                
  23358970.273   122752214.533    23358977.012    95651109.5024   23358976.812  
                
  23635692.539   124206414.276    23635699.184    96784247.9924                 
                
  23494225.000   123463020.140    23494232.383    96204987.5214   23494232.328  
                
  20355449.289   108735166.145                    84571785.993    20355450.973  
  20355448.859  
  20638162.422   108454273.499    20638170.867    84509873.9724   20638170.922  
                
  19877204.414   106366948.898                    82729846.873    19877207.461  
  19877202.602  
  22635626.289   120788007.692                                                  
  22635623.719  
  22859815.062   120129145.804    22859821.070    93607158.5614   22859821.293  
                
  20340052.914   106887709.697    20340056.992    83289150.8124                 
                
  20053533.297   107160019.393                    83346691.228    20053537.480  
  20053533.379  
  23227569.711   124208268.066                    96606439.556    23227574.031  
  23227568.355  
  20540203.938   109645008.233                    85279450.202    20540207.355  
  20540202.641  
 21  8 16 23 55 40.0000000  0 15G 6R 7G17G15G13G14R16G24R17R 6G12G19
                                R15R24R18
  23230730.211   122078313.081    23230739.328    95125991.6674   23230739.934  
                
  22964495.133   122930742.315                    95612787.768    22964499.434  
  22964493.961  
  21964881.922   115426248.295    21964887.699    89942569.1444   21964887.676  
                
  23364703.016   122782340.223    23364709.770    95674584.0614   23364709.551  
                
  23642641.438   124242930.918    23642648.062    96812702.5164                 
                
  23499582.375   123491173.383    23499589.766    96226925.0914   23499589.699  
                
  20351454.539   108713826.942                    84555188.836    20351456.215  
  20351454.133  
  20635611.883   108440870.362    20635620.340    84499429.9714   20635620.395  
                
  19878469.148   106373716.776                    82735110.778    19878472.184  
  19878467.336  
  22640507.938   120814056.683                                                  
  22640505.383  
  22854544.688   120101449.931    22854550.715    93585577.3714   22854550.945  
                
  20341052.125   106892960.642    20341056.246    83293242.4604                 
                
  20055975.352   107173068.959                    83356840.875    20055979.559  
  20055975.434  
  23234723.617   124246523.246                    96636193.574    23234727.926  
  23234722.285  
  20534070.938   109612269.874                    85253987.033    20534074.348  
  20534069.660  
 21  8 16 23 55 50.0000000  0 15G 6R 7G17G15G13G14R16G24R17R 6G12G19
                                R15R24R18
  23225025.148   122048332.737    23225034.301    95102630.3574   23225034.891  
                
  22963425.938   122925018.785                    95608336.139    22963430.242  
  22963424.801  
  21969363.188   115449797.460    21969368.980    89960919.1494   21969368.973  
                
  23370440.414   122812490.256    23370447.145    95698077.5924   23370446.898  
                
  23649592.594   124279459.446    23649599.180    96841166.3034                 
                
  23504941.539   123519335.965    23504948.918    96248869.9504   23504948.832  
                
  20347465.086   108692515.951                    84538613.630    20347466.758  
  20347464.672  
  20633071.344   108427519.735    20633079.812    84489026.8854   20633079.859  
                
  19879751.125   106380576.852                    82740446.399    19879754.156  
  19879749.324  
  22645400.203   120840162.507                                                  
  22645397.730  
  22849277.758   120073772.091    22849283.766    93564010.2414   22849284.004  
                
  20342063.797   106898277.044    20342067.957    83297385.1154                 
                
  20058425.109   107186159.690                    83367022.549    20058429.332  
  20058425.199  
  23241884.906   124284817.859                    96665978.283    23241889.184  
  23241883.609  
  20527949.969   109579595.698                    85228573.776    20527953.375  
  20527948.699  
 21  8 16 23 56  0.0000000  0 15G 6R 7G17G15G13G14R16G24R17R 6G12G19
                                R15R24R18
  23219325.445   122018380.685    23219334.668    95079291.0994   23219335.246  
                
  22962372.508   122919379.659                    95603950.162    22962376.797  
  22962371.355  
  21973851.289   115473382.559    21973857.102    89979297.1464   21973857.102  
                
  23376182.438   122842664.646    23376189.121    95721590.1114   23376188.859  
                
  23656546.125   124315999.900    23656552.559    96869639.4004                 
                
  23510302.492   123547507.999    23510309.836    96270822.1724   23510309.785  
                
  20343480.992   108671233.629                    84522060.712    20343482.664  
  20343480.594  
  20630540.828   108414221.814    20630549.305    84478664.8694   20630549.352  
                
  19881050.328   106387529.159                    82745853.756    19881053.363  
  19881048.535  
  22650303.156   120866325.048                                                  
  22650300.625  
  22844014.305   120046112.423    22844020.230    93542457.2574   22844020.492  
                
  20343087.945   106903659.030    20343092.141    83301578.8714                 
                
  20060882.609   107199291.772                    83377236.380    20060886.852  
  20060882.699  
  23249053.523   124323151.596                    96695793.438    23249057.781  
  23249052.262  
  20521841.070   109546986.002                    85203210.689    20521844.477  
  20521839.801  
 21  8 16 23 56 10.0000000  0 15G 6R 7G17G15G13G14R16G24R17R 6G12G19
                                R15R24R18
  23213631.102   121988456.704    23213640.383    95055973.7124   23213640.938  
                
  22961334.812   122913824.756                    95599629.689    22961339.109  
  22961333.691  
  21978346.133   115497003.088    21978351.965    89997702.7464   21978351.957  
                
  23381929.008   122872862.967    23381935.668    95745121.2694   23381935.414  
                
  23663501.797   124352551.927    23663508.176    96898121.5074                 
                
  23515665.203   123575689.176    23515672.523    96292781.5174   23515672.492  
                
  20339502.180   108649979.513                    84505529.733    20339503.828  
  20339501.781  
  20628020.305   108400976.370    20628028.773    84468343.7444   20628028.820  
                
  19882366.688   106394573.253                    82751332.487    19882369.723  
  19882364.898  
  22655216.648   120892544.106                                                  
  22655214.113  
  22838754.281   120018470.650    22838760.098    93520918.1964   22838760.383  
                
  20344124.516   106909106.292    20344128.746    83305823.4934                 
                
  20063347.773   107212464.890                    83387482.144    20063352.039  
  20063347.859  
  23256229.398   124361524.086                    96725638.722    23256233.625  
  23256228.121  
  20515744.227   109514440.569                    85177897.579    20515747.629  
  20515742.953  
 21  8 16 23 56 20.0000000  0 15G 6R 7G17G15G13G14R16G24R17R 6G12G19
                                R15R24R18
  23207942.156   121958561.012    23207951.441    95032678.3754   23207951.973  
                
  22960312.859   122908354.184                    95595374.762    22960317.152  
  22960311.723  
  21982847.719   115520659.085    21982853.574    90016135.9904   21982853.547  
                
  23387680.109   122903085.181    23387686.762    95768671.0494   23387686.504  
                
  23670459.641   124389115.569    23670466.023    96926612.6524                 
                
  23521029.656   123603879.560    23521036.945    96314748.0544   23521036.934  
                
  20335528.680   108628753.769                    84489020.832    20335530.297  
  20335528.289  
  20625509.789   108387783.527    20625518.250    84458063.6094   20625518.305  
                
  19883700.227   106401709.308                    82756882.751    19883703.266  
  19883698.426  
  22660140.609   120918819.519                                                  
  22660138.117  
  22833497.625   119990846.652    22833503.359    93499392.9864   22833503.656  
                
  20345173.516   106914618.863    20345177.785    83310119.0034                 
                
  20065820.664   107225679.243                    83397759.962    20065824.949  
  20065820.762  
  23263412.523   124399935.477                    96755514.238    23263416.707  
  23263411.195  
  20509659.484   109481959.808                    85152634.764    20509662.891  
  20509658.203  
 21  8 16 23 56 30.0000000  0 15G 6R 7G17G15G13G14R16G24R17R 6G12G19
                                R15R24R18
  23202258.711   121928694.001    23202267.930    95009405.3704   23202268.449  
                
  22959306.719   122902968.202                    95591185.672    22959311.039  
  22959305.566  
  21987356.086   115544350.698    21987361.965    90034596.9894   21987361.930  
                
  23393435.820   122933331.562    23393442.461    95792239.6694   23393442.215  
                
  23677419.734   124425690.861    23677426.059    96955112.8914                 
                
  23526395.898   123632079.376    23526403.094    96336721.9224   23526403.137  
                
  20331560.508   108607556.473                    84472534.055    20331562.113  
  20331560.125  
  20623009.344   108374643.589    20623017.797    84447824.7034   20623017.848  
                
  19885050.984   106408937.480                    82762504.672    19885054.043  
  19885049.172  
  22665075.078   120945151.281                                                  
  22665072.656  
  22828244.430   119963240.927    22828250.129    93477882.0384   22828250.418  
                
  20346234.992   106920196.960    20346239.301    83314465.5744                 
                
  20068301.312   107238935.038                    83408070.014    20068305.609  
  20068301.422  
  23270602.898   124438385.630                    96785419.890    23270607.062  
  23270601.578  
  20503586.891   109449543.890                    85127422.395    20503590.309  
  20503585.586  
 21  8 16 23 56 40.0000000  0 15G 6R 7G17G15G13G14R16G24R17R 6G12G19
                                R15R24R18
  23196580.742   121898855.895    23196589.926    94986154.8864   23196590.430  
                
  22958316.383   122897666.838                    95587062.386    22958320.730  
  22958315.230  
  21991871.234   115568077.978    21991877.137    90053085.7834   21991877.082  
                
  23399196.086   122963601.963    23399202.742    95815826.9994   23399202.492  
                
  23684382.008   124462277.869    23684388.352    96983622.2404                 
                
  23531763.961   123660288.709    23531771.074    96358703.2254   23531771.172  
                
  20327597.750   108586388.159                    84456069.810    20327599.328  
  20327597.375  
  20620519.000   108361556.776    20620527.438    84437627.1804   20620527.496  
                
  19886418.969   106416257.887                    82768198.332    19886422.035  
  19886417.137  
  22670020.219   120971539.625                                                  
  22670017.805  
  22822994.742   119935653.740    22823000.418    93456385.5454   22823000.684  
                
  20347308.945   106925840.678    20347313.285    83318863.2784                 
                
  20070789.734   107252232.409                    83418412.411    20070794.043  
  20070789.844  
  23277800.523   124476874.599                    96815355.759    23277804.684  
  23277799.238  
  20497526.500   109417193.217                    85102260.765    20497529.922  
  20497525.184  
 21  8 16 23 56 50.0000000  0 15G 6R 7G17G15G13G14R16G24R17R 6G12G19
                                R15R24R18
  23190908.258   121869046.567    23190917.387    94962926.8414   23190917.898  
                
  22957341.867   122892450.131                    95583004.951    22957346.262  
  22957340.750  
  21996393.117   115591840.580    21996399.012    90071602.0964   21996398.973  
                
  23404960.836   122993896.010    23404967.520    95839432.7414   23404967.266  
                
  23691346.383   124498876.181    23691352.820    97012140.4164                 
                
  23537133.789   123688507.311    23537140.855    96380691.7244   23537140.984  
                
  20323640.391   108565248.625                    84439627.947    20323641.961  
  20323640.027  
  20618038.734   108348522.887    20618047.156    84427470.9024   20618047.230  
                
  19887804.109   106423670.096                    82773963.391    19887807.191  
  19887802.254  
  22674975.945   120997983.779                                                  
  22674973.430  
  22817748.516   119908084.664    22817754.176    93434903.1404   22817754.441  
                
  20348395.328   106931549.713    20348399.699    83323311.8764                 
                
  20073285.883   107265571.089                    83428786.936    20073290.207  
  20073285.984  
  23285005.320   124515401.982                    96845321.504    23285009.492  
  23285004.070  
  20491478.273   109384907.416                    85077149.595    20491481.727  
  20491476.934  
 21  8 16 23 57  0.0000000  0 15G 6R 7G17G15G13G14R16G24R17R 6G12G19
                                R15R24R18
  23185241.156   121839266.146    23185250.336    94939721.3154   23185250.875  
                
  22956383.133   122887317.829                    95579013.173    22956387.555  
  22956382.043  
  22000921.719   115615638.494    22000927.586    90090145.9274   22000927.559  
                
  23410730.055   123024213.585    23410736.781    95863056.8274   23410736.508  
                
  23698312.969   124535485.744    23698319.422    97040667.3494                 
                
  23542505.375   123716735.172    23542512.426    96402687.4554   23542512.555  
                
  20319688.422   108544137.857                    84423208.458    20319689.980  
  20319688.066  
  20615568.555   108335541.980    20615576.969    84417355.9124   20615577.055  
                
  19889206.430   106431174.246                    82779799.959    19889209.527  
  19889204.555  
  22679941.836   121024483.707                                                  
  22679939.438  
  22812505.758   119880533.881    22812511.438    93413434.9974   22812511.688  
                
  20349494.141   106937324.017    20349498.543    83327811.3354                 
                
  20075789.773   107278951.088                    83439193.587    20075794.109  
  20075789.871  
  23292217.281   124553967.505                    96875316.909    23292221.445  
  23292216.039  
  20485442.305   109352687.052                    85052089.314    20485445.785  
  20485440.953  
 21  8 16 23 57 10.0000000  0 16G 6R 7G17G15G13G14R16G24R17R 6G12G19
                                R15R24R18G 2
  23179579.609   121809514.808    23179588.812    94916538.4584   23179589.375  
                
  22955440.148   122882270.065                    95575087.157    22955444.578  
  22955439.043  
  22005457.039   115639471.709    22005462.871    90108717.2664   22005462.867  
                
  23416503.742   123054554.693    23416510.504    95886699.2374   23416510.250  
                
  23705281.648   124572106.479    23705288.098    97069202.9944                 
                
  23547878.727   123744972.334    23547885.746    96424690.4284   23547885.910  
                
  20315741.805   108523055.771                    84406811.283    20315743.352  
  20315741.449  
  20613108.477   108322614.210    20613116.891    84407282.3294   20613116.992  
                
  19890625.906   106438770.205                    82785707.936    19890629.012  
  19890624.012  
  22684918.234   121051039.344                                                  
  22684914.227  
  22807266.461   119853001.465    22807272.203    93391981.1794   22807272.445  
                
  20350605.375   106943163.618    20350609.797    83332361.6714                 
                
  20078301.398   107292372.487                    83449632.433    20078305.758  
  20078301.484  
  23299436.414   124592571.412                    96905342.171    23299440.562  
  23299435.168  
  20479418.602   109320532.124                    85027079.937    20479422.105  
  20479417.230  
  24558985.609   129058339.397    24558990.457   100564960.5504                 
                
 21  8 16 23 57 20.0000000  0 16G 6R 7G17G15G13G14R16G24R17R 6G12G19
                                R15R24R18G 2
  23173923.648   121779792.671    23173932.832    94893378.3394   23173933.410  
                
  22954512.969   122877306.860                    95571226.878    22954517.398  
  22954511.840  
  22009999.047   115663340.078    22010004.859    90127315.9964   22010004.863  
                
  23422281.914   123084919.146    23422288.691    95910359.8474   23422288.449  
                
  23712252.383   124608738.364    23712258.898    97097747.3084                 
                
  23553253.836   123773218.743    23553260.844    96446700.6084   23553261.012  
                
  20311800.641   108502002.799                    84390436.750    20311802.199  
  20311800.277  
  20610658.516   108309739.572    20610666.930    84397250.1434   20610667.035  
                
  19892062.547   106446458.031                    82791687.341    19892065.648  
  19892060.633  
  22689905.156   121077650.801                                                  
  22689901.227  
  22802030.664   119825487.335    22802036.492    93370541.6224   22802036.695  
                
  20351729.016   106949068.454    20351733.457    83336962.8384                 
                
  20080820.781   107305835.287                    83460103.507    20080825.164  
  20080820.867  
  23306662.641   124631213.337                    96935397.010    23306666.785  
  23306661.391  
  20473407.164   109288442.733                    85002121.519    20473410.684  
  20473405.805  
  24552687.539   129025243.182    24552692.402   100539171.3034                 
                
 21  8 16 23 57 30.0000000  0 16G 6R 7G17G15G13G14R16G24R17R 6G12G19
                                R15R24R18G 2
  23168273.227   121750099.895    23168282.422    94870241.1074   23168283.031  
                
  22953601.641   122872428.409                    95567432.507    22953606.062  
  22953600.484  
  22014547.734   115687243.587    22014553.539    90145942.1004   22014553.547  
                
  23428064.508   123115306.957    23428071.344    95934038.6604   23428071.098  
                
  23719225.320   124645381.290    23719231.785    97126300.2464                 
                
  23558630.719   123801474.449    23558637.727    96468718.0194   23558637.910  
                
  20307864.914   108480978.907                    84374084.836    20307866.488  
  20307864.531  
  20608218.695   108296918.214    20608227.113    84387259.4814   20608227.215  
                
  19893516.328   106454237.522                    82797738.063    19893519.445  
  19893514.395  
  22694902.539   121104317.599                                                  
  22694898.867  
  22796798.398   119797991.635    22796804.309    93349116.4194   22796804.504  
                
  20352865.086   106955038.533    20352869.547    83341614.8544                 
                
  20083347.930   107319339.597                    83470606.858    20083352.332  
  20083348.000  
  23313895.938   124669892.984                    96965481.193    23313900.090  
  23313894.727  
  20467408.047   109256419.046                    84977214.210    20467411.586  
  20467406.680  
  24546389.984   128992149.426    24546394.812   100513383.9794                 
                
 21  8 16 23 57 40.0000000  0 16G 6R 7G17G15G13G14R16G24R17R 6G12G19
                                R15R24R18G 2
  23162628.398   121720436.343    23162637.609    94847126.6594   23162638.242  
                
  22952706.070   122867634.302                    95563703.770    22952710.488  
  22952704.965  
  22019103.047   115711181.868    22019108.844    90164595.3054   22019108.871  
                
  23433851.469   123145717.759    23433858.395    95957735.3714   23433858.113  
                
  23726200.305   124682034.883    23726206.691    97154861.4834                 
                
  23564009.312   123829739.166    23564016.324    96490742.4544   23564016.520  
                
  20303934.562   108459983.718                    84357755.242    20303936.152  
  20303934.164  
  20605788.969   108284149.929    20605797.387    84377310.1684   20605797.488  
                
  19894987.219   106462108.605                    82803860.009    19894990.332  
  19894985.297  
  22699910.180   121131039.779                                                  
  22699906.750  
  22791569.586   119770514.095    22791575.543    93327705.3544   22791575.746  
                
  20354013.523   106961073.592    20354018.004    83346317.4984                 
                
  20085882.797   107332885.139                    83481142.279    20085887.191  
  20085882.848  
  23321136.305   124708610.465                    96995594.779    23321140.434  
  23321135.125  
  20461421.266   109224461.249                    84952358.148    20461424.824  
  20461419.906  
  24540092.852   128959058.035    24540097.684   100487598.4924                 
                
 21  8 16 23 57 50.0000000  0 16G 6R 7G17G15G13G14R16G24R17R 6G12G19
                                R15R24R18G 2
  23156989.258   121690802.264    23156998.402    94824035.1684   23156999.043  
                
  22951826.312   122862924.835                    95560040.839    22951830.750  
  22951825.250  
  22023664.984   115735155.020    22023670.781    90183275.6944   22023670.824  
                
  23439642.812   123176151.489    23439649.793    95981449.9664   23439649.492  
                
  23733177.312   124718699.135    23733183.629    97183431.0284                 
                
  23569389.656   123858012.982    23569396.645    96512773.9984   23569396.852  
                
  20300009.672   108439017.628                    84341448.294    20300011.262  
  20300009.246  
  20603369.391   108271434.924    20603377.816    84367402.3684   20603377.918  
                
  19896475.203   106470071.131                    82810053.097    19896478.324  
  19896473.289  
  22704927.875   121157816.699                                                  
  22704924.715  
  22786344.250   119743054.839    22786350.246    93306308.5394   22786350.457  
                
  20355174.328   106967173.645    20355178.836    83351070.7894                 
                
  20088425.414   107346472.108                    83491709.932    20088429.812  
  20088425.473  
  23328383.633   124747365.155                    97025737.310    23328387.742  
  23328382.438  
  20455446.789   109192569.141                    84927553.191    20455450.383  
  20455445.426  
  24533796.234   128925969.261    24533801.102   100461815.0664                 
                
 21  8 16 23 58  0.0000000  0 16G 6R 7G17G15G13G14R16G24R17R 6G12G19
                                R15R24R18G 2
  23151355.719   121661197.815    23151364.832    94800966.7744   23151365.484  
                
  22950962.320   122858299.876                    95556443.629    22950966.789  
  22950961.246  
  22028233.531   115759162.935    22028239.336    90201983.1574   22028239.375  
                
  23445438.484   123206608.139    23445445.496    96005182.4204   23445445.215  
                
  23740156.312   124755373.996    23740162.602    97212008.8514                 
                
  23574771.766   123886295.931    23574778.750    96534812.6494   23574778.934  
                
  20296090.234   108418080.785                    84325164.077    20296091.816  
  20296089.785  
  20600959.953   108258773.280    20600968.387    84357536.1514   20600968.477  
                
  19897980.297   106478125.241                    82816317.400    19897983.430  
  19897978.410  
  22709956.016   121184648.760                                                  
  22709953.121  
  22781122.406   119715613.915    22781128.414    93284926.0054   22781128.645  
                
  20356347.484   106973338.657    20356352.016    83355874.6964                 
                
  20090975.781   107360100.473                    83502309.762    20090980.172  
  20090975.844  
  23335637.953   124786157.275                    97055908.952    23335642.047  
  23335636.730  
  20449484.703   109160743.195                    84902799.679    20449488.344  
  20449483.355  
  24527500.094   128892883.248    24527505.059   100436033.7724                 
                
 21  8 16 23 58 10.0000000  0 16G 6R 7G17G15G13G14R16G24R17R 6G12G19
                                R15R24R18G 2
  23145727.891   121631623.467    23145736.980    94777921.8224   23145737.641  
                
  22950114.211   122853759.958                    95552912.557    22950118.715  
  22950113.145  
  22032808.766   115783205.931    22032814.594    90220717.9574   22032814.629  
                
  23451238.547   123237087.888    23451245.598    96028932.8604   23451245.336  
                
  23747137.430   124792059.684    23747143.684    97240595.1114                 
                
  23580155.656   123914588.323    23580162.699    96556858.6624   23580162.832  
                
  20292176.297   108397173.178                    84308902.611    20292177.875  
  20292175.844  
  20598560.750   108246165.380    20598569.188    84347711.8204   20598569.277  
                
  19899502.562   106486271.193                    82822653.136    19899505.719  
  19899500.691  
  22714994.727   121211535.685                                                  
  22714991.832  
  22775904.094   119688191.514    22775910.117    93263557.9144   22775910.348  
                
  20357533.078   106979568.962    20357537.617    83360729.4854                 
                
  20093533.953   107373770.553                    83512942.033    20093538.336  
  20093534.023  
  23342899.266   124824986.819                    97086109.712    23342903.383  
  23342898.047  
  20443535.102   109128983.824                    84878097.953    20443538.762  
  20443533.750  
  24521204.539   128859800.432    24521209.637   100410254.9884                 
                
 21  8 16 23 58 20.0000000  0 16G 6R 7G17G15G13G14R16G24R17R 6G12G19
                                R15R24R18G 2
  23140105.750   121602078.785    23140114.781    94754900.0024   23140115.465  
                
  22949281.891   122849304.509                    95549447.229    22949286.383  
  22949280.836  
  22037390.562   115807283.436    22037396.418    90239479.6474   22037396.445  
                
  23457042.930   123267590.165    23457049.980    96052700.8624   23457049.730  
                
  23754120.453   124828755.610    23754126.656    97269189.3324                 
                
  23585541.211   123942889.641    23585548.316    96578911.6174   23585548.406  
                
  20288267.797   108376294.748                    84292663.828    20288269.363  
  20288267.355  
  20596171.688   108233610.781    20596180.133    84337929.0154   20596180.219  
                
  19901041.875   106494508.329                    82829059.800    19901045.039  
  19901040.012  
  22720043.703   121238477.158                                                  
  22720040.770  
  22770689.289   119660787.512    22770695.328    93242204.1514   22770695.547  
                
  20358730.992   106985864.056    20358735.535    83365634.7574                 
                
  20096099.844   107387481.884                    83523606.410    20096104.215  
  20096099.930  
  23350167.523   124863853.435                    97116339.317    23350171.641  
  23350166.344  
  20437597.875   109097290.563                    84853447.653    20437601.547  
  20437596.531  
  24514909.555   128826720.394    24514914.723   100384478.3574                 
                
 21  8 16 23 58 30.0000000  0 16G 6R 7G17G15G13G14R16G24R17R 6G12G19
                                R15R24R18G 2
  23134489.281   121572563.915    23134498.246    94731901.3914   23134498.941  
                
  22948465.312   122844933.384                    95546047.488    22948469.797  
  22948464.238  
  22041978.867   115831395.198    22041984.754    90258268.0264   22041984.781  
                
  23462851.570   123298114.872    23462858.633    96076486.3444   23462858.414  
                
  23761105.359   124865461.481    23761111.508    97297791.3194                 
                
  23590928.453   123971199.855    23590935.574    96600971.5104   23590935.645  
                
  20284364.805   108355445.701                    84276447.888    20284366.340  
  20284364.379  
  20593792.789   108221109.572    20593801.238    84328187.8104   20593801.320  
                
  19902598.227   106502836.662                    82835537.395    19902601.398  
  19902596.375  
  22725102.805   121265472.812                                                  
  22725099.922  
  22765477.945   119633401.831    22765484.000    93220864.6614   22765484.215  
                
  20359941.234   106992223.921    20359945.773    83370590.4934                 
                
  20098673.453   107401234.494                    83534302.872    20098677.828  
  20098673.531  
  23357442.641   124902756.711                    97146597.422    23357446.781  
  23357441.484  
  20431673.102   109065663.663                    84828848.947    20431676.770  
  20431671.762  
  24508615.148   128793643.182    24508620.328   100358703.9264                 
                
 21  8 16 23 58 40.0000000  0 16G 6R 7G17G15G13G14R16G24R17R 6G12G19
                                R15R24R18G 2
  23128878.516   121543079.127    23128887.453    94708926.2354   23128888.156  
                
  22947664.531   122840646.757                    95542713.424    22947669.035  
  22947663.441  
  22046573.719   115855541.349    22046579.637    90277083.2074   22046579.660  
                
  23468664.508   123328661.996    23468671.570    96100289.3064   23468671.355  
                
  23768092.117   124902177.562    23768098.297    97326401.2544                 
                
  23596317.445   123999519.084    23596324.496    96623038.4364   23596324.586  
                
  20280467.305   108334625.974                    84260254.776    20280468.836  
  20280466.879  
  20591424.070   108208661.902    20591432.527    84318488.3314   20591432.602  
                
  19904171.641   106511256.345                    82842086.040    19904174.820  
  19904169.797  
  22730172.273   121292523.138                                                  
  22730169.270  
  22760270.117   119606034.573    22760276.117    93199539.5364   22760276.359  
                
  20361163.812   106998648.603    20361168.344    83375596.7364                 
                
  20101254.812   107415028.449                    83545031.504    20101259.168  
  20101254.887  
  23364724.625   124941696.696                    97176884.079    23364728.766  
  23364723.469  
  20425760.781   109034103.359                    84804302.050    20425764.453  
  20425759.430  
  24502321.352   128760569.128    24502326.551   100332931.9554                 
                
 21  8 16 23 58 50.0000000  0 16G 6R 7G17G15G13G14R16G24R17R 6G12G19
                                R15R24R18G 2
  23123273.500   121513624.327    23123282.414    94685974.4394   23123283.105  
                
  22946879.531   122836444.630                    95539445.095    22946884.062  
  22946878.418  
  22051175.055   115879721.607    22051180.996    90295924.9674   22051181.020  
                
  23474481.656   123359231.209    23474488.699    96124109.4644   23474488.488  
                
  23775080.742   124938903.548    23775086.977    97355018.9034                 
                
  23601708.094   124027847.090    23601715.094    96645112.2094   23601715.211  
                
  20276575.289   108313835.531                    84244084.438    20276576.820  
  20276574.855  
  20589065.523   108196267.659    20589073.980    84308830.4834   20589074.051  
                
  19905762.055   106519767.018                    82848705.454    19905765.258  
  19905760.207  
  22735251.727   121319627.148                                                  
  22735248.625  
  22755065.750   119578685.482    22755071.672    93178228.5604   22755071.957  
                
  20362398.672   107005137.848    20362403.203    83380653.2934                 
                
  20103843.898   107428863.762                    83555792.298    20103848.223  
  20103843.980  
  23372013.383   124980673.009                    97207199.004    23372017.504  
  23372012.238  
  20419860.930   109002609.591                    84779806.904    20419864.605  
  20419859.570  
  24496028.086   128727498.111    24496033.305   100307162.3444                 
                
 21  8 16 23 59  0.0000000  0 16G 6R 7G17G15G13G14R16G24R17R 6G12G19
                                R15R24R18G 2
  23117674.250   121484199.992    23117683.195    94663046.3954   23117683.871  
                
  22946110.367   122832327.219                    95536242.683    22946114.957  
  22946109.250  
  22055782.969   115903936.349    22055788.922    90314793.5974   22055788.961  
                
  23480303.047   123389822.720    23480310.070    96147946.9894   23480309.867  
                
  23782071.383   124975639.667    23782077.602    97383644.4654                 
                
  23607100.508   124056184.219    23607107.438    96667193.1024   23607107.582  
                
  20272688.805   108293074.656                    84227937.089    20272690.340  
  20272688.375  
  20586717.227   108183927.261    20586725.684    84299214.5934   20586725.750  
                
  19907369.523   106528368.891                    82855395.801    19907372.754  
  19907367.680  
  22740341.055   121346785.222                                                  
  22740338.062  
  22749864.938   119551355.025    22749870.852    93156932.1094   22749871.137  
                
  20363645.891   107011691.993    20363650.410    83385760.4224                 
                
  20106440.773   107442740.661                    83566585.428    20106445.074  
  20106440.863  
  23379309.023   125019686.080                    97237542.502    23379313.145  
  23379307.852  
  20413973.664   108971182.950                    84755363.964    20413977.328  
  20413972.312  
  24489735.531   128694430.565    24489740.742   100281395.4474                 
                
 21  8 16 23 59 10.0000000  0 16G 6R 7G17G15G13G14R16G24R17R 6G12G19
                                R15R24R18G 2
  23112080.805   121454806.233    23112089.785    94640142.1774   23112090.449  
                
  22945357.016   122828294.562                    95533106.164    22945361.637  
  22945355.859  
  22060397.398   115928185.369    22060403.363    90333688.9344   22060403.398  
                
  23486128.680   123420436.533    23486135.672    96171801.9104   23486135.469  
                
  23789063.875   125012385.763    23789070.098    97412277.7844                 
                
  23612494.641   124084530.461    23612501.543    96689281.1034   23612501.715  
                
  20268807.883   108272343.475                    84211812.840    20268809.430  
  20268807.453  
  20584379.188   108171640.768    20584387.637    84289640.7074   20584387.711  
                
  19908994.047   106537062.057                    82862157.155    19908997.297  
  19908992.195  
  22745440.742   121373997.526                                                  
  22745437.629  
  22744667.680   119524043.223    22744673.590    93135650.1834   22744673.875  
                
  20364905.445   107018310.988    20364909.949    83390918.0844                 
                
  20109045.461   107456659.234                    83577411.000    20109049.746  
  20109045.566  
  23386611.469   125058735.497                    97267914.263    23386615.562  
  23386610.289  
  20408098.945   108939823.323                    84730973.139    20408102.602  
  20408097.602  
  24483443.633   128661366.614    24483448.844   100255631.3454                 
                
 21  8 16 23 59 20.0000000  0 16G 6R 7G17G15G13G14R16G24R17R 6G12G19
                                R15R24R18G 2
  23106493.148   121425442.727    23106502.082    94617261.5174   23106502.742  
                
  22944619.453   122824346.350                    95530035.362    22944624.070  
  22944618.289  
  22065018.250   115952468.163    22065024.238    90352610.5864   22065024.254  
                
  23491958.445   123451072.057    23491965.402    96195673.7574   23491965.199  
                
  23796058.195   125049141.302    23796064.344    97440918.4684                 
                
  23617890.414   124112885.340    23617897.289    96711375.8054   23617897.488  
                
  20264932.430   108251641.586                    84195711.376    20264933.977  
  20264932.000  
  20582051.320   108159407.783    20582059.750    84280108.5124   20582059.832  
                
  19910635.531   106545846.023                    82868989.121    19910638.809  
  19910633.668  
  22750550.234   121401263.073                                                  
  22750547.207  
  22739473.891   119496749.666    22739479.781    93114382.4714   22739480.066  
                
  20366177.242   107024994.322    20366181.730    83396125.8784                 
                
  20111657.844   107470619.014                    83588268.588    20111662.098  
  20111657.965  
  23393920.617   125097820.830                    97298313.979    23393924.715  
  23393919.473  
  20402236.750   108908530.632                    84706634.383    20402240.395  
  20402235.406  
  24477152.320   128628305.772    24477157.484   100229869.6404                 
                
 21  8 16 23 59 30.0000000  0 16G 6R 7G17G15G13G14R16G24R17R 6G12G19
                                R15R24R18G 2
  23100911.383   121396110.174    23100920.297    94594404.9724   23100920.938  
                
  22943897.766   122820483.148                    95527030.620    22943902.398  
  22943896.625  
  22069645.625   115976785.193    22069651.629    90371558.9174   22069651.645  
                
  23497792.406   123481729.788    23497799.355    96219562.8904   23497799.152  
                
  23803054.414   125085906.722    23803060.539    97469566.8574                 
                
  23623287.914   124141249.421    23623294.816    96733477.6734   23623295.027  
                
  20261062.633   108230969.800                    84179633.315    20261064.160  
  20261062.199  
  20579733.758   108147228.931    20579742.176    84270618.4984   20579742.273  
                
  19912294.078   106554721.212                    82875892.052    19912297.387  
  19912292.211  
  22755669.773   121428582.372                                                  
  22755666.887  
  22734283.688   119469474.977    22734289.574    93093129.4804   22734289.848  
                
  20367461.375   107031742.469    20367465.836    83401384.1704                 
                
  20114278.062   107484620.572                    83599158.705    20114282.301  
  20114278.199  
  23401236.531   125136942.373                    97328741.846    23401240.637  
  23401235.414  
  20396387.234   108877305.491                    84682348.159    20396390.875  
  20396385.898  
  24470861.773   128595248.928    24470866.898   100204111.0874                 
                
 21  8 16 23 59 40.0000000  0 16G 6R 7G17G15G13G14R16G24R17R 6G12G19
                                R15R24R18G 2
  23095335.492   121366808.422    23095344.406    94571572.4444   23095345.016  
                
  22943191.883   122816704.429                    95524091.628    22943196.512  
  22943190.758  
  22074279.445   116001136.124    22074285.465    90390533.6614   22074285.480  
                
  23503630.500   123512409.270    23503637.453    96243468.9794   23503637.250  
                
  23810052.508   125122681.602    23810058.586    97498222.6094                 
                
  23628687.094   124169622.374    23628694.047    96755586.4634   23628694.238  
                
  20257198.406   108210327.841                    84163578.456    20257199.926  
  20257197.969  
  20577426.461   108135104.011    20577434.871    84261170.5014   20577434.961  
                
  19913969.617   106563687.391                    82882865.736    19913972.918  
  19913967.750  
  22760799.586   121455955.264                                                  
  22760797.535  
  22729097.023   119442218.846    22729102.891    93071890.9304   22729103.152  
                
  20368757.781   107038555.132    20368762.219    83406692.7394                 
                
  20116906.039   107498663.650                    83610081.086    20116910.277  
  20116906.176  
  23408559.148   125176099.702                    97359197.567    23408563.262  
  23408558.051  
  20390550.352   108846147.877                    84658114.476    20390553.980  
  20390549.008  
  24464571.922   128562195.821    24464577.066   100178355.4474                 
                
