     2.11           OBSERVATION DATA    M (MIXED)           RINEX VERSION / TYPE
EFT-CORS.RU                             20210817 144826 UTC PGM / RUN BY / DATE 
MDNG                                                        MARKER NAME         
                                                            MARKER NUMBER       
MDNG                EFT-CORS.RU                             OBSERVER / AGENCY   
0                   TRIMBLE BD970       2.0                 REC # / TYPE / VERS 
0                   UNKNOWN EXT NONE                        ANT # / TYPE        
  3463911.2830  3030468.2400  4402179.3760                  APPROX POSITION XYZ 
        0.0000        0.0000        0.0000                  ANTENNA: DELTA H/E/N
     1     1                                                WAVELENGTH FACT L1/2
     6    C1    L1    P2    L2    C2    P1                  # / TYPES OF OBSERV 
    10.000                                                  INTERVAL            
  2021     8    16     7    30    0.0000000     GPS         TIME OF FIRST OBS   
  2021     8    16     8    30    0.0000000     GPS         TIME OF LAST OBS    
     0                                                      RCV CLOCK OFFS APPL 
                                                            END OF HEADER       
 21  8 16  7 30  0.0000000  0 15R12G26R 6R 4R21G29R 5G16G18G27R20G15
                                G10G23G13
  23165983.500   123748529.974                    96248848.195    23165987.906  
  23165982.812  
  22084022.773   116052324.750    22084033.047    90430418.1474   22084032.895  
                
  22279553.688   118887978.237                                                  
  22279551.066  
  22111936.664   118408445.179                    92095473.399    22111940.152  
  22111935.684  
  21128503.578   113062903.486                    87937806.428    21128507.020  
  21128501.707  
  22994737.000   120838152.114    22994746.098    94159621.6354   22994746.188  
                
  20052800.219   107193740.677                    83372905.261    20052804.473  
  20052799.770  
  21867915.977   114916686.659    21867921.984    89545498.7944                 
                
  20441610.086   107421422.053    20441617.367    83705022.2124   20441617.246  
                
  23113857.805   121464132.750    23113866.699    94647430.9684   23113866.789  
                
  19996339.555   106929429.066                    83167356.888    19996345.977  
  19996338.824  
  22654303.375   119049199.576    22654310.797    92765645.6194   22654310.668  
                
  22279928.375   117081839.159    22279938.406    91232657.3354   22279937.859  
                
  20458368.375   107509486.169    20458375.855    83773661.0144   20458375.676  
                
  24071561.539   126496914.161    24071568.930    98569061.4854                 
                
 21  8 16  7 30 10.0000000  0 15R12G26R 6R 4R21G29R 5G16G18G27R20G15
                                G10G23G13
  23162744.477   123731227.644                    96235390.835    23162748.898  
  23162743.871  
  22087815.336   116072254.708    22087825.625    90445947.9814   22087825.469  
                
  22271439.656   118844679.725                                                  
  22271436.945  
  22117494.227   118438205.735                    92118620.481    22117497.727  
  22117493.258  
  21123967.242   113038628.663                    87918926.029    21123970.672  
  21123965.344  
  23000490.555   120868387.156    23000499.570    94183181.4044   23000499.688  
                
  20051249.328   107185450.315                    83366457.223    20051253.605  
  20051248.863  
  21867635.180   114915211.050    21867641.195    89544348.9624                 
                
  20443410.828   107430884.995    20443418.070    83712395.9284   20443417.980  
                
  23107853.727   121432581.153    23107862.633    94622845.3084   23107862.727  
                
  19998006.562   106938343.305                    83174290.179    19998012.977  
  19998005.820  
  22653108.938   119042922.765    22653116.387    92760754.6114   22653116.211  
                
  22274316.906   117052350.733    22274326.895    91209679.3574   22274326.359  
                
  20456127.562   107497710.663    20456135.004    83764485.2924   20456134.848  
                
  24071815.547   126498248.959    24071822.918    98570101.5844                 
                
 21  8 16  7 30 20.0000000  0 15R12G26R 6R 4R21G29R 5G16G18G27R20G15
                                G10G23G13
  23159519.883   123714002.310                    96221993.362    23159524.328  
  23159519.336  
  22091617.266   116092233.946    22091627.602    90461516.2024   22091627.410  
                
  22263330.102   118801406.383                                                  
  22263327.516  
  22123063.656   118468029.802                    92141816.961    22123067.148  
  22123062.691  
  21119434.211   113014371.518                    87900059.349    21119437.648  
  21119432.344  
  23006249.375   120898649.837    23006258.324    94206762.7004   23006258.453  
                
  20049715.570   107177251.582                    83360080.438    20049719.863  
  20049715.102  
  21867367.492   114913804.308    21867373.520    89543252.8024                 
                
  20445217.664   107440379.962    20445224.871    83719794.5964   20445224.801  
                
  23101853.055   121401047.387    23101861.953    94598273.5544   23101862.020  
                
  19999680.188   106947292.855                    83181250.944    19999686.609  
  19999679.445  
  22651927.180   119036712.636    22651934.652    92755915.5484   22651934.445  
                
  22268712.039   117022897.004    22268721.965    91186728.4134   22268721.453  
                
  20453898.141   107485994.972    20453905.547    83755356.1864   20453905.406  
                
  24072081.758   126499647.893    24072089.117    98571191.6774                 
                
 21  8 16  7 30 30.0000000  0 15R12G26R 6R 4R21G29R 5G16G18G27R20G15
                                G10G23G13
  23156309.664   123696853.878                    96208655.711    23156314.105  
  23156309.125  
  22095428.578   116112262.506    22095438.965    90477122.8674   22095438.723  
                
  22255225.234   118758158.204                                                  
  22255222.777  
  22128644.945   118497917.370                    92165062.842    22128648.430  
  22128644.027  
  21114904.516   112990132.244                    87881206.603    21114907.953  
  21114902.668  
  23012013.484   120928940.242    23012022.418    94230365.5984   23012022.523  
                
  20048199.031   107169144.846                    83353775.206    20048203.328  
  20048198.555  
  21867112.930   114912466.567    21867118.969    89542210.4054                 
                
  20447030.617   107449907.075    20447037.805    83727218.3264   20447037.742  
                
  23095855.828   121369531.680    23095864.699    94573715.8684   23095864.762  
                
  20001360.469   106956278.108                    83188239.450    20001366.902  
  20001359.715  
  22650758.102   119030569.146    22650765.582    92751128.4294   22650765.371  
                
  22263113.820   116993478.215    22263123.691    91163804.6844   22263123.176  
                
  20451680.125   107474339.290    20451687.496    83746273.8414   20451687.375  
                
  24072360.195   126501111.158    24072367.492    98572331.8884                 
                
 21  8 16  7 30 40.0000000  0 15R12G26R 6R 4R21G29R 5G16G18G27R20G15
                                G10G23G13
  23153113.875   123679782.676                    96195378.120    23153118.355  
  23153113.301  
  22099249.289   116132340.418    22099259.719    90492767.9854   22099259.445  
                
  22247125.297   118714935.522                                                  
  22247122.871  
  22134238.102   118527868.409                    92188358.088    22134241.578  
  22134237.195  
  21110378.180   112965910.941                    87862367.833    21110381.625  
  21110376.320  
  23017782.875   120959258.441    23017791.805    94253990.1424   23017791.906  
                
  20046699.695   107161130.087                    83347541.514    20046704.016  
  20046699.219  
  21866871.523   114911197.973    21866877.555    89541221.8884                 
                
  20448849.719   107459466.459    20448856.891    83734667.1944   20448856.840  
                
  23089862.102   121338034.253    23089870.961    94549172.4134   23089871.027  
                
  20003047.406   106965298.927                    83195255.634    20003053.855  
  20003046.648  
  22649601.742   119024492.455    22649609.191    92746393.3574   22649608.980  
                
  22257522.297   116964094.547    22257532.141    91140908.3264   22257531.629  
                
  20449473.570   107462743.758    20449480.914    83737238.3684   20449480.809  
                
  24072650.906   126502638.838    24072658.137    98573522.2804                 
                
 21  8 16  7 30 50.0000000  0 15R12G26R 6R 4R21G29R 5G16G18G27R20G15
                                G10G23G13
  23149932.531   123662788.650                    96182160.538    23149937.035  
  23149931.902  
  22103079.344   116152467.436    22103089.801    90508451.3664   22103089.520  
                
  22239030.164   118671738.119                                                  
  22239027.648  
  22139843.016   118557882.594                    92211702.467    22139846.504  
  22139842.090  
  21105855.180   112941707.542                    87843542.958    21105858.633  
  21105853.305  
  23023557.516   120989604.152    23023566.395    94277636.1364   23023566.504  
                
  20045217.523   107153207.126                    83341379.206    20045221.855  
  20045217.020  
  21866643.250   114909998.394    21866649.258    89540287.1464                 
                
  20450674.906   107469057.877    20450682.070    83742141.0184   20450682.023  
                
  23083871.797   121306554.950    23083880.691    94524643.0994   23083880.766  
                
  20004741.023   106974355.420                    83202299.577    20004747.469  
  20004740.258  
  22648458.070   119018482.524    22648465.496    92741710.3034   22648465.305  
                
  22251937.414   116934745.850    22251947.219    91118039.2084   22251946.699  
                
  20447278.414   107451208.189    20447285.730    83728249.6144   20447285.637  
                
  24072953.844   126504230.816    24072960.988    98574762.7694                 
                
 21  8 16  7 31  0.0000000  0 15R12G26R 6R 4R21G29R 5G16G18G27R20G15
                                G10G23G13
  23146765.703   123645872.026                    96169003.160    23146770.195  
  23146765.047  
  22106918.773   116172643.727    22106929.246    90524173.1424   22106928.969  
                
  22230939.891   118628566.945                                                  
  22230937.379  
  22145459.742   118587960.013                    92235095.994    22145463.266  
  22145458.797  
  21101335.602   112917522.372                    87824732.276    21101339.062  
  21101333.707  
  23029337.445   121019977.600    23029346.297    94301303.7534   23029346.371  
                
  20043752.625   107145376.426                    83335288.663    20043756.984  
  20043752.102  
  21866428.148   114908868.042    21866434.125    89539406.3444                 
                
  20452506.242   107478681.585    20452513.406    83749640.0104   20452513.352  
                
  23077884.984   121275094.106    23077893.930    94500128.1734   23077894.008  
                
  20006441.297   106983447.540                    83209371.232    20006447.754  
  20006440.527  
  22647327.188   119012539.741    22647334.629    92737079.5784   22647334.441  
                
  22246359.258   116905432.483    22246369.043    91095197.6354   22246368.527  
                
  20445094.742   107439732.904    20445102.035    83719307.8374   20445101.945  
                
  24073269.102   126505887.399    24073276.148    98576053.6204                 
                
 21  8 16  7 31 10.0000000  0 15R12G26R 6R 4R21G29R 5G16G18G27R20G15
                                G10G23G13
  23143613.336   123629032.628                    96155905.875    23143617.848  
  23143612.750  
  22110767.492   116192868.831    22110777.949    90539932.9584   22110777.695  
                
  22222854.414   118585421.343                                                  
  22222851.973  
  22151088.219   118618100.326                    92258538.429    22151091.758  
  22151087.254  
  21096819.344   112893355.009                    87805935.431    21096822.797  
  21096817.484  
  23035122.562   121050378.462    23035131.363    94324992.7234   23035131.445  
                
  20042304.922   107137637.696                    83329269.671    20042309.312  
  20042304.387  
  21866226.141   114907806.514    21866232.094    89538579.1914                 
                
  20454343.641   107488337.185    20454350.809    83757163.8484   20454350.754  
                
  23071901.641   121243651.477    23071910.582    94475627.4264   23071910.684  
                
  20008148.227   106992575.261                    83216470.566    20008154.676  
  20008147.438  
  22646209.000   119006663.740    22646216.496    92732500.8894   22646216.277  
                
  22240787.758   116876154.131    22240797.559    91072383.3464   22240797.035  
                
  20442922.461   107428317.526    20442929.738    83710412.7414   20442929.652  
                
  24073596.562   126507608.226    24073603.582    98577394.5314                 
                
 21  8 16  7 31 20.0000000  0 15R12G26R 6R 4R21G29R 5G16G18G27R20G15
                                G10G23G13
  23140475.461   123612270.561                    96142868.731    23140479.949  
  23140474.938  
  22114625.523   116213142.873    22114635.977    90555730.9104   22114635.730  
                
  22214774.008   118542301.757                                                  
  22214771.449  
  22156728.430   118648303.366                    92282029.700    22156731.973  
  22156727.461  
  21092306.508   112869205.886                    87787152.795    21092309.957  
  21092304.656  
  23040912.922   121080806.882    23040921.645    94348703.1654   23040921.762  
                
  20040874.438   107129990.957                    83323322.212    20040878.844  
  20040873.906  
  21866037.289   114906814.045    21866043.230    89537805.8294                 
                
  20456187.148   107498024.855    20456194.320    83764712.6794   20456194.266  
                
  23065921.812   121212227.310    23065930.766    94451141.0734   23065930.879  
                
  20009861.805   107001738.532                    83223597.536    20009868.285  
  20009860.973  
  22645103.586   119000854.758    22645111.113    92727974.4204   22645110.883  
                
  22235222.977   116846911.053    22235232.816    91049596.5574   22235232.270  
                
  20440761.633   107416962.288    20440768.895    83701564.5054   20440768.816  
                
  24073936.289   126509393.482    24073943.312    98578785.6524                 
                
 21  8 16  7 31 30.0000000  0 15R12G26R 6R 4R21G29R 5G16G18G27R20G15
                                G10G23G13
  23137352.078   123595586.056                    96129891.930    23137356.539  
  23137351.559  
  22118492.836   116233465.733    22118503.297    90571566.8944   22118503.031  
                
  22206698.344   118499208.385                                                  
  22206695.809  
  22162380.344   118678569.112                    92305569.707    22162383.867  
  22162379.359  
  21087797.008   112845074.745                    87768384.148    21087800.461  
  21087795.148  
  23046708.516   121111262.749    23046717.176    94372434.9874   23046717.309  
                
  20039461.195   107122436.404                    83317446.453    20039465.613  
  20039460.676  
  21865861.562   114905890.617    21865867.504    89537086.2804                 
                
  20458036.742   107507744.546    20458043.910    83772286.4604   20458043.840  
                
  23059945.477   121180821.646    23059954.438    94426669.1384   23059954.570  
                
  20011582.047   107010937.514                    83230752.290    20011588.539  
  20011581.207  
  22644010.914   118995112.836    22644018.469    92723500.2054   22644018.215  
                
  22229664.914   116817703.326    22229674.789    91026837.3004   22229674.219  
                
  20438612.234   107405667.174    20438619.469    83692763.1144   20438619.391  
                
  24074288.273   126511243.169    24074295.281    98580226.9504                 
                
 21  8 16  7 31 40.0000000  0 15R12G26R 6R 4R21G29R 5G16G18G27R20G15
                                G10G23G13
  23134243.266   123578979.526                    96116975.723    23134247.723  
  23134242.688  
  22122369.477   116253837.586    22122379.961    90587441.0484   22122379.680  
                
  22198627.727   118456141.710                                                  
  22198625.184  
  22168043.969   118708897.654                    92329158.580    22168047.504  
  22168042.965  
  21083290.961   112820962.054                    87749629.827    21083294.430  
  21083289.082  
  23052509.383   121141746.223    23052517.965    94396188.3454   23052518.117  
                
  20038065.242   107114974.259                    83311642.564    20038069.676  
  20038064.738  
  21865699.039   114905036.581    21865704.988    89536420.7864                 
                
  20459892.477   107517496.485    20459899.637    83779885.3634   20459899.570  
                
  23053972.766   121149434.843    23053981.676    94402211.8894   23053981.824  
                
  20013309.008   107020172.364                    83237934.957    20013315.527  
  20013308.148  
  22642931.039   118989438.151    22642938.617    92719078.3994   22642938.344  
                
  22224113.648   116788531.246    22224123.559    91004105.8244   22224122.996  
                
  20436474.336   107394432.453    20436481.551    83684008.7894   20436481.480  
                
  24074652.555   126513157.527    24074659.535    98581718.6314                 
                
 21  8 16  7 31 50.0000000  0 15R12G26R 6R 4R21G29R 5G16G18G27R20G15
                                G10G23G13
  23131148.992   123562450.541                    96104119.812    23131153.441  
  23131148.355  
  22126255.344   116274257.944    22126265.848    90603353.0174   22126265.574  
                
  22190561.922   118413101.257                                                  
  22190559.426  
  22173719.219   118739288.445                    92352795.847    22173722.770  
  22173718.199  
  21078788.305   112796867.504                    87730889.639    21078791.770  
  21078786.414  
  23058315.445   121172256.950    23058323.965    94419962.9334   23058324.125  
                
  20036686.500   107107604.126                    83305910.248    20036690.957  
  20036686.012  
  21865549.633   114904251.436    21865555.602    89535808.9894                 
                
  20461754.273   107527280.266    20461761.422    83787509.0874   20461761.352  
                
  23048003.570   121118066.589    23048012.453    94377769.1074   23048012.594  
                
  20015042.641   107029442.899                    83245145.361    20015049.184  
  20015041.750  
  22641863.930   118983830.569    22641871.512    92714708.8504   22641871.219  
                
  22218569.109   116759394.518    22218579.043    90981401.8914   22218578.480  
                
  20434347.867   107383257.795    20434355.070    83675301.2654   20434355.008  
                
  24075029.070   126515136.181    24075036.012    98583260.4424                 
                
 21  8 16  7 32  0.0000000  0 15R12G26R 6R 4R21G29R 5G16G18G27R20G15
                                G10G23G13
  23128069.250   123545999.096                    96091324.240    23128073.660  
  23128068.586  
  22130150.422   116294726.733    22130160.949    90619302.7084   22130160.680  
                
  22182500.914   118370087.186                                                  
  22182498.559  
  22179406.078   118769741.329                    92376481.393    22179409.633  
  22179405.074  
  21074289.039   112772791.059                    87712163.515    21074292.504  
  21074287.148  
  23064126.688   121202794.870    23064135.164    94443758.6934   23064135.312  
                
  20035324.992   107100326.164                    83300249.611    20035329.457  
  20035324.520  
  21865413.328   114903535.165    21865419.324    89535250.8524                 
                
  20463622.125   107537095.840    20463629.258    83795157.5784   20463629.188  
                
  23042037.914   121086716.922    23042046.773    94353340.7984   23042046.914  
                
  20016782.906   107038748.877                    83252383.345    20016789.441  
  20016782.004  
  22640809.586   118978290.018    22640817.176    92710391.5544   22640816.883  
                
  22213031.297   116730293.164    22213041.246    90958725.5264   22213040.688  
                
  20432232.820   107372143.163    20432240.016    83666640.5184   20432239.941  
                
  24075417.812   126517179.116    24075424.766    98584852.3374                 
                
 21  8 16  7 32 10.0000000  0 15R12G26R 6R 4R21G29R 5G16G18G27R20G15
                                G10G23G13
  23125004.102   123529625.483                    96078589.184    23125008.477  
  23125003.477  
  22134054.742   116315244.038    22134065.289    90635290.2134   22134065.020  
                
  22174444.883   118327099.926                                                  
  22174442.699  
  22185104.547   118800256.291                    92400215.252    22185108.082  
  22185103.562  
  21069793.227   112748733.098                    87693451.767    21069796.715  
  21069791.340  
  23069943.133   121233360.201    23069951.543    94467575.8224   23069951.699  
                
  20033980.789   107093140.602                    83294660.843    20033985.273  
  20033980.336  
  21865290.188   114902888.013    21865296.207    89534746.5754                 
                
  20465496.055   107546943.382    20465503.164    83802830.9874   20465503.094  
                
  23036075.875   121055386.164    23036084.695    94328927.2214   23036084.832  
                
  20018529.898   107048090.842                    83259649.296    20018536.453  
  20018528.988  
  22639768.062   118972816.820    22639775.648    92706126.7354   22639775.395  
                
  22207500.281   116701227.464    22207510.238    90936076.9454   22207509.680  
                
  20430129.258   107361088.811    20430136.441    83658026.7394   20430136.371  
                
  24075818.836   126519286.574    24075825.820    98586494.4924                 
                
 21  8 16  7 32 20.0000000  0 15R12G26R 6R 4R21G29R 5G16G18G27R20G15
                                G10G23G13
  23121953.539   123513329.801                    96065914.801    23121957.871  
  23121952.984  
  22137968.281   116335809.844    22137978.848    90651315.5074   22137978.570  
                
  22166394.086   118284139.903                                                  
  22166391.945  
  22190814.602   118830833.344                    92423997.400    22190818.152  
  22190813.602  
  21065300.844   112724693.446                    87674754.276    21065304.340  
  21065298.941  
  23075764.750   121263952.862    23075773.070    94491414.2544   23075773.262  
                
  20032653.867   107086047.456                    83289143.962    20032658.375  
  20032653.438  
  21865180.180   114902309.930    21865186.211    89534296.1194                 
                
  20467376.078   107556822.899    20467383.156    83810529.3144   20467383.102  
                
  23030117.422   121024074.361    23030126.219    94304528.4134   23030126.344  
                
  20020283.578   107057468.482                    83266943.019    20020290.152  
  20020282.672  
  22638739.328   118967410.889    22638746.902    92701914.3384   22638746.652  
                
  22201976.070   116672197.524    22201986.004    90913456.2164   22201985.441  
                
  20428037.156   107350094.770    20428044.340    83649459.9524   20428044.277  
                
  24076232.164   126521458.698    24076239.152    98588187.0734                 
                
 21  8 16  7 32 30.0000000  0 15R12G26R 6R 4R21G29R 5G16G18G27R20G15
                                G10G23G13
  23118917.609   123497112.314                    96053301.222    23118921.891  
  23118917.129  
  22141891.055   116356424.113    22141901.641    90667378.5594   22141901.336  
                
  22158348.680   118241206.949                                                  
  22158346.348  
  22196536.219   118861472.372                    92447827.740    22196539.781  
  22196535.238  
  21060811.930   112700672.392                    87656071.227    21060815.418  
  21060810.035  
  23081591.594   121294572.941    23081599.836    94515274.0414   23081600.062  
                
  20031344.234   107079046.751                    83283698.970    20031348.762  
  20031343.828  
  21865083.352   114901801.087    21865089.367    89533899.6134                 
                
  20469262.195   107566734.468    20469269.234    83818252.6154   20469269.203  
                
  23024162.625   120992781.731    23024171.410    94280144.5634   23024171.523  
                
  20022043.969   107066882.069                    83274264.694    20022050.551  
  20022043.062  
  22637723.445   118962072.463    22637731.008    92697754.5384   22637730.758  
                
  22196458.680   116643203.486    22196468.551    90890863.4674   22196468.016  
                
  20425956.555   107339161.147    20425963.738    83640940.2484   20425963.664  
                
  24076657.773   126523695.404    24076664.711    98589929.9404                 
                
 21  8 16  7 32 40.0000000  0 15R12G26R 6R 4R21G29R 5G16G18G27R20G15
                                G10G23G13
  23115896.227   123480972.600                    96040748.146    23115900.496  
  23115895.727  
  22145822.961   116377086.417    22145833.574    90683479.0464   22145833.258  
                
  22150308.258   118198301.236                                                  
  22150305.898  
  22202269.336   118892172.970                    92471705.988    22202272.891  
  22202268.387  
  21056326.445   112676669.668                    87637402.464    21056329.941  
  21056324.566  
  23087423.602   121325220.036    23087431.812    94539154.8824   23087432.035  
                
  20030051.852   107072138.206                    83278325.672    20030056.418  
  20030051.453  
  21864999.648   114901361.173    21865005.648    89533556.8134                 
                
  20471154.344   107576677.724    20471161.344    83826000.6064   20471161.316  
                
  23018211.430   120961507.984    23018220.207    94255775.4164   23018220.340  
                
  20023811.031   107076331.319                    83281614.105    20023817.633  
  20023810.121  
  22636720.359   118956801.267    22636727.902    92693647.1204   22636727.664  
                
  22190948.078   116614245.070    22190957.879    90868298.4744   22190957.383  
                
  20423887.391   107328287.617    20423894.570    83632467.3734   20423894.496  
                
  24077095.633   126525996.443    24077102.512    98591722.9914                 
                
 21  8 16  7 32 50.0000000  0 15R12G26R 6R 4R21G29R 5G16G18G27R20G15
                                G10G23G13
  23112889.414   123464910.943                    96028255.760    23112893.730  
  23112888.848  
  22149764.000   116397796.697    22149774.641    90699616.9154   22149774.301  
                
  22142273.000   118155422.671                                                  
  22142270.512  
  22208013.906   118922934.954                    92495631.974    22208017.457  
  22208012.941  
  21051844.383   112652685.203                    87618747.891    21051847.879  
  21051842.508  
  23093260.734   121355894.085    23093268.961    94563056.7224   23093269.156  
                
  20028776.742   107065322.053                    83273024.240    20028781.336  
  20028776.344  
  21864929.039   114900990.117    21864935.023    89533267.6734                 
                
  20473052.500   107586652.613    20473059.469    83833773.2484   20473059.469  
                
  23012263.836   120930253.192    23012272.633    94231421.0554   23012272.758  
                
  20025584.750   107085816.165                    83288991.202    20025591.359  
  20025583.828  
  22635730.070   118951597.288    22635737.582    92689592.0804   22635737.355  
                
  22185444.250   116585322.329    22185454.027    90845761.2884   22185453.551  
                
  20421829.680   107317474.201    20421836.855    83624041.3344   20421836.785  
                
  24077545.711   126528361.705    24077552.551    98593566.0454                 
                
 21  8 16  7 33  0.0000000  0 15R12G26R 6R 4R21G29R 5G16G18G27R20G15
                                G10G23G13
  23109897.242   123448927.454                    96015824.101    23109901.555  
  23109896.633  
  22153714.148   116418554.848    22153724.797    90715792.0884   22153724.453  
                
  22134242.898   118112571.471                                                  
  22134240.281  
  22213769.914   118953758.095                    92519605.515    22213773.457  
  22213768.926  
  21047365.734   112628719.083                    87600107.569    21047369.223  
  21047363.871  
  23099102.977   121386595.085    23099111.223    94586979.5634   23099111.402  
                
  20027518.883   107058598.126                    83267794.519    20027523.500  
  20027518.496  
  21864871.539   114900687.985    21864877.508    89533032.2474                 
                
  20474956.680   107596659.162    20474963.617    83841570.5534   20474963.629  
                
  23006319.875   120899017.488    23006328.660    94207081.5514   23006328.781  
                
  20027365.094   107095336.563                    83296395.945    20027371.711  
  20027364.188  
  22634752.586   118946460.686    22634760.086    92685589.5354   22634759.844  
                
  22179947.227   116556435.378    22179957.000    90823251.9924   22179956.527  
                
  20419783.391   107306720.936    20419790.570    83615662.1624   20419790.496  
                
  24078008.039   126530791.308    24078014.879    98595459.2714                 
                
 21  8 16  7 33 10.0000000  0 15R12G26R 6R 4R21G29R 5G16G18G27R20G15
                                G10G23G13
  23106919.781   123433022.224                    96003453.348    23106924.066  
  23106919.188  
  22157673.438   116439360.995    22157684.094    90732004.6654   22157683.742  
                
  22126217.969   118069748.064                                                  
  22126215.254  
  22219537.391   118984642.534                    92543626.742    22219540.922  
  22219536.449  
  21042890.578   112604771.633                    87581481.783    21042894.074  
  21042888.715  
  23104950.406   121417323.276    23104958.672    94610923.5804   23104958.824  
                
  20026278.336   107051966.671                    83262636.722    20026282.953  
  20026277.945  
  21864827.203   114900454.931    21864833.164    89532850.6534                 
                
  20476866.922   107606697.524    20476873.840    83849392.6514   20476873.859  
                
  23000379.602   120867801.097    23000388.332    94182757.0904   23000388.484  
                
  20029152.188   107104892.831                    83303828.594    20029158.805  
  20029151.250  
  22633787.953   118941391.604    22633795.457    92681639.6194   22633795.191  
                
  22174457.070   116527584.465    22174466.801    90800770.7694   22174466.332  
                
  20417748.602   107296028.020    20417755.801    83607330.0274   20417755.703  
                
  24078482.648   126533285.431    24078489.500    98597402.7674                 
                
 21  8 16  7 33 20.0000000  0 15R12G26R 6R 4R21G29R 5G16G18G27R20G15
                                G10G23G13
  23103957.180   123417196.466                    95991144.441    23103961.457  
  23103956.629  
  22161642.039   116460216.069    22161652.691    90748255.3624   22161652.328  
                
  22118198.281   118026953.642                                                  
  22118195.629  
  22225316.453   119015589.114                    92567696.301    22225319.969  
  22225315.543  
  21038419.102   112580843.893                    87562871.330    21038422.598  
  21038417.230  
  23110803.164   121448079.556    23110811.469    94634889.4984   23110811.617  
                
  20025055.305   107045428.899                    83257551.792    20025059.922  
  20025054.922  
  21864796.195   114900291.968    21864802.168    89532723.6624                 
                
  20478783.414   107616768.692    20478790.324    83857240.3124   20478790.355  
                
  22994443.203   120836605.116    22994451.895    94158448.5424   22994452.043  
                
  20030946.188   107114486.185                    83311290.089    20030952.816  
  20030945.250  
  22632836.383   118936391.114    22632843.871    92677743.1484   22632843.598  
                
  22168973.977   116498770.661    22168983.633    90778318.4634   22168983.199  
                
  20415725.492   107285396.498    20415732.715    83599045.7274   20415732.598  
                
  24078969.742   126535845.120    24078976.590    98599397.3594                 
                
 21  8 16  7 33 30.0000000  0 15R12G26R 6R 4R21G29R 5G16G18G27R20G15
                                G10G23G13
  23101008.922   123401447.377                    95978895.175    23101013.184  
  23101008.438  
  22165619.430   116481117.340    22165630.059    90764542.0614   22165629.695  
                
  22110183.047   117984185.352                                                  
  22110180.758  
  22231106.609   119046595.131                    92591812.101    22231110.164  
  22231105.711  
  21033950.812   112556933.227                    87544274.157    21033954.293  
  21033948.934  
  23116660.742   121478861.252    23116669.098    94658875.2114   23116669.227  
                
  20023849.312   107038982.175                    83252537.681    20023853.934  
  20023848.934  
  21864778.023   114900196.455    21864783.973    89532649.2324                 
                
  20480705.625   107626870.014    20480712.527    83865111.4654   20480712.562  
                
  22988510.211   120805427.036    22988518.840    94134153.9204   22988519.000  
                
  20032746.555   107124113.678                    83318778.139    20032753.199  
  20032745.617  
  22631897.375   118931456.646    22631904.812    92673898.1134   22631904.547  
                
  22163497.453   116469991.424    22163507.051    90755893.0934   22163506.648  
                
  20413713.570   107274823.765    20413720.828    83590807.2304   20413720.688  
                
  24079468.820   126538467.835    24079475.672    98601441.0324                 
                
 21  8 16  7 33 40.0000000  0 15R12G26R 6R 4R21G29R 5G16G18G27R20G15
                                G10G23G13
  23098075.438   123385777.287                    95966707.365    23098079.711  
  23098074.922  
  22169605.977   116502066.748    22169616.566    90780866.2654   22169616.230  
                
  22102173.664   117941445.898                                                  
  22102171.332  
  22236908.211   119077662.431                    92615975.534    22236911.812  
  22236907.289  
  21029486.125   112533041.800                    87525691.943    21029489.621  
  21029484.238  
  23122523.531   121509670.299    23122531.879    94682882.2484   23122532.016  
                
  20022660.719   107032628.468                    83247595.908    20022665.332  
  20022660.355  
  21864773.070   114900170.415    21864778.988    89532628.9414                 
                
  20482633.969   107637003.476    20482640.871    83873007.6624   20482640.906  
                
  22982581.000   120774268.881    22982589.559    94109874.8374   22982589.715  
                
  20034553.719   107133777.419                    83326294.374    20034560.367  
  20034552.789  
  22630971.320   118926590.226    22630978.684    92670106.1004   22630978.453  
                
  22158027.906   116441248.797    22158037.492    90733496.2514   22158037.090  
                
  20411713.219   107264311.833    20411720.527    83582616.1134   20411720.359  
                
  24079980.266   126541155.476    24079987.160    98603535.2914                 
                
 21  8 16  7 33 50.0000000  0 15R12G26R 6R 4R21G29R 5G16G18G27R20G15
                                G10G23G13
  23095156.664   123370185.906                    95954580.735    23095161.000  
  23095156.098  
  22173601.602   116523063.836    22173612.152    90797227.6334   22173611.832  
                
  22094169.539   117898734.731                                                  
  22094167.246  
  22242721.164   119108790.524                    92640186.256    22242724.801  
  22242720.254  
  21025024.961   112509169.221                    87507124.386    21025028.461  
  21025023.074  
  23128391.461   121540506.310    23128399.781    94706910.2974   23128399.934  
                
  20021489.461   107026367.466                    83242726.238    20021494.070  
  20021489.109  
  21864781.266   114900213.482    21864787.129    89532662.4984                 
                
  20484568.344   107647168.708    20484575.246    83880928.6204   20484575.293  
                
  22976655.547   120743130.425    22976664.051    94085611.1124   22976664.199  
                
  20036367.617   107143477.114                    83333838.562    20036374.262  
  20036366.691  
  22630058.156   118921791.554    22630065.465    92666366.8924   22630065.246  
                
  22152565.273   116412542.529    22152574.875    90711127.7434   22152574.457  
                
  20409724.375   107253860.361    20409731.730    83574472.1154   20409731.535  
                
  24080504.016   126543907.772    24080510.973    98605679.9334                 
                
 21  8 16  7 34  0.0000000  0 15R12G26R 6R 4R21G29R 5G16G18G27R20G15
                                G10G23G13
  23092252.602   123354673.034                    95942515.140    23092256.922  
  23092251.992  
  22177606.250   116544108.385    22177616.762    90813625.9714   22177616.465  
                
  22086170.836   117856052.025                                                  
  22086168.504  
  22248545.414   119139979.223                    92664444.112    22248549.090  
  22248544.492  
  21020567.281   112485315.322                    87488571.352    21020570.773  
  21020565.391  
  23134264.492   121571369.116    23134272.766    94730959.2244   23134272.918  
                
  20020335.539   107020199.119                    83237928.638    20020340.141  
  20020335.199  
  21864802.594   114900325.571    21864808.434    89532749.8454                 
                
  20486508.734   107657365.526    20486515.637    83888874.1874   20486515.691  
                
  22970733.836   120712011.588    22970742.328    94061362.6844   22970742.473  
                
  20038188.211   107153212.636                    83341410.621    20038194.863  
  20038187.293  
  22629157.859   118917060.512    22629165.133    92662680.3734   22629164.926  
                
  22147109.547   116383872.509    22147119.152    90688787.4884   22147118.723  
                
  20407747.008   107243469.231    20407754.410    83566375.1354   20407754.195  
                
  24081040.039   126546724.599    24081047.082    98607874.8644                 
                
 21  8 16  7 34 10.0000000  0 15R12G26R 6R 4R21G29R 5G16G18G27R20G15
                                G10G23G13
  23089363.344   123339239.133                    95930510.999    23089367.648  
  23089362.734  
  22181619.961   116565200.551    22181630.469    90830061.4194   22181630.160  
                
  22078177.672   117813398.072                                                  
  22078175.180  
  22254380.984   119171228.438                    92688749.060    22254384.660  
  22254380.043  
  21016113.172   112461480.494                    87470033.172    21016116.660  
  21016111.285  
  23140142.641   121602258.957    23140150.887    94755029.2184   23140151.051  
                
  20019198.984   107014123.572                    83233203.216    20019203.590  
  20019198.645  
  21864837.094   114900506.862    21864842.906    89532891.0974                 
                
  20488455.180   107667594.161    20488462.102    83896844.5494   20488462.145  
                
  22964815.914   120680912.710    22964824.449    94037129.8024   22964824.566  
                
  20040015.562   107162984.332                    83349010.813    20040022.227  
  20040014.672  
  22628270.484   118912397.382    22628277.738    92659046.7614   22628277.512  
                
  22141660.781   116355239.081    22141670.395    90666475.7304   22141669.938  
                
  20405781.172   107233138.721    20405788.598    83558325.3864   20405788.371  
                
  24081588.398   126549606.212    24081595.531    98610120.2694                 
                
 21  8 16  7 34 20.0000000  0 15R12G26R 6R 4R21G29R 5G16G18G27R20G15
                                G10G23G13
  23086488.844   123323883.937                    95918568.087    23086493.125  
  23086488.285  
  22185642.656   116586339.917    22185653.164    90846533.6334   22185652.855  
                
  22070189.820   117770772.813                                                  
  22070187.254  
  22260227.789   119202537.849                    92713100.834    22260231.477  
  22260226.852  
  21011662.578   112437664.493                    87451509.615    21011666.078  
  21011660.707  
  23146025.875   121633175.426    23146034.078    94779119.9624   23146034.242  
                
  20018079.742   107008140.574                    83228549.776    20018084.332  
  20018079.434  
  21864884.688   114900756.963    21864890.488    89533085.9784                 
                
  20490407.609   107677854.238    20490414.551    83904839.4154   20490414.598  
                
  22958901.750   120649833.553    22958910.320    94012912.2734   22958910.406  
                
  20041849.633   107172791.888                    83356638.921    20041856.309  
  20041848.738  
  22627396.000   118907801.984    22627403.254    92655465.9374   22627403.051  
                
  22136218.930   116326641.965    22136228.547    90644192.2694   22136228.078  
                
  20403826.820   107222868.505    20403834.270    83550322.6284   20403834.039  
                
  24082149.000   126552552.175    24082156.203    98612415.8254                 
                
 21  8 16  7 34 30.0000000  0 15R12G26R 6R 4R21G29R 5G16G18G27R20G15
                                G10G23G13
  23083629.117   123308607.677                    95906686.552    23083633.398  
  23083628.570  
  22189674.375   116607526.679    22189684.875    90863042.7914   22189684.578  
                
  22062207.422   117728176.704                                                  
  22062204.785  
  22266085.828   119233907.452                    92737499.399    22266089.543  
  22266084.914  
  21007215.555   112413867.587                    87433000.916    21007219.055  
  21007213.699  
  23151914.188   121664118.723    23151922.406    94803231.6094   23151922.547  
                
  20016977.875   107002250.471                    83223968.596    20016982.457  
  20016977.570  
  21864945.430   114901076.138    21864951.211    89533334.6794                 
                
  20492366.086   107688146.062    20492373.055    83912859.0144   20492373.090  
                
  22952991.398   120618774.418    22952999.965    93988710.3544   22953000.027  
                
  20043690.438   107182635.490                    83364295.039    20043697.113  
  20043689.559  
  22626534.461   118903274.561    22626541.699    92651938.0804   22626541.520  
                
  22130784.055   116298081.511    22130793.652    90621937.3784   22130793.172  
                
  20401883.992   107212658.887    20401891.457    83542367.0824   20401891.223  
                
  24082721.906   126555562.896    24082729.168    98614761.8224                 
                
 21  8 16  7 34 40.0000000  0 15R12G26R 6R 4R21G29R 5G16G18G27R20G15
                                G10G23G13
  23080784.156   123293410.491                    95894866.518    23080788.449  
  23080783.617  
  22193715.086   116628760.700    22193725.570    90879588.7784   22193725.293  
                
  22054230.492   117685609.857                                                  
  22054227.797  
  22271955.125   119265337.188                    92761944.720    22271958.852  
  22271954.207  
  21002772.109   112390089.832                    87414507.111    21002775.605  
  21002770.273  
  23157807.578   121695088.703    23157815.805    94827364.0344   23157815.945  
                
  20015893.383   106996453.263                    83219459.669    20015897.953  
  20015893.082  
  21865019.312   114901464.414    21865025.105    89533637.2254                 
                
  20494330.578   107698469.544    20494337.570    83920903.2834   20494337.590  
                
  22947084.852   120587735.391    22947093.391    93964524.1054   22947093.457  
                
  20045537.969   107192515.053                    83371979.139    20045544.660  
  20045537.109  
  22625685.836   118898815.090    22625693.070    92648463.1734   22625692.891  
                
  22125356.148   116269557.757    22125365.727    90599711.0864   22125365.266  
                
  20399952.695   107202509.854    20399960.176    83534458.7464   20399959.938  
                
  24083307.141   126558638.380    24083314.492    98617158.3304                 
                
 21  8 16  7 34 50.0000000  0 15R12G26R 6R 4R21G29R 5G16G18G27R20G15
                                G10G23G13
  23077953.961   123278292.193                    95883107.837    23077958.262  
  23077953.344  
  22197764.711   116650041.600    22197775.176    90896171.2854   22197774.914  
                
  22046258.844   117643071.918                                                  
  22046256.238  
  22277835.547   119296826.455                    92786436.359    22277839.309  
  22277834.625  
  20998332.188   112366330.893                    87396027.938    20998335.688  
  20998330.359  
  23163706.023   121726085.190    23163714.262    94851517.1204   23163714.430  
                
  20014826.227   106990748.719                    83215022.789    20014830.781  
  20014825.922  
  21865106.305   114901921.527    21865112.102    89533993.4214                 
                
  20496301.039   107708824.343    20496308.062    83928971.9514   20496308.070  
                
  22941182.094   120556716.214    22941190.629    93940353.3284   22941190.676  
                
  20047392.195   107202430.402                    83379691.075    20047398.875  
  20047391.348  
  22624850.109   118894423.320    22624857.348    92645041.0284   22624857.172  
                
  22119935.188   116241070.436    22119944.766    90577513.1794   22119944.305  
                
  20398032.859   107192421.080    20398040.363    83526597.3654   20398040.129  
                
  24083904.633   126561778.156    24083912.074    98619604.9244                 
                
 21  8 16  7 35  0.0000000  0 15R12G26R 6R 4R21G29R 5G16G18G27R20G15
                                G10G23G13
  23075138.570   123263252.999                    95871410.670    23075142.855  
  23075137.953  
  22201823.289   116671369.536    22201833.738    90912790.4464   22201833.480  
                
  22038292.641   117600563.431                                                  
  22038290.129  
  22283727.133   119328375.609                    92810974.579    22283730.902  
  22283726.207  
  20993895.867   112342591.214                    87377563.741    20993899.363  
  20993894.066  
  23169609.594   121757108.413    23169617.805    94875691.0454   23169617.980  
                
  20013776.461   106985137.117                    83210658.207    20013781.016  
  20013776.164  
  21865206.430   114902447.677    21865212.254    89534403.4044                 
                
  20498277.500   107719210.709    20498284.547    83937065.2294   20498284.547  
                
  22935283.195   120525717.263    22935291.766    93916198.3084   22935291.781  
                
  20049253.164   107212381.790                    83387431.028    20049259.836  
  20049252.324  
  22624027.328   118890099.605    22624034.578    92641671.9014   22624034.391  
                
  22114521.227   116212619.887    22114530.844    90555343.9324   22114530.355  
                
  20396124.547   107182392.859    20396132.074    83518783.1754   20396131.836  
                
  24084514.422   126564982.589    24084521.957    98622101.9074                 
                
 21  8 16  7 35 10.0000000  0 15R12G26R 6R 4R21G29R 5G16G18G27R20G15
                                G10G23G13
  23072338.000   123248292.728                    95859774.929    23072342.250  
  23072337.445  
  22205890.766   116692744.274    22205901.223    90929446.0804   22205900.957  
                
  22030332.023   117558084.301                                                  
  22030329.504  
  22289629.812   119359984.177                    92835559.005    22289633.621  
  22289628.875  
  20989463.094   112318870.593                    87359114.375    20989466.582  
  20989461.309  
  23175518.227   121788158.144    23175526.422    94899885.6374   23175526.559  
                
  20012744.031   106979618.194                    83206365.723    20012748.578  
  20012743.738  
  21865319.656   114903042.706    21865325.508    89534867.0584                 
                
  20500259.945   107729628.491    20500267.004    83945182.9754   20500266.996  
                
  22929388.125   120494738.467    22929396.758    93892058.9864   22929396.770  
                
  20051120.844   107222369.104                    83395198.938    20051127.512  
  20051119.992  
  22623217.461   118885843.753    22623224.746    92638355.6624   22623224.559  
                
  22109114.234   116184206.040    22109123.883    90533203.2794   22109123.383  
                
  20394227.734   107172425.065    20394235.285    83511016.0684   20394235.047  
                
  24085136.461   126568251.488    24085144.039    98624649.0884                 
                
 21  8 16  7 35 20.0000000  0 15R12G26R 6R 4R21G29R 5G16G18G27R20G15
                                G10G23G13
  23069552.242   123233411.706                    95848200.817    23069556.457  
  23069551.750  
  22209967.164   116714165.865    22209977.625    90946138.2174   22209977.348  
                
  22022376.969   117515635.279                                                  
  22022374.527  
  22295543.578   119391652.175                    92860189.660    22295547.410  
  22295542.617  
  20985033.922   112295169.197                    87340679.964    20985037.387  
  20985032.121  
  23181431.898   121819234.395    23181440.102    94924100.8894   23181440.188  
                
  20011728.977   106974192.150                    83202145.473    20011733.516  
  20011728.703  
  21865446.039   114903706.842    21865451.922    89535384.5654                 
                
  20502248.383   107740077.776    20502255.461    83953325.2804   20502255.445  
                
  22923496.914   120463780.001    22923505.613    93867935.5274   22923505.629  
                
  20052995.234   107232392.356                    83402994.793    20053001.902  
  20052994.363  
  22622420.547   118881655.969    22622427.848    92635092.4634   22622427.641  
                
  22103714.273   116155829.077    22103723.938    90511091.3714   22103723.438  
                
  20392342.445   107162517.847    20392350.012    83503296.1614   20392349.762  
                
  24085770.797   126571584.976    24085778.383    98627246.6384                 
                
 21  8 16  7 35 30.0000000  0 15R12G26R 6R 4R21G29R 5G16G18G27R20G15
                                G10G23G13
  23066781.352   123218610.044                    95836688.403    23066785.535  
  23066780.875  
  22214052.477   116735634.237    22214062.910    90962866.8104   22214062.629  
                
  22014427.516   117473216.115                                                  
  22014425.160  
  22301468.414   119423379.404                    92884866.383    22301472.281  
  22301467.441  
  20980608.352   112271487.105                    87322260.571    20980611.793  
  20980606.523  
  23187350.586   121850337.161    23187358.777    94948336.8044   23187358.840  
                
  20010731.344   106968859.215                    83197997.620    20010735.863  
  20010731.078  
  21865585.562   114904440.035    21865591.465    89535955.8844                 
                
  20504242.828   107750558.582    20504249.910    83961492.1384   20504249.887  
                
  22917609.594   120432841.975    22917618.320    93843827.9924   22917618.336  
                
  20054876.430   107242452.022                    83410818.961    20054883.082  
  20054875.535  
  22621636.594   118877536.292    22621643.895    92631882.3384   22621643.695  
                
  22098321.344   116127489.085    22098331.031    90489008.2774   22098330.539  
                
  20390468.695   107152671.238    20390476.273    83495623.4754   20390476.027  
                
  24086417.430   126574983.178    24086425.055    98629894.5624                 
                
 21  8 16  7 35 40.0000000  0 15R12G26R 6R 4R21G29R 5G16G18G27R20G15
                                G10G23G13
  23064025.258   123203887.562                    95825237.583    23064029.484  
  23064024.695  
  22218146.609   116757149.025    22218157.000    90979631.5734   22218156.742  
                
  22006483.789   117430826.719                                                  
  22006481.395  
  22307404.258   119455165.621                    92909588.986    22307408.145  
  22307403.289  
  20976186.352   112247824.144                    87303856.034    20976189.766  
  20976184.531  
  23193274.227   121881466.155    23193282.387    94972593.1494   23193282.473  
                
  20009751.031   106963618.875                    83193921.811    20009755.531  
  20009750.766  
  21865738.172   114905242.023    21865744.074    89536580.8054                 
                
  20506243.195   107761070.579    20506250.281    83969683.3084   20506250.258  
                
  22911726.141   120401924.209    22911734.852    93819736.2274   22911734.883  
                
  20056764.289   107252547.253                    83418670.808    20056770.930  
  20056763.391  
  22620865.562   118873484.535    22620872.891    92628725.1414   22620872.684  
                
  22092935.414   116099185.863    22092945.148    90466953.8234   22092944.641  
                
  20388606.414   107142884.959    20388613.996    83487997.8114   20388613.754  
                
  24087076.305   126578445.714    24087083.938    98632592.6674                 
                
 21  8 16  7 35 50.0000000  0 15R12G26R 6R 4R21G29R 5G16G18G27R20G15
                                G10G23G13
  23061284.000   123189244.371                    95813848.436    23061288.285  
  23061283.352  
  22222249.578   116778710.199    22222259.930    90996432.4794   22222259.688  
                
  21998545.633   117388467.337                                                  
  21998543.266  
  22313351.109   119487010.713                    92934357.402    22313355.000  
  22313350.168  
  20971767.922   112224180.277                    87285466.373    20971771.332  
  20971766.133  
  23199202.898   121912621.418    23199211.051    94996869.9554   23199211.121  
                
  20008788.117   106958471.516                    83189918.311    20008792.598  
  20008787.867  
  21865903.875   114906112.796    21865909.797    89537259.3304                 
                
  20508249.516   107771613.823    20508256.613    83977898.8224   20508256.574  
                
  22905846.570   120371026.862    22905855.285    93795660.3744   22905855.309  
                
  20058658.852   107262678.423                    83426550.590    20058665.500  
  20058657.926  
  22620107.492   118869500.848    22620114.891    92625620.9714   22620114.676  
                
  22087556.508   116070919.535    22087566.305    90444928.1234   22087565.777  
                
  20386755.633   107133159.111    20386763.215    83480419.2304   20386762.977  
                
  24087747.461   126581972.761    24087755.102    98635341.0414                 
                
 21  8 16  7 36  0.0000000  0 15R12G26R 6R 4R21G29R 5G16G18G27R20G15
                                G10G23G13
  23058557.594   123174680.567                    95802521.033    23058561.945  
  23058556.844  
  22226361.367   116800317.743    22226371.676    91013269.5134   22226371.465  
                
  21990613.062   117346138.115                                                  
  21990610.734  
  22319308.914   119518914.521                    92959171.471    22319312.836  
  22319307.980  
  20967353.125   112200555.812                    87267091.786    20967356.523  
  20967351.355  
  23205136.578   121943803.008    23205144.734    95021167.2784   23205144.785  
                
  20007842.562   106953416.967                    83185986.984    20007847.027  
  20007842.328  
  21866082.680   114907052.395    21866088.621    89537991.4834                 
                
  20510261.781   107782188.359    20510268.883    83986138.7164   20510268.844  
                
  22899970.891   120340150.031    22899979.633    93771600.5304   22899979.652  
                
  20060560.188   107272845.696                    83434458.460    20060566.805  
  20060559.238  
  22619362.375   118865585.261    22619369.820    92622569.8724   22619369.590  
                
  22082184.633   116042690.223    22082194.445    90422931.2704   22082193.926  
                
  20384916.367   107123493.756    20384923.953    83472887.7924   20384923.711  
                
  24088430.891   126585564.256    24088438.523    98638139.6054                 
                
 21  8 16  7 36 10.0000000  0 15R12G26R 6R 4R21G29R 5G16G18G27R20G15
                                G10G23G13
  23055846.102   123160196.275                    95791255.514    23055850.480  
  23055845.332  
  22230481.969   116821971.590    22230492.230    91030142.6384   22230492.051  
                
  21982686.172   117303839.239                                                  
  21982683.895  
  22325277.680   119550876.969                    92984031.141    22325281.617  
  22325276.727  
  20962941.945   112176950.721                    87248732.273    20962945.340  
  20962940.176  
  23211075.266   121975010.850    23211083.402    95045485.0544   23211083.441  
                
  20006914.406   106948455.470                    83182128.062    20006918.879  
  20006914.184  
  21866274.594   114908060.894    21866280.551    89538777.3214                 
                
  20512280.000   107792794.179    20512287.098    83994402.9884   20512287.055  
                
  22894099.148   120309293.876    22894107.875    93747556.7824   22894107.922  
                
  20062468.242   107283048.965                    83442394.320    20062474.852  
  20062467.309  
  22618630.227   118861737.844    22618637.668    92619571.8824   22618637.445  
                
  22076819.836   116014498.039    22076829.660    90400963.3404   22076829.141  
                
  20383088.625   107113888.955    20383096.203    83465403.5404   20383095.977  
                
  24089126.609   126589220.348    24089134.270    98640988.5144                 
                
 21  8 16  7 36 20.0000000  0 15R12G26R 6R 4R21G29R 5G16G18G27R20G15
                                G10G23G13
  23053149.477   123145791.371                    95780051.710    23053153.836  
  23053148.695  
  22234611.328   116843671.471    22234621.566    91047051.6384   22234621.402  
                
  21974765.219   117261570.962                                                  
  21974762.855  
  22331257.359   119582897.815                    93008936.216    22331261.305  
  22331256.395  
  20958534.359   112153364.902                    87230387.761    20958537.738  
  20958532.578  
  23217018.938   122006244.760    23217027.012    95069823.1554   23217027.066  
                
  20006003.617   106943586.774                    83178341.290    20006008.070  
  20006003.402  
  21866479.586   114909138.088    21866485.551    89539616.6904                 
                
  20514304.141   107803431.078    20514311.242    84002691.4784   20514311.191  
                
  22888231.312   120278458.256    22888240.004    93723529.0254   22888240.074  
                
  20064383.031   107293288.223                    83450358.174    20064389.621  
  20064382.086  
  22617911.023   118857958.448    22617918.449    92616626.9074   22617918.242  
                
  22071462.062   115986342.853    22071471.930    90379024.2434   22071471.410  
                
  20381272.375   107104344.524    20381279.934    83457966.3254   20381279.715  
                
  24089834.594   126592940.886    24089842.285    98643887.6574                 
                
 21  8 16  7 36 30.0000000  0 15R12G26R 6R 4R21G29R 5G16G18G27R20G15
                                G10G23G13
  23050467.797   123131466.283                    95768909.965    23050472.145  
  23050467.043  
  22238749.492   116865417.669    22238759.738    91063996.7154   22238759.582  
                
  21966850.117   117219333.388                                                  
  21966847.602  
  22337247.953   119614977.215                    93033886.867    22337251.926  
  22337247.027  
  20954130.461   112129798.779                    87212058.553    20954133.828  
  20954128.676  
  23222967.602   122037505.027    23222975.602    95094181.7904   23222975.691  
                
  20005110.242   106938811.185                    83174626.940    20005114.691  
  20005110.027  
  21866697.719   114910284.355    21866703.691    89540509.8844                 
                
  20516334.250   107814099.414    20516341.352    84011004.4654   20516341.320  
                
  22882367.477   120247643.651    22882376.156    93699517.6534   22882376.227  
                
  20066304.578   107303563.603                    83458350.140    20066311.168  
  20066303.652  
  22617204.828   118854247.439    22617212.238    92613735.2224   22617212.059  
                
  22066111.406   115958225.078    22066121.285    90357114.3084   22066120.766  
                
  20379467.688   107094860.870    20379475.215    83450576.4654   20379475.023  
                
  24090554.898   126596726.197    24090562.621    98646837.2414                 
                
 21  8 16  7 36 40.0000000  0 15R12G26R 6R 4R21G29R 5G16G18G27R20G15
                                G10G23G13
  23047801.047   123117221.054                    95757830.362    23047805.418  
  23047800.289  
  22242896.445   116887210.051    22242906.723    91080977.7734   22242906.570  
                
  21958940.688   117177126.821                                                  
  21958938.141  
  22343249.461   119647114.975                    93058882.915    22343253.410  
  22343248.594  
  20949730.234   112106252.319                    87193744.646    20949733.602  
  20949728.453  
  23228921.258   122068791.559    23228929.207    95118560.8914   23228929.316  
                
  20004234.312   106934128.856                    83170985.127    20004238.758  
  20004234.098  
  21866928.969   114911499.606    21866934.969    89541456.8324                 
                
  20518370.336   107824799.103    20518377.438    84019341.8874   20518377.406  
                
  22876507.648   120216850.060    22876516.312    93675522.6574   22876516.395  
                
  20068232.906   107313875.253                    83466370.288    20068239.492  
  20068232.012  
  22616511.648   118850604.788    22616519.016    92610896.7874   22616518.859  
                
  22060767.883   115930144.752    22060777.723    90335233.5444   22060777.211  
                
  20377674.555   107085437.932    20377682.043    83443233.9144   20377681.867  
                
  24091287.508   126600576.158    24091295.246    98649837.2244                 
                
 21  8 16  7 36 50.0000000  0 15R12G26R 6R 4R21G29R 5G16G18G27R20G15
                                G10G23G13
  23045149.211   123103055.511                    95746812.702    23045153.617  
  23045148.414  
  22247052.133   116909048.287    22247062.438    91097994.5744   22247062.285  
                
  21951037.000   117134951.531                                                  
  21951034.492  
  22349261.789   119679310.755                    93083924.065    22349265.727  
  22349260.938  
  20945333.648   112082725.300                    87175445.874    20945337.016  
  20945331.871  
  23234879.844   122100104.135    23234887.754    95142960.2914   23234887.879  
                
  20003375.781   106929539.484                    83167415.618    20003380.227  
  20003375.562  
  21867173.320   114912783.655    21867179.355    89542457.4024                 
                
  20520412.344   107835529.919    20520419.441    84027703.5624   20520419.418  
                
  22870651.797   120186077.378    22870660.465    93651543.9534   22870660.562  
                
  20070167.969   107324222.846                    83474418.417    20070174.527  
  20070167.074  
  22615831.453   118847030.404    22615838.789    92608111.5684   22615838.660  
                
  22055431.469   115902101.743    22055441.270    90313381.8564   22055440.785  
                
  20375892.930   107076075.509    20375900.367    83435938.5224   20375900.207  
                
  24092032.398   126604490.584    24092040.152    98652887.4404                 
                
 21  8 16  7 37  0.0000000  0 15R12G26R 6R 4R21G29R 5G16G18G27R20G15
                                G10G23G13
  23042512.375   123088970.042                    95735857.320    23042516.789  
  23042511.559  
  22251216.586   116930932.630    22251226.906    91115047.2944   22251226.746  
                
  21943139.188   117092807.469                                                  
  21943136.695  
  22355284.977   119711564.628                    93109010.391    22355288.918  
  22355284.148  
  20940940.805   112059218.361                    87157162.698    20940944.184  
  20940939.043  
  23240843.469   122131443.072    23240851.309    95167380.2274   23240851.480  
                
  20002534.703   106925043.441                    83163918.700    20002539.148  
  20002534.492  
  21867430.828   114914136.831    21867436.902    89543511.8164                 
                
  20522460.344   107846292.170    20522467.441    84036089.7264   20522467.410  
                
  22864800.000   120155325.986    22864808.715    93627581.8504   22864808.801  
                
  20072109.852   107334606.905                    83482494.902    20072116.387  
  20072108.969  
  22615164.359   118843524.769    22615171.664    92605379.9014   22615171.562  
                
  22050102.219   115874096.410    22050111.988    90291559.5254   22050111.516  
                
  20374122.898   107066773.943    20374130.285    83428690.5494   20374130.172  
                
  24092789.625   126608469.814    24092797.379    98655988.1774                 
                
 21  8 16  7 37 10.0000000  0 15R12G26R 6R 4R21G29R 5G16G18G27R20G15
                                G10G23G13
  23039890.508   123074964.482                    95724964.121    23039894.914  
  23039889.742  
  22255389.766   116952862.758    22255400.078    91132135.6974   22255399.938  
                
  21935247.289   117050695.022                                                  
  21935244.836  
  22361318.945   119743876.230                    93134141.631    22361322.914  
  22361318.160  
  20936551.641   112035731.029                    87138894.782    20936555.012  
  20936549.867  
  23246812.070   122162808.013    23246819.828    95191820.4394   23246820.031  
                
  20001711.055   106920640.538                    83160494.225    20001715.492  
  20001710.863  
  21867701.430   114915558.849    21867707.547    89544619.8884                 
                
  20524514.266   107857085.582    20524521.371    84044500.1734   20524521.324  
                
  22858952.219   120124595.739    22858960.949    93603636.2174   22858961.027  
                
  20074058.500   107345027.158                    83490599.526    20074065.031  
  20074057.641  
  22614510.266   118840087.503    22614517.566    92602701.5184   22614517.469  
                
  22044780.109   115846128.588    22044789.836    90269766.4154   22044789.371  
                
  20372364.398   107057533.008    20372371.734    83421489.8344   20372371.637  
                
  24093559.156   126612513.700    24093566.891    98659139.2524                 
                
 21  8 16  7 37 20.0000000  0 15R12G26R 6R 4R21G29R 5G16G18G27R20G15
                                G10G23G13
  23037283.555   123061038.578                    95714132.883    23037287.973  
  23037282.809  
  22259571.555   116974838.213    22259581.852    91149259.4224   22259581.727  
                
  21927361.336   117008613.527                                                  
  21927358.797  
  22367363.656   119776245.284                    93159317.557    22367367.641  
  22367362.875  
  20932166.109   112012263.209                    87120642.012    20932169.469  
  20932164.324  
  23252785.562   122194198.597    23252793.273    95216280.6224   23252793.465  
                
  20000904.750   106916330.359                    83157141.873    20000909.176  
  20000904.578  
  21867985.062   114917049.327    21867991.227    89545781.2924                 
                
  20526574.055   107867909.787    20526581.164    84052934.6184   20526581.125  
                
  22853108.414   120093886.387    22853117.129    93579706.8414   22853117.199  
                
  20076013.812   107355483.047                    83498731.871    20076020.309  
  20076012.973  
  22613869.117   118836718.304    22613876.426    92600076.1684   22613876.312  
                
  22039465.078   115818197.985    22039474.754    90248002.3204   22039474.293  
                
  20370617.383   107048352.393    20370624.652    83414336.0994   20370624.590  
                
  24094340.922   126616621.816    24094348.578    98662340.3624                 
                
 21  8 16  7 37 30.0000000  0 15R12G26R 6R 4R21G29R 5G16G18G27R20G15
                                G10G23G13
  23034691.617   123047192.889                    95703364.040    23034696.043  
  23034690.855  
  22263762.055   116996859.391    22263772.363    91166418.7684   22263772.234  
                
  21919481.242   116966564.080                                                  
  21919478.750  
  22373419.109   119808671.955                    93184538.290    22373423.148  
  22373418.355  
  20927784.305   111988815.285                    87102404.750    20927787.660  
  20927782.523  
  23258764.000   122225615.221    23258771.711    95240761.0934   23258771.891  
                
  20000115.891   106912113.470                    83153862.056    20000120.297  
  20000115.734  
  21868281.812   114918608.759    21868288.020    89546996.4354                 
                
  20528639.789   107878765.255    20528646.902    84061393.4204   20528646.855  
                
  22847268.656   120063198.432    22847277.355    93555794.1654   22847277.441  
                
  20077975.922   107365975.329                    83506892.537    20077982.422  
  20077975.082  
  22613241.031   118833417.738    22613248.355    92597504.2804   22613248.219  
                
  22034157.250   115790305.164    22034166.898    90226267.6634   22034166.445  
                
  20368881.930   107039232.545    20368889.145    83407229.7284   20368889.113  
                
  24095135.000   126620794.662    24095142.602    98665591.9454                 
                
 21  8 16  7 37 40.0000000  0 15R12G26R 6R 4R21G29R 5G16G18G27R20G15
                                G10G23G13
  23032114.672   123033427.432                    95692657.575    23032119.078  
  23032113.887  
  22267961.227   117018926.208    22267971.559    91183613.6894   22267971.398  
                
  21911607.008   116924546.376                                                  
  21911604.641  
  22379485.289   119841156.003                    93209803.648    22379489.375  
  22379484.543  
  20923406.227   111965387.316                    87084182.987    20923409.578  
  20923404.445  
  23264747.359   122257057.826    23264755.086    95265261.8034   23264755.234  
                
  19999344.508   106907989.959                    83150654.885    19999348.898  
  19999344.359  
  21868591.695   114920237.167    21868597.926    89548265.3194                 
                
  20530711.461   107889651.939    20530718.574    84069876.5524   20530718.531  
                
  22841433.008   120032531.999    22841441.695    93531898.2684   22841441.797  
                
  20079944.820   107376503.881                    83515081.386    20079951.293  
  20079943.984  
  22612625.977   118830185.686    22612633.328    92594985.8174   22612633.160  
                
  22028856.617   115762450.187    22028866.266    90204562.4914   22028865.801  
                
  20367158.055   107030173.521    20367165.223    83400170.7514   20367165.219  
                
  24095941.383   126625032.182    24095948.949    98668893.9054                 
                
 21  8 16  7 37 50.0000000  0 15R12G26R 6R 4R21G29R 5G16G18G27R20G15
                                G10G23G13
  23029552.742   123019742.066                    95682013.397    23029557.148  
  23029551.961  
  22272169.055   117041038.452    22272179.406    91200843.9914   22272179.242  
                
  21903738.875   116882560.496                                                  
  21903736.504  
  22385562.180   119873697.378                    93235113.576    22385566.289  
  22385561.406  
  20919031.883   111941979.337                    87065976.795    20919035.238  
  20919030.117  
  23270735.602   122288526.237    23270743.352    95289782.6244   23270743.465  
                
  19998590.570   106903959.731                    83147520.247    19998594.941  
  19998590.422  
  21868914.656   114921934.345    21868920.918    89549587.7964                 
                
  20532789.047   107900569.690    20532796.160    84078383.8884   20532796.113  
                
  22835601.461   120001887.057    22835610.141    93508019.0994   22835610.246  
                
  20081920.508   107387068.723                    83523298.482    20081926.961  
  20081919.688  
  22612023.977   118827022.151    22612031.324    92592520.7084   22612031.160  
                
  22023563.180   115734632.975    22023572.832    90182886.7474   22023572.367  
                
  20365445.719   107021175.171    20365452.836    83393159.0474   20365452.855  
                
  24096760.047   126629334.275    24096767.645    98672246.1894                 
                
 21  8 16  7 38  0.0000000  0 15R12G26R 6R 4R21G29R 5G16G18G27R20G15
                                G10G23G13
  23027005.828   123006136.919                    95671431.589    23027010.238  
  23027005.062  
  22276385.500   117063195.955    22276395.852    91218109.5764   22276395.691  
                
  21895876.875   116840607.056                                                  
  21895874.438  
  22391649.695   119906295.751                    93260467.844    22391653.840  
  22391648.926  
  20914661.242   111918591.161                    87047785.991    20914664.598  
  20914659.480  
  23276728.773   122320020.446    23276736.523    95314323.5514   23276736.613  
                
  19997854.039   106900022.545                    83144457.997    19997858.395  
  19997853.898  
  21869250.703   114923700.260    21869256.992    89550963.8294                 
                
  20534872.531   107911518.452    20534879.637    84086915.3924   20534879.598  
                
  22829774.000   119971263.604    22829782.695    93484156.6754   22829782.801  
                
  20083902.969   107397669.783                    83531543.751    20083909.402  
  20083902.180  
  22611435.008   118823927.154    22611442.336    92590109.0284   22611442.203  
                
  22018276.930   115706853.538    22018286.609    90161240.4494   22018286.145  
                
  20363744.930   107012237.465    20363752.000    83386194.6084   20363752.035  
                
  24097590.992   126633700.925    24097598.594    98675648.7754                 
                
 21  8 16  7 38 10.0000000  0 15R12G26R 6R 4R21G29R 5G16G18G27R20G15
                                G10G23G13
  23024473.914   122992611.892                    95660912.142    23024478.328  
  23024473.145  
  22280610.508   117085398.495    22280620.828    91235410.2564   22280620.688  
                
  21888020.727   116798685.421                                                  
  21888018.328  
  22397747.812   119938950.931                    93285866.315    22397752.012  
  22397747.078  
  20910294.312   111895222.857                    87029610.650    20910297.668  
  20910292.562  
  23282726.805   122351540.231    23282734.531    95338884.4194   23282734.621  
                
  19997134.906   106896178.371                    83141468.093    19997139.238  
  19997134.758  
  21869599.805   114925534.805    21869606.102    89552393.3464                 
                
  20536961.883   107922498.050    20536968.973    84095470.9194   20536968.926  
                
  22823950.617   119940661.598    22823959.348    93460310.9654   22823959.438  
                
  20085892.148   107408306.751                    83539816.954    20085898.566  
  20085891.375  
  22610859.078   118820900.690    22610866.383    92587750.7384   22610866.262  
                
  22012997.852   115679111.804    22013007.570    90139623.5284   22013007.094  
                
  20362055.656   107003360.274    20362062.672    83379277.3184   20362062.723  
                
  24098434.188   126638131.922    24098441.793    98679101.4934                 
                
 21  8 16  7 38 20.0000000  0 15R12G26R 6R 4R21G29R 5G16G18G27R20G15
                                G10G23G13
  23021957.023   122979167.172                    95650455.133    23021961.457  
  23021956.250  
  22284844.102   117107646.098    22284854.395    91252746.0494   22284854.277  
                
  21880170.750   116756796.353                                                  
  21880168.336  
  22403856.523   119971662.782                    93311308.853    22403860.762  
  22403855.785  
  20905931.141   111871874.595                    87011450.887    20905934.480  
  20905929.426  
  23288729.703   122383085.576    23288737.406    95363465.1974   23288737.500  
                
  19996433.219   106892427.443                    83138550.710    19996437.535  
  19996433.059  
  21869961.984   114927438.062    21869968.277    89553876.3984                 
                
  20539057.109   107933508.563    20539064.180    84104050.5324   20539064.141  
                
  22818131.359   119910081.216    22818140.117    93436482.1154   22818140.199  
                
  20087888.125   107418979.966                    83548118.330    20087894.504  
  20087887.363  
  22610296.203   118817942.760    22610303.516    92585445.8594   22610303.395  
                
  22007725.984   115651407.954    22007735.727    90118036.1184   22007735.234  
                
  20360377.922   106994543.710    20360384.891    83372407.2774   20360384.961  
                
  24099289.672   126642627.497    24099297.309    98682604.5414                 
                
 21  8 16  7 38 30.0000000  0 15R12G26R 6R 4R21G29R 5G16G18G27R20G15
                                G10G23G13
  23019455.188   122965802.849                    95640060.658    23019459.625  
  23019454.449  
  22289086.242   117129938.715    22289096.543    91270116.9084   22289096.438  
                
  21872326.906   116714939.761                                                  
  21872324.430  
  22409975.781   120004431.171                    93336795.357    22409980.031  
  22409975.027  
  20901571.695   111848546.325                    86993306.695    20901575.027  
  20901569.988  
  23294737.438   122414656.534    23294745.133    95388065.9304   23294745.250  
                
  19995748.961   106888769.718                    83135705.794    19995753.250  
  19995748.797  
  21870337.234   114929410.028    21870343.512    89555412.9884                 
                
  20541158.227   107944549.998    20541165.266    84112654.2504   20541165.238  
                
  22812316.234   119879522.552    22812325.000    93412670.1674   22812325.070  
                
  20089890.859   107429689.430                    83556447.910    20089897.227  
  20089890.145  
  22609746.367   118815053.453    22609753.695    92583194.4484   22609753.555  
                
  22002461.328   115623742.059    22002471.082    90096478.2794   22002470.586  
                
  20358711.727   106985787.831    20358718.652    83365584.5134   20358718.730  
                
  24100157.430   126647187.588    24100165.117    98686157.8654                 
                
 21  8 16  7 38 40.0000000  0 15R12G26R 6R 4R21G29R 5G16G18G27R20G15
                                G10G23G13
  23016968.422   122952519.054                    95629728.828    23016972.848  
  23016967.664  
  22293336.945   117152276.293    22293347.254    91287522.7994   22293347.141  
                
  21864489.016   116673116.035                                                  
  21864486.645  
  22416105.617   120037256.130                    93362325.878    22416109.887  
  22416104.898  
  20897216.031   111825238.285                    86975178.214    20897219.352  
  20897214.312  
  23300750.016   122446253.181    23300757.758    95412686.6824   23300757.867  
                
  19995082.141   106885205.217                    83132933.411    19995086.422  
  19995081.969  
  21870725.578   114931450.757    21870731.848    89557003.1734                 
                
  20543265.234   107955622.419    20543272.250    84121282.1014   20543272.223  
                
  22806505.266   119848985.792    22806514.027    93388875.2904   22806514.102  
                
  20091900.359   107440435.170                    83564805.701    20091906.711  
  20091899.664  
  22609209.609   118812232.845    22609216.961    92580996.5654   22609216.812  
                
  21997203.922   115596114.261    21997213.691    90074950.1414   21997213.203  
                
  20357057.102   106977092.695    20357063.992    83358809.0844   20357064.078  
                
  24101037.461   126651812.217    24101045.172    98689761.4864                 
                
 21  8 16  7 38 50.0000000  0 15R12G26R 6R 4R21G29R 5G16G18G27R20G15
                                G10G23G13
  23014496.703   122939315.603                    95619459.496    23014501.148  
  23014495.969  
  22297596.156   117174658.562    22297606.469    91304963.5224   22297606.355  
                
  21856657.344   116631324.933                                                  
  21856654.969  
  22422245.938   120070137.244                    93387900.071    22422250.223  
  22422245.219  
  20892864.086   111801950.232                    86957065.293    20892867.426  
  20892862.359  
  23306767.469   122477875.320    23306775.258    95437327.2924   23306775.371  
                
  19994432.750   106881733.861                    83130233.481    19994437.023  
  19994432.578  
  21871126.961   114933559.996    21871133.219    89558646.7294                 
                
  20545378.094   107966725.600    20545385.086    84129933.9354   20545385.074  
                
  22800698.438   119818470.790    22800707.191    93365097.3794   22800707.273  
                
  20093916.648   107451217.068                    83573191.612    20093922.988  
  20093915.961  
  22608685.914   118809480.810    22608693.320    92578852.1264   22608693.137  
                
  21991953.758   115568524.448    21991963.562    90053451.5964   21991963.074  
                
  20355414.000   106968458.130    20355420.863    83352080.8494   20355420.957  
                
  24101929.758   126656501.282    24101937.445    98693415.2944                 
                
 21  8 16  7 39  0.0000000  0 15R12G26R 6R 4R21G29R 5G16G18G27R20G15
                                G10G23G13
  23012040.062   122926192.656                    95609252.768    23012044.504  
  23012039.367  
  22301863.875   117197085.602    22301874.176    91322439.1294   22301874.094  
                
  21848831.930   116589566.911                                                  
  21848829.551  
  22428396.750   120103074.580                    93413517.976    22428401.070  
  22428395.980  
  20888515.945   111778682.463                    86938968.154    20888519.297  
  20888514.199  
  23312789.797   122509523.065    23312797.641    95461987.8604   23312797.746  
                
  19993800.828   106878355.887                    83127606.162    19993805.086  
  19993800.656  
  21871541.422   114935737.971    21871547.668    89560343.8504                 
                
  20547496.852   107977859.713    20547503.824    84138609.8614   20547503.824  
                
  22794895.812   119787977.840    22794904.543    93341336.6404   22794904.633  
                
  20095939.695   107462035.158                    83581605.677    20095946.012  
  20095939.012  
  22608175.320   118806797.663    22608182.805    92576761.3634   22608182.605  
                
  21986710.852   115540972.845    21986720.688    90031982.8284   21986720.195  
                
  20353782.469   106959884.328    20353789.312    83345399.9664   20353789.402  
                
  24102834.344   126661254.923    24102841.973    98697119.4294                 
                
 21  8 16  7 39 10.0000000  0 15R12G26R 6R 4R21G29R 5G16G18G27R20G15
                                G10G23G13
  23009598.555   122913150.594                    95599108.926    23009602.984  
  23009597.891  
  22306140.133   117219557.475    22306150.422    91339949.6734   22306150.363  
                
  21841012.742   116547842.256                                                  
  21841010.367  
  22434558.055   120136068.091                    93439179.559    22434562.410  
  22434557.289  
  20884171.625   111755435.145                    86920886.902    20884174.977  
  20884169.883  
  23318817.039   122541196.485    23318824.926    95486668.4274   23318825.016  
                
  19993186.375   106875071.291                    83125051.475    19993190.621  
  19993186.188  
  21871968.992   114937984.807    21871975.238    89562094.6334                 
                
  20549621.500   107989024.853    20549628.449    84147309.9644   20549628.461  
                
  22789097.422   119757507.135    22789106.133    93317593.2414   22789106.230  
                
  20097969.570   107472889.757                    83590048.136    20097975.863  
  20097968.891  
  22607677.844   118804183.431    22607685.402    92574724.3084   22607685.180  
                
  21981475.266   115513459.661    21981485.102    90010543.9904   21981484.613  
                
  20352162.516   106951371.435    20352169.336    83338766.5474   20352169.422  
                
  24103751.234   126666073.248    24103758.852    98700873.9584                 
                
 21  8 16  7 39 20.0000000  0 15R12G26R 6R 4R21G29R 5G16G18G27R20G15
                                G10G23G13
  23007172.164   122900189.273                    95589027.897    23007176.609  
  23007171.496  
  22310424.891   117242074.026    22310435.180    91357495.0214   22310435.137  
                
  21833199.734   116506151.053                                                  
  21833197.445  
  22440729.836   120169117.684                    93464884.787    22440734.199  
  22440729.117  
  20879831.133   111732208.288                    86902821.561    20879834.473  
  20879829.406  
  23324849.148   122572895.394    23324857.031    95511368.8604   23324857.117  
                
  19992589.398   106871880.099                    83122569.425    19992593.629  
  19992589.223  
  21872409.648   114940300.449    21872415.902    89563899.0274                 
                
  20551752.039   108000220.928    20551758.965    84156034.1784   20551758.988  
                
  22783303.273   119727058.687    22783311.934    93293867.1894   22783312.043  
                
  20100006.266   107483780.829                    83598518.979    20100012.559  
  20100005.594  
  22607193.484   118801638.151    22607201.105    92572740.9754   22607200.867  
                
  21976246.977   115485984.872    21976256.828    89989135.0754   21976256.336  
                
  20350554.148   106942919.374    20350560.938    83332180.5314   20350561.035  
                
  24104680.430   126670956.213    24104688.031    98704678.8804                 
                
 21  8 16  7 39 30.0000000  0 15R12G26R 6R 4R21G29R 5G16G18G27R20G15
                                G10G23G13
  23004760.914   122887308.836                    95579009.785    23004765.363  
  23004760.246  
  22314718.133   117264635.135    22314728.422    91375075.1024   22314728.383  
                
  21825393.172   116464493.479                                                  
  21825390.801  
  22446912.023   120202223.022                    93490633.356    22446916.406  
  22446911.320  
  20875494.492   111709002.045                    86884772.285    20875497.836  
  20875492.754  
  23330886.117   122604619.874    23330893.973    95536089.2284   23330894.062  
                
  19992009.930   106868782.481                    83120160.170    19992014.156  
  19992009.773  
  21872863.391   114942684.852    21872869.652    89565756.9954                 
                
  20553888.461   108011447.925    20553895.371    84164782.4874   20553895.402  
                
  22777513.383   119696632.627    22777521.996    93270158.5784   22777522.109  
                
  20102049.797   107494708.441                    83607018.217    20102056.062  
  20102049.125  
  22606722.250   118799161.804    22606729.918    92570811.3484   22606729.660  
                
  21971026.008   115458548.566    21971035.883    89967756.1544   21971035.375  
                
  20348957.367   106934528.194    20348964.133    83325641.9464   20348964.238  
                
  24105621.922   126675903.843    24105629.520    98708534.1724                 
                
 21  8 16  7 39 40.0000000  0 15R12G26R 6R 4R21G29R 5G16G18G27R20G15
                                G10G23G13
  23002364.727   122874508.882                    95569054.263    23002369.160  
  23002364.062  
  22319019.750   117287240.250    22319030.035    91392689.4824   22319030.004  
                
  21817592.719   116422869.319                                                  
  21817590.402  
  22453104.555   120235383.735                    93516425.008    22453108.980  
  22453103.852  
  20871161.586   111685815.826                    86866738.551    20871164.938  
  20871159.832  
  23336927.859   122636369.397    23336935.688    95560829.0904   23336935.766  
                
  19991447.820   106865777.668                    83117823.097    19991452.039  
  19991447.688  
  21873330.133   114945137.557    21873336.410    89567668.1904                 
                
  20556030.680   108022705.364    20556037.578    84173554.5224   20556037.629  
                
  22771727.680   119666228.528    22771736.285    93246467.0614   22771736.414  
                
  20104100.039   107505672.002                    83615545.418    20104106.305  
  20104099.371  
  22606264.062   118796754.012    22606271.773    92568935.1544   22606271.488  
                
  21965812.289   115431150.340    21965822.176    89946406.8994   21965821.648  
                
  20347372.078   106926197.426    20347378.828    83319150.4334   20347378.941  
                
  24106575.641   126680915.670    24106583.227    98712439.4974                 
                
 21  8 16  7 39 50.0000000  0 15R12G26R 6R 4R21G29R 5G16G18G27R20G15
                                G10G23G13
  22999983.695   122861789.872                    95559161.728    22999988.105  
  22999983.027  
  22323329.820   117309889.819    22323340.098    91410338.4784   22323340.070  
                
  21809798.430   116381279.082                                                  
  21809796.340  
  22459307.469   120268599.967                    93542259.842    22459311.906  
  22459306.789  
  20866832.555   111662650.341                    86848720.947    20866835.918  
  20866830.773  
  23342974.430   122668144.358    23342982.234    95585588.7934   23342982.336  
                
  19990903.203   106862866.354                    83115558.745    19990907.422  
  19990903.074  
  21873809.961   114947659.044    21873816.246    89569632.9714                 
                
  20558178.789   108033993.735    20558185.680    84182350.6574   20558185.730  
                
  22765946.266   119635846.972    22765954.910    93222793.1374   22765955.043  
                
  20106157.133   107516672.087                    83624101.057    20106163.391  
  20106156.488  
  22605819.055   118794415.424    22605826.801    92567112.8744   22605826.500  
                
  21960605.945   115403790.772    21960615.809    89925087.7554   21960615.273  
                
  20345798.383   106917927.572    20345805.125    83312706.3944   20345805.234  
                
  24107541.680   126685992.178    24107549.262    98716395.2084                 
                
 21  8 16  7 40  0.0000000  0 15R12G26R 6R 4R21G29R 5G16G18G27R20G15
                                G10G23G13
  22997617.852   122849152.000                    95549332.288    22997622.246  
  22997617.145  
  22327648.320   117332583.658    22327658.605    91428021.9844   22327658.566  
                
  21802010.664   116339722.843                                                  
  21802008.664  
  22465520.742   120301871.669                    93568137.803    22465525.156  
  22465520.051  
  20862507.375   111639505.444                    86830719.364    20862510.734  
  20862505.570  
  23349025.789   122699944.681    23349033.645    95610368.2424   23349033.746  
                
  19990376.078   106860048.573                    83113367.144    19990380.301  
  19990375.938  
  21874302.859   114950249.203    21874309.172    89571651.2884                 
                
  20560332.766   108045312.936    20560339.645    84191170.8124   20560339.715  
                
  22760169.156   119605488.010    22760177.824    93199136.8134   22760177.930  
                
  20108221.008   107527708.536                    83632684.954    20108227.281  
  20108220.352  
  22605387.164   118792145.791    22605394.949    92565344.3394   22605394.668  
                
  21955406.953   115376469.825    21955416.758    89903798.7124   21955416.234  
                
  20344236.273   106909718.579    20344243.012    83306309.7794   20344243.113  
                
  24108519.992   126691133.281    24108527.562    98720401.2884                 
                
 21  8 16  7 40 10.0000000  0 15R12G26R 6R 4R21G29R 5G16G18G27R20G15
                                G10G23G13
  22995267.133   122836595.015                    95539565.756    22995271.531  
  22995266.379  
  22331975.195   117355321.541    22331985.492    91445739.8064   22331985.453  
                
  21794229.391   116298200.782                                                  
  21794227.457  
  22471744.281   120335198.380                    93594058.548    22471748.684  
  22471743.582  
  20858186.031   111616381.082                    86812733.758    20858189.398  
  20858184.219  
  23355081.891   122731770.130    23355089.812    95635167.2664   23355089.906  
                
  19989866.414   106857324.163                    83111248.157    19989870.633  
  19989866.254  
  21874808.805   114952907.964    21874815.145    89573723.0404                 
                
  20562492.562   108056662.784    20562499.453    84200014.8574   20562499.516  
                
  22754396.312   119575151.556    22754404.969    93175498.0214   22754405.090  
                
  20110291.672   107538781.291                    83641297.093    20110297.934  
  20110291.031  
  22604968.375   118789945.032    22604976.176    92563629.4674   22604975.883  
                
  21950215.281   115349187.426    21950225.039    89882539.7084   21950224.527  
                
  20342685.711   106901570.309    20342692.465    83299960.4844   20342692.559  
                
  24109510.586   126696338.880    24109518.137    98724457.6114                 
                
 21  8 16  7 40 20.0000000  0 15R12G26R 6R 4R21G29R 5G16G18G27R20G15
                                G10G23G13
  22992931.555   122824118.930                    95529862.133    22992935.973  
  22992930.762  
  22336310.414   117378103.272    22336320.695    91463491.7954   22336320.668  
                
  21786454.648   116256712.737                                                  
  21786452.613  
  22477978.070   120368579.989                    93620022.009    22477982.418  
  22477977.398  
  20853868.500   111593277.199                    86794764.076    20853871.887  
  20853866.664  
  23361142.781   122763620.559    23361150.723    95659985.7694   23361150.805  
                
  19989374.195   106854692.996                    83109201.703    19989378.414  
  19989374.020  
  21875327.758   114955635.083    21875334.117    89575848.0664                 
                
  20564658.180   108068043.198    20564665.086    84208882.7034   20564665.148  
                
  22748627.742   119544837.574    22748636.379    93151876.7434   22748636.539  
                
  20112369.141   107549890.434                    83649937.535    20112375.414  
  20112368.496  
  22604562.695   118787813.160    22604570.508    92561968.2624   22604570.211  
                
  21945030.938   115321943.556    21945040.633    89861310.7274   21945040.141  
                
  20341146.680   106893482.673    20341153.445    83293658.4364   20341153.523  
                
  24110513.438   126701608.937    24110520.961    98728564.1674                 
                
 21  8 16  7 40 30.0000000  0 15R12G26R 6R 4R21G29R 5G16G18G27R20G15
                                G10G23G13
  22990611.195   122811724.010                    95520221.658    22990615.609  
  22990610.418  
  22340653.992   117400928.910    22340664.238    91481278.0034   22340664.223  
                
  21778686.430   116215259.103                                                  
  21778684.227  
  22484222.117   120402016.494                    93646028.177    22484226.414  
  22484221.414  
  20849554.859   111570194.078                    86776810.545    20849558.234  
  20849552.984  
  23367208.555   122795496.140    23367216.395    95684823.8914   23367216.512  
                
  19988899.453   106852155.237                    83107227.877    19988903.656  
  19988899.234  
  21875859.758   114958430.754    21875866.133    89578026.5194                 
                
  20566829.641   108079454.279    20566836.566    84217774.4554   20566836.609  
                
  22742863.516   119514546.350    22742872.094    93128273.1964   22742872.293  
                
  20114453.406   107561035.876                    83658606.202    20114459.699  
  20114452.766  
  22604170.141   118785750.286    22604177.973    92560360.8374   22604177.676  
                
  21939853.984   115294738.418    21939863.605    89840111.9224   21939863.129  
                
  20339619.234   106885455.842    20339626.031    83287403.7664   20339626.090  
                
  24111528.578   126706943.510    24111536.008    98732720.9704                 
                
 21  8 16  7 40 40.0000000  0 15R12G26R 6R 4R21G29R 5G16G18G27R20G15
                                G10G23G13
  22988305.961   122799409.894                    95510643.989    22988310.363  
  22988305.191  
  22345005.875   117423798.201    22345016.117    91499098.2284   22345016.094  
                
  21770924.586   116173839.921                                                  
  21770922.293  
  22490476.367   120435507.712                    93672076.881    22490480.633  
  22490475.629  
  20845245.062   111547131.472                    86758872.962    20845248.457  
  20845243.176  
  23373279.086   122827396.695    23373286.867    95709681.4484   23373286.988  
                
  19988442.141   106849710.679                    83105326.562    19988446.344  
  19988441.910  
  21876404.781   114961294.822    21876411.160    89580258.2534                 
                
  20569006.898   108090895.862    20569013.852    84226689.9674   20569013.879  
                
  22737103.594   119484277.778    22737112.129    93104687.3054   22737112.367  
                
  20116544.500   107572217.857                    83667303.306    20116550.832  
  20116543.855  
  22603790.703   118783756.291    22603798.547    92558807.0664   22603798.242  
                
  21934684.375   115267571.949    21934693.949    89818943.2434   21934693.484  
                
  20338103.328   106877489.678    20338110.156    83281196.3644   20338110.191  
                
  24112555.953   126712342.413    24112563.316    98736927.9054                 
                
 21  8 16  7 40 50.0000000  0 15R12G26R 6R 4R21G29R 5G16G18G27R20G15
                                G10G23G13
  22986015.953   122787177.106                    95501129.613    22986020.328  
  22986015.223  
  22349366.062   117446711.200    22349376.301    91516952.5024   22349376.281  
                
  21763169.227   116132455.506                                                  
  21763166.848  
  22496740.797   120469053.411                    93698167.951    22496745.008  
  22496740.098  
  20840939.125   111524089.669                    86740951.573    20840942.543  
  20840937.238  
  23379354.305   122859322.276    23379362.129    95734558.5154   23379362.215  
                
  19988002.281   106847359.406                    83103497.798    19988006.492  
  19988002.031  
  21876962.820   114964227.387    21876969.207    89582543.3734                 
                
  20571189.977   108102368.031    20571196.957    84235629.3154   20571196.973  
                
  22731348.023   119454032.081    22731356.543    93081119.2394   22731356.797  
                
  20118642.391   107583436.173                    83676028.661    20118648.746  
  20118641.746  
  22603424.398   118781831.349    22603432.270    92557307.0984   22603431.949  
                
  21929522.148   115240444.281    21929531.711    89797804.8044   21929531.234  
                
  20336598.977   106869584.278    20336605.840    83275036.3134   20336605.855  
                
  24113595.594   126717805.780    24113602.930    98741185.1014                 
                
 21  8 16  7 41  0.0000000  0 15R12G26R 6R 4R21G29R 5G16G18G27R20G15
                                G10G23G13
  22983741.156   122775025.620                    95491678.431    22983745.535  
  22983740.426  
  22353734.570   117469667.835    22353744.789    91534840.7774   22353744.781  
                
  21755420.375   116091106.047                                                  
  21755417.965  
  22503015.398   120502653.521                    93724301.354    22503019.551  
  22503014.660  
  20836637.117   111501068.763                    86723046.429    20836640.555  
  20836635.223  
  23385434.281   122891272.908    23385442.148    95759455.0974   23385442.223  
                
  19987579.930   106845101.704                    83101741.800    19987584.129  
  19987579.676  
  21877533.914   114967228.474    21877540.289    89584881.8654                 
                
  20573378.883   108113870.839    20573385.883    84244592.5314   20573385.891  
                
  22725596.828   119423809.381    22725605.363    93057569.0974   22725605.605  
                
  20120747.070   107594690.877                    83684782.309    20120753.453  
  20120746.406  
  22603071.242   118779975.480    22603079.133    92555860.9714   22603078.793  
                
  21924367.320   115213355.551    21924376.906    89776696.7224   21924376.406  
                
  20335106.211   106861739.720    20335113.105    83268923.6714   20335113.105  
                
  24114647.516   126723333.666    24114654.840    98745492.5584                 
                
 21  8 16  7 41 10.0000000  0 15R12G26R 6R 4R21G29R 5G16G18G27R20G15
                                G10G23G13
  22981481.539   122762955.293                    95482290.381    22981485.902  
  22981480.809  
  22358111.344   117492667.927    22358121.559    91552762.9124   22358121.562  
                
  21747677.953   116049791.426                                                  
  21747675.617  
  22509300.125   120536307.845                    93750476.937    22509304.203  
  22509299.406  
  20832338.992   111478068.740                    86705157.537    20832342.445  
  20832337.129  
  23391519.047   122923248.371    23391526.816    95784371.0294   23391526.910  
                
  19987175.023   106842937.282                    83100058.363    19987179.227  
  19987174.762  
  21878118.016   114970297.952    21878124.383    89587273.6764                 
                
  20575573.594   108125404.156    20575580.621    84253579.5344   20575580.617  
                
  22719850.000   119393609.643    22719858.539    93034036.8434   22719858.789  
                
  20122858.578   107605982.033                    83693564.311    20122864.996  
  20122857.895  
  22602731.242   118778188.769    22602739.145    92554468.7294   22602738.805  
                
  21919219.914   115186305.727    21919229.512    89755618.9444   21919229.004  
                
  20333625.000   106853955.901    20333631.934    83262858.3644   20333631.906  
                
  24115711.680   126728925.934    24115718.988    98749850.1594                 
                
 21  8 16  7 41 20.0000000  0 15R12G26R 6R 4R21G29R 5G16G18G27R20G15
                                G10G23G13
  22979237.156   122750966.229                    95472965.562    22979241.500  
  22979236.438  
  22362496.367   117515711.359    22362506.586    91570718.8404   22362506.582  
                
  21739942.023   116008512.069                                                  
  21739939.809  
  22515594.914   120570016.162                    93776694.526    22515598.984  
  22515594.230  
  20828044.773   111455089.559                    86687284.828    20828048.219  
  20828042.910  
  23397608.547   122955248.640    23397616.199    95809306.3014   23397616.305  
                
  19986787.602   106840866.312                    83098447.613    19986791.793  
  19986787.336  
  21878715.148   114973435.894    21878721.523    89589718.8174                 
                
  20577774.117   108136967.957    20577781.168    84262590.2934   20577781.160  
                
  22714107.562   119363432.976    22714116.129    93010522.5754   22714116.379  
                
  20124976.906   107617309.679                    83702374.691    20124983.355  
  20124976.211  
  22602404.391   118776471.148    22602412.289    92553130.3374   22602411.961  
                
  21914079.914   115159294.874    21914089.535    89734571.5284   21914089.008  
                
  20332155.344   106846232.838    20332162.324    83256840.3954   20332162.270  
                
  24116788.102   126734582.592    24116795.348    98754257.9504                 
                
 21  8 16  7 41 30.0000000  0 15R12G26R 6R 4R21G29R 5G16G18G27R20G15
                                G10G23G13
  22977008.047   122739058.630                    95463704.122    22977012.391  
  22977007.312  
  22366889.648   117538798.137    22366899.871    91588708.5324   22366899.848  
                
  21732212.734   115967267.882                                                  
  21732210.566  
  22521899.781   120603778.515                    93802954.103    22521903.859  
  22521899.086  
  20823754.492   111432131.466                    86669428.548    20823757.945  
  20823752.629  
  23403702.773   122987273.778    23403710.355    95834260.9484   23403710.484  
                
  19986417.656   106838888.736                    83096909.489    19986421.848  
  19986417.387  
  21879325.312   114976642.302    21879331.707    89592217.3154                 
                
  20579980.438   108148562.283    20579987.520    84271624.8334   20579987.496  
                
  22708369.539   119333279.525    22708378.145    92987026.3854   22708378.375  
                
  20127102.039   107628673.667                    83711213.352    20127108.547  
  20127101.344  
  22602090.688   118774822.643    22602098.570    92551845.7804   22602098.242  
                
  21908947.344   115132323.092    21908957.012    89713554.5684   21908956.480  
                
  20330697.266   106838570.590    20330704.297    83250869.8144   20330704.211  
                
  24117876.789   126740303.705    24117883.949    98758715.9244                 
                
 21  8 16  7 41 40.0000000  0 15R12G26R 6R 4R21G29R 5G16G18G27R20G15
                                G10G23G13
  22974794.148   122727232.349                    95454505.925    22974798.488  
  22974793.430  
  22371291.148   117561928.119    22371301.375    91606731.8814   22371301.344  
                
  21724490.289   115926059.238                                                  
  21724488.051  
  22528214.750   120637594.667                    93829255.502    22528218.785  
  22528213.992  
  20819468.141   111409194.365                    86651588.585    20819471.602  
  20819466.270  
  23409801.555   123019323.669    23409809.277    95859234.8704   23409809.398  
                
  19986065.188   106837004.603                    83095444.061    19986069.383  
  19986064.918  
  21879948.484   114979917.116    21879954.898    89594769.1104                 
                
  20582192.570   108160187.078    20582199.680    84280683.1064   20582199.641  
                
  22702635.938   119303149.314    22702644.543    92963548.3024   22702644.773  
                
  20129234.000   107640074.198                    83720080.427    20129240.559  
  20129233.305  
  22601790.148   118773243.302    22601798.031    92550615.1324   22601797.723  
                
  21903822.211   115105390.420    21903831.941    89692568.0894   21903831.398  
                
  20329250.750   106830969.136    20329257.828    83244946.6084   20329257.719  
                
  24118977.719   126746089.151    24118984.836    98763224.0894                 
                
 21  8 16  7 41 50.0000000  0 15R12G26R 6R 4R21G29R 5G16G18G27R20G15
                                G10G23G13
  22972595.539   122715487.791                    95445371.257    22972599.867  
  22972594.871  
  22375700.875   117585101.312    22375711.125    91624788.9094   22375711.086  
                
  21716774.602   115884886.442                                                  
  21716772.270  
  22534539.758   120671464.572                    93855598.727    22534543.746  
  22534539.016  
  20815185.742   111386278.397                    86633765.063    20815189.191  
  20815183.875  
  23415905.039   123051398.456    23415912.980    95884228.1724   23415913.082  
                
  19985730.195   106835213.907                    83094051.301    19985734.395  
  19985729.922  
  21880584.672   114983260.346    21880591.117    89597374.2254                 
                
  20584410.508   108171842.423    20584417.652    84289765.1954   20584417.586  
                
  22696906.812   119273042.572    22696915.398    92940088.5084   22696915.648  
                
  20131372.805   107651511.313                    83728975.952    20131379.406  
  20131372.098  
  22601502.789   118771733.279    22601510.676    92549438.4824   22601510.355  
                
  21898704.562   115078497.052    21898714.363    89671612.2364   21898713.801  
                
  20327815.836   106823428.598    20327822.957    83239070.8694   20327822.836  
                
  24120090.930   126751939.137    24120098.012    98767782.5084                 
                
 21  8 16  7 42  0.0000000  0 15R12G26R 6R 4R21G29R 5G16G18G27R20G15
                                G10G23G13
  22970412.180   122703824.688                    95436299.954    22970416.512  
  22970411.547  
  22380118.758   117608317.401    22380129.051    91642879.3544   22380129.000  
                
  21709065.633   115843749.240                                                  
  21709063.148  
  22540874.734   120705387.866                    93881983.510    22540878.688  
  22540874.047  
  20810907.289   111363383.576                    86615957.984    20810910.734  
  20810905.430  
  23422013.180   123083497.858    23422021.383    95909240.6544   23422021.457  
                
  19985412.664   106833516.569                    83092731.152    19985416.859  
  19985412.387  
  21881233.859   114986671.807    21881240.309    89600032.5024                 
                
  20586634.211   108183528.058    20586641.375    84298870.8824   20586641.293  
                
  22691182.102   119242959.099    22691190.711    92916646.8524   22691190.949  
                
  20133518.414   107662984.857                    83737899.818    20133525.055  
  20133517.711  
  22601228.586   118770292.349    22601236.477    92548315.6714   22601236.152  
                
  21893594.352   115051642.772    21893604.211    89650686.8394   21893603.637  
                
  20326392.461   106815948.739    20326399.625    83233242.4084   20326399.492  
                
  24121216.359   126757853.361    24121223.375    98772391.0084                 
                
 21  8 16  7 42 10.0000000  0 15R12G26R 6R 4R21G29R 5G16G18G27R20G15
                                G10G23G13
  22968244.062   122692243.026                    95427291.981    22968248.359  
  22968243.422  
  22384544.797   117631576.341    22384555.148    91661003.1984   22384555.062  
                
  21701363.328   115802647.941                                                  
  21701360.789  
  22547219.641   120739364.412                    93908409.695    22547223.566  
  22547218.965  
  20806632.758   111340509.800                    86598167.286    20806636.215  
  20806630.891  
  23428126.070   123115621.768    23428134.391    95934272.2474   23428134.461  
                
  19985112.586   106831912.516                    83091483.547    19985116.770  
  19985112.301  
  21881896.023   114990151.522    21881902.461    89602743.9734                 
                
  20588863.695   108195244.049    20588870.879    84308000.2224   20588870.785  
                
  22685461.859   119212899.080    22685470.492    92893223.4754   22685470.719  
                
  20135670.820   107674494.782                    83746851.962    20135677.500  
  20135670.090  
  22600967.555   118768920.628    22600975.453    92547246.7964   22600975.137  
                
  21888491.617   115024827.751    21888501.523    89629792.0294   21888500.938  
                
  20324980.641   106808529.625    20324987.844    83227461.2834   20324987.695  
                
  24122354.055   126763831.960    24122361.000    98777049.6514                 
                
 21  8 16  7 42 20.0000000  0 15R12G26R 6R 4R21G29R 5G16G18G27R20G15
                                G10G23G13
  22966091.273   122680743.199                    95418347.674    22966095.551  
  22966090.652  
  22388979.016   117654878.225    22388989.430    91679160.4944   22388989.309  
                
  21693667.844   115761583.026                                                  
  21693665.262  
  22553574.531   120773394.328                    93934877.390    22553578.422  
  22553573.859  
  20802362.242   111317657.463                    86580393.241    20802365.703  
  20802360.363  
  23434243.719   123147770.424    23434252.051    95959323.1394   23434252.164  
                
  19984830.008   106830401.984                    83090308.691    19984834.180  
  19984829.699  
  21882571.227   114993699.675    21882577.641    89605508.7554                 
                
  20591098.984   108206990.530    20591106.191    84317153.3344   20591106.078  
                
  22679746.141   119182862.753    22679754.777    92869818.5654   22679754.996  
                
  20137830.102   107686041.422                    83755832.677    20137836.809  
  20137829.363  
  22600719.711   118767618.235    22600727.629    92546231.9434   22600727.297  
                
  21883396.398   114998052.200    21883406.312    89608927.9744   21883405.719  
                
  20323580.422   106801171.446    20323587.664    83221727.6484   20323587.496  
                
  24123504.023   126769875.103    24123510.934    98781758.5954                 
                
 21  8 16  7 42 30.0000000  0 15R12G26R 6R 4R21G29R 5G16G18G27R20G15
                                G10G23G13
  22963953.758   122669324.842                    95409466.733    22963958.020  
  22963953.188  
  22393421.320   117678222.652    22393431.754    91697350.9524   22393431.617  
                
  21685978.945   115720554.004                                                  
  21685976.477  
  22559939.312   120807477.153                    93961386.228    22559943.145  
  22559938.672  
  20798095.672   111294826.207                    86562635.606    20798099.137  
  20798093.777  
  23440366.039   123179943.442    23440374.379    95984393.0054   23440374.496  
                
  19984564.891   106828984.801                    83089206.436    19984569.047  
  19984564.566  
  21883259.375   114997315.911    21883265.785    89608326.6004                 
                
  20593340.008   108218767.190    20593347.227    84326329.9504   20593347.105  
                
  22674034.898   119152849.915    22674043.508    92846431.9444   22674043.746  
                
  20139996.211   107697624.526                    83764841.741    20140002.934  
  20139995.457  
  22600485.016   118766384.996    22600492.953    92545270.9834   22600492.598  
                
  21878308.633   114971315.859    21878318.523    89588094.4744   21878317.930  
                
  20322191.742   106793873.897    20322199.020    83216041.2524   20322198.840  
                
  24124666.211   126775982.445    24124673.098    98786517.5824                 
                
 21  8 16  7 42 40.0000000  0 15R12G26R 6R 4R21G29R 5G16G18G27R20G15
                                G10G23G13
  22961831.531   122657988.253                    95400649.414    22961835.812  
  22961830.980  
  22397871.750   117701609.760    22397882.160    91715574.6614   22397882.035  
                
  21678296.961   115679561.409                                                  
  21678294.465  
  22566313.977   120841612.926                    93987936.255    22566317.734  
  22566313.367  
  20793833.117   111272016.362                    86544894.597    20793836.559  
  20793831.207  
  23446492.977   123212141.020    23446501.379    96009481.9904   23446501.469  
                
  19984317.258   106827661.131                    83088176.917    19984321.410  
  19984316.941  
  21883960.523   115001000.432    21883966.938    89611197.6624                 
                
  20595586.812   108230574.214    20595594.039    84335530.2274   20595593.914  
                
  22668328.172   119122860.881    22668336.773    92823063.8564   22668337.023  
                
  20142169.156   107709244.251                    83773879.293    20142175.883  
  20142168.418  
  22600263.531   118765221.137    22600271.480    92544364.0774   22600271.117  
                
  21873228.398   114944619.039    21873238.254    89567291.7664   21873237.668  
                
  20320814.633   106786637.206    20320821.949    83210402.2714   20320821.762  
                
  24125840.656   126782154.216    24125847.527    98791326.7524                 
                
 21  8 16  7 42 50.0000000  0 15R12G26R 6R 4R21G29R 5G16G18G27R20G15
                                G10G23G13
  22959724.664   122646733.800                    95391895.958    22959728.949  
  22959724.113  
  22402330.336   117725039.699    22402340.723    91733831.7434   22402340.605  
                
  21670621.805   115638605.536                                                  
  21670619.340  
  22572698.531   120875801.710                    94014527.514    22572702.262  
  22572697.938  
  20789574.594   111249228.113                    86527170.421    20789578.039  
  20789572.680  
  23452624.742   123244363.328    23452633.086    96034590.2564   23452633.176  
                
  19984087.188   106826431.228                    83087220.321    19984091.328  
  19984086.879  
  21884674.711   115004753.516    21884681.156    89614122.1354                 
                
  20597839.445   108242411.832    20597846.668    84344754.3484   20597846.543  
                
  22662626.047   119092895.946    22662634.664    92799714.5664   22662634.906  
                
  20144349.000   107720900.752                    83782945.454    20144355.742  
  20144348.262  
  22600055.305   118764126.939    22600063.211    92543511.4564   22600062.887  
                
  21868155.742   114917962.037    21868165.570    89546520.0814   21868164.996  
                
  20319449.156   106779461.616    20319456.527    83204810.9114   20319456.309  
                
  24127027.398   126788390.589    24127034.238    98796186.3014                 
                
 21  8 16  7 43  0.0000000  0 15R12G26R 6R 4R21G29R 5G16G18G27R20G15
                                G10G23G13
  22957633.086   122635561.053                    95383206.025    22957637.398  
  22957632.508  
  22406796.953   117748511.917    22406807.309    91752121.7804   22406807.191  
                
  21662953.562   115597686.038                                                  
  21662951.066  
  22579092.914   120910043.081                    94041159.664    22579096.605  
  22579092.340  
  20785320.062   111226461.270                    86509462.876    20785323.508  
  20785318.168  
  23458761.188   123276609.860    23458769.391    96059717.4264   23458769.488  
                
  19983874.531   106825294.468                    83086336.167    19983878.668  
  19983874.207  
  21885401.883   115008574.772    21885408.371    89617099.7274                 
                
  20600097.805   108254279.608    20600105.027    84354001.9624   20600104.902  
                
  22656928.445   119062954.787    22656937.055    92776383.8034   22656937.281  
                
  20146535.625   107732593.679                    83792039.958    20146542.383  
  20146534.871  
  22599860.250   118763101.950    22599868.062    92542712.7594   22599867.773  
                
  21863090.586   114891344.493    21863100.387    89525779.1384   21863099.828  
                
  20318095.234   106772346.735    20318102.652    83199266.8454   20318102.426  
                
  24128226.367   126794691.203    24128233.184    98801095.8384                 
                
 21  8 16  7 43 10.0000000  0 15R12G26R 6R 4R21G29R 5G16G18G27R20G15
                                G10G23G13
  22955556.844   122624470.174                    95374579.775    22955561.172  
  22955556.246  
  22411271.633   117772026.479    22411281.918    91770444.8024   22411281.824  
                
  21655292.305   115556803.706                                                  
  21655289.758  
  22585497.086   120944336.815                    94067832.579    22585500.727  
  22585496.531  
  20781069.555   111203715.969                    86491772.100    20781073.004  
  20781067.680  
  23464902.328   123308880.828    23464910.324    96084863.6274   23464910.477  
                
  19983679.352   106824251.160                    83085524.705    19983683.500  
  19983679.031  
  21886142.016   115012464.186    21886148.531    89620130.4424                 
                
  20602361.930   108266177.608    20602369.156    84363273.1284   20602369.039  
                
  22651235.398   119033037.617    22651243.965    92753071.7194   22651244.211  
                
  20148729.125   107744323.245                    83801162.936    20148735.898  
  20148728.379  
  22599678.398   118762146.337    22599686.121    92541968.1214   22599685.871  
                
  21858032.969   114864766.570    21858042.773    89505069.0784   21858042.207  
                
  20316752.875   106765292.641    20316760.348    83193770.1494   20316760.105  
                
  24129437.570   126801056.171    24129444.426    98806055.5594                 
                
 21  8 16  7 43 20.0000000  0 15R12G26R 6R 4R21G29R 5G16G18G27R20G15
                                G10G23G13
  22953495.977   122613461.397                    95366017.408    22953500.320  
  22953495.383  
  22415754.367   117795583.367    22415764.605    91788800.8234   22415764.543  
                
  21647637.961   115515958.433                                                  
  21647635.406  
  22591911.023   120978683.001                    94094546.274    22591914.637  
  22591910.449  
  20776823.078   111180992.196                    86474098.045    20776826.527  
  20776821.191  
  23471048.000   123341176.231    23471055.891    96110028.8574   23471056.102  
                
  19983501.664   106823301.333                    83084785.957    19983505.816  
  19983501.332  
  21886895.133   115016421.876    21886901.672    89623214.3514                 
                
  20604631.812   108278105.935    20604639.031    84372567.9224   20604638.918  
                
  22645546.945   119003144.590    22645555.469    92729778.4614   22645555.746  
                
  20150929.477   107756089.545                    83810314.505    20150936.270  
  20150928.734  
  22599509.773   118761260.228    22599517.477    92541277.6524   22599517.246  
                
  21852982.906   114838228.424    21852992.730    89484390.0204   21852992.145  
                
  20315422.109   106758299.465    20315429.633    83188320.9334   20315429.375  
                
  24130661.023   126807485.501    24130667.883    98811065.4344                 
                
 21  8 16  7 43 30.0000000  0 15R12G26R 6R 4R21G29R 5G16G18G27R20G15
                                G10G23G13
  22951450.469   122602534.571                    95357518.771    22951454.785  
  22951449.938  
  22420245.141   117819182.517    22420255.387    91807189.7494   22420255.312  
                
  21639990.367   115475150.315                                                  
  21639987.980  
  22598334.711   121013081.420                    94121300.594    22598338.312  
  22598334.098  
  20772580.664   111158290.191                    86456440.932    20772584.102  
  20772578.773  
  23477198.336   123373495.994    23477206.117    96135213.0834   23477206.371  
                
  19983341.461   106822444.980                    83084119.904    19983345.617  
  19983341.129  
  21887661.250   115020447.827    21887667.801    89626351.4424                 
                
  20606907.469   108290064.562    20606914.680    84381886.3324   20606914.574  
                
  22639863.109   118973275.820    22639871.625    92706504.1044   22639871.898  
                
  20153136.703   107767892.563                    83819494.627    20153143.508  
  20153135.953  
  22599354.383   118760443.669    22599362.121    92540641.3754   22599361.883  
                
  21847940.445   114811730.146    21847950.254    89463742.0244   21847949.660  
                
  20314102.938   106751367.224    20314110.504    83182919.1914   20314110.227  
                
  24131896.758   126813979.366    24131903.578    98816125.5834                 
                
 21  8 16  7 43 40.0000000  0 15R12G26R 6R 4R21G29R 5G16G18G27R20G15
                                G10G23G13
  22949420.320   122591689.774                    95349083.963    22949424.594  
  22949419.824  
  22424743.914   117842823.582    22424754.172    91825611.3634   22424754.066  
                
  21632349.742   115434379.218                                                  
  21632347.434  
  22604768.117   121047531.821                    94148095.312    22604771.719  
  22604767.465  
  20768342.281   111135609.738                    86438800.590    20768345.711  
  20768340.418  
  23483353.188   123405839.954    23483360.930    96160416.1564   23483361.223  
                
  19983198.727   106821682.002                    83083526.487    19983202.879  
  19983198.398  
  21888440.328   115024541.898    21888446.895    89629541.6294                 
                
  20609188.852   108302053.290    20609196.051    84391228.1984   20609195.953  
                
  22634183.859   118943431.175    22634192.371    92683248.5374   22634192.648  
                
  20155350.758   107779732.034                    83828703.090    20155357.574  
  20155350.004  
  22599212.195   118759696.435    22599219.949    92540059.1184   22599219.691  
                
  21842905.539   114785271.590    21842915.340    89443124.9774   21842914.750  
                
  20312795.336   106744495.706    20312802.938    83177564.7664   20312802.648  
                
  24133144.695   126820537.372    24133151.500    98821235.7234                 
                
 21  8 16  7 43 50.0000000  0 15R12G26R 6R 4R21G29R 5G16G18G27R20G15
                                G10G23G13
  22947405.523   122580927.080                    95340713.002    22947409.809  
  22947405.008  
  22429250.680   117866506.710    22429260.918    91844065.7474   22429260.801  
                
  21624716.414   115393645.970                                                  
  21624713.984  
  22611211.203   121082034.095                    94174930.389    22611214.824  
  22611210.523  
  20764107.969   111112951.115                    86421177.216    20764111.391  
  20764106.113  
  23489512.609   123438208.149    23489520.375    96185638.1084   23489520.695  
                
  19983073.484   106821012.521                    83083005.775    19983077.633  
  19983073.148  
  21889232.375   115028704.144    21889238.938    89632784.9274                 
                
  20611475.984   108314072.279    20611483.172    84400593.6364   20611483.078  
                
  22628509.258   118913610.951    22628517.730    92660011.9974   22628518.020  
                
  20157571.695   107791608.384                    83837940.246    20157578.535  
  20157570.941  
  22599083.250   118759018.811    22599090.992    92539531.0814   22599090.738  
                
  21837878.234   114758853.006    21837888.051    89422539.0814   21837887.438  
                
  20311499.312   106737685.107    20311506.941    83172257.8134   20311506.645  
                
  24134404.867   126827159.687    24134411.676    98826395.9704                 
                
 21  8 16  7 44  0.0000000  0 15R12G26R 6R 4R21G29R 5G16G18G27R20G15
                                G10G23G13
  22945406.102   122570246.627                    95332405.966    22945410.398  
  22945405.527  
  22433765.391   117890231.621    22433775.602    91862552.6864   22433775.504  
                
  21617090.141   115352950.158                                                  
  21617087.613  
  22617663.945   121116588.088                    94201805.700    22617667.578  
  22617663.262  
  20759877.711   111090314.177                    86403570.718    20759881.125  
  20759875.863  
  23495676.648   123470600.380    23495684.418    96210878.8044   23495684.758  
                
  19982965.711   106820436.460                    83082557.733    19982969.875  
  19982965.391  
  21890037.352   115032934.320    21890043.898    89636081.1714                 
                
  20613768.844   108326121.324    20613776.020    84409982.5034   20613775.934  
                
  22622839.273   118883815.019    22622847.703    92636794.4054   22622848.004  
                
  20159799.484   107803521.304                    83847205.846    20159806.324  
  20159798.723  
  22598967.500   118758410.559    22598975.227    92539057.1084   22598974.984  
                
  21832858.523   114732474.280    21832868.332    89401984.2444   21832867.719  
                
  20310214.859   106730935.270    20310222.516    83166998.2084   20310222.207  
                
  24135677.258   126833846.271    24135684.094    98831606.3004                 
                
 21  8 16  7 44 10.0000000  0 15R12G26R 6R 4R21G29R 5G16G18G27R20G15
                                G10G23G13
  22943422.047   122559648.245                    95324162.767    22943426.355  
  22943421.453  
  22438288.062   117913998.336    22438298.273    91881072.1824   22438298.168  
                
  21609470.922   115312292.220                                                  
  21609468.359  
  22624126.328   121151193.673                    94228721.158    22624129.891  
  22624125.633  
  20755651.547   111067699.140                    86385981.234    20755654.934  
  20755649.703  
  23501845.289   123503016.660    23501853.094    96236138.2194   23501853.410  
                
  19982875.422   106819953.800                    83082182.318    19982879.586  
  19982875.102  
  21890855.289   115037232.579    21890861.820    89639430.4614                 
                
  20616067.430   108338200.495    20616074.586    84419394.8354   20616074.500  
                
  22617173.961   118854043.600    22617182.367    92613595.9044   22617182.664  
                
  20162034.141   107815471.002                    83856500.048    20162041.004  
  20162033.352  
  22598864.992   118757871.846    22598872.727    92538637.3434   22598872.473  
                
  21827846.398   114706135.387    21827856.191    89381460.4384   21827855.578  
                
  20308941.977   106724246.278    20308949.656    83161786.0044   20308949.344  
                
  24136961.883   126840597.104    24136968.762    98836866.6614                 
                
 21  8 16  7 44 20.0000000  0 15R12G26R 6R 4R21G29R 5G16G18G27R20G15
                                G10G23G13
  22941453.391   122549131.964                    95315983.402    22941457.684  
  22941452.805  
  22442818.625   117937806.598    22442828.855    91899624.0704   22442828.742  
                
  21601858.680   115271672.170                                                  
  21601856.176  
  22630598.297   121185850.588                    94255676.530    22630601.801  
  22630597.590  
  20751429.445   111045105.814                    86368408.668    20751432.828  
  20751427.625  
  23508018.469   123535456.897    23508026.340    96261416.3024   23508026.656  
                
  19982802.578   106819564.427                    83081879.489    19982806.766  
  19982802.262  
  21891686.156   115041598.798    21891692.664    89642832.6974                 
                
  20618371.734   108350309.689    20618378.859    84428830.5654   20618378.785  
                
  22611513.305   118824296.684    22611521.715    92590416.4804   22611521.992  
                
  20164275.648   107827457.307                    83865822.725    20164282.508  
  20164274.832  
  22598775.703   118757402.631    22598783.453    92538271.7074   22598783.172  
                
  21822841.898   114679836.637    21822851.672    89360967.9144   21822851.055  
                
  20307680.664   106717618.022    20307688.367    83156621.1424   20307688.043  
                
  24138258.711   126847412.088    24138265.629    98842177.0544                 
                
 21  8 16  7 44 30.0000000  0 15R12G26R 6R 4R21G29R 5G16G18G27R20G15
                                G10G23G13
  22939500.148   122538698.090                    95307868.199    22939504.469  
  22939499.574  
  22447357.141   117961656.602    22447367.395    91918208.4794   22447367.270  
                
  21594253.578   115231090.187                                                  
  21594251.074  
  22637079.875   121220558.973                    94282671.943    22637083.336  
  22637079.168  
  20747211.469   111022534.628                    86350853.293    20747214.824  
  20747209.656  
  23514196.234   123567921.351    23514204.180    96286713.2434   23514204.516  
                
  19982747.242   106819268.634                    83081649.402    19982751.438  
  19982746.922  
  21892529.984   115046033.107    21892536.469    89646288.0024                 
                
  20620681.789   108362449.106    20620688.875    84438289.8494   20620688.809  
                
  22605857.359   118794574.542    22605865.793    92567256.3844   22605866.051  
                
  20166524.039   107839480.499                    83875174.072    20166530.895  
  20166523.199  
  22598699.688   118757003.177    22598707.434    92537960.4394   22598707.148  
                
  21817845.070   114653578.158    21817854.816    89340506.7714   21817854.211  
                
  20306430.953   106711050.766    20306438.684    83151503.8064   20306438.340  
                
  24139567.812   126854291.513    24139574.730    98847537.6284                 
                
 21  8 16  7 44 40.0000000  0 15R12G26R 6R 4R21G29R 5G16G18G27R20G15
                                G10G23G13
  22937562.312   122528346.576                    95299817.038    22937566.629  
  22937561.711  
  22451903.562   117985548.119    22451913.863    91936825.2404   22451913.730  
                
  21586655.570   115190546.524                                                  
  21586653.180  
  22643571.000   121255318.461                    94309707.077    22643574.449  
  22643570.270  
  20742997.633   110999985.511                    86333315.092    20743000.980  
  20742995.836  
  23520378.648   123600409.799    23520386.547    96312028.8944   23520386.891  
                
  19982709.391   106819066.307                    83081492.057    19982713.602  
  19982709.062  
  21893386.750   115050535.452    21893393.219    89649796.3154                 
                
  20622997.578   108374618.633    20623004.617    84447772.5944   20623004.570  
                
  22600206.125   118764877.186    22600214.602    92544115.5974   22600214.828  
                
  20168779.289   107851540.390                    83884553.982    20168786.141  
  20168778.461  
  22598636.922   118756673.360    22598644.621    92537703.4394   22598644.348  
                
  21812855.883   114627359.893    21812865.590    89320076.9634   21812865.016  
                
  20305192.828   106704544.405    20305200.582    83146433.9214   20305200.219  
                
  24140889.117   126861235.134    24140896.066    98852948.2394                 
                
 21  8 16  7 44 50.0000000  0 15R12G26R 6R 4R21G29R 5G16G18G27R20G15
                                G10G23G13
  22935639.898   122518077.412                    95291829.908    22935644.203  
  22935639.238  
  22456457.875   118009481.106    22456468.262    91955474.3064   22456468.094  
                
  21579064.875   115150041.359                                                  
  21579062.520  
  22650071.656   121290129.119                    94336782.017    22650075.109  
  22650070.922  
  20738787.922   110977458.474                    86315794.076    20738791.254  
  20738786.141  
  23526565.672   123632922.238    23526573.480    96337363.2514   23526573.816  
                
  19982689.000   106818957.340                    83081407.300    19982693.203  
  19982688.680  
  21894256.477   115055105.860    21894262.945    89653357.6764                 
                
  20625319.094   108386818.270    20625326.082    84457278.8054   20625326.066  
                
  22594559.633   118735204.737    22594568.117    92520994.2134   22594568.305  
                
  20171041.461   107863637.269                    83893962.664    20171048.336  
  20171040.633  
  22598587.430   118756413.250    22598595.094    92537500.7524   22598594.852  
                
  21807874.383   114601181.946    21807884.066    89299678.5674   21807883.504  
                
  20303966.305   106698098.977    20303974.070    83141411.5124   20303973.707  
                
  24142222.680   126868243.087    24142229.641    98858408.9954                 
                
 21  8 16  7 45  0.0000000  0 15R12G26R 6R 4R21G29R 5G16G18G27R20G15
                                G10G23G13
  22933732.867   122507890.462                    95283906.721    22933737.176  
  22933732.180  
  22461019.992   118033455.151    22461030.453    91974155.3664   22461030.273  
                
  21571481.516   115109574.615                                                  
  21571479.074  
  22656581.766   121324990.411                    94363896.339    22656585.250  
  22656581.047  
  20734582.305   110954953.373                    86298290.113    20734585.625  
  20734580.551  
  23532757.219   123665458.367    23532764.953    96362716.0664   23532765.262  
                
  19982686.047   106818941.574                    83081395.037    19982690.266  
  19982685.715  
  21895139.086   115059744.027    21895145.574    89656971.8354                 
                
  20627646.281   108399047.704    20627653.223    84466808.2314   20627653.234  
                
  22588917.844   118705556.967    22588926.270    92497892.0544   22588926.484  
                
  20173310.430   107875770.569                    83903399.666    20173317.316  
  20173309.605  
  22598551.141   118756222.574    22598558.832    92537352.1704   22598558.590  
                
  21802900.500   114575044.066    21802910.203    89279311.4044   21802909.641  
                
  20302751.320   106691714.167    20302759.098    83136436.3434   20302758.734  
                
  24143568.406   126875314.995    24143575.363    98863919.5664                 
                
 21  8 16  7 45 10.0000000  0 15R12G26R 6R 4R21G29R 5G16G18G27R20G15
                                G10G23G13
  22931841.211   122497785.594                    95276047.367    22931845.527  
  22931840.523  
  22465589.867   118057470.008    22465600.391    91992868.2344   22465600.199  
                
  21563905.219   115069146.011                                                  
  21563902.789  
  22663101.273   121359901.954                    94391049.746    22663104.746  
  22663100.516  
  20730380.773   110932470.120                    86280803.138    20730384.078  
  20730379.020  
  23538953.211   123698018.034    23538960.895    96388087.2234   23538961.199  
                
  19982700.523   106819019.007                    83081455.271    19982704.742  
  19982700.180  
  21896034.547   115064449.703    21896041.051    89660638.5774                 
                
  20629979.102   108411306.750    20629986.004    84476360.7374   20629986.023  
                
  22583280.742   118675933.802    22583289.117    92474809.0724   22583289.355  
                
  20175586.242   107887940.270                    83912864.998    20175593.117  
  20175585.383  
  22598528.039   118756101.161    22598535.773    92537257.5674   22598535.520  
                
  21797934.219   114548946.167    21797943.949    89258975.3954   21797943.391  
                
  20301547.836   106685389.823    20301555.613    83131508.2824   20301555.254  
                
  24144926.289   126882450.736    24144933.289    98869479.8754                 
                
 21  8 16  7 45 20.0000000  0 15R12G26R 6R 4R21G29R 5G16G18G27R20G15
                                G10G23G13
  22929965.023   122487763.380                    95268252.316    22929969.332  
  22929964.352  
  22470167.586   118081526.068    22470178.156    92011613.1894   22470177.945  
                
  21556336.133   115028756.449                                                  
  21556333.730  
  22669630.242   121394864.222                    94418242.596    22669633.699  
  22669629.449  
  20726183.398   110910009.138                    86263333.489    20726186.688  
  20726181.656  
  23545153.719   123730601.512    23545161.359    96413476.9304   23545161.660  
                
  19982732.461   106819189.773                    83081588.089    19982736.691  
  19982732.121  
  21896942.930   115069223.294    21896949.445    89664358.2584                 
                
  20632317.641   108423595.854    20632324.512    84485936.6624   20632324.547  
                
  22577648.430   118646335.818    22577656.797    92451745.7094   22577657.039  
                
  20177868.945   107900146.858                    83922358.996    20177875.816  
  20177868.074  
  22598518.242   118756049.654    22598526.012    92537217.4204   22598525.719  
                
  21792975.641   114522888.745    21792985.383    89238670.9184   21792984.824  
                
  20300355.945   106679126.414    20300363.727    83126627.7114   20300363.367  
                
  24146296.383   126889650.700    24146303.445    98875090.2644                 
                
 21  8 16  7 45 30.0000000  0 15R12G26R 6R 4R21G29R 5G16G18G27R20G15
                                G10G23G13
  22928104.273   122477823.538                    95260521.343    22928108.574  
  22928103.617  
  22474753.109   118105623.036    22474763.719    92030390.0474   22474763.492  
                
  21548774.281   114988405.743                                                  
  21548771.980  
  22676168.602   121429876.723                    94445474.531    22676172.023  
  22676167.828  
  20721990.172   110887570.337                    86245881.081    20721993.449  
  20721988.438  
  23551358.727   123763208.644    23551366.328    96438885.0774   23551366.605  
                
  19982781.883   106819453.966                    83081793.566    19982786.105  
  19982781.539  
  21897864.234   115074064.795    21897870.746    89668130.8584                 
                
  20634661.883   108435914.856    20634668.727    84495535.8794   20634668.773  
                
  22572020.875   118616762.892    22572029.227    92428701.8794   22572029.473  
                
  20180158.523   107912390.222                    83931881.607    20180165.395  
  20180157.625  
  22598521.664   118756067.674    22598529.496    92537231.4664   22598529.164  
                
  21788024.766   114496871.737    21788034.504    89218397.9344   21788033.965  
                
  20299175.641   106672923.792    20299183.422    83121794.5024   20299183.062  
                
  24147678.688   126896914.746    24147685.754    98880750.5494                 
                
 21  8 16  7 45 40.0000000  0 15R12G26R 6R 4R21G29R 5G16G18G27R20G15
                                G10G23G13
  22926258.977   122467966.312                    95252854.640    22926263.285  
  22926258.289  
  22479346.406   118129760.942    22479357.043    92049198.7944   22479356.785  
                
  21541219.844   114948094.235                                                  
  21541217.617  
  22682716.367   121464939.616                    94472745.652    22682719.777  
  22682715.559  
  20717801.109   110865153.849                    86228446.038    20717804.379  
  20717799.363  
  23557568.195   123795839.522    23557575.828    96464311.7134   23557576.082  
                
  19982848.719   106819811.470                    83082071.632    19982852.988  
  19982848.402  
  21898798.453   115078974.182    21898804.941    89671956.3484                 
                
  20637011.812   108448263.805    20637018.641    84505158.4404   20637018.688  
                
  22566398.141   118587215.246    22566406.457    92405677.7524   22566406.707  
                
  20182455.000   107924670.530                    83941432.957    20182461.879  
  20182454.090  
  22598538.367   118756155.409    22598546.223    92537299.8144   22598545.891  
                
  21783081.594   114470895.278    21783091.301    89198156.5414   21783090.789  
                
  20298006.898   106666782.044    20298014.680    83117008.7304   20298014.324  
                
  24149073.195   126904242.939    24149080.293    98886460.8614                 
                
 21  8 16  7 45 50.0000000  0 15R12G26R 6R 4R21G29R 5G16G18G27R20G15
                                G10G23G13
  22924429.180   122458191.887                    95245252.271    22924433.473  
  22924428.480  
  22483947.484   118153939.698    22483958.121    92068039.3744   22483957.852  
                
  21533672.891   114907822.201                                                  
  21533670.680  
  22689273.492   121500052.630                    94500055.759    22689276.887  
  22689272.680  
  20713616.281   110842760.010                    86211028.612    20713619.559  
  20713614.520  
  23563782.148   123828494.019    23563789.773    96489756.7664   23563790.008  
                
  19982933.055   106820262.378                    83082422.337    19982937.363  
  19982932.773  
  21899745.594   115083951.393    21899752.051    89675834.6914                 
                
  20639367.445   108460642.727    20639374.250    84514804.3484   20639374.297  
                
  22560780.250   118557692.992    22560788.547    92382673.3984   22560788.793  
                
  20184758.383   107936987.770                    83951013.017    20184765.270  
  20184757.469  
  22598568.344   118756312.917    22598576.191    92537422.5534   22598575.871  
                
  21778146.164   114444959.455    21778155.844    89177946.8254   21778155.352  
                
  20296849.766   106660701.196    20296857.547    83112270.4084   20296857.199  
                
  24150479.922   126911635.365    24150487.066    98892221.1644                 
                
 21  8 16  7 46  0.0000000  0 15R12G26R 6R 4R21G29R 5G16G18G27R20G15
                                G10G23G13
  22922614.820   122448499.861                    95237714.035    22922619.098  
  22922614.125  
  22488556.289   118178159.081    22488566.941    92086911.6024   22488566.656  
                
  21526133.383   114867589.503                                                  
  21526131.105  
  22695839.938   121535215.509                    94527404.656    22695843.301  
  22695839.152  
  20709435.609   110820388.420                    86193628.502    20709438.887  
  20709433.836  
  23570000.625   123861172.036    23570008.215    96515220.1394   23570008.438  
                
  19983034.867   106820806.640                    83082845.648    19983039.176  
  19983034.590  
  21900705.602   115088996.276    21900712.039    89679765.7694                 
                
  20641728.758   108473051.430    20641735.551    84524473.4684   20641735.602  
                
  22555167.156   118528196.030    22555175.484    92359688.7624   22555175.711  
                
  20187068.656   107949341.757                    83960621.659    20187075.527  
  20187067.746  
  22598611.562   118756540.025    22598619.402    92537599.5144   22598619.074  
                
  21773218.453   114419064.181    21773228.105    89157768.6974   21773227.621  
                
  20295704.188   106654681.103    20295711.973    83107579.4304   20295711.621  
                
  24151898.828   126919091.835    24151906.016    98898031.4174                 
                
 21  8 16  7 46 10.0000000  0 15R12G26R 6R 4R21G29R 5G16G18G27R20G15
                                G10G23G13
  22920815.930   122438890.557                    95230240.129    22920820.160  
  22920815.191  
  22493172.797   118202419.022    22493183.488    92105815.4344   22493183.191  
                
  21518601.219   114827396.222                                                  
  21518598.914  
  22702415.656   121570428.170                    94554792.272    22702419.008  
  22702414.914  
  20705259.141   110798039.335                    86176245.878    20705262.434  
  20705257.328  
  23576223.555   123893873.545    23576231.168    96540701.8274   23576231.383  
                
  19983154.133   106821444.148                    83083341.482    19983158.438  
  19983153.867  
  21901678.500   115094108.880    21901684.922    89683749.6094                 
                
  20644095.727   108485489.946    20644102.508    84534165.8164   20644102.562  
                
  22549558.898   118498724.531    22549567.234    92336723.9734   22549567.473  
                
  20189385.781   107961732.535                    83970258.928    20189392.656  
  20189384.875  
  22598668.039   118756836.841    22598675.883    92537830.7974   22598675.559  
                
  21768298.469   114393209.559    21768308.102    89137622.2454   21768307.609  
                
  20294570.172   106648721.806    20294577.945    83102935.8274   20294577.582  
                
  24153329.914   126926612.321    24153337.141    98903891.5304                 
                
 21  8 16  7 46 20.0000000  0 15R12G26R 6R 4R21G29R 5G16G18G27R20G15
                                G10G23G13
  22919032.547   122429364.026                    95222830.620    22919036.750  
  22919031.816  
  22497797.031   118226719.456    22497807.750    92124750.8244   22497807.426  
                
  21511076.461   114787242.649                                                  
  21511074.184  
  22709000.680   121605690.498                    94582218.514    22709004.047  
  22708999.902  
  20701086.867   110775712.700                    86158880.735    20701090.180  
  20701085.047  
  23582450.961   123926598.580    23582458.664    96566201.8354   23582458.852  
                
  19983290.891   106822175.048                    83083909.964    19983295.172  
  19983290.605  
  21902664.297   115099289.240    21902670.688    89687786.2434                 
                
  20646468.383   108497958.279    20646475.160    84543881.3964   20646475.207  
                
  22543955.516   118469278.569    22543963.848    92313779.0744   22543964.094  
                
  20191709.820   107974160.140                    83979924.842    20191716.691  
  20191708.914  
  22598737.805   118757203.417    22598745.648    92538116.4394   22598745.324  
                
  21763386.242   114367395.655    21763395.855    89117507.5254   21763395.375  
                
  20293447.742   106642823.335    20293455.484    83098339.6174   20293455.125  
                
  24154773.211   126934196.874    24154780.457    98909801.5574                 
                
 21  8 16  7 46 30.0000000  0 15R12G26R 6R 4R21G29R 5G16G18G27R20G15
                                G10G23G13
  22917264.656   122419920.279                    95215485.504    22917268.836  
  22917263.973  
  22502428.945   118251060.323    22502439.652    92143717.7294   22502439.332  
                
  21503559.344   114747129.441                                                  
  21503556.996  
  22715594.938   121641002.390                    94609683.296    22715598.352  
  22715594.113  
  20696918.852   110753408.835                    86141533.281    20696922.180  
  20696917.031  
  23588682.820   123959347.096    23588690.605    96591720.1304   23588690.777  
                
  19983445.086   106822999.236                    83084550.999    19983449.340  
  19983444.809  
  21903662.984   115104537.347    21903669.344    89691875.6794                 
                
  20648846.711   108510456.459    20648853.469    84553620.2374   20648853.520  
                
  22538357.023   118439858.310    22538365.348    92290854.1924   22538365.590  
                
  20194040.766   107986624.792                    83989619.552    20194047.660  
  20194039.883  
  22598820.852   118757639.807    22598828.707    92538456.4764   22598828.379  
                
  21758481.789   114341622.600    21758491.379    89097424.6304   21758490.906  
                
  20292336.891   106636985.720    20292344.594    83093790.8254   20292344.238  
                
  24156228.688   126941845.510    24156235.977    98915761.5344                 
                
 21  8 16  7 46 40.0000000  0 15R12G26R 6R 4R21G29R 5G16G18G27R20G15
                                G10G23G13
  22915512.289   122410559.442                    95208204.851    22915516.461  
  22915511.680  
  22507068.531   118275441.499    22507079.191    92162716.0494   22507078.875  
                
  21496049.711   114707056.035                                                  
  21496047.305  
  22722198.391   121676363.587                    94637186.426    22722201.832  
  22722197.578  
  20692755.078   110731127.634                    86124203.462    20692758.418  
  20692753.262  
  23594919.141   123992119.042    23594926.980    96617256.6974   23594927.148  
                
  19983616.734   106823916.802                    83085264.654    19983620.984  
  19983616.469  
  21904674.555   115109853.169    21904680.906    89696017.8834                 
                
  20651230.719   108522984.439    20651237.461    84563382.2974   20651237.527  
                
  22532763.422   118410463.784    22532771.719    92267949.3834   22532771.969  
                
  20196378.609   107999126.265                    83999342.912    20196385.508  
  20196377.773  
  22598917.180   118758146.025    22598925.066    92538850.9284   22598924.723  
                
  21753585.109   114315890.406    21753594.699    89077373.5784   21753594.215  
                
  20291237.617   106631208.956    20291245.277    83089289.4574   20291244.945  
                
  24157696.352   126949558.186    24157703.695    98921771.4144                 
                
 21  8 16  7 46 50.0000000  0 15R12G26R 6R 4R21G29R 5G16G18G27R20G15
                                G10G23G13
  22913775.422   122401281.380                    95200988.565    22913779.590  
  22913774.828  
  22511715.789   118299862.943    22511726.414    92181745.7344   22511726.113  
                
  21488547.523   114667022.973                                                  
  21488545.141  
  22728811.047   121711774.028                    94664727.866    22728814.504  
  22728810.266  
  20688595.555   110708869.223                    86106891.366    20688598.887  
  20688593.750  
  23601159.898   124024914.325    23601167.781    96642811.4424   23601167.938  
                
  19983805.852   106824927.707                    83086050.935    19983810.109  
  19983805.582  
  21905699.008   115115236.702    21905705.359    89700212.8364                 
                
  20653620.391   108535542.208    20653627.121    84573167.5754   20653627.191  
                
  22527174.742   118381095.087    22527182.980    92245064.6864   22527183.258  
                
  20198723.391   108011664.719                    84009095.040    20198730.289  
  20198722.617  
  22599026.797   118758722.048    22599034.727    92539299.7714   22599034.363  
                
  21748696.211   114290199.151    21748705.793    89057354.4264   21748705.301  
                
  20290149.930   106625493.035    20290157.547    83084835.5014   20290157.242  
                
  24159176.219   126957334.939    24159183.637    98927831.2274                 
                
 21  8 16  7 47  0.0000000  0 15R12G26R 6R 4R21G29R 5G16G18G27R20G15
                                G10G23G13
  22912054.000   122392085.904                    95193836.528    22912058.188  
  22912053.379  
  22516370.617   118324324.240    22516381.234    92200806.4794   22516380.957  
                
  21481052.797   114627029.907                                                  
  21481050.430  
  22735432.812   121747233.302                    94692307.293    22735436.305  
  22735432.039  
  20684440.258   110686633.404                    86089596.837    20684443.602  
  20684438.477  
  23607404.977   124057732.741    23607412.961    96668384.2054   23607413.121  
                
  19984012.383   106826031.694                    83086909.578    19984016.617  
  19984012.125  
  21906736.289   115120687.609    21906742.652    89704460.2904                 
                
  20656015.680   108548129.471    20656022.402    84582975.8324   20656022.473  
                
  22521590.930   118351752.062    22521599.125    92222199.9934   22521599.441  
                
  20201075.031   108024239.890                    84018875.722    20201081.906  
  20201074.301  
  22599149.648   118759367.666    22599157.629    92539802.8594   22599157.230  
                
  21743815.070   114264548.633    21743824.629    89037367.0194   21743824.141  
                
  20289073.758   106619837.713    20289081.328    83080428.7584   20289081.043  
                
  24160668.219   126965175.555    24160675.660    98933940.7864                 
                
 21  8 16  7 47 10.0000000  0 15R12G26R 6R 4R21G29R 5G16G18G27R20G15
                                G10G23G13
  22910348.148   122382973.593                    95186749.168    22910352.371  
  22910347.551  
  22521033.117   118348825.753    22521043.730    92219898.5564   22521043.445  
                
  21473565.742   114587077.699                                                  
  21473563.391  
  22742063.750   121782741.628                    94719924.863    22742067.301  
  22742062.961  
  20680289.250   110664420.543                    86072320.180    20680292.605  
  20680287.480  
  23613654.547   124090574.612    23613662.605    96693975.2564   23613662.762  
                
  19984236.383   106827229.063                    83087840.863    19984240.598  
  19984236.141  
  21907786.445   115126206.215    21907792.844    89708760.5024                 
                
  20658416.656   108560746.675    20658423.387    84592807.4134   20658423.449  
                
  22516012.117   118322435.234    22516020.328    92199355.7174   22516020.648  
                
  20203433.617   108036852.247                    84028685.316    20203440.488  
  20203432.930  
  22599285.852   118760083.393    22599293.871    92540360.5624   22599293.477  
                
  21738941.773   114238939.349    21738951.309    89017411.7374   21738950.836  
                
  20288009.211   106614243.425    20288016.738    83076069.5764   20288016.465  
                
  24162172.445   126973080.341    24162179.898    98940100.3384                 
                
 21  8 16  7 47 20.0000000  0 15R12G26R 6R 4R21G29R 5G16G18G27R20G15
                                G10G23G13
  22908657.766   122373943.858                    95179726.046    22908662.004  
  22908657.172  
  22525703.109   118373366.702    22525713.711    92239021.3634   22525713.422  
                
  21466086.273   114547165.729                                                  
  21466083.863  
  22748703.727   121818298.338                    94747580.071    22748707.309  
  22748702.918  
  20676142.445   110642230.142                    86055060.981    20676145.812  
  20676140.672  
  23619908.391   124123439.202    23619916.559    96719584.0034   23619916.691  
                
  19984477.742   106828519.278                    83088844.368    19984481.973  
  19984477.516  
  21908849.391   115131791.978    21908855.820    89713113.0444                 
                
  20660823.203   108573393.096    20660829.953    84602661.7664   20660830.004  
                
  22510438.164   118293143.991    22510446.402    92176531.3754   22510446.715  
                
  20205799.008   108049500.986                    84038523.210    20205805.863  
  20205798.332  
  22599435.250   118760868.462    22599443.289    92540972.2894   22599442.898  
                
  21734076.203   114213370.663    21734085.738    88997488.0954   21734085.254  
                
  20286956.141   106608709.470    20286963.633    83071757.4014   20286963.371  
                
  24163688.734   126981048.603    24163696.242    98946309.3584                 
                
 21  8 16  7 47 30.0000000  0 15R12G26R 6R 4R21G29R 5G16G18G27R20G15
                                G10G23G13
  22906982.922   122364997.158                    95172767.517    22906987.172  
  22906982.324  
  22530380.703   118397947.633    22530391.305    92258175.3254   22530391.020  
                
  21458614.500   114507294.759                                                  
  21458612.062  
  22755352.789   121853903.840                    94775273.211    22755356.406  
  22755351.969  
  20671999.945   110620062.801                    86037819.724    20672003.344  
  20671998.156  
  23626166.664   124156327.146    23626174.922    96745210.9404   23626175.070  
                
  19984736.562   106829902.802                    83089920.447    19984740.781  
  19984736.352  
  21909925.195   115137445.434    21909931.645    89717518.3274                 
                
  20663235.414   108586069.374    20663242.176    84612539.3754   20663242.227  
                
  22504869.234   118263879.059    22504877.473    92153727.5464   22504877.785  
                
  20208171.375   108062187.010                    84048390.116    20208178.211  
  20208170.711  
  22599597.961   118761723.557    22599606.008    92541638.6044   22599605.633  
                
  21729218.492   114187843.275    21729228.051    88977596.6314   21729227.551  
                
  20285914.672   106603236.499    20285922.117    83067492.7544   20285921.879  
                
  24165217.234   126989080.979    24165224.828    98952568.3734                 
                
 21  8 16  7 47 40.0000000  0 15R12G26R 6R 4R21G29R 5G16G18G27R20G15
                                G10G23G13
  22905323.672   122356133.765                    95165873.758    22905327.906  
  22905323.066  
  22535065.906   118422568.497    22535076.504    92277360.4084   22535076.227  
                
  21451150.398   114467464.941                                                  
  21451147.980  
  22762010.922   121889557.900                    94803004.131    22762014.570  
  22762010.082  
  20667861.797   110597918.728                    86020596.542    20667865.219  
  20667860.020  
  23632429.461   124189238.443    23632437.754    96770856.0874   23632437.934  
                
  19985012.867   106831379.831                    83091069.247    19985017.090  
  19985012.668  
  21911013.898   115143166.579    21911020.352    89721976.3504                 
                
  20665653.312   108598775.517    20665660.102    84622440.2654   20665660.145  
                
  22499305.336   118234640.592    22499313.570    92130944.3314   22499313.859  
                
  20210550.703   108074910.227                    84058285.934    20210557.531  
  20210550.062  
  22599774.023   118762648.778    22599782.055    92542359.5554   22599781.664  
                
  21724368.656   114162357.297    21724378.227    88957737.4324   21724377.723  
                
  20284884.820   106597824.563    20284892.215    83063275.6624   20284891.988  
                
  24166757.953   126997177.509    24166765.637    98958877.3474                 
                
 21  8 16  7 47 50.0000000  0 15R12G26R 6R 4R21G29R 5G16G18G27R20G15
                                G10G23G13
  22903679.961   122347353.251                    95159044.467    22903684.160  
  22903679.383  
  22539758.617   118447228.807    22539769.207    92296576.2254   22539768.949  
                
  21443693.922   114427676.071                                                  
  21443691.547  
  22768678.062   121925260.246                    94830772.595    22768681.734  
  22768677.168  
  20663727.906   110575797.478                    86003391.152    20663731.332  
  20663726.137  
  23638696.688   124222172.685    23638704.965    96796519.1254   23638705.145  
                
  19985306.609   106832950.057                    83092290.543    19985310.832  
  19985306.410  
  21912115.406   115148955.043    21912121.855    89726486.8334                 
                
  20668076.820   108611511.114    20668083.629    84632364.1074   20668083.676  
                
  22493746.414   118205428.271    22493754.656    92108181.4894   22493754.926  
                
  20212936.891   108087670.175                    84068210.348    20212943.699  
  20212936.246  
  22599963.352   118763643.721    22599971.398    92543134.8424   22599971.023  
                
  21719526.633   114136912.394    21719536.215    88937910.2504   21719535.715  
                
  20283866.508   106592473.260    20283873.848    83059105.8204   20283873.648  
                
  24168310.789   127005337.710    24168318.504    98965235.9414                 
                
 21  8 16  7 48  0.0000000  0 15R12G26R 6R 4R21G29R 5G16G18G27R20G15
                                G10G23G13
  22902051.797   122338655.883                    95152279.870    22902056.023  
  22902051.230  
  22544458.836   118471928.605    22544469.438    92315822.8024   22544469.180  
                
  21436245.164   114387928.429                                                  
  21436242.824  
  22775354.203   121961010.705                    94858578.494    22775357.910  
  22775353.305  
  20659598.352   110553699.417                    85986203.773    20659601.797  
  20659596.578  
  23644968.328   124255129.911    23644976.539    96822200.0704   23644976.734  
                
  19985617.766   106834613.419                    83093584.260    19985622.000  
  19985617.551  
  21913229.742   115154810.880    21913236.160    89731049.8244                 
                
  20670505.938   108624276.280    20670512.773    84642310.9854   20670512.805  
                
  22488192.500   118176242.313    22488200.754    92085439.1814   22488201.023  
                
  20215330.016   108100467.225                    84078163.593    20215336.816  
  20215329.379  
  22600165.977   118764708.530    22600174.051    92543964.5734   22600173.680  
                
  21714692.477   114111508.755    21714702.078    88918115.2204   21714701.574  
                
  20282859.750   106587182.716    20282867.027    83054983.3204   20282866.848  
                
  24169875.781   127013561.818    24169883.516    98971644.3244                 
                
 21  8 16  7 48 10.0000000  0 15R12G26R 6R 4R21G29R 5G16G18G27R20G15
                                G10G23G13
  22900439.172   122330041.531                    95145579.820    22900443.406  
  22900438.621  
  22549166.547   118496667.757    22549177.145    92335100.0474   22549176.883  
                
  21428804.234   114348222.203                                                  
  21428801.898  
  22782039.305   121996809.018                    94886421.606    22782043.082  
  22782038.457  
  20655473.125   110531624.461                    85969034.375    20655476.586  
  20655471.332  
  23651244.289   124288110.015    23651252.469    96847898.8404   23651252.652  
                
  19985946.359   106836369.900                    83094950.408    19985950.602  
  19985946.133  
  21914356.898   115160734.055    21914363.293    89735665.2844                 
                
  20672940.695   108637070.972    20672947.562    84652280.8724   20672947.578  
                
  22482643.633   118147082.790    22482651.898    92062717.4754   22482652.180  
                
  20217730.047   108113301.201                    84088145.567    20217736.844  
  20217729.434  
  22600381.922   118765843.268    22600389.988    92544848.7774   22600389.625  
                
  21709866.172   114086146.409    21709875.805    88898352.3654   21709875.281  
                
  20281864.562   106581952.897    20281871.777    83050908.1384   20281871.617  
                
  24171452.922   127021849.741    24171460.703    98978102.4434                 
                
 21  8 16  7 48 20.0000000  0 15R12G26R 6R 4R21G29R 5G16G18G27R20G15
                                G10G23G13
  22898842.062   122321510.069                    95138944.239    22898846.320  
  22898841.480  
  22553881.688   118521445.947    22553892.297    92354407.7304   22553892.020  
                
  21421371.031   114308557.380                                                  
  21421368.750  
  22788733.297   122032655.073                    94914301.854    22788737.137  
  22788732.516  
  20651352.180   110509572.493                    85951882.843    20651355.645  
  20651350.355  
  23657524.500   124321112.811    23657532.734    96873615.2824   23657532.906  
                
  19986292.281   106838219.120                    83096388.702    19986296.551  
  19986292.051  
  21915496.812   115166724.306    21915503.199    89740333.0114                 
                
  20675381.008   108649894.962    20675387.898    84662273.5884   20675387.906  
                
  22477099.750   118117949.557    22477108.035    92040016.2644   22477108.305  
                
  20220136.953   108126171.962                    84098156.147    20220143.746  
  20220136.359  
  22600611.102   118767047.647    22600619.141    92545787.2484   22600618.805  
                
  21705047.695   114060825.208    21705057.359    88878621.5674   21705056.824  
                
  20280880.875   106576783.607    20280888.035    83046880.1244   20280887.906  
                
  24173042.164   127030201.272    24173050.023    98984610.1394                 
                
 21  8 16  7 48 30.0000000  0 15R12G26R 6R 4R21G29R 5G16G18G27R20G15
                                G10G23G13
  22897260.516   122313061.791                    95132373.370    22897264.797  
  22897259.887  
  22558604.289   118546263.332    22558614.910    92373745.9394   22558614.633  
                
  21413945.664   114268934.231                                                  
  21413943.414  
  22795436.188   122068548.745                    94942219.135    22795440.086  
  22795435.406  
  20647235.586   110487543.760                    85934749.390    20647239.047  
  20647233.738  
  23663809.102   124354138.407    23663817.355    96899349.4854   23663817.523  
                
  19986655.648   106840161.551                    83097899.492    19986659.938  
  19986655.418  
  21916649.531   115172781.864    21916655.914    89745053.1774                 
                
  20677826.945   108662748.469    20677833.859    84672289.2964   20677833.859  
                
  22471560.953   118088842.933    22471569.262    92017335.7934   22471569.523  
                
  20222550.797   108139079.739                    84108195.516    20222557.559  
  20222550.219  
  22600853.602   118768321.980    22600861.617    92546780.2374   22600861.297  
                
  21700237.109   114035545.462    21700246.801    88858923.0714   21700246.254  
                
  20279908.766   106571675.086    20279915.863    83042899.4554   20279915.754  
                
  24174643.562   127038616.623    24174651.480    98991167.5424                 
                
 21  8 16  7 48 40.0000000  0 15R12G26R 6R 4R21G29R 5G16G18G27R20G15
                                G10G23G13
  22895694.523   122304696.635                    95125867.152    22895698.801  
  22895693.867  
  22563334.305   118571119.693    22563344.914    92393114.5214   22563344.648  
                
  21406528.164   114229352.928                                                  
  21406525.891  
  22802147.898   122104489.823                    94970173.281    22802151.855  
  22802147.094  
  20643123.320   110465538.237                    85917633.988    20643126.770  
  20643121.492  
  23670097.969   124387186.688    23670106.309    96925101.3704   23670106.453  
                
  19987036.414   106842197.076                    83099482.665    19987040.707  
  19987036.188  
  21917815.016   115178906.519    21917821.406    89749825.6414                 
                
  20680278.461   108675631.327    20680285.402    84682327.8874   20680285.391  
                
  22466027.195   118059762.924    22466035.520    91994676.0534   22466035.781  
                
  20224971.562   108152024.561                    84118263.704    20224978.297  
  20224971.031  
  22601109.375   118769666.149    22601117.395    92547827.6424   22601117.086  
                
  21695434.391   114010307.077    21695444.113    88839256.8094   21695443.562  
                
  20278948.180   106566627.197    20278955.211    83038966.0384   20278955.137  
                
  24176257.062   127047095.627    24176265.035    98997774.5554                 
                
 21  8 16  7 48 50.0000000  0 15R12G26R 6R 4R21G29R 5G16G18G27R20G15
                                G10G23G13
  22894144.164   122296414.827                    95119425.730    22894148.422  
  22894143.508  
  22568071.750   118596015.116    22568082.340    92412513.5384   22568082.086  
                
  21399118.531   114189813.678                                                  
  21399116.227  
  22808868.484   122140478.255                    94998164.264    22808872.484  
  22808867.641  
  20639015.469   110443556.234                    85900536.872    20639018.898  
  20639013.684  
  23676391.227   124420257.813    23676399.617    96950871.0634   23676399.727  
                
  19987434.625   106844325.718                    83101138.292    19987438.941  
  19987434.383  
  21918993.312   115185098.480    21918999.695    89754650.5384                 
                
  20682735.617   108688543.742    20682742.582    84692389.4974   20682742.547  
                
  22460498.570   118030709.771    22460506.879    91972037.2314   22460507.152  
                
  20227399.289   108165006.530                    84128360.790    20227405.984  
  20227398.758  
  22601378.492   118771080.347    22601386.527    92548929.6084   22601386.230  
                
  21690639.602   113985110.296    21690649.352    88819622.9694   21690648.805  
                
  20277999.180   106561640.120    20278006.141    83035080.0064   20278006.098  
                
  24177882.719   127055638.436    24177890.719    99004431.2914                 
                
 21  8 16  7 49  0.0000000  0 15R12G26R 6R 4R21G29R 5G16G18G27R20G15
                                G10G23G13
  22892609.391   122288216.297                    95113049.114    22892613.613  
  22892608.723  
  22572816.602   118620949.431    22572827.137    92431942.8664   22572826.895  
                
  21391716.773   114150316.458                                                  
  21391714.457  
  22815597.906   122176514.075                    95026192.101    22815601.930  
  22815597.020  
  20634911.992   110421597.683                    85883457.999    20634915.398  
  20634910.219  
  23682688.805   124453351.663    23682697.227    96976658.4564   23682697.324  
                
  19987850.234   106846547.450                    83102866.307    19987854.562  
  19987849.969  
  21920184.414   115191357.730    21920190.785    89759527.8654                 
                
  20685198.367   108701485.624    20685205.340    84702474.0814   20685205.301  
                
  22454975.055   118001683.508    22454983.340    91949419.3654   22454983.621  
                
  20229833.914   108178025.526                    84138486.668    20229840.582  
  20229833.387  
  22601660.914   118772564.473    22601668.957    92550086.0784   22601668.652  
                
  21685852.727   113959955.132    21685862.480    88800021.5494   21685861.941  
                
  20277061.734   106556713.810    20277068.633    83031241.3254   20277068.625  
                
  24179520.516   127064245.091    24179528.508    99011137.7614                 
                
 21  8 16  7 49 10.0000000  0 15R12G26R 6R 4R21G29R 5G16G18G27R20G15
                                G10G23G13
  22891090.258   122280101.402                    95106737.527    22891094.480  
  22891089.516  
  22577568.883   118645922.806    22577579.359    92451402.6404   22577579.148  
                
  21384323.023   114110861.941                                                  
  21384320.695  
  22822336.172   122212597.254                    95054256.778    22822340.242  
  22822335.285  
  20630812.938   110399662.869                    85866397.603    20630816.340  
  20630811.156  
  23688990.688   124486468.421    23688999.184    97002463.7134   23688999.270  
                
  19988283.297   106848862.443                    83104666.861    19988287.641  
  19988283.020  
  21921388.344   115197684.410    21921394.688    89764457.7534                 
                
  20687666.773   108714457.185    20687673.754    84712581.7934   20687673.727  
                
  22449456.727   117972684.476    22449465.031    91926822.7334   22449465.289  
                
  20232275.531   108191081.878                    84148641.600    20232282.172  
  20232275.016  
  22601956.703   118774118.865    22601964.738    92551297.2884   22601964.453  
                
  21681073.820   113934841.883    21681083.574    88780452.7954   21681083.023  
                
  20276135.891   106551848.495    20276142.723    83027450.1764   20276142.746  
                
  24181170.469   127072915.701    24181178.453    99017894.0844                 
                
 21  8 16  7 49 20.0000000  0 15R12G26R 6R 4R21G29R 5G16G18G27R20G15
                                G10G23G13
  22889586.617   122272069.274                    95100490.299    22889590.844  
  22889585.844  
  22582328.414   118670934.297    22582338.867    92470892.0924   22582338.676  
                
  21376937.070   114071449.199                                                  
  21376934.742  
  22829083.094   122248726.739                    95082357.465    22829087.195  
  22829082.207  
  20626718.180   110377751.004                    85849355.038    20626721.582  
  20626716.371  
  23695296.789   124519607.215    23695305.340    97028286.1174   23695305.410  
                
  19988733.656   106851269.867                    83106539.292    19988737.996  
  19988733.371  
  21922604.945   115204077.686    21922611.258    89769439.5124                 
                
  20690140.656   108727457.555    20690147.652    84722711.9504   20690147.609  
                
  22443943.430   117943711.887    22443951.766    91904246.6974   22443951.977  
                
  20234723.961   108204174.646                    84158824.863    20234730.582  
  20234723.430  
  22602265.703   118775742.644    22602273.738    92552562.5674   22602273.445  
                
  21676302.750   113909769.750    21676312.484    88760916.0724   21676311.926  
                
  20275221.500   106547043.313    20275228.277    83023705.8774   20275228.320  
                
  24182832.438   127081649.449    24182840.438    99024699.5944                 
                
 21  8 16  7 49 30.0000000  0 15R12G26R 6R 4R21G29R 5G16G18G27R20G15
                                G10G23G13
  22888098.633   122264120.714                    95094308.059    22888102.840  
  22888097.918  
  22587095.344   118695984.664    22587105.793    92490411.8494   22587105.602  
                
  21369559.188   114032079.385                                                  
  21369556.848  
  22835838.812   122284903.356                    95110494.822    22835842.902  
  22835837.914  
  20622627.898   110355863.119                    85832331.134    20622631.281  
  20622626.055  
  23701607.250   124552768.867    23701615.859    97054126.3434   23701615.914  
                
  19989201.469   106853770.621                    83108484.348    19989205.805  
  19989201.195  
  21923834.367   115210538.368    21923840.668    89774473.8134                 
                
  20692620.195   108740487.600    20692627.219    84732865.2264   20692627.156  
                
  22438435.344   117914766.730    22438443.699    91881692.0324   22438443.898  
                
  20237179.391   108217304.925                    84169037.303    20237186.000  
  20237178.824  
  22602588.070   118777436.694    22602596.109    92553882.6084   22602595.785  
                
  21671539.672   113884739.674    21671549.359    88741412.1264   21671548.820  
                
  20274318.711   106542299.146    20274325.434    83020009.1284   20274325.492  
                
  24184506.594   127090447.159    24184514.598    99031554.9684                 
                
 21  8 16  7 49 40.0000000  0 15R12G26R 6R 4R21G29R 5G16G18G27R20G15
                                G10G23G13
  22886626.305   122256255.783                    95088190.886    22886630.465  
  22886625.617  
  22591869.617   118721073.578    22591880.074    92509961.6494   22591879.871  
                
  21362189.336   113992752.398                                                  
  21362186.992  
  22842603.250   122321126.588                    95138668.442    22842607.316  
  22842602.359  
  20618542.047   110333998.891                    85815325.619    20618545.418  
  20618540.180  
  23707921.984   124585952.983    23707930.645    97079984.0894   23707930.668  
                
  19989686.711   106856364.489                    83110501.793    19989691.031  
  19989686.430  
  21925076.586   115217066.202    21925082.879    89779560.4234                 
                
  20695105.328   108753547.061    20695112.379    84743041.4284   20695112.309  
                
  22432932.445   117885848.840    22432940.824    91859158.6184   22432941.004  
                
  20239641.773   108230472.292                    84179278.588    20239648.355  
  20239641.172  
  22602923.766   118779200.793    22602931.789    92555257.2364   22602931.465  
                
  21666784.578   113859751.479    21666794.195    88721940.8214   21666793.691  
                
  20273427.500   106537615.757    20273434.180    83016359.7394   20273434.258  
                
  24186192.867   127099308.560    24186200.828    99038459.9424                 
                
 21  8 16  7 49 50.0000000  0 15R12G26R 6R 4R21G29R 5G16G18G27R20G15
                                G10G23G13
  22885169.555   122248474.134                    95082138.488    22885173.703  
  22885168.840  
  22596651.188   118746200.860    22596661.664    92529541.3374   22596661.453  
                
  21354827.523   113953468.526                                                  
  21354825.180  
  22849376.344   122357396.310                    95166878.224    22849380.438  
  22849375.445  
  20614460.625   110312158.411                    85798338.603    20614463.992  
  20614458.750  
  23714240.930   124619159.539    23714249.719    97105859.2894   23714249.707  
                
  19990189.320   106859051.204                    83112591.470    19990193.641  
  19990189.055  
  21926331.539   115223661.008    21926337.848    89784699.2324                 
                
  20697596.039   108766635.820    20697603.109    84753240.4534   20697603.035  
                
  22427434.719   117856958.192    22427443.145    91836646.4434   22427443.301  
                
  20242111.094   108243676.804                    84189548.751    20242117.660  
  20242110.449  
  22603272.789   118781034.877    22603280.762    92556686.3954   22603280.465  
                
  21662037.438   113834805.120    21662047.004    88702502.1004   21662046.531  
                
  20272547.820   106532993.043    20272554.453    83012757.6244   20272554.555  
                
  24187891.242   127108233.550    24187899.180    99045414.4984                 
                
 21  8 16  7 50  0.0000000  0 15R12G26R 6R 4R21G29R 5G16G18G27R20G15
                                G10G23G13
  22883728.430   122240775.949                    95076151.027    22883732.566  
  22883727.684  
  22601440.031   118771366.404    22601450.512    92549150.8304   22601450.309  
                
  21347473.789   113914227.780                                                  
  21347471.453  
  22856158.102   122393712.325                    95195123.996    22856162.199  
  22856157.199  
  20610383.641   110290341.663                    85781370.029    20610387.000  
  20610381.750  
  23720564.141   124652388.538    23720573.055    97131751.9924   23720573.023  
                
  19990709.297   106861830.793                    83114753.368    19990713.605  
  19990709.051  
  21927599.234   115230322.796    21927605.570    89789890.2274                 
                
  20700092.312   108779753.852    20700099.398    84763462.2954   20700099.312  
                
  22421942.211   117828094.926    22421950.672    91814155.5994   22421950.793  
                
  20244587.344   108256918.434                    84199847.799    20244593.895  
  20244586.680  
  22603635.109   118782938.915    22603643.051    92558170.0684   22603642.754  
                
  21657298.266   113809900.641    21657307.809    88683096.0324   21657307.332  
                
  20271679.688   106528430.991    20271686.270    83009202.7804   20271686.391  
                
  24189601.719   127117222.117    24189609.645    99052418.5564                 
                
 21  8 16  7 50 10.0000000  0 15R12G26R 6R 4R21G29R 5G16G18G27R20G15
                                G10G23G13
  22882302.953   122233161.264                    95070228.495    22882307.062  
  22882302.211  
  22606236.164   118796570.175    22606246.633    92568790.1294   22606246.461  
                
  21340128.180   113875030.249                                                  
  21340125.848  
  22862948.500   122430074.636                    95223405.741    22862952.602  
  22862947.562  
  20606311.109   110268548.785                    85764420.003    20606314.457  
  20606309.219  
  23726891.656   124685639.974    23726900.660    97157662.1964   23726900.590  
                
  19991246.688   106864703.433                    83116987.649    19991250.996  
  19991246.457  
  21928879.680   115237051.575    21928886.055    89795133.4314                 
                
  20702594.180   108792901.238    20702601.277    84773707.0014   20702601.199  
                
  22416454.953   117799259.190    22416463.418    91791686.1924   22416463.539  
                
  20247070.562   108270197.336                    84210175.823    20247077.113  
  20247069.902  
  22604010.766   118784913.029    22604018.680    92559708.3444   22604018.383  
                
  21652567.109   113785038.199    21652576.621    88663722.7024   21652576.148  
                
  20270823.117   106523929.685    20270829.652    83005695.2684   20270829.793  
                
  24191324.281   127126274.242    24191332.176    99059472.1884                 
                
 21  8 16  7 50 20.0000000  0 15R12G26R 6R 4R21G29R 5G16G18G27R20G15
                                G10G23G13
  22880893.055   122225629.851                    95064370.728    22880897.152  
  22880892.324  
  22611039.516   118821811.913    22611049.973    92588459.0064   22611049.836  
                
  21332790.648   113835875.813                                                  
  21332788.332  
  22869747.477   122466482.809                    95251723.206    22869751.566  
  22869746.535  
  20602243.031   110246779.719                    85747488.514    20602246.375  
  20602241.148  
  23733223.359   124718913.638    23733232.469    97183589.6824   23733232.387  
                
  19991801.438   106867668.867                    83119294.110    19991805.750  
  19991801.219  
  21930172.828   115243847.119    21930179.219    89800428.6464                 
                
  20705101.586   108806077.758    20705108.672    84783974.4184   20705108.605  
                
  22410972.906   117770450.872    22410981.363    91769238.1484   22410981.496  
                
  20249560.719   108283513.283                    84220532.676    20249567.266  
  20249560.078  
  22604399.742   118786957.118    22604407.641    92561301.1444   22604407.344  
                
  21647843.914   113760217.663    21647853.383    88644382.0334   21647852.914  
                
  20269978.070   106519488.947    20269984.562    83002234.9564   20269984.730  
                
  24193058.938   127135389.827    24193066.777    99066575.2264                 
                
 21  8 16  7 50 30.0000000  0 15R12G26R 6R 4R21G29R 5G16G18G27R20G15
                                G10G23G13
  22879498.828   122218182.126                    95058578.035    22879502.934  
  22879498.125  
  22615850.102   118847091.679    22615860.562    92608157.5074   22615860.441  
                
  21325461.242   113796764.965                                                  
  21325458.953  
  22876555.039   122502936.918                    95280076.404    22876559.125  
  22876554.133  
  20598179.453   110225034.703                    85730575.703    20598182.773  
  20598177.605  
  23739559.297   124752209.577    23739568.465    97209534.5504   23739568.398  
                
  19992373.555   106870727.163                    83121672.799    19992377.852  
  19992373.348  
  21931478.727   115250709.611    21931485.121    89805776.0374                 
                
  20707614.570   108819283.562    20707621.648    84794264.6454   20707621.598  
                
  22405496.125   117741670.209    22405504.609    91746811.6744   22405504.734  
                
  20252057.828   108296866.423                    84230918.448    20252064.359  
  20252057.191  
  22604802.055   118789071.284    22604809.957    92562948.5554   22604809.629  
                
  21643128.734   113735439.233    21643138.176    88625074.1744   21643137.730  
                
  20269144.578   106515108.916    20269151.039    82998821.9414   20269151.223  
                
  24194805.688   127144568.984    24194813.500    99073727.8494                 
                
 21  8 16  7 50 40.0000000  0 15R12G26R 6R 4R21G29R 5G16G18G27R20G15
                                G10G23G13
  22878120.227   122210817.864                    95052850.281    22878124.324  
  22878119.543  
  22620667.891   118872409.242    22620678.352    92627885.4684   22620678.230  
                
  21318140.016   113757697.696                                                  
  21318137.691  
  22883371.086   122539436.644                    95308465.068    22883375.223  
  22883370.184  
  20594120.352   110203313.620                    85713681.546    20594123.656  
  20594118.543  
  23745899.602   124785527.763    23745908.680    97235496.7544   23745908.621  
                
  19992963.031   106873878.218                    83124123.618    19992967.309  
  19992962.820  
  21932797.336   115257638.895    21932803.711    89811175.4704                 
                
  20710133.102   108832518.530    20710140.168    84804577.5964   20710140.125  
                
  22400024.594   117712917.180    22400033.109    91724406.7234   22400033.203  
                
  20254561.891   108310256.695                    84241333.116    20254568.422  
  20254561.250  
  22605217.672   118791255.378    22605225.605    92564650.4474   22605225.266  
                
  21638421.555   113710702.861    21638430.977    88605799.0904   21638430.535  
                
  20268322.617   106510789.475    20268329.059    82995456.1414   20268329.254  
                
  24196564.508   127153811.563    24196572.293    99080929.8384                 
                
 21  8 16  7 50 50.0000000  0 15R12G26R 6R 4R21G29R 5G16G18G27R20G15
                                G10G23G13
  22876757.266   122203537.187                    95047187.515    22876761.355  
  22876756.566  
  22625492.820   118897764.407    22625503.281    92647642.7214   22625503.180  
                
  21310826.906   113718673.989                                                  
  21310824.613  
  22890195.617   122575981.780                    95336889.022    22890199.793  
  22890194.711  
  20590065.703   110181616.388                    85696805.923    20590069.000  
  20590063.898  
  23752244.031   124818867.859    23752253.043    97261476.0444   23752252.996  
                
  19993569.836   106877121.966                    83126646.541    19993574.109  
  19993569.637  
  21934128.609   115264634.800    21934134.957    89816626.8274                 
                
  20712657.148   108845782.494    20712664.199    84814913.1464   20712664.168  
                
  22394558.320   117684191.742    22394566.828    91702023.2724   22394566.930  
                
  20257072.867   108323683.982                    84251776.554    20257079.391  
  20257072.207  
  22605646.586   118793509.382    22605654.562    92566406.8244   22605654.188  
                
  21633722.359   113686008.451    21633731.742    88586556.7044   21633731.305  
                
  20267512.148   106506530.488    20267518.586    82992137.4554   20267518.781  
                
  24198335.352   127163117.401    24198343.137    99088181.1274                 
                
 21  8 16  7 51  0.0000000  0 15R12G26R 6R 4R21G29R 5G16G18G27R20G15
                                G10G23G13
  22875409.945   122196340.016                    95041589.697    22875414.039  
  22875409.246  
  22630324.930   118923157.226    22630335.398    92667429.3204   22630335.297  
                
  21303522.062   113679694.405                                                  
  21303519.812  
  22897028.672   122612572.357                    95365348.349    22897032.863  
  22897027.750  
  20586015.555   110159943.257                    85679949.039    20586018.832  
  20586013.754  
  23758592.648   124852230.073    23758601.648    97287472.5504   23758601.586  
                
  19994194.008   106880458.479                    83129241.605    19994198.270  
  19994193.809  
  21935472.602   115271697.486    21935478.906    89822130.2124                 
                
  20715186.758   108859075.624    20715193.793    84825271.4304   20715193.770  
                
  22389097.359   117655494.212    22389105.863    91679661.5614   22389105.973  
                
  20259590.828   108337148.630                    84262249.059    20259597.355  
  20259590.137  
  22606088.844   118795833.458    22606096.836    92568217.7854   22606096.441  
                
  21629031.219   113661356.281    21629040.562    88567347.2264   21629040.141  
                
  20266713.234   106502332.145    20266719.672    82988866.0154   20266719.855  
                
  24200118.258   127172486.680    24200126.051    99095481.8364                 
                
 21  8 16  7 51 10.0000000  0 15R12G26R 6R 4R21G29R 5G16G18G27R20G15
                                G10G23G13
  22874078.258   122189226.398                    95036056.870    22874082.371  
  22874077.574  
  22635164.172   118948587.587    22635174.645    92687245.1774   22635174.547  
                
  21296225.539   113640758.705                                                  
  21296223.258  
  22903870.180   122649208.277                    95393842.923    22903874.418  
  22903869.211  
  20581969.930   110138294.341                    85663111.000    20581973.207  
  20581968.113  
  23764945.367   124885614.372    23764954.418    97313486.2644   23764954.395  
                
  19994835.523   106883887.766                    83131908.840    19994839.789  
  19994835.328  
  21936829.281   115278826.844    21936835.539    89827685.5624                 
                
  20717721.891   108872397.854    20717728.902    84835652.3864   20717728.875  
                
  22383641.711   117626824.607    22383650.230    91657321.6244   22383650.336  
                
  20262115.719   108350650.400                    84272750.432    20262122.254  
  20262115.000  
  22606544.414   118798227.502    22606552.410    92570083.2784   22606552.023  
                
  21624348.102   113636746.360    21624357.441    88548170.6704   21624357.012  
                
  20265925.844   106498194.403    20265932.285    82985641.8054   20265932.457  
                
  24201913.250   127181919.390    24201921.059    99102831.9944                 
                
 21  8 16  7 51 20.0000000  0 15R12G26R 6R 4R21G29R 5G16G18G27R20G15
                                G10G23G13
  22872762.258   122182196.554                    95030589.220    22872766.363  
  22872761.602  
  22640010.578   118974055.510    22640021.043    92707090.3044   22640020.953  
                
  21288937.328   113601867.518                                                  
  21288935.023  
  22910720.133   122685889.398                    95422372.674    22910724.422  
  22910719.164  
  20577928.859   110116669.769                    85646291.901    20577932.129  
  20577927.020  
  23771302.375   124919020.770    23771311.410    97339517.1954   23771311.402  
                
  19995494.406   106887409.870                    83134648.274    19995498.676  
  19995494.223  
  21938198.680   115286023.018    21938204.891    89833292.9664                 
                
  20720262.602   108885749.304    20720269.574    84846056.1184   20720269.562  
                
  22378191.406   117598183.124    22378199.930    91635003.5954   22378200.027  
                
  20264647.594   108364189.438                    84283280.781    20264654.133  
  20264646.836  
  22607013.328   118800691.689    22607021.309    92572003.4304   22607020.926  
                
  21619673.070   113612178.862    21619682.402    88529027.1794   21619681.969  
                
  20265150.000   106494117.369    20265156.438    82982464.8964   20265156.609  
                
  24203720.320   127191415.582    24203728.141    99110231.6154                 
                
 21  8 16  7 51 30.0000000  0 15R12G26R 6R 4R21G29R 5G16G18G27R20G15
                                G10G23G13
  22871461.891   122175250.140                    95025186.477    22871465.996  
  22871461.281  
  22644864.047   118999560.575    22644874.516    92726964.3624   22644874.402  
                
  21281657.445   113563020.710                                                  
  21281655.121  
  22917578.422   122722615.163                    95450937.137    22917582.730  
  22917577.457  
  20573892.273   110095069.231                    85629491.476    20573895.543  
  20573890.430  
  23777663.703   124952448.813    23777672.574    97365565.0234   23777672.574  
                
  19996170.594   106891024.455                    83137459.612    19996174.852  
  19996170.410  
  21939580.719   115293285.630    21939586.906    89838952.1414                 
                
  20722808.805   108899129.630    20722815.727    84856482.3394   20722815.738  
                
  22372746.422   117569569.552    22372754.934    91612707.3174   22372755.051  
                
  20267186.406   108377765.677                    84293840.067    20267192.965  
  20267185.602  
  22607495.547   118803225.761    22607503.508    92573978.0384   22607503.145  
                
  21615006.055   113587653.506    21615015.387    88509916.5164   21615014.930  
                
  20264385.648   106490100.698    20264392.078    82979335.0254   20264392.258  
                
  24205539.398   127200974.907    24205547.191    99117680.4424                 
                
 21  8 16  7 51 40.0000000  0 15R12G26R 6R 4R21G29R 5G16G18G27R20G15
                                G10G23G13
  22870177.164   122168387.374                    95019848.774    22870181.301  
  22870176.559  
  22649724.586   119025102.828    22649735.043    92746867.4094   22649734.934  
                
  21274385.875   113524218.304                                                  
  21274383.551  
  22924445.078   122759385.730                    95479536.449    22924449.359  
  22924444.098  
  20569860.219   110073492.964                    85612709.943    20569863.484  
  20569858.348  
  23784029.141   124985898.705    23784037.910    97391629.8604   23784037.891  
                
  19996864.086   106894731.569                    83140342.925    19996868.344  
  19996863.891  
  21940975.422   115300614.810    21940981.613    89844663.1884                 
                
  20725360.516   108912538.949    20725367.383    84866931.1644   20725367.418  
                
  22367306.789   117540984.115    22367315.309    91590432.9494   22367315.426  
                
  20269732.141   108391378.904                    84304428.121    20269738.711  
  20269731.305  
  22607991.078   118805829.835    22607999.004    92576007.1874   22607998.648  
                
  21610347.086   113563170.502    21610356.418    88490838.8534   21610355.945  
                
  20263632.812   106486144.565    20263639.234    82976252.3234   20263639.422  
                
  24207370.531   127210597.533    24207378.266    99125178.6184                 
                
 21  8 16  7 51 50.0000000  0 15R12G26R 6R 4R21G29R 5G16G18G27R20G15
                                G10G23G13
  22868908.125   122161608.447                    95014576.271    22868912.293  
  22868907.469  
  22654592.227   119050682.357    22654602.652    92766799.4994   22654602.566  
                
  21267122.703   113485460.671                                                  
  21267120.402  
  22931320.094   122796201.052                    95508170.592    22931324.371  
  22931319.121  
  20565832.773   110051941.375                    85595947.607    20565836.051  
  20565830.898  
  23790398.680   125019370.599    23790407.438    97417711.8314   23790407.422  
                
  19997574.938   106898531.503                    83143298.421    19997579.168  
  19997574.742  
  21942382.805   115308010.637    21942389.023    89850426.1684                 
                
  20727917.789   108925977.442    20727924.617    84877402.7174   20727924.684  
                
  22361872.562   117512427.095    22361881.137    91568180.7354   22361881.242  
                
  20272284.883   108405029.608                    84315045.351    20272291.473  
  20272283.988  
  22608499.961   118808504.014    22608507.812    92578090.9614   22608507.480  
                
  21605696.219   113538730.093    21605705.531    88471794.3964   21605705.059  
                
  20262891.531   106482249.137    20262897.961    82973216.9254   20262898.137  
                
  24209213.711   127220283.584    24209221.391    99132726.1654                 
                
 21  8 16  7 52  0.0000000  0 15R12G26R 6R 4R21G29R 5G16G18G27R20G15
                                G10G23G13
  22867654.773   122154913.293                    95009368.944    22867658.961  
  22867654.074  
  22659466.883   119076298.775    22659477.281    92786760.3344   22659477.199  
                
  21259867.969   113446747.898                                                  
  21259865.664  
  22938203.406   122833060.762                    95536839.206    22938207.684  
  22938202.445  
  20561809.875   110030414.014                    85579204.111    20561813.133  
  20561807.996  
  23796772.305   125052864.169    23796781.078    97443810.6864   23796781.078  
                
  19998303.094   106902423.874                    83146325.828    19998307.309  
  19998302.910  
  21943802.820   115315472.820    21943809.070    89856240.8424                 
                
  20730480.555   108939444.781    20730487.340    84887896.7464   20730487.418  
                
  22356443.695   117483898.270    22356452.289    91545950.4914   22356452.395  
                
  20274844.555   108418717.375                    84325691.378    20274851.164  
  20274843.617  
  22609022.148   118811248.067    22609029.953    92580229.1864   22609029.648  
                
  21601053.430   113514332.044    21601062.723    88452782.9344   21601062.258  
                
  20262161.742   106478414.104    20262168.199    82970228.5914   20262168.359  
                
  24211068.930   127230032.827    24211076.570    99140322.9714                 
                
 21  8 16  7 52 10.0000000  0 15R12G26R 6R 4R21G29R 5G16G18G27R20G15
                                G10G23G13
  22866417.102   122148301.848                    95004226.692    22866421.270  
  22866416.422  
  22664348.586   119101952.267    22664358.961    92806750.0554   22664358.891  
                
  21252621.625   113408079.956                                                  
  21252619.277  
  22945095.039   122869964.970                    95565542.461    22945099.336  
  22945094.141  
  20557791.578   110008911.295                    85562479.765    20557794.820  
  20557789.707  
  23803150.031   125086379.642    23803158.906    97469926.5954   23803158.910  
                
  19999048.594   106906408.958                    83149425.356    19999052.793  
  19999048.430  
  21945235.500   115323001.582    21945241.770    89862107.4034                 
                
  20733048.852   108952941.240    20733055.617    84898413.4604   20733055.707  
                
  22351020.281   117455398.007    22351028.848    91523742.4924   22351028.965  
                
  20277411.242   108432442.595                    84336366.532    20277417.871  
  20277410.281  
  22609557.688   118814062.336    22609565.504    92582422.1274   22609565.195  
                
  21596418.750   113489976.680    21596428.047    88433804.7304   21596427.594  
                
  20261443.500   106474639.737    20261450.004    82967287.5254   20261450.141  
                
  24212936.211   127239845.410    24212943.840    99147969.1124                 
                
 21  8 16  7 52 20.0000000  0 15R12G26R 6R 4R21G29R 5G16G18G27R20G15
                                G10G23G13
  22865195.148   122141774.434                    94999149.831    22865199.293  
  22865194.516  
  22669237.320   119127642.706    22669247.676    92826768.5594   22669247.625  
                
  21245383.773   113369457.345                                                  
  21245381.418  
  22951994.938   122906913.472                    95594280.168    22951999.262  
  22951994.074  
  20553777.898   109987433.240                    85545774.615    20553781.141  
  20553776.043  
  23809531.992   125119916.923    23809540.879    97496059.5144   23809540.875  
                
  19999811.414   106910486.681                    83152596.925    19999815.590  
  19999811.262  
  21946680.844   115330596.889    21946687.121    89868025.8154                 
                
  20735622.688   108966466.794    20735629.430    84908952.8474   20735629.523  
                
  22345602.312   117426926.396    22345610.859    91501556.8294   22345610.973  
                
  20279984.914   108446205.260                    84347070.831    20279991.555  
  20279983.934  
  22610106.586   118816946.823    22610114.449    92584669.7994   22610114.129  
                
  21591792.195   113465664.028    21591801.496    88414859.8224   21591801.047  
                
  20260736.789   106470926.013    20260743.340    82964393.7174   20260743.445  
                
  24214815.531   127249721.302    24214823.164    99155664.6054                 
                
 21  8 16  7 52 30.0000000  0 15R12G26R 6R 4R21G29R 5G16G18G27R20G15
                                G10G23G13
  22863988.844   122135330.554                    94994137.925    22863992.973  
  22863988.211  
  22674133.000   119153369.694    22674143.383    92846815.5564   22674143.328  
                
  21238154.406   113330879.908                                                  
  21238152.016  
  22958903.031   122943905.883                    95623052.003    22958907.383  
  22958902.180  
  20549768.797   109965979.720                    85529088.552    20549772.047  
  20549766.934  
  23815918.062   125153475.676    23815926.941    97522209.1764   23815926.914  
                
  20000591.500   106914656.711                    83155840.298    20000595.652  
  20000591.336  
  21948138.797   115338258.470    21948145.070    89873995.8754                 
                
  20738202.000   108980021.133    20738208.727    84919514.6734   20738208.832  
                
  22340189.750   117398483.222    22340198.277    91479393.3204   22340198.398  
                
  20282565.570   108460005.107                    84357804.036    20282572.211  
  20282564.570  
  22610668.789   118819901.224    22610676.668    92586971.9254   22610676.340  
                
  21587173.734   113441393.893    21587183.023    88395948.0384   21587182.570  
                
  20260041.570   106467272.642    20260048.168    82961546.9384   20260048.246  
                
  24216706.867   127259660.259    24216714.504    99163409.2494                 
                
 21  8 16  7 52 40.0000000  0 15R12G26R 6R 4R21G29R 5G16G18G27R20G15
                                G10G23G13
  22862798.258   122128970.656                    94989191.355    22862802.406  
  22862797.605  
  22679035.672   119179133.386    22679046.070    92866891.1484   22679046.004  
                
  21230933.523   113292347.983                                                  
  21230931.098  
  22965819.320   122980942.165                    95651857.985    22965823.691  
  22965818.492  
  20545764.320   109944550.974                    85512421.757    20545767.574  
  20545762.457  
  23822308.250   125187056.023    23822317.082    97548375.6564   23822317.039  
                
  20001388.914   106918919.333                    83159155.665    20001393.055  
  20001388.738  
  21949609.391   115345986.492    21949615.668    89880017.7064                 
                
  20740786.820   108993604.453    20740793.531    84930099.0824   20740793.668  
                
  22334782.672   117370068.828    22334791.168    91457252.2364   22334791.281  
                
  20285153.203   108473842.365                    84368566.345    20285159.848  
  20285152.207  
  22611244.320   118822925.709    22611252.203    92589328.6734   22611251.879  
                
  21582563.414   113417166.515    21582572.711    88377069.5734   21582572.238  
                
  20259357.867   106463679.828    20259364.504    82958747.3594   20259364.555  
                
  24218610.195   127269662.280    24218617.809    99171203.0434                 
                
 21  8 16  7 52 50.0000000  0 15R12G26R 6R 4R21G29R 5G16G18G27R20G15
                                G10G23G13
  22861623.328   122122694.488                    94984309.878    22861627.508  
  22861622.641  
  22683945.289   119204933.551    22683955.691    92886995.1704   22683955.621  
                
  21223721.180   113253861.758                                                  
  21223718.750  
  22972743.797   123018022.251                    95680698.050    22972748.164  
  22972743.027  
  20541764.461   109923146.939                    85495774.180    20541767.711  
  20541762.582  
  23828702.414   125220657.897    23828711.285    97574558.9344   23828711.250  
                
  20002203.594   106923274.284                    83162542.862    20002207.723  
  20002203.426  
  21951092.602   115353780.784    21951098.852    89886091.1764                 
                
  20743377.133   109007216.627    20743383.832    84940705.9714   20743383.988  
                
  22329381.055   117341683.155    22329389.523    91435133.5354   22329389.641  
                
  20287747.789   108487716.772                    84379357.547    20287754.449  
  20287746.773  
  22611833.172   118826020.193    22611841.062    92591739.9734   22611840.742  
                
  21577961.227   113392981.866    21577970.539    88358224.4004   21577970.051  
                
  20258685.680   106460147.473    20258692.336    82955994.8764   20258692.387  
                
  24220525.523   127279727.415    24220533.070    99179045.9964                 
                
 21  8 16  7 53  0.0000000  0 15R12G26R 6R 4R21G29R 5G16G18G27R20G15
                                G10G23G13
  22860464.109   122116502.208                    94979493.660    22860468.293  
  22860463.410  
  22688861.812   119230770.072    22688872.238    92907127.5074   22688872.176  
                
  21216517.352   113215421.089                                                  
  21216514.980  
  22979676.383   123055145.830                    95709571.938    22979680.750  
  22979675.648  
  20537769.234   109901767.647                    85479145.818    20537772.488  
  20537767.352  
  23835100.773   125254281.240    23835109.559    97600758.9254   23835109.516  
                
  20003035.555   106927721.576                    83166001.864    20003039.660  
  20003035.402  
  21952588.406   115361641.269    21952594.637    89892216.2244                 
                
  20745972.922   109020857.591    20745979.637    84951335.2924   20745979.809  
                
  22323984.906   117313326.250    22323993.355    91413037.2544   22323993.508  
                
  20290349.352   108501628.541                    84390177.798    20290356.031  
  20290348.336  
  22612435.344   118829184.678    22612443.238    92594205.8144   22612442.898  
                
  21573367.164   113368839.939    21573376.488    88339412.5144   21573376.008  
                
  20258024.977   106456675.518    20258031.660    82953289.4634   20258031.707  
                
  24222452.859   127289855.598    24222460.348    99186938.1044                 
                
 21  8 16  7 53 10.0000000  0 15R12G26R 6R 4R21G29R 5G16G18G27R20G15
                                G10G23G13
  22859320.562   122110393.651                    94974742.572    22859324.738  
  22859319.891  
  22693785.227   119256642.791    22693795.688    92927288.0554   22693795.625  
                
  21209322.211   113177026.366                                                  
  21209319.840  
  22986617.078   123092312.819                    95738479.580    22986621.438  
  22986616.395  
  20533778.617   109880413.110                    85462536.754    20533781.863  
  20533776.719  
  23841503.180   125287925.830    23841511.891    97626975.4884   23841511.840  
                
  20003884.758   106932261.038                    83169532.562    20003888.852  
  20003884.605  
  21954096.789   115369567.848    21954103.000    89898392.7814                 
                
  20748574.172   109034527.304    20748580.922    84961987.0074   20748581.074  
                
  22318594.258   117284998.204    22318602.707    91390963.4514   22318602.852  
                
  20292957.883   108515577.586                    84401027.056    20292964.582  
  20292956.871  
  22613050.828   118832419.100    22613058.699    92596726.1604   22613058.379  
                
  21568781.227   113344740.749    21568790.562    88320633.9394   21568790.086  
                
  20257375.758   106453263.924    20257382.473    82950631.0784   20257382.520  
                
  24224392.188   127300046.773    24224399.602    99194879.2514                 
                
 21  8 16  7 53 20.0000000  0 15R12G26R 6R 4R21G29R 5G16G18G27R20G15
                                G10G23G13
  22858192.766   122104369.162                    94970056.859    22858196.945  
  22858192.086  
  22698715.555   119282551.821    22698726.055    92947476.8994   22698725.961  
                
  21202135.688   113138677.589                                                  
  21202133.312  
  22993565.859   123129523.138                    95767420.914    22993570.246  
  22993565.195  
  20529792.703   109859083.647                    85445947.166    20529795.941  
  20529790.789  
  23847909.594   125321591.930    23847918.344    97653208.7974   23847918.316  
                
  20004751.266   106936893.019                    83173135.238    20004755.355  
  20004751.094  
  21955617.789   115377560.752    21955623.992    89904621.0174                 
                
  20751180.938   109048225.944    20751187.734    84972661.2714   20751187.879  
                
  22313209.141   117256699.285    22313217.605    91368912.3604   22313217.746  
                
  20295573.445   108529564.210                    84411905.518    20295580.160  
  20295572.418  
  22613679.672   118835723.697    22613687.500    92599301.1704   22613687.188  
                
  21564203.492   113320684.578    21564212.844    88301888.8894   21564212.359  
                
  20256738.070   106449912.884    20256744.828    82948019.8814   20256744.859  
                
  24226343.523   127310301.117    24226350.910    99202869.6334                 
                
 21  8 16  7 53 30.0000000  0 15R12G26R 6R 4R21G29R 5G16G18G27R20G15
                                G10G23G13
  22857080.664   122098428.468                    94965436.316    22857084.820  
  22857079.992  
  22703652.758   119308496.991    22703663.305    92967693.9014   22703663.199  
                
  21194957.805   113100375.087                                                  
  21194955.426  
  23000522.703   123166776.554                    95796395.766    23000527.094  
  23000522.043  
  20525811.445   109837779.129                    85429377.001    20525814.676  
  20525809.516  
  23854320.039   125355279.400    23854328.852    97679458.7414   23854328.855  
                
  20005635.047   106941617.354                    83176809.705    20005639.129  
  20005634.867  
  21957151.391   115385619.823    21957157.602    89910900.8074                 
                
  20753793.180   109061953.404    20753800.031    84983357.9874   20753800.145  
                
  22307829.586   117228429.495    22307838.031    91346883.9554   22307838.188  
                
  20298195.969   108543588.061                    84422812.950    20298202.703  
  20298194.922  
  22614321.844   118839098.401    22614329.660    92601930.8124   22614329.363  
                
  21559633.930   113296671.398    21559643.285    88283177.3174   21559642.789  
                
  20256111.883   106446622.293    20256118.699    82945455.7944   20256118.711  
                
  24228306.828   127320618.444    24228314.211    99210909.0794                 
                
 21  8 16  7 53 40.0000000  0 15R12G26R 6R 4R21G29R 5G16G18G27R20G15
                                G10G23G13
  22855984.266   122092571.685                    94960881.049    22855988.434  
  22855983.625  
  22708596.812   119334478.074    22708607.395    92987938.8924   22708607.277  
                
  21187788.570   113062118.861                                                  
  21187786.199  
  23007487.547   123204072.891                    95825403.998    23007491.938  
  23007486.848  
  20521834.844   109816499.551                    85412826.218    20521838.082  
  20521832.938  
  23860734.562   125388988.073    23860743.379    97705725.1934   23860743.398  
                
  20006536.094   106946433.940                    83180555.960    20006540.176  
  20006535.918  
  21958697.539   115393744.883    21958703.766    89917232.0154                 
                
  20756410.883   109075709.559    20756417.777    84994077.0644   20756417.879  
                
  22302455.570   117200188.851    22302463.965    91324878.2494   22302464.148  
                
  20300825.484   108557649.228                    84433749.411    20300832.246  
  20300824.461  
  22614977.352   118842543.132    22614985.168    92604615.0414   22614984.871  
                
  21555072.531   113272701.135    21555081.871    88264499.2004   21555081.391  
                
  20255497.180   106443392.057    20255504.078    82942938.7324   20255504.043  
                
  24230282.109   127330998.632    24230289.445    99218997.5344                 
                
 21  8 16  7 53 50.0000000  0 15R12G26R 6R 4R21G29R 5G16G18G27R20G15
                                G10G23G13
  22854903.578   122086798.822                    94956391.069    22854907.762  
  22854902.941  
  22713547.680   119360495.075    22713558.297    93008211.8634   22713558.145  
                
  21180628.094   113023909.295                                                  
  21180625.699  
  23014460.406   123241412.126                    95854445.610    23014464.777  
  23014459.695  
  20517862.938   109795245.132                    85396295.010    20517866.184  
  20517861.051  
  23867153.117   125422717.979    23867161.945    97732008.2044   23867161.980  
                
  20007454.367   106951342.653                    83184373.862    20007458.445  
  20007454.203  
  21960256.250   115401935.968    21960262.500    89923614.6814                 
                
  20759034.062   109089494.478    20759041.000    85004818.5634   20759041.102  
                
  22297087.117   117171977.462    22297095.461    91302895.3514   22297095.676  
                
  20303462.000   108571747.879                    84444715.018    20303468.777  
  20303460.977  
  22615646.195   118846057.944    22615653.996    92607353.8694   22615653.695  
                
  21550519.320   113248773.914    21550528.637    88245854.6254   21550528.156  
                
  20254893.969   106440222.229    20254900.949    82940468.7454   20254900.859  
                
  24232269.359   127341441.739    24232276.680    99227135.0104                 
                
 21  8 16  7 54  0.0000000  0 15R12G26R 6R 4R21G29R 5G16G18G27R20G15
                                G10G23G13
  22853838.602   122081109.953                    94951966.387    22853842.816  
  22853837.934  
  22718505.383   119386547.910    22718516.000    93028512.7584   22718515.848  
                
  21173476.391   112985746.453                                                  
  21173474.004  
  23021441.219   123278794.036                    95883520.414    23021445.598  
  23021440.445  
  20513895.758   109774015.939                    85379783.423    20513899.008  
  20513893.879  
  23873575.758   125456469.155    23873584.551    97758307.8014   23873584.590  
                
  20008389.883   106956343.530                    83188263.435    20008393.957  
  20008389.734  
  21961827.570   115410193.278    21961833.844    89930048.9334                 
                
  20761662.711   109103308.159    20761669.695    85015582.4594   20761669.785  
                
  22291724.250   117143795.452    22291732.602    91280935.3614   22291732.816  
                
  20306105.516   108585883.840                    84455709.637    20306112.297  
  20306104.508  
  22616328.367   118849642.821    22616336.129    92610147.2874   22616335.840  
                
  21545974.328   113224889.836    21545983.629    88227243.6604   21545983.125  
                
  20254302.266   106437112.834    20254309.305    82938045.8384   20254309.191  
                
  24234268.609   127351947.765    24234275.918    99235321.5604                 
                
 21  8 16  7 54 10.0000000  0 15R12G26R 6R 4R21G29R 5G16G18G27R20G15
                                G10G23G13
  22852789.398   122075505.299                    94947607.190    22852793.625  
  22852788.723  
  22723469.930   119412636.654    22723480.504    93048841.6454   22723480.367  
                
  21166333.469   112947630.399                                                  
  21166331.082  
  23028430.016   123316218.664                    95912628.423    23028434.363  
  23028429.195  
  20509933.352   109752812.270                    85363291.679    20509936.602  
  20509931.477  
  23880002.469   125490241.690    23880011.215    97784624.0604   23880011.277  
                
  20009342.703   106961436.840                    83192224.901    20009346.770  
  20009342.562  
  21963411.469   115418516.719    21963417.770    89936534.7274                 
                
  20764296.875   109117150.780    20764303.906    85026368.9074   20764303.984  
                
  22286367.047   117115643.152    22286375.426    91258998.5034   22286375.609  
                
  20308756.070   108600057.523                    84466733.612    20308762.875  
  20308755.098  
  22617023.922   118853297.992    22617031.660    92612995.4724   22617031.391  
                
  21541437.594   113201049.146    21541446.875    88208666.5004   21541446.363  
                
  20253722.086   106434064.045    20253729.172    82935670.1634   20253729.035  
                
  24236279.859   127362516.912    24236287.191    99243557.2424                 
                
 21  8 16  7 54 20.0000000  0 15R12G26R 6R 4R21G29R 5G16G18G27R20G15
                                G10G23G13
  22851755.844   122069984.288                    94943313.091    22851760.094  
  22851755.160  
  22728441.172   119438760.592    22728451.711    93069197.9594   22728451.582  
                
  21159199.219   112909560.746                                                  
  21159196.855  
  23035426.664   123353685.380                    95941769.184    23035430.969  
  23035425.828  
  20505975.570   109731633.405                    85346819.229    20505978.820  
  20505973.688  
  23886433.125   125524034.920    23886441.781    97810956.4354   23886441.867  
                
  20010312.672   106966621.900                    83196257.730    20010316.742  
  20010312.539  
  21965007.820   115426905.601    21965014.137    89943071.5184                 
                
  20766936.422   109131021.690    20766943.500    85037177.3924   20766943.562  
                
  22281015.375   117087519.977    22281023.762    91237084.3434   22281023.922  
                
  20311413.547   108614268.268                    84477786.405    20311420.375  
  20311412.617  
  22617732.719   118857022.842    22617740.438    92615897.9674   22617740.203  
                
  21536908.992   113177251.230    21536918.238    88190122.6834   21536917.738  
                
  20253153.320   106431075.217    20253160.434    82933341.2114   20253160.293  
                
  24238302.977   127373148.431    24238310.340    99251841.5274                 
                
 21  8 16  7 54 30.0000000  0 15R12G26R 6R 4R21G29R 5G16G18G27R20G15
                                G10G23G13
  22850738.023   122064547.323                    94939084.325    22850742.266  
  22850737.312  
  22733419.172   119464920.138    22733429.695    93089582.0054   22733429.574  
                
  21152073.805   112871538.294                                                  
  21152071.422  
  23042431.219   123391194.420                    95970942.876    23042435.477  
  23042430.395  
  20502022.562   109710480.061                    85330366.620    20502025.816  
  20502020.684  
  23892867.812   125557849.202    23892876.379    97837305.2204   23892876.465  
                
  20011299.891   106971899.140                    83200362.253    20011303.957  
  20011299.781  
  21966616.734   115435360.483    21966623.062    89949659.7164                 
                
  20769581.445   109144921.381    20769588.574    85048008.3194   20769588.602  
                
  22275669.359   117059426.518    22275677.758    91215193.3504   22275677.922  
                
  20314078.070   108628516.540                    84488868.388    20314084.891  
  20314077.145  
  22618454.891   118860817.881    22618462.578    92618855.1544   22618462.344  
                
  21532388.656   113153496.693    21532397.879    88171612.6574   21532397.406  
                
  20252596.062   106428146.856    20252603.191    82931059.3764   20252603.062  
                
  24240338.078   127383842.938    24240345.430    99260174.9054                 
                
 21  8 16  7 54 40.0000000  0 15R12G26R 6R 4R21G29R 5G16G18G27R20G15
                                G10G23G13
  22849735.977   122059194.632                    94934921.131    22849740.207  
  22849735.273  
  22738403.906   119491115.113    22738414.418    93109993.6594   22738414.293  
                
  21144957.312   112833563.309                                                  
  21144954.914  
  23049443.633   123428745.507                    96000149.279    23049447.820  
  23049442.801  
  20498074.297   109689352.070                    85313933.757    20498077.555  
  20498072.406  
  23899306.516   125591684.448    23899315.012    97863670.3424   23899315.117  
                
  20012304.320   106977268.346                    83204538.319    20012308.391  
  20012304.219  
  21968238.180   115443881.226    21968244.523    89956299.2584                 
                
  20772231.930   109158849.779    20772239.098    85058861.6094   20772239.125  
                
  22270329.008   117031362.809    22270337.395    91193325.5294   22270337.578  
                
  20316749.570   108642802.222                    84499979.487    20316756.414  
  20316748.688  
  22619190.414   118864683.056    22619198.062    92621866.9794   22619197.852  
                
  21527876.547   113129785.486    21527885.754    88153136.4044   21527885.301  
                
  20252050.297   106425278.877    20252057.453    82928824.5964   20252057.312  
                
  24242385.141   127394600.246    24242392.449    99268557.2124                 
                
 21  8 16  7 54 50.0000000  0 15R12G26R 6R 4R21G29R 5G16G18G27R20G15
                                G10G23G13
  22848749.633   122053925.759                    94930823.132    22848753.863  
  22848748.902  
  22743395.344   119517345.272    22743405.852    93130432.7294   22743405.738  
                
  21137849.648   112795635.515                                                  
  21137847.230  
  23056463.883   123466338.499                    96029388.266    23056468.012  
  23056463.055  
  20494130.805   109668249.670                    85297520.771    20494134.078  
  20494128.914  
  23905749.172   125625540.572    23905757.652    97890051.7104   23905757.758  
                
  20013325.977   106982729.669                    83208786.001    20013330.027  
  20013325.867  
  21969872.141   115452467.712    21969878.480    89962990.0184                 
                
  20774887.852   109172806.714    20774895.051    85069737.1304   20774895.070  
                
  22264994.320   117003328.813    22265002.684    91171480.8544   22265002.879  
                
  20319428.086   108657125.342                    84511119.684    20319434.918  
  20319427.230  
  22619939.242   118868618.175    22619946.863    92624933.3214   22619946.664  
                
  21523372.680   113106117.528    21523381.855    88134693.8484   21523381.410  
                
  20251515.992   106422471.129    20251523.184    82926636.7474   20251523.035  
                
  24244444.133   127405420.219    24244451.418    99276988.3534                 
                
 21  8 16  7 55  0.0000000  0 15R12G26R 6R 4R21G29R 5G16G18G27R20G15
                                G10G23G13
  22847779.023   122048740.926                    94926790.476    22847783.270  
  22847778.293  
  22748393.469   119543610.624    22748403.973    93150899.2304   22748403.871  
                
  21130750.898   112757755.276                                                  
  21130748.445  
  23063491.914   123503973.229                    96058659.716    23063496.047  
  23063491.055  
  20490192.062   109647172.697                    85281127.574    20490195.348  
  20490190.172  
  23912195.750   125659417.634    23912204.238    97916449.3784   23912204.359  
                
  20014364.820   106988282.866                    83213105.167    20014368.863  
  20014364.703  
  21971518.609   115461119.951    21971524.941    89969732.0124                 
                
  20777549.211   109186792.243    20777556.438    85080634.9484   20777556.445  
                
  22259665.312   116975324.702    22259673.676    91149659.4764   22259673.871  
                
  20322113.578   108671485.877                    84522288.989    20322120.422  
  20322112.723  
  22620701.406   118872623.361    22620708.980    92628054.2404   22620708.789  
                
  21518877.078   113082492.979    21518886.234    88116285.1144   21518885.785  
                
  20250993.172   106419723.710    20251000.426    82924495.9034   20251000.250  
                
  24246515.055   127416302.924    24246522.340    99285468.3724                 
                
 21  8 16  7 55 10.0000000  0 15R12G26R 6R 4R21G29R 5G16G18G27R20G15
                                G10G23G13
  22846824.125   122043640.060                    94922823.152    22846828.410  
  22846823.418  
  22753398.242   119569910.899    22753408.734    93171392.9404   22753408.637  
                
  21123660.992   112719922.326                                                  
  21123658.516  
  23070527.688   123541649.442                    96087963.394    23070531.836  
  23070526.789  
  20486258.078   109626121.176                    85264754.175    20486261.383  
  20486256.180  
  23918646.367   125693315.299    23918654.727    97942863.1414   23918654.879  
                
  20015420.844   106993927.912                    83217495.771    20015424.902  
  20015420.719  
  21973177.539   115469837.707    21973183.859    89976525.0624                 
                
  20780215.984   109200806.223    20780223.223    85091554.9264   20780223.234  
                
  22254341.969   116947350.391    22254350.352    91127861.3234   22254350.543  
                
  20324806.102   108685883.987                    84533487.505    20324812.965  
  20324805.242  
  22621476.867   118876698.454    22621484.402    92631229.6454   22621484.227  
                
  21514389.703   113058911.725    21514398.859    88097910.1224   21514398.383  
                
  20250481.789   106417036.427    20250489.121    82922401.9224   20250488.906  
                
  24248597.867   127427248.150    24248605.172    99293997.1514                 
                
 21  8 16  7 55 20.0000000  0 15R12G26R 6R 4R21G29R 5G16G18G27R20G15
                                G10G23G13
  22845885.000   122038623.414                    94918921.311    22845889.312  
  22845884.320  
  22758409.695   119596246.200    22758420.152    93191913.9534   22758420.094  
                
  21116580.125   112682137.408                                                  
  21116577.637  
  23077571.234   123579367.253                    96117299.438    23077575.410  
  23077570.324  
  20482328.922   109605095.471                    85248400.849    20482332.234  
  20482327.012  
  23925100.844   125727233.786    23925109.195    97969293.1014   23925109.355  
                
  20016494.047   106999664.841                    83221957.834    20016498.105  
  20016493.906  
  21974848.984   115478621.229    21974855.293    89983369.3654                 
                
  20782888.203   109214848.833    20782895.449    85102497.2294   20782895.457  
                
  22249024.367   116919406.203    22249032.777    91106086.6404   22249032.969  
                
  20327505.625   108700319.473                    84544715.107    20327512.500  
  20327504.785  
  22622265.680   118880843.655    22622273.180    92634459.6854   22622273.012  
                
  21509910.625   113035374.034    21509919.762    88079569.0714   21509919.277  
                
  20249981.898   106414409.489    20249989.297    82920354.9614   20249989.055  
                
  24250692.625   127438256.116    24250699.910    99302574.7924                 
                
 21  8 16  7 55 30.0000000  0 15R12G26R 6R 4R21G29R 5G16G18G27R20G15
                                G10G23G13
  22844961.586   122033690.771                    94915084.807    22844965.926  
  22844960.895  
  22763427.758   119622616.336    22763438.195    93212462.0934   22763438.184  
                
  21109508.242   112644400.526                                                  
  21109505.730  
  23084622.469   123617126.254                    96146667.540    23084626.699  
  23084621.586  
  20478404.570   109584095.483                    85232067.530    20478407.887  
  20478402.660  
  23931559.258   125761172.889    23931567.602    97995739.1434   23931567.773  
                
  20017584.438   107005493.618                    83226491.334    20017588.504  
  20017584.281  
  21976532.922   115487470.351    21976539.230    89990264.7824                 
                
  20785565.844   109228919.943    20785573.090    85113461.7244   20785573.102  
                
  22243712.484   116891492.095    22243720.914    91084335.3884   22243721.090  
                
  20330212.156   108714792.450                    84555971.843    20330219.039  
  20330211.348  
  22623067.805   118885058.860    22623075.262    92637744.2614   22623075.102  
                
  21505439.828   113011879.819    21505448.934    88061261.8954   21505448.457  
                
  20249493.453   106411842.762    20249500.898    82918354.9164   20249500.637  
                
  24252799.281   127449326.614    24252806.551    99311201.1444                 
                
 21  8 16  7 55 40.0000000  0 15R12G26R 6R 4R21G29R 5G16G18G27R20G15
                                G10G23G13
  22844053.898   122028842.167                    94911313.665    22844058.250  
  22844053.242  
  22768452.445   119649021.244    22768462.887    93233037.3404   22768462.902  
                
  21102445.352   112606711.747                                                  
  21102442.859  
  23091681.398   123654926.529                    96176067.724    23091685.672  
  23091680.531  
  20474485.000   109563121.120                    85215754.140    20474488.324  
  20474483.105  
  23938021.625   125795132.694    23938029.918    98022201.3144   23938030.121  
                
  20018691.992   107011414.166                    83231096.205    20018696.070  
  20018691.816  
  21978229.328   115496385.057    21978235.648    89997211.3004                 
                
  20788248.914   109243019.563    20788256.152    85124448.4354   20788256.168  
                
  22238406.352   116863608.222    22238414.805    91062607.6994   22238414.957  
                
  20332925.711   108729303.047                    84567257.861    20332932.609  
  20332924.934  
  22623883.258   118889344.131    22623890.680    92641083.4374   22623890.539  
                
  21500977.312   112988429.213    21500986.406    88042988.7024   21500985.938  
                
  20249016.477   106409336.287    20249023.949    82916401.8204   20249023.684  
                
  24254917.812   127460459.626    24254925.094    99319876.2384                 
                
 21  8 16  7 55 50.0000000  0 15R12G26R 6R 4R21G29R 5G16G18G27R20G15
                                G10G23G13
  22843162.016   122024077.808                    94907608.049    22843166.379  
  22843161.332  
  22773483.727   119675460.781    22773494.195    93253639.5634   22773494.199  
                
  21095391.578   112569071.258                                                  
  21095389.090  
  23098748.008   123692767.842                    96205499.827    23098752.312  
  23098747.137  
  20470570.281   109542172.634                    85199460.871    20470573.613  
  20470568.391  
  23944487.930   125829113.136    23944496.191    98048679.5494   23944496.418  
                
  20019816.727   107017426.515                    83235772.491    20019820.832  
  20019816.535  
  21979938.195   115505365.234    21979944.535    90004208.8234                 
                
  20790937.406   109257147.657    20790944.637    85135457.3284   20790944.648  
                
  22233106.000   116835754.632    22233114.492    91040903.6034   22233114.629  
                
  20335646.281   108743851.037                    84578572.941    20335653.172  
  20335645.531  
  22624712.039   118893699.356    22624719.422    92644477.1404   22624719.297  
                
  21496523.109   112965022.205    21496532.211    88024749.4864   21496531.730  
                
  20248550.961   106406890.008    20248558.445    82914495.6344   20248558.191  
                
  24257048.266   127471655.180    24257055.535    99328600.0384                 
                
 21  8 16  7 56  0.0000000  0 15R12G26R 6R 4R21G29R 5G16G18G27R20G15
                                G10G23G13
  22842285.828   122019397.457                    94903967.795    22842290.203  
  22842285.125  
  22778521.555   119701934.790    22778532.062    93274268.6414   22778532.066  
                
  21088346.805   112531478.988                                                  
  21088344.348  
  23105822.227   123730649.956                    96234963.672    23105826.543  
  23105821.344  
  20466660.367   109521249.944                    85183187.677    20466663.719  
  20466658.477  
  23950958.211   125863114.080    23950966.395    98075173.7804   23950966.590  
                
  20020958.586   107023530.461                    83240519.995    20020962.695  
  20020958.387  
  21981659.500   115514410.761    21981665.852    90011257.2864                 
                
  20793631.297   109271304.124    20793638.520    85146488.3424   20793638.531  
                
  22227811.391   116807931.320    22227819.895    91019223.1074   22227820.035  
                
  20338373.852   108758436.481                    84589917.193    20338380.742  
  20338373.109  
  22625554.117   118898124.519    22625561.508    92647925.3234   22625561.371  
                
  21492077.195   112941658.802    21492086.301    88006544.2464   21492085.797  
                
  20248096.883   106404503.852    20248104.383    82912636.2944   20248104.137  
                
  24259190.594   127482913.204    24259197.883    99337372.5364                 
                
 21  8 16  7 56 10.0000000  0 15R12G26R 6R 4R21G29R 5G16G18G27R20G15
                                G10G23G13
  22841425.406   122014801.254                    94900392.959    22841429.770  
  22841424.715  
  22783565.961   119728443.307    22783576.496    93294924.6084   22783576.496  
                
  21081311.148   112493935.319                                                  
  21081308.719  
  23112904.031   123768572.723                    96264459.136    23112908.344  
  23112903.141  
  20462755.344   109500353.362                    85166934.787    20462758.719  
  20462753.465  
  23957432.391   125897135.590    23957440.484    98101684.0264   23957440.652  
                
  20022117.625   107029726.195                    83245338.911    20022121.754  
  20022117.418  
  21983393.273   115523521.795    21983399.625    90018356.7834                 
                
  20796330.609   109285489.115    20796337.828    85157541.5834   20796337.840  
                
  22222522.594   116780138.546    22222531.094    90997566.4034   22222531.230  
                
  20341108.461   108773059.591                    84601290.693    20341115.348  
  20341107.699  
  22626409.547   118902619.775    22626416.973    92651428.1254   22626416.809  
                
  21487639.625   112918339.179    21487648.719    87988373.1144   21487648.219  
                
  20247654.281   106402177.944    20247661.801    82910823.9044   20247661.559  
                
  24261344.836   127494233.801    24261352.141    99346193.7704                 
                
 21  8 16  7 56 20.0000000  0 15R12G26R 6R 4R21G29R 5G16G18G27R20G15
                                G10G23G13
  22840580.727   122010289.194                    94896883.565    22840585.113  
  22840580.031  
  22788616.891   119754986.053    22788627.453    93315607.2684   22788627.434  
                
  21074284.570   112456440.191                                                  
  21074282.168  
  23119993.414   123806536.045                    96293986.162    23119997.703  
  23119992.539  
  20458855.141   109479482.607                    85150701.983    20458858.523  
  20458853.262  
  23963910.422   125931177.472    23963918.449    98128210.1604   23963918.613  
                
  20023293.773   107036013.418                    83250228.976    20023297.922  
  20023293.570  
  21985139.469   115532698.101    21985145.832    90025507.1554                 
                
  20799035.312   109299702.433    20799042.508    85168616.8894   20799042.535  
                
  22217239.594   116752376.220    22217248.117    90975933.4264   22217248.223  
                
  20343850.055   108787720.100                    84612693.319    20343856.949  
  20343849.301  
  22627278.281   118907184.998    22627285.719    92654985.4404   22627285.539  
                
  21483210.344   112895063.205    21483219.434    87970236.0024   21483218.945  
                
  20247223.102   106399912.115    20247230.656    82909058.3164   20247230.391  
                
  24263510.930   127505616.678    24263518.254    99355063.5344                 
                
 21  8 16  7 56 30.0000000  0 15R12G26R 6R 4R21G29R 5G16G18G27R20G15
                                G10G23G13
  22839751.828   122005861.283                    94893439.632    22839756.211  
  22839751.148  
  22793674.328   119781563.078    22793684.941    93336316.6284   22793684.895  
                
  21067267.188   112418994.152                                                  
  21067264.789  
  23127090.352   123844539.837                    96323544.652    23127094.664  
  23127089.469  
  20454959.836   109458638.089                    85134489.590    20454963.246  
  20454957.934  
  23970392.305   125965239.799    23970400.293    98154752.2484   23970400.473  
                
  20024487.055   107042392.189                    83255190.247    20024491.234  
  20024486.867  
  21986898.109   115541939.772    21986904.496    90032708.4494                 
                
  20801745.430   109313944.185    20801752.609    85179714.3544   20801752.645  
                
  22211962.430   116724644.558    22211970.961    90954324.3454   22211971.055  
                
  20346598.703   108802418.298                    84624125.252    20346605.617  
  20346597.945  
  22628160.352   118911820.264    22628167.766    92658597.3454   22628167.586  
                
  21478789.422   112871831.105    21478798.523    87952133.0774   21478798.047  
                
  20246803.383   106397706.475    20246810.977    82907339.6394   20246810.695  
                
  24265688.922   127517062.067    24265696.250    99363982.0594                 
                
 21  8 16  7 56 40.0000000  0 15R12G26R 6R 4R21G29R 5G16G18G27R20G15
                                G10G23G13
  22838938.656   122001517.490                    94890061.102    22838943.039  
  22838937.988  
  22798738.266   119808174.261    22798748.938    93357052.6084   22798748.859  
                
  21060258.977   112381596.955                                                  
  21060256.613  
  23134194.805   123882583.862                    96353134.434    23134199.125  
  23134193.926  
  20451069.406   109437819.672                    85118297.486    20451072.812  
  20451067.508  
  23976878.047   125999322.579    23976886.035    98181310.2344   23976886.215  
                
  20025697.484   107048862.618                    83260222.798    20025701.672  
  20025697.305  
  21988669.156   115551246.700    21988675.574    90039960.5984                 
                
  20804460.953   109328214.323    20804468.113    85190833.9514   20804468.152  
                
  22206691.109   116696943.654    22206699.648    90932739.2324   22206699.734  
                
  20349354.383   108817154.099                    84635586.417    20349361.293  
  20349353.629  
  22629055.734   118916525.531    22629063.133    92662263.7934   22629062.922  
                
  21474376.844   112848642.886    21474385.941    87934064.3374   21474385.457  
                
  20246395.102   106395560.989    20246402.742    82905667.8474   20246402.441  
                
  24267878.781   127528569.823    24267886.121    99372949.1464                 
                
 21  8 16  7 56 50.0000000  0 15R12G26R 6R 4R21G29R 5G16G18G27R20G15
                                G10G23G13
  22838141.242   121997257.840                    94886748.086    22838145.633  
  22838140.574  
  22803808.664   119834819.432    22803819.414    93377815.0604   22803819.297  
                
  21053259.953   112344248.850                                                  
  21053257.578  
  23141306.742   123920668.013                    96382755.423    23141311.105  
  23141305.848  
  20447183.891   109417027.496                    85102125.791    20447187.301  
  20447181.996  
  23983367.633   126033425.593    23983375.672    98207883.9904   23983375.848  
                
  20026925.000   107055424.405                    83265326.409    20026929.188  
  20026924.809  
  21990452.609   115560618.813    21990459.062    90047263.5364                 
                
  20807181.859   109342512.804    20807189.000    85201975.6074   20807189.051  
                
  22201425.648   116669273.506    22201434.195    90911178.0774   22201434.266  
                
  20352117.055   108831927.386                    84647076.739    20352123.973  
  20352116.305  
  22629964.430   118921300.783    22629971.820    92665984.7654   22629971.609  
                
  21469972.617   112825498.531    21469981.719    87916029.7864   21469981.219  
                
  20245998.258   106393475.583    20246005.934    82904042.8604   20246005.617  
                
  24270080.477   127540139.769    24270087.855    99381964.7104                 
                
 21  8 16  7 57  0.0000000  0 15R12G26R 6R 4R21G29R 5G16G18G27R20G15
                                G10G23G13
  22837359.578   121993082.328                    94883500.464    22837363.957  
  22837358.910  
  22808885.508   119861498.453    22808896.328    93398603.8864   22808896.168  
                
  21046270.094   112306949.821                                                  
  21046267.688  
  23148426.156   123958792.087                    96412407.452    23148430.520  
  23148425.289  
  20443303.281   109396261.572                    85085974.521    20443306.684  
  20443301.383  
  23989861.094   126067548.756    23989869.180    98234473.4514   23989869.309  
                
  20028169.625   107062077.624                    83270501.142    20028173.832  
  20028169.438  
  21992248.438   115570055.970    21992254.910    90054617.1514                 
                
  20809908.141   109356839.506    20809915.270    85213139.2614   20809915.324  
                
  22196166.039   116641634.158    22196174.586    90889640.9284   22196174.648  
                
  20354886.766   108846738.268                    84658596.308    20354893.672  
  20354886.016  
  22630886.406   118926145.909    22630893.785    92669760.2014   22630893.598  
                
  21465576.734   112802398.051    21465585.852    87898029.4214   21465585.344  
                
  20245612.836   106391450.204    20245620.516    82902464.6434   20245620.195  
                
  24272294.016   127551771.956    24272301.434    99391028.7484                 
                
 21  8 16  7 57 10.0000000  0 15R12G26R 6R 4R21G29R 5G16G18G27R20G15
                                G10G23G13
  22836593.711   121988991.220                    94880318.497    22836598.094  
  22836593.090  
  22813968.828   119888211.514    22813979.684    93419419.2514   22813979.527  
                
  21039289.578   112269700.596                                                  
  21039287.172  
  23155553.062   123996956.205                    96442090.652    23155557.422  
  23155552.203  
  20439427.609   109375522.120                    85069843.826    20439431.012  
  20439425.699  
  23996358.375   126101692.302    23996366.586    98261078.7764   23996366.723  
                
  20029431.391   107068822.483                    83275747.158    20029435.598  
  20029431.195  
  21994056.719   115579558.549    21994063.219    90062021.7534                 
                
  20812639.852   109371194.761    20812646.973    85224325.1674   20812647.023  
                
  22190912.383   116614026.030    22190920.953    90868128.1104   22190920.992  
                
  20357663.539   108861586.901                    84670145.231    20357670.430  
  20357662.805  
  22631821.766   118931061.265    22631829.133    92673590.3584   22631828.941  
                
  21461189.273   112779341.802    21461198.422    87880063.5194   21461197.891  
                
  20245238.891   106389485.131    20245246.562    82900933.4254   20245246.250  
                
  24274519.430   127563466.637    24274526.867    99400141.4744                 
                
 21  8 16  7 57 20.0000000  0 15R12G26R 6R 4R21G29R 5G16G18G27R20G15
                                G10G23G13
  22835843.594   121984984.163                    94877201.914    22835847.996  
  22835843.004  
  22819058.547   119914958.190    22819069.422    93440260.8054   22819069.266  
                
  21032318.391   112232501.000                                                  
  21032315.980  
  23162687.336   124035159.841                    96471804.563    23162691.688  
  23162686.484  
  20435556.883   109354809.047                    85053733.668    20435560.273  
  20435554.973  
  24002859.453   126135855.922    24002867.809    98287699.7614   24002867.945  
                
  20030710.234   107075658.622                    83281064.163    20030714.449  
  20030710.020  
  21995877.367   115589126.117    21995883.898    90069476.9954                 
                
  20815376.938   109385578.225    20815384.039    85235533.0504   20815384.109  
                
  22185664.617   116586448.870    22185673.223    90846639.4114   22185673.223  
                
  20360447.352   108876473.116                    84681723.398    20360454.211  
  20360446.637  
  22632770.430   118936046.548    22632777.809    92677474.9934   22632777.629  
                
  21456810.180   112756329.488    21456819.348    87862131.8614   21456818.805  
                
  20244876.367   106387580.031    20244884.020    82899448.9324   20244883.711  
                
  24276756.688   127575223.433    24276764.133    99409302.5964                 
                
 21  8 16  7 57 30.0000000  0 15R12G26R 6R 4R21G29R 5G16G18G27R20G15
                                G10G23G13
  22835109.227   121981061.301                    94874150.785    22835113.645  
  22835108.625  
  22824154.656   119941738.331    22824165.543    93461128.4424   22824165.391  
                
  21025356.477   112195350.871                                                  
  21025354.070  
  23169828.969   124073402.852                    96501549.102    23169833.297  
  23169828.133  
  20431691.047   109334122.232                    85037643.918    20431694.430  
  20431689.152  
  24009364.359   126170039.515    24009372.824    98314336.3064   24009372.965  
                
  20032006.117   107082585.888                    83286452.036    20032010.336  
  20032005.895  
  21997710.367   115598758.589    21997716.926    90076982.8094                 
                
  20818119.375   109399989.805    20818126.449    85246762.8464   20818126.527  
                
  22180422.750   116558902.723    22180431.383    90825174.8984   22180431.375  
                
  20363238.148   108891396.736                    84693330.652    20363244.984  
  20363237.438  
  22633732.383   118941101.655    22633739.773    92681414.0394   22633739.578  
                
  21452439.438   112733361.142    21452448.605    87844234.4594   21452448.062  
                
  20244525.242   106385734.852    20244532.887    82898011.1214   20244532.590  
                
  24279005.734   127587042.258    24279013.223    99418512.0934                 
                
 21  8 16  7 57 40.0000000  0 15R12G26R 6R 4R21G29R 5G16G18G27R20G15
                                G10G23G13
  22834390.641   121977222.674                    94871165.182    22834395.047  
  22834390.059  
  22829257.141   119968552.070    22829268.090    93482022.2434   22829267.902  
                
  21018403.961   112158250.850                                                  
  21018401.555  
  23176977.984   124111685.347                    96531324.377    23176982.281  
  23176977.141  
  20427830.219   109313462.115                    85021574.936    20427833.594  
  20427828.344  
  24015873.203   126204243.219    24015881.699    98340988.5154   24015881.832  
                
  20033319.094   107089604.488                    83291910.937    20033323.301  
  20033318.863  
  21999555.750   115608456.113    21999562.320    90084539.3164                 
                
  20820867.211   109414429.741    20820874.258    85258014.7304   20820874.344  
                
  22175186.844   116531387.899    22175195.492    90803734.7844   22175195.492  
                
  20366036.000   108906358.046                    84704967.210    20366042.797  
  20366035.266  
  22634707.664   118946226.802    22634715.047    92685407.6674   22634714.844  
                
  21448077.125   112710437.047    21448086.277    87826371.5314   21448085.746  
                
  20244185.555   106383949.783    20244193.211    82896620.1584   20244192.902  
                
  24281266.617   127598923.257    24281274.172    99427769.9994                 
                
 21  8 16  7 57 50.0000000  0 15R12G26R 6R 4R21G29R 5G16G18G27R20G15
                                G10G23G13
  22833687.805   121973468.209                    94868245.039    22833692.191  
  22833687.254  
  22834365.953   119995399.062    22834376.984    93502941.9584   22834376.770  
                
  21011460.750   112121200.669                                                  
  21011458.348  
  23184134.273   124150006.855                    96561129.980    23184138.547  
  23184133.430  
  20423974.312   109292828.365                    85005526.463    20423977.672  
  20423972.457  
  24022385.836   126238466.743    24022394.340    98367656.1844   24022394.461  
                
  20034649.094   107096714.129                    83297440.664    20034653.301  
  20034648.875  
  22001413.469   115618218.455    22001420.039    90092146.3304                 
                
  20823620.383   109428897.758    20823627.418    85269288.5154   20823627.512  
                
  22169956.875   116503904.222    22169965.512    90782318.9324   22169965.516  
                
  20368840.914   108921357.058                    84716633.093    20368847.656  
  20368840.180  
  22635696.219   118951421.731    22635703.586    92689455.6744   22635703.414  
                
  21443723.188   112687556.966    21443732.344    87808542.9034   21443731.812  
                
  20243857.250   106382224.553    20243864.941    82895275.8294   20243864.602  
                
  24283539.289   127610866.251    24283546.918    99437076.2604                 
                
 21  8 16  7 58  0.0000000  0 15R12G26R 6R 4R21G29R 5G16G18G27R20G15
                                G10G23G13
  22833000.727   121969797.863                    94865390.357    22833005.086  
  22833000.227  
  22839481.102   120022279.331    22839492.195    93523887.5984   22839491.945  
                
  21004526.906   112084200.425                                                  
  21004524.465  
  23191297.883   124188367.467                    96590965.990    23191302.141  
  23191297.035  
  20420123.391   109272221.304                    84989498.760    20420126.754  
  20420121.551  
  24028902.133   126272710.174    24028910.730    98394339.3514   24028910.863  
                
  20035996.156   107103914.949                    83303041.310    20036000.359  
  20035995.930  
  22003283.523   115628045.646    22003290.094    90099803.8814                 
                
  20826378.914   109443393.972    20826385.938    85280584.2614   20826386.027  
                
  22164732.867   116476451.963    22164741.504    90760927.5624   22164741.516  
                
  20371652.820   108936393.532                    84728328.134    20371659.520  
  20371652.090  
  22636698.102   118956686.665    22636705.480    92693558.2194   22636705.320  
                
  21439377.656   112664721.089    21439386.820    87790748.7234   21439386.281  
                
  20243540.359   106380559.284    20243548.098    82893978.2304   20243547.723  
                
  24285823.773   127622871.268    24285831.426    99446430.8074                 
                
 21  8 16  7 58 10.0000000  0 15R12G26R 6R 4R21G29R 5G16G18G27R20G15
                                G10G23G13
  22832329.383   121966211.687                    94862601.104    22832333.758  
  22832328.879  
  22844602.562   120049192.643    22844613.676    93544859.0054   22844613.414  
                
  20997602.500   112047250.592                                                  
  20997600.082  
  23198468.711   124226766.800                    96620832.107    23198472.957  
  23198467.910  
  20416277.430   109251640.805                    84973491.711    20416280.797  
  20416275.605  
  24035422.219   126306973.357    24035430.852    98421037.9114   24035430.977  
                
  20037360.219   107111206.715                    83308712.687    20037364.430  
  20037359.980  
  22005165.883   115637937.501    22005172.461    90107511.8174                 
                
  20829142.789   109457918.256    20829149.801    85291901.8794   20829149.895  
                
  22159514.820   116449031.043    22159523.441    90739560.6284   22159523.461  
                
  20374471.742   108951467.555                    84740052.381    20374478.426  
  20374471.008  
  22637713.250   118962021.353    22637720.668    92697715.1164   22637720.500  
                
  21435040.523   112641929.360    21435049.664    87772988.9454   21435049.125  
                
  20243234.852   106378953.860    20243242.625    82892727.2614   20243242.223  
                
  24288120.023   127634938.206    24288127.723    99455833.5924                 
                
 21  8 16  7 58 20.0000000  0 15R12G26R 6R 4R21G29R 5G16G18G27R20G15
                                G10G23G13
  22831673.844   121962709.893                    94859877.473    22831678.234  
  22831673.344  
  22849730.359   120076139.192    22849741.480    93565856.3074   22849741.203  
                
  20990687.594   112010351.310                                                  
  20990685.191  
  23205646.812   124265205.108                    96650728.566    23205651.074  
  23205646.074  
  20412436.500   109231087.204                    84957505.586    20412439.867  
  20412434.688  
  24041946.016   126341256.574    24041954.785    98447752.0554   24041954.902  
                
  20038741.375   107118589.781                    83314455.069    20038745.582  
  20038741.148  
  22007060.602   115647894.296    22007067.180    90115270.3494                 
                
  20831912.055   109472470.836    20831919.051    85303241.5534   20831919.156  
                
  22154302.828   116421641.854    22154311.410    90718218.4094   22154311.438  
                
  20377297.758   108966579.477                    84751806.099    20377304.434  
  20377297.000  
  22638741.734   118967426.100    22638749.191    92701926.6074   22638748.992  
                
  21430711.867   112619182.107    21430720.984    87755263.8154   21430720.457  
                
  20242940.789   106377408.530    20242948.582    82891523.1144   20242948.148  
                
  24290428.109   127647067.263    24290435.879    99465284.7964                 
                
 21  8 16  7 58 30.0000000  0 15R12G26R 6R 4R21G29R 5G16G18G27R20G15
                                G10G23G13
  22831034.055   121959292.301                    94857219.334    22831038.480  
  22831033.551  
  22854864.406   120103118.648    22854875.559    93586879.2534   22854875.266  
                
  20983782.125   111973502.422                                                  
  20983779.707  
  23212832.102   124303681.869                    96680654.927    23212836.379  
  23212831.410  
  20408600.578   109210560.414                    84941540.307    20408603.957  
  20408598.762  
  24048473.508   126375559.494    24048482.434    98474481.5884   24048482.527  
                
  20040139.523   107126063.736                    83320268.156    20040143.730  
  20040139.281  
  22008967.625   115657915.768    22008974.219    90123079.2854                 
                
  20834686.656   109487051.501    20834693.641    85314603.1064   20834693.754  
                
  22149096.844   116394284.278    22149105.375    90696900.8114   22149105.426  
                
  20380130.805   108981729.068                    84763589.115    20380137.473  
  20380130.031  
  22639783.508   118972900.688    22639791.008    92706192.5324   22639790.797  
                
  21426391.625   112596479.150    21426400.734    87737573.2084   21426400.227  
                
  20242658.109   106375923.070    20242665.891    82890365.6114   20242665.457  
                
  24292747.961   127659258.237    24292755.789    99474784.2634                 
                
 21  8 16  7 58 40.0000000  0 15R12G26R 6R 4R21G29R 5G16G18G27R20G15
                                G10G23G13
  22830410.047   121955958.910                    94854626.712    22830414.496  
  22830409.516  
  22860004.734   120130131.068    22860015.887    93607927.8814   22860015.586  
                
  20976886.188   111936704.531                                                  
  20976883.758  
  23220024.625   124342197.252                    96710611.311    23220028.895  
  23220023.996  
  20404769.695   109190060.569                    84925595.991    20404773.062  
  20404767.898  
  24055004.828   126409882.235    24055013.852    98501226.5464   24055013.922  
                
  20041554.727   107133628.789                    83326152.087    20041558.926  
  20041554.465  
  22010886.977   115668002.003    22010893.586    90130938.6934                 
                
  20837466.633   109501660.362    20837473.621    85325986.6284   20837473.734  
                
  22143896.922   116366958.514    22143905.418    90675608.0124   22143905.477  
                
  20382970.938   108996916.452                    84775401.508    20382977.594  
  20382970.137  
  22640838.602   118978445.240    22640846.145    92710512.9594   22640845.902  
                
  21422079.852   112573820.676    21422088.965    87719917.2684   21422088.445  
                
  20242386.859   106374497.594    20242394.613    82889254.8504   20242394.184  
                
  24295079.625   127671511.191    24295087.512    99484332.0294                 
                
 21  8 16  7 58 50.0000000  0 15R12G26R 6R 4R21G29R 5G16G18G27R20G15
                                G10G23G13
  22829801.773   121952709.713                    94852099.538    22829806.227  
  22829801.203  
  22865151.250   120157176.038    22865162.398    93629001.8784   22865162.105  
                
  20969999.805   111899957.411                                                  
  20969997.348  
  23227224.234   124380750.753                    96740597.352    23227228.543  
  23227223.625  
  20400943.820   109169587.565                    84909672.546    20400947.184  
  20400942.027  
  24061539.922   126444224.443    24061548.938    98527986.6874   24061548.996  
                
  20042986.875   107141284.467                    83332106.500    20042991.066  
  20042986.602  
  22012818.586   115678152.638    22012825.191    90138848.2764                 
                
  20840251.906   109516297.100    20840258.898    85337391.8794   20840259.020  
                
  22138703.008   116339664.373    22138711.504    90654339.8514   22138711.547  
                
  20385818.047   109012141.235                    84787242.989    20385824.672  
  20385817.258  
  22641906.953   118984059.498    22641914.535    92714887.7114   22641914.258  
                
  21417776.500   112551206.460    21417785.617    87702295.8074   21417785.109  
                
  20242126.945   106373131.799    20242134.668    82888190.5924   20242134.258  
                
  24297423.008   127683825.779    24297430.953    99493927.8154                 
                
 21  8 16  7 59  0.0000000  0 15R12G26R 6R 4R21G29R 5G16G18G27R20G15
                                G10G23G13
  22829209.305   121949544.875                    94849638.016    22829213.762  
  22829208.738  
  22870304.000   120184253.833    22870315.156    93650101.4424   22870314.863  
                
  20963122.977   111863261.330                                                  
  20963120.539  
  23234430.992   124419342.535                    96770613.144    23234435.340  
  23234430.355  
  20397123.016   109149141.669                    84893770.175    20397126.375  
  20397121.227  
  24068078.875   126478586.424    24068087.812    98554762.2454   24068087.859  
                
  20044436.086   107149031.381                    83338131.876    20044440.273  
  20044435.781  
  22014762.523   115688368.062    22014769.117    90146808.3384                 
                
  20843042.562   109530962.079    20843049.566    85348819.1264   20843049.688  
                
  22133515.195   116312402.311    22133523.688    90633096.6904   22133523.719  
                
  20388672.242   109027403.888                    84799113.942    20388678.867  
  20388671.473  
  22642988.656   118989743.869    22642996.246    92719317.0964   22642995.949  
                
  21413481.648   112528636.915    21413490.781    87684709.1534   21413490.262  
                
  20241878.461   106371826.028    20241886.176    82887173.1144   20241885.781  
                
  24299778.188   127696202.371    24299786.133    99503571.9064                 
                
 21  8 16  7 59 10.0000000  0 15R12G26R 6R 4R21G29R 5G16G18G27R20G15
                                G10G23G13
  22828632.594   121946464.152                    94847241.881    22828637.055  
  22828632.020  
  22875462.930   120211364.070    22875474.105    93671226.2934   22875473.793  
                
  20956255.688   111826616.243                                                  
  20956253.266  
  23241644.828   124457972.249                    96800658.450    23241649.195  
  23241644.195  
  20393307.258   109128722.728                    84877888.789    20393310.598  
  20393305.473  
  24074621.531   126512967.830    24074630.359    98581552.9464   24074630.410  
                
  20045902.242   107156868.836                    83344227.680    20045906.422  
  20045901.953  
  22016718.719   115698647.884    22016725.301    90154818.5814                 
                
  20845838.539   109545654.983    20845845.570    85360268.1344   20845845.680  
                
  22128333.469   116285172.134    22128341.938    90611878.3754   22128341.969  
                
  20391533.500   109042704.258                    84811014.206    20391540.098  
  20391532.750  
  22644083.633   118995498.019    22644091.207    92723800.8424   22644090.922  
                
  21409195.250   112506111.772    21409204.418    87667157.1084   21409203.875  
                
  20241641.344   106370579.972    20241649.078    82886202.1694   20241648.684  
                
  24302145.117   127708640.678    24302153.059    99513264.0604                 
                
 21  8 16  7 59 20.0000000  0 15R12G26R 6R 4R21G29R 5G16G18G27R20G15
                                G10G23G13
  22828071.797   121943468.506                    94844911.942    22828076.258  
  22828071.234  
  22880628.156   120238507.530    22880639.348    93692377.0204   22880639.059  
                
  20949398.195   111790023.339                                                  
  20949395.762  
  23248865.875   124496640.536                    96830733.766    23248870.223  
  23248865.270  
  20389496.719   109108331.787                    84862029.188    20389500.047  
  20389494.934  
  24081168.047   126547369.522    24081176.781    98608359.4504   24081176.836  
                
  20047385.523   107164797.812                    83350394.649    20047389.688  
  20047385.234  
  22018687.312   115708992.857    22018693.879    90162879.5964                 
                
  20848639.992   109560376.694    20848647.066    85371739.5874   20848647.145  
                
  22123157.992   116257974.839    22123166.445    90590685.6774   22123166.484  
                
  20394401.977   109058043.245                    84822944.533    20394408.566  
  20394401.250  
  22645192.047   119001322.757    22645199.621    92728339.6134   22645199.344  
                
  21404917.484   112483631.998    21404926.660    87649640.4074   21404926.117  
                
  20241415.758   106369394.501    20241423.527    82885278.4364   20241423.109  
                
  24304523.930   127721141.445    24304531.816    99523004.9334                 
                
 21  8 16  7 59 30.0000000  0 15R12G26R 6R 4R21G29R 5G16G18G27R20G15
                                G10G23G13
  22827526.672   121940556.530                    94842647.077    22827531.176  
  22827526.078  
  22885799.453   120265682.798    22885810.656    93713552.5344   22885810.379  
                
  20942550.258   111753481.405                                                  
  20942547.820  
  23256093.875   124535346.011                    96860838.029    23256098.207  
  23256093.277  
  20385691.180   109087967.532                    84846190.312    20385694.496  
  20385689.379  
  24087718.117   126581790.145    24087726.828    98635180.6974   24087726.855  
                
  20048885.656   107172816.878                    83356631.716    20048889.793  
  20048885.363  
  22020668.062   115719401.692    22020674.621    90170990.3734                 
                
  20851446.680   109575125.901    20851453.785    85383232.4664   20851453.840  
                
  22117988.531   116230809.157    22117996.984    90569517.6204   22117997.035  
                
  20397277.398   109073419.351                    84834903.725    20397283.973  
  20397276.668  
  22646313.656   119007216.850    22646321.250    92732932.4014   22646320.953  
                
  21400648.109   112461196.300    21400657.301    87632158.0554   21400656.754  
                
  20241201.461   106368268.319    20241209.262    82884400.8894   20241208.812  
                
  24306914.406   127733703.447    24306922.258    99532793.4924                 
                
 21  8 16  7 59 40.0000000  0 15R12G26R 6R 4R21G29R 5G16G18G27R20G15
                                G10G23G13
  22826997.258   121937728.454                    94840447.448    22827001.773  
  22826996.645  
  22890976.820   120292889.991    22890988.035    93734752.9334   22890987.734  
                
  20935711.891   111716990.644                                                  
  20935709.445  
  23263328.805   124574088.660                    96890971.201    23263333.102  
  23263328.242  
  20381890.680   109067630.292                    84830372.462    20381893.973  
  20381888.859  
  24094271.758   126616229.872    24094280.527    98662016.8254   24094280.531  
                
  20050402.711   107180926.446                    83362939.156    20050406.832  
  20050402.418  
  22022661.008   115729874.622    22022667.559    90179151.0924                 
                
  20854258.633   109589902.778    20854265.754    85394746.9144   20854265.797  
                
  22112825.141   116203675.438    22112833.633    90548374.4774   22112833.660  
                
  20400159.812   109088832.911                    84846892.058    20400166.383  
  20400159.055  
  22647448.492   119013180.479    22647456.070    92737579.3894   22647455.758  
                
  21396387.172   112438804.988    21396396.410    87614710.2934   21396395.848  
                
  20240998.477   106367201.606    20241006.293    82883569.6854   20241005.816  
                
  24309316.547   127746326.834    24309324.410    99542629.8694                 
                
 21  8 16  7 59 50.0000000  0 15R12G26R 6R 4R21G29R 5G16G18G27R20G15
                                G10G23G13
  22826483.641   121934984.755                    94838313.454    22826488.164  
  22826483.059  
  22896160.312   120320129.340    22896171.523    93755978.3844   22896171.223  
                
  20928883.266   111680551.880                                                  
  20928880.805  
  23270570.734   124612868.794                    96921133.522    23270575.023  
  23270570.211  
  20378095.273   109047320.346                    84814575.845    20378098.570  
  20378093.453  
  24100829.164   126650688.923    24100837.949    98688868.0284   24100837.898  
                
  20051936.734   107189126.645                    83369317.087    20051940.836  
  20051936.449  
  22024666.188   115740411.882    22024672.734    90187361.9464                 
                
  20857075.922   109604707.663    20857083.047    85406283.1894   20857083.090  
                
  22107667.953   116176574.187    22107676.477    90527256.6224   22107676.492  
                
  20403049.297   109104284.304                    84858909.793    20403055.879  
  20403048.500  
  22648596.625   119019213.975    22648604.160    92742280.8244   22648603.891  
                
  21392134.758   112416458.416    21392144.035    87597297.3984   21392143.453  
                
  20240806.859   106366194.675    20240814.703    82882785.0624   20240814.203  
                
  24311730.430   127759011.833    24311738.340    99552514.2924                 
                
 21  8 16  8  0  0.0000000  0 15R12G26R 6R 4R21G29R 5G16G18G27R20G15
                                G10G23G13
  22825985.727   121932324.966                    94836244.741    22825990.242  
  22825985.184  
  22901349.852   120347400.493    22901361.031    93777228.6204   22901360.734  
                
  20922064.328   111644164.806                                                  
  20922061.840  
  23277819.562   124651685.986                    96951324.643    23277823.863  
  23277819.020  
  20374304.945   109027037.569                    84798800.350    20374308.227  
  20374303.121  
  24107390.102   126685167.041    24107398.980    98715734.0824   24107398.910  
                
  20053487.633   107197417.096                    83375765.234    20053491.715  
  20053487.344  
  22026683.539   115751013.125    22026690.062    90195622.6544                 
                
  20859898.477   109619540.263    20859905.598    85417841.0504   20859905.629  
                
  22102516.859   116149505.028    22102525.391    90506163.7784   22102525.410  
                
  20405945.789   109119773.149                    84870956.660    20405952.379  
  20405944.969  
  22649757.992   119025317.019    22649765.516    92747036.4384   22649765.262  
                
  21387890.812   112394156.375    21387900.090    87579919.1934   21387899.508  
                
  20240626.562   106365247.235    20240634.410    82882046.8024   20240633.914  
                
  24314155.969   127771758.144    24314163.902    99562446.4914                 
                
 21  8 16  8  0 10.0000000  0 15R12G26R 6R 4R21G29R 5G16G18G27R20G15
                                G10G23G13
  22825503.594   121929749.445                    94834241.578    22825508.094  
  22825503.031  
  22906545.461   120374703.585    22906556.594    93798503.7444   22906556.309  
                
  20915255.156   111607829.760                                                  
  20915252.668  
  23285075.328   124690540.298                    96981544.632    23285079.660  
  23285074.770  
  20370519.773   109006782.345                    84783046.281    20370523.035  
  20370517.941  
  24113954.781   126719664.457    24113963.695    98742615.1744   24113963.629  
                
  20055055.453   107205798.030                    83382283.745    20055059.523  
  20055055.156  
  22028713.125   115761678.599    22028719.621    90203933.4094                 
                
  20862726.359   109634400.807    20862733.484    85429420.6944   20862733.520  
                
  22097371.961   116122468.417    22097380.496    90485096.2954   22097380.520  
                
  20408849.359   109135299.852                    84883032.970    20408855.953  
  20408848.520  
  22650932.656   119031489.900    22650940.199    92751846.4824   22650939.926  
                
  21383655.406   112371899.170    21383664.656    87562575.9204   21383664.090  
                
  20240457.625   106364359.512    20240465.469    82881355.0764   20240464.980  
                
  24316593.234   127784566.018    24316601.156    99572426.6364                 
                
 21  8 16  8  0 20.0000000  0 15R12G26R 6R 4R21G29R 5G16G18G27R20G15
                                G10G23G13
  22825037.219   121927258.182                    94832303.932    22825041.691  
  22825036.629  
  22911747.109   120402038.459    22911758.211    93819803.6264   22911757.934  
                
  20908455.680   111571546.646                                                  
  20908453.207  
  23292337.992   124729431.504                    97011793.318    23292342.309  
  23292337.410  
  20366739.742   108986554.676                    84767313.664    20366743.000  
  20366737.898  
  24120523.078   126754181.059    24120532.047    98769511.1954   24120532.020  
                
  20056640.180   107214269.320                    83388872.516    20056644.238  
  20056639.875  
  22030754.898   115772408.222    22030761.379    90212294.1494                 
                
  20865559.531   109649289.187    20865566.664    85441022.0324   20865566.680  
                
  22092233.250   116095464.367    22092241.801    90464054.1794   22092241.820  
                
  20411760.000   109150864.330                    84895138.674    20411766.598  
  20411759.156  
  22652120.586   119037732.490    22652128.164    92756710.8364   22652127.875  
                
  21379428.508   112349686.744    21379437.723    87545267.5464   21379437.180  
                
  20240300.039   106363531.418    20240307.875    82880709.8244   20240307.402  
                
  24319042.180   127797435.327    24319050.062    99582454.6654                 
                
 21  8 16  8  0 30.0000000  0 15R12G26R 6R 4R21G29R 5G16G18G27R20G15
                                G10G23G13
  22824586.703   121924851.528                    94830432.075    22824591.176  
  22824586.141  
  22916954.883   120429405.424    22916965.922    93841128.5284   22916965.648  
                
  20901666.141   111535316.453                                                  
  20901663.660  
  23299607.602   124768359.845                    97042070.902    23299611.922  
  23299606.996  
  20362964.969   108966355.113                    84751602.895    20362968.215  
  20362963.121  
  24127095.016   126788717.233    24127104.086    98796422.4594   24127104.082  
                
  20058241.898   107222831.388                    83395531.904    20058245.938  
  20058241.598  
  22032808.969   115783202.376    22032815.410    90220705.1574                 
                
  20868398.094   109664205.879    20868405.238    85452645.4204   20868405.250  
                
  22087100.836   116068493.416    22087109.406    90443037.8594   22087109.430  
                
  20414677.797   109166467.062                    84907274.127    20414684.402  
  20414676.957  
  22653321.883   119044045.275    22653329.512    92761629.9004   22653329.215  
                
  21375210.250   112327519.635    21375219.445    87527994.4794   21375218.918  
                
  20240153.898   106362763.427    20240161.723    82880111.3884   20240161.258  
                
  24321502.898   127810366.498    24321510.793    99592530.9054                 
                
 21  8 16  8  0 40.0000000  0 15R12G26R 6R 4R21G29R 5G16G18G27R20G15
                                G10G23G13
  22824151.711   121922527.875                    94828624.800    22824156.195  
  22824151.164  
  22922168.438   120456802.738    22922179.402    93862477.0704   22922179.141  
                
  20894886.180   111499137.338                                                  
  20894883.680  
  23306883.828   124807323.583                    97072376.010    23306888.137  
  23306883.203  
  20359195.109   108946181.829                    84735912.561    20359198.332  
  20359193.289  
  24133670.344   126823271.182    24133679.543    98823347.5884   24133679.562  
                
  20059860.281   107231482.573                    83402260.617    20059864.316  
  20059859.992  
  22034874.969   115794059.247    22034881.375    90229165.0524                 
                
  20871241.711   109679149.170    20871248.871    85464289.5324   20871248.871  
                
  22081974.422   116041553.962    22081983.000    90422046.0924   22081983.016  
                
  20417602.414   109182106.340                    84919438.011    20417609.051  
  20417601.566  
  22654536.195   119050426.566    22654543.879    92766602.3394   22654543.570  
                
  21371000.289   112305396.189    21371009.500    87510755.4444   21371008.973  
                
  20240018.859   106362053.810    20240026.695    82879558.4424   20240026.215  
                
  24323975.055   127823357.771    24323982.980    99602653.9664                 
                
 21  8 16  8  0 50.0000000  0 15R12G26R 6R 4R21G29R 5G16G18G27R20G15
                                G10G23G13
  22823732.578   121920288.948                    94826883.421    22823737.070  
  22823732.000  
  22927388.070   120484231.951    22927398.957    93883850.4804   22927398.695  
                
  20888116.148   111463011.304                                                  
  20888113.633  
  23314166.977   124846324.322                    97102709.897    23314171.289  
  23314166.348  
  20355430.492   108926036.627                    84720244.077    20355433.707  
  20355428.684  
  24140249.445   126857844.572    24140258.742    98850287.8614   24140258.750  
                
  20061495.609   107240224.349                    83409059.780    20061499.637  
  20061495.332  
  22036953.219   115804980.530    22036959.574    90237675.1364                 
                
  20874090.703   109694120.714    20874097.879    85475955.6604   20874097.867  
                
  22076854.344   116014647.795    22076862.926    90401080.2534   22076862.938  
                
  20420534.219   109197783.950                    84931631.703    20420540.852  
  20420533.398  
  22655763.859   119056877.998    22655771.582    92771629.4144   22655771.250  
                
  21366798.969   112283318.138    21366808.184    87493551.7754   21366807.652  
                
  20239895.234   106361404.228    20239903.086    82879052.2714   20239902.598  
                
  24326458.961   127836410.795    24326466.898    99612825.1134                 
                
 21  8 16  8  1  0.0000000  0 15R12G26R 6R 4R21G29R 5G16G18G27R20G15
                                G10G23G13
  22823329.289   121918134.710                    94825207.906    22823333.781  
  22823328.691  
  22932613.766   120511693.033    22932624.551    93905248.7374   22932624.312  
                
  20881356.078   111426938.345                                                  
  20881353.562  
  23321456.984   124885361.775                    97133072.341    23321461.293  
  23321456.355  
  20351671.180   108905919.823                    84704597.669    20351674.387  
  20351669.367  
  24146832.195   126892437.419    24146841.605    98877243.3014   24146841.617  
                
  20063147.914   107249056.827                    83415929.468    20063151.930  
  20063147.645  
  22039043.719   115815966.210    22039050.031    90246235.4014                 
                
  20876945.086   109709120.566    20876952.262    85487643.8524   20876952.234  
                
  22071740.617   115987775.052    22071749.199    90380140.4534   22071749.203  
                
  20423473.188   109213499.867                    84943855.181    20423479.816  
  20423472.371  
  22657004.883   119063399.612    22657012.629    92776711.1914   22657012.309  
                
  21362606.312   112261285.580    21362615.508    87476383.5604   21362614.988  
                
  20239783.039   106360814.704    20239790.918    82878592.9054   20239790.422  
                
  24328954.641   127849525.677    24328962.574    99623044.5584                 
                
 21  8 16  8  1 10.0000000  0 15R12G26R 6R 4R21G29R 5G16G18G27R20G15
                                G10G23G13
  22822941.742   121916064.556                    94823597.812    22822946.203  
  22822941.129  
  22937845.398   120539185.309    22937856.059    93926671.2754   22937855.867  
                
  20874605.969   111390918.496                                                  
  20874603.457  
  23328753.750   124924435.474                    97163462.967    23328758.059  
  23328753.121  
  20347917.062   108885830.797                    84688972.869    20347920.254  
  20347915.262  
  24153418.617   126927049.015    24153428.004    98904213.3524   24153428.012  
                
  20064817.062   107257979.369                    83422869.225    20064821.074  
  20064816.797  
  22041146.359   115827015.666    22041152.645    90254845.3534                 
                
  20879804.734   109724148.099    20879811.910    85499353.6094   20879811.898  
                
  22066633.164   115960935.215    22066641.762    90359226.3084   22066641.746  
                
  20426419.180   109229253.415                    84956107.942    20426425.836  
  20426418.363  
  22658259.141   119069990.787    22658266.883    92781847.1774   22658266.590  
                
  21358422.195   112239297.972    21358431.352    87459250.3624   21358430.863  
                
  20239682.156   106360284.644    20239690.035    82878179.8644   20239689.555  
                
  24331461.945   127862701.726    24331469.828    99633311.5844                 
                
