     2.11           OBSERVATION DATA    M (MIXED)           RINEX VERSION / TYPE
EFT-CORS.RU                             20210817 144806 UTC PGM / RUN BY / DATE 
MDNG                                                        MARKER NAME         
                                                            MARKER NUMBER       
MDNG                EFT-CORS.RU                             OBSERVER / AGENCY   
0                   TRIMBLE BD970       2.0                 REC # / TYPE / VERS 
0                   UNKNOWN EXT NONE                        ANT # / TYPE        
  3463911.2830  3030468.2400  4402179.3760                  APPROX POSITION XYZ 
        0.0000        0.0000        0.0000                  ANTENNA: DELTA H/E/N
     1     1                                                WAVELENGTH FACT L1/2
     6    C1    L1    P2    L2    C2    P1                  # / TYPES OF OBSERV 
    10.000                                                  INTERVAL            
  2021     8    16     3    30    0.0000000     GPS         TIME OF FIRST OBS   
  2021     8    16     4    30    0.0000000     GPS         TIME OF LAST OBS    
     0                                                      RCV CLOCK OFFS APPL 
                                                            END OF HEADER       
 21  8 16  3 30  0.0000000  0 14G 6G20R16R19G29G12R15R18R 9R17G 5G31
                                G 2G25
  24219192.688   127272711.286    24219202.383    99173578.3434   24219202.730  
                
  22638837.078   118967875.363    22638843.047    92702284.7594                 
                
  19494548.102   104136384.893                    80994952.813    19494549.645  
  19494547.949  
  19777270.867   105795103.874                    82285067.503    19777273.781  
  19777268.594  
  21498248.961   112974073.639    21498255.312    88031774.2724   21498255.465  
                
  20710440.992   108834112.618    20710447.281    84805830.7944   20710447.262  
                
  23059364.180   123222252.039                    95839502.499    23059369.121  
  23059364.113  
  19774881.648   105559671.698                    82101965.065    19774884.621  
  19774880.211  
  20362067.852   108732300.692                    84569570.446    20362070.184  
  20362067.535  
  23200604.641   124151108.235                    96561969.411    23200608.051  
  23200602.734  
  23923521.930   125718956.948    23923529.027    97962861.5284   23923529.152  
                
  23472720.758   123349978.043    23472726.895    96116882.0564   23472726.949  
                
  22112031.758   116199521.604    22112036.074    90545102.2244                 
                
  20061282.164   105422775.395    20061291.074    82147647.5984   20061291.484  
                
 21  8 16  3 30 10.0000000  0 14G 6G20R16R19G29G12R15R18R 9R17G 5G31
                                G 2G25
  24225746.180   127307150.103    24225755.859    99200413.7654   24225756.191  
                
  22635498.062   118950328.697    22635503.992    92688612.0284                 
                
  19497519.477   104152257.490                    81007298.172    19497521.004  
  19497519.301  
  19774656.641   105781119.460                    82274190.746    19774659.520  
  19774654.375  
  21494755.445   112955715.109    21494761.816    88017468.9284   21494761.969  
                
  20713713.062   108851307.466    20713719.352    84819229.3744   20713719.336  
                
  23067451.469   123265468.322                    95873115.127    23067456.469  
  23067451.461  
  19778638.047   105579723.575                    82117560.972    19778641.020  
  19778636.605  
  20357321.719   108706956.578                    84549858.353    20357324.035  
  20357321.383  
  23207731.953   124189248.067                    96591633.699    23207735.414  
  23207730.027  
  23917280.078   125686155.900    23917287.152    97937302.2774   23917287.309  
                
  23469261.523   123331799.542    23469267.629    96102716.9844   23469267.695  
                
  22115974.273   116220239.646    22115978.578    90561246.1504                 
                
  20060584.422   105419108.740    20060593.336    82144790.4614   20060593.746  
                
 21  8 16  3 30 20.0000000  0 14G 6G20R16R19G29G12R15R18R 9R17G 5G31
                                G 2G25
  24232302.922   127341605.932    24232312.535    99227262.4654   24232312.871  
                
  22632168.297   118932830.685    22632174.141    92674977.2024                 
                
  19500505.750   104168209.632                    81019705.371    19500507.266  
  19500505.523  
  19772053.891   105767196.480                    82263361.756    19772056.730  
  19772051.625  
  21491267.500   112937385.862    21491273.902    88003186.4084   21491274.027  
                
  20716994.078   108868549.349    20717000.359    84832664.5964   20717000.352  
                
  23075542.758   123308705.891                    95906744.308    23075547.797  
  23075542.812  
  19782403.109   105599821.747                    82133192.869    19782406.066  
  19782401.680  
  20352587.469   108681675.956                    84530195.657    20352589.777  
  20352587.113  
  23214859.188   124227387.368                    96621297.588    23214862.676  
  23214857.277  
  23911040.773   125653368.625    23911047.934    97911753.7664   23911048.094  
                
  23465812.789   123313676.243    23465818.852    96088594.9334   23465818.930  
                
  22119923.734   116240994.192    22119928.012    90577418.5214                 
                
  20059896.961   105415496.107    20059905.883    82141975.4164   20059906.301  
                
 21  8 16  3 30 30.0000000  0 14G 6G20R16R19G29G12R15R18R 9R17G 5G31
                                G 2G25
  24238862.922   127376078.937    24238872.461    99254124.5434   24238872.824  
                
  22628847.844   118915381.615    22628853.594    92661380.5214                 
                
  19503506.977   104184241.697                    81032174.751    19503508.480  
  19503506.727  
  19769462.680   105753335.236                    82252580.780    19769465.496  
  19769460.410  
  21487785.156   112919086.053    21487791.582    87988926.8194   21487791.699  
                
  20720284.086   108885838.421    20720290.363    84846136.6004   20720290.359  
                
  23083637.992   123351964.606                    95940389.955    23083643.117  
  23083638.176  
  19786176.875   105619966.339                    82148860.891    19786179.820  
  19786175.453  
  20347865.188   108656459.208                    84510582.635    20347867.488  
  20347864.836  
  23221986.398   124265526.353                    96650961.230    23221989.906  
  23221984.445  
  23904804.109   125620595.418    23904811.414    97886216.2314   23904811.570  
                
  23462374.602   123295608.381    23462380.594    96074516.0694   23462380.707  
                
  22123880.156   116261785.335    22123884.391    90593619.4034                 
                
  20059219.836   105411937.769    20059228.773    82139202.6844   20059229.184  
                
 21  8 16  3 30 40.0000000  0 14G 6G20R16R19G29G12R15R18R 9R17G 5G31
                                G 2G25
  24245426.164   127410568.993    24245435.668    99280999.8834   24245436.059  
                
  22625536.703   118897981.514    22625542.352    92647821.9954                 
                
  19506523.148   104200353.564                    81044706.200    19506524.672  
  19506522.875  
  19766883.031   105739535.822                    82241847.910    19766885.809  
  19766880.793  
  21484308.398   112900815.590    21484314.820    87974690.0984   21484314.922  
                
  20723583.055   108903174.634    20723589.316    84859645.3314   20723589.312  
                
  23091737.297   123395244.443                    95974052.023    23091742.387  
  23091737.484  
  19789959.328   105640157.296                    82164564.964    19789962.258  
  19789957.918  
  20343154.867   108631306.357                    84491019.297    20343157.160  
  20343154.508  
  23229113.523   124303664.915                    96680624.528    23229116.996  
  23229111.520  
  23898570.180   125587836.408    23898577.570    97860689.7584   23898577.738  
                
  23458946.961   123277595.964    23458952.910    96060480.4014   23458953.023  
                
  22127843.531   116282613.020    22127847.711    90609848.7664                 
                
  20058553.023   105408433.671    20058561.980    82136472.2124   20058562.383  
                
 21  8 16  3 30 50.0000000  0 14G 6G20R16R19G29G12R15R18R 9R17G 5G31
                                G 2G25
  24251992.508   127445075.292    24252002.012    99307887.8804   24252002.395  
                
  22622234.797   118880629.853    22622240.348    92634301.2094                 
                
  19509554.148   104216544.654                    81057299.250    19509555.668  
  19509553.863  
  19764314.781   105725797.381                    82231162.452    19764317.508  
  19764312.574  
  21480837.102   112882573.799    21480843.488    87960475.7174   21480843.602  
                
  20726890.859   108920557.254    20726897.117    84873190.2174   20726897.125  
                
  23099840.312   123438544.580                    96007729.885    23099845.449  
  23099840.520  
  19793750.305   105660393.754                    82180304.430    19793753.227  
  19793748.898  
  20338456.422   108606216.902                    84471505.276    20338458.707  
  20338456.059  
  23236240.430   124341802.228                    96710286.888    23236243.875  
  23236238.449  
  23892338.812   125555091.025    23892346.312    97835173.8934   23892346.484  
                
  23455529.766   123259638.472    23455535.684    96046487.5494   23455535.809  
                
  22131813.703   116303476.380    22131817.844    90626105.9214                 
                
  20057896.422   105404983.227    20057905.402    82133783.5514   20057905.793  
                
 21  8 16  3 31  0.0000000  0 14G 6G20R16R19G29G12R15R18R 9R17G 5G31
                                G 2G25
  24258562.078   127479598.487    24258571.574    99334789.0544   24258571.953  
                
  22618942.234   118863327.387    22618947.770    92620818.7774                 
                
  19512600.094   104232815.522                    81069954.365    19512601.629  
  19512599.809  
  19761758.062   105712120.649                    82220524.989    19761760.773  
  19761755.871  
  21477371.414   112864361.487    21477377.762    87946284.3104   21477377.902  
                
  20730207.656   108937987.139    20730213.914    84886771.9414   20730213.922  
                
  23107947.219   123481865.733                    96041424.083    23107952.418  
  23107947.449  
  19797549.930   105680676.381                    82196079.804    19797552.855  
  19797548.516  
  20333770.008   108581191.708                    84452041.220    20333772.293  
  20333769.652  
  23243367.219   124379939.078                    96739948.861    23243370.656  
  23243365.285  
  23886110.211   125522360.192    23886117.848    97809669.3684   23886118.012  
                
  23452123.164   123241736.654    23452129.020    96032538.0864   23452129.184  
                
  22135790.797   116324376.129    22135794.898    90642391.4334                 
                
  20057250.180   105401587.175    20057259.176    82131137.2754   20057259.547  
                
 21  8 16  3 31 10.0000000  0 14G 6G20R16R19G29G12R15R18R 9R17G 5G31
                                G 2G25
  24265134.781   127514138.103    24265144.258    99361703.0314   24265144.648  
                
  22615658.984   118846073.831    22615664.582    92607374.4594                 
                
  19515660.891   104249165.729                    81082671.180    19515662.441  
  19515660.586  
  19759212.789   105698505.103                    82209935.115    19759215.457  
  19759210.609  
  21473911.242   112846178.101    21473917.570    87932115.4304   21473917.711  
                
  20733533.359   108955463.805    20733539.613    84900390.1134   20733539.621  
                
  23116057.953   123525207.338                    96075134.188    23116063.199  
  23116058.207  
  19801358.148   105701004.891                    82211890.850    19801361.062  
  19801356.723  
  20329095.555   108556230.374                    84432626.862    20329097.844  
  20329095.191  
  23250493.820   124418074.881                    96769610.026    23250497.273  
  23250491.906  
  23879884.398   125489643.608    23879892.133    97784175.9504   23879892.285  
                
  23448727.086   123223890.152    23448732.875    96018631.7194   23448733.082  
                
  22139774.727   116345311.804    22139778.781    90658704.9444                 
                
  20056614.219   105398245.186    20056623.227    82128533.1194   20056623.586  
                
 21  8 16  3 31 20.0000000  0 14G 6G20R16R19G29G12R15R18R 9R17G 5G31
                                G 2G25
  24271710.641   127548694.339    24271720.078    99388629.9554   24271720.477  
                
  22612385.109   118828869.579    22612390.777    92593968.5454                 
                
  19518736.594   104265595.594                    81095449.960    19518738.164  
  19518736.297  
  19756679.062   105684951.342                    82199393.309    19756681.707  
  19756676.895  
  21470456.641   112828024.083    21470462.980    87917969.4454   21470463.129  
                
  20736868.000   108972987.470    20736874.250    84914044.9144   20736874.262  
                
  23124172.594   123568569.452                    96108860.256    23124177.801  
  23124172.801  
  19805174.961   105721379.285                    82227737.603    19805177.871  
  19805173.527  
  20324433.180   108531333.595                    84413262.705    20324435.469  
  20324432.805  
  23257620.266   124456209.886                    96799270.548    23257623.746  
  23257618.301  
  23873661.422   125456941.715    23873669.176    97758693.9664   23873669.312  
                
  23445341.617   123206099.375    23445347.383    96004768.7704   23445347.598  
                
  22143765.523   116366283.581    22143769.547    90675046.5794                 
                
  20055988.602   105394957.573    20055997.625    82125971.3504   20055997.984  
                
 21  8 16  3 31 30.0000000  0 14G 6G20R16R19G29G12R15R18R 9R17G 5G31
                                G 2G25
  24278289.570   127583266.758    24278298.984    99415569.4804   24278299.375  
                
  22609120.570   118811714.358    22609126.289    92580600.8394                 
                
  19521827.102   104282104.486                    81108290.212    19521828.672  
  19521826.820  
  19754156.758   105671458.643                    82188898.995    19754159.398  
  19754154.641  
  21467007.578   112809899.137    21467013.941    87903846.1174   21467014.094  
                
  20740211.523   108990557.783    20740217.758    84927736.0594   20740217.777  
                
  23132291.070   123611951.682                    96142601.981    23132296.188  
  23132291.219  
  19809000.258   105741798.945                    82243619.556    19809003.176  
  19808998.828  
  20319782.812   108506500.909                    84393948.396    20319785.105  
  20319782.422  
  23264746.461   124494343.656                    96828930.111    23264749.988  
  23264744.484  
  23867441.172   125424254.286    23867448.988    97733223.2604   23867449.121  
                
  23441966.688   123188363.988    23441972.445    95990948.9824   23441972.676  
                
  22147763.133   116387291.138    22147767.137    90691416.1064                 
                
  20055373.273   105391723.999    20055382.309    82123451.6764   20055382.676  
                
 21  8 16  3 31 40.0000000  0 14G 6G20R16R19G29G12R15R18R 9R17G 5G31
                                G 2G25
  24284871.586   127617855.509    24284881.008    99442521.7334   24284881.371  
                
  22605865.383   118794608.298    22605871.164    92567271.4554                 
                
  19524932.477   104298692.852                    81121192.264    19524934.074  
  19524932.211  
  19751645.938   105658027.424                    82178452.492    19751648.602  
  19751643.844  
  21463564.102   112791803.533    21463570.484    87889745.6584   21463570.605  
                
  20743563.969   109008174.963    20743570.184    84941463.7314   20743570.215  
                
  23140413.219   123655354.228                    96176359.508    23140418.375  
  23140413.457  
  19812834.102   105762264.231                    82259536.997    19812837.027  
  19812832.680  
  20315144.547   108481732.863                    84374684.365    20315146.848  
  20315144.152  
  23271872.422   124532476.275                    96858588.786    23271876.027  
  23271870.426  
  23861223.797   125391581.617    23861231.594    97707764.0494   23861231.730  
                
  23438602.359   123170684.277    23438608.137    95977172.5974   23438608.379  
                
  22151767.594   116408334.631    22151771.590    90707813.6404                 
                
  20054768.289   105388544.768    20054777.340    82120974.3454   20054777.695  
                
 21  8 16  3 31 50.0000000  0 14G 6G20R16R19G29G12R15R18R 9R17G 5G31
                                G 2G25
  24291456.680   127652460.517    24291466.121    99469486.6414   24291466.480  
                
  22602619.625   118777551.769    22602625.480    92553980.6604                 
                
  19528052.734   104315360.644                    81134156.093    19528054.363  
  19528052.492  
  19749146.648   105644657.909                    82168053.978    19749149.328  
  19749144.566  
  21460126.203   112773737.245    21460132.578    87875668.0354   21460132.688  
                
  20746925.336   109025839.078    20746931.523    84955227.9624   20746931.570  
                
  23148539.227   123698776.867                    96210132.667    23148544.340  
  23148539.469  
  19816676.445   105782774.882                    82275489.727    19816679.371  
  19816675.031  
  20310518.398   108457029.473                    84355470.623    20310520.688  
  20310518.020  
  23278998.188   124570607.857                    96888246.655    23279001.867  
  23278996.203  
  23855009.227   125358923.857    23855017.000    97682316.4544   23855017.148  
                
  23435248.648   123153060.419    23435254.438    95963439.7194   23435254.699  
                
  22155778.859   116429413.939    22155782.855    90724239.0634                 
                
  20054173.648   105385419.920    20054182.719    82118539.3974   20054183.059  
                
 21  8 16  3 32  0.0000000  0 14G 6G20R16R19G29G12R15R18R 9R17G 5G31
                                G 2G25
  24298044.875   127687081.770    24298054.305    99496464.2124   24298054.664  
                
  22599383.328   118760544.913    22599389.250    92540728.5644                 
                
  19531187.852   104332107.838                    81147181.677    19531189.527  
  19531187.621  
  19746658.859   105631349.906                    82157703.304    19746661.531  
  19746656.754  
  21456693.898   112755700.339    21456700.238    87861613.3034   21456700.371  
                
  20750295.641   109043550.147    20750301.805    84969028.7864   20750301.871  
                
  23156669.023   123742219.538                    96243921.398    23156674.070  
  23156669.195  
  19820527.297   105803330.999                    82291477.810    19820530.227  
  19820525.887  
  20305904.391   108432390.911                    84336307.302    20305906.676  
  20305903.996  
  23286123.766   124608738.253                    96917903.599    23286127.473  
  23286121.738  
  23848797.562   125326281.164    23848805.254    97656880.6094   23848805.445  
                
  23431905.594   123135492.549    23431911.359    95949750.4604   23431911.613  
                
  22159796.945   116450529.079    22159800.945    90740692.4224                 
                
  20053589.375   105382349.532    20053598.473    82116146.8904   20053598.797  
                
 21  8 16  3 32 10.0000000  0 14G 6G20R16R19G29G12R15R18R 9R17G 5G31
                                G 2G25
  24304636.102   127721718.752    24304645.492    99523454.0694   24304645.879  
                
  22596156.406   118743587.319    22596162.359    92527514.8554                 
                
  19534337.734   104348933.887                    81160268.591    19534339.453  
  19534337.523  
  19744182.508   105618103.071                    82147400.218    19744185.168  
  19744180.422  
  21453267.117   112737692.475    21453273.418    87847581.1934   21453273.562  
                
  20753674.812   109061307.766    20753680.953    84982865.8884   20753681.031  
                
  23164802.438   123785682.014                    96277725.533    23164807.508  
  23164802.586  
  19824386.578   105823932.113                    82307500.903    19824389.496  
  19824385.180  
  20301302.500   108407817.086                    84317194.305    20301304.773  
  20301302.102  
  23293249.039   124646867.046                    96947559.310    23293252.785  
  23293246.949  
  23842588.703   125293653.255    23842596.336    97631456.2834   23842596.570  
                
  23428573.117   123117980.280    23428578.879    95936104.5424   23428579.113  
                
  22163821.758   116471679.619    22163825.754    90757173.3504                 
                
  20053015.414   105379333.329    20053024.535    82113796.5974   20053024.844  
                
 21  8 16  3 32 20.0000000  0 14G 6G20R16R19G29G12R15R18R 9R17G 5G31
                                G 2G25
  24311230.359   127756371.662    24311239.746    99550456.3324   24311240.145  
                
  22592938.922   118726679.338    22592944.879    92514339.8134                 
                
  19537502.414   104365838.941                    81173416.965    19537504.156  
  19537502.223  
  19741717.617   105604917.592                    82137144.843    19741720.293  
  19741715.512  
  21449845.898   112719713.809    21449852.180    87833571.8434   21449852.340  
                
  20757062.891   109079112.191    20757069.020    84996739.4624   20757069.105  
                
  23172939.469   123829164.159                    96311544.955    23172944.641  
  23172939.625  
  19828254.297   105844578.231                    82323558.993    19828257.195  
  19828252.906  
  20296712.781   108383308.275                    84298131.899    20296715.070  
  20296712.367  
  23300374.047   124684994.527                    96977214.016    23300377.809  
  23300372.000  
  23836382.820   125261040.627    23836390.332    97606043.8564   23836390.570  
                
  23425251.289   123100523.952    23425257.047    95922502.2114   23425257.285  
                
  22167853.344   116492865.676    22167857.340    90773681.9674                 
                
  20052451.812   105376371.565    20052460.953    82111488.7244   20052461.242  
                
 21  8 16  3 32 30.0000000  0 14G 6G20R16R19G29G12R15R18R 9R17G 5G31
                                G 2G25
  24317827.648   127791040.488    24317837.055    99577470.9994   24317837.449  
                
  22589730.930   118709821.247    22589736.875    92501203.6314                 
                
  19540681.938   104382823.314                    81186627.030    19540683.703  
  19540681.766  
  19739264.203   105591793.476                    82126937.192    19739266.898  
  19739262.070  
  21446430.258   112701764.505    21446436.562    87819585.3814   21446436.730  
                
  20760459.875   109096963.494    20760466.012    85010649.5624   20760466.094  
                
  23181080.242   123872666.040                    96345379.722    23181085.477  
  23181080.371  
  19832130.453   105865269.419                    82339652.139    19832133.336  
  19832129.074  
  20292135.305   108358864.821                    84279120.331    20292137.598  
  20292134.859  
  23307498.844   124723120.722                    97006867.718    23307502.562  
  23307496.801  
  23830179.898   125228443.459    23830187.230    97580643.4624   23830187.504  
                
  23421940.125   123083123.688    23421945.918    95908943.5604   23421946.145  
                
  22171891.680   116514087.284    22171895.668    90790218.2744                 
                
  20051898.594   105373464.379    20051907.746    82109223.3824   20051908.023  
                
 21  8 16  3 32 40.0000000  0 14G 6G20R16R19G29G12R15R18R 9R17G 5G31
                                G 2G25
  24324427.914   127825725.010    24324437.352    99604497.8934   24324437.742  
                
  22586532.391   118693012.817    22586538.375    92488106.1594                 
                
  19543876.203   104399886.479                    81199898.367    19543877.996  
  19543876.051  
  19736822.289   105578730.917                    82116777.434    19736825.027  
  19736820.152  
  21443020.148   112683844.286    21443026.508    87805621.5864   21443026.672  
                
  20763865.734   109114861.399    20763871.871    85024595.9704   20763871.957  
                
  23189224.586   123916187.461                    96379229.681    23189229.961  
  23189224.809  
  19836015.016   105886005.454                    82355780.164    19836017.879  
  19836013.625  
  20287570.023   108334486.480                    84260159.392    20287572.324  
  20287569.586  
  23314623.305   124761245.120                    97036520.029    23314627.012  
  23314621.266  
  23823979.914   125195861.837    23823987.082    97555255.1834   23823987.363  
                
  23418639.633   123065779.401    23418645.473    95895428.5444   23418645.668  
                
  22175936.750   116535344.239    22175940.727    90806782.1394                 
                
  20051355.734   105370611.622    20051364.895    82107000.4484   20051365.164  
                
 21  8 16  3 32 50.0000000  0 14G 6G20R16R19G29G12R15R18R 9R17G 5G31
                                G 2G25
  24331031.180   127860425.297    24331040.664    99631537.0734   24331041.047  
                
  22583343.375   118676254.410    22583349.438    92475047.6704                 
                
  19547085.312   104417028.925                    81213231.376    19547087.141  
  19547085.180  
  19734391.867   105565729.872                    82106665.524    19734394.672  
  19734389.738  
  21439615.641   112665953.477    21439622.062    87791680.7094   21439622.199  
                
  20767280.500   109132806.079    20767286.633    85038578.8384   20767286.711  
                
  23197372.641   123959728.337                    96413094.779    23197378.082  
  23197372.910  
  19839907.969   105906786.305                    82371943.039    19839910.832  
  19839906.566  
  20283017.023   108310173.694                    84241249.452    20283019.320  
  20283016.590  
  23321747.508   124799368.103                    97066171.232    23321751.199  
  23321745.445  
  23817782.852   125163295.868    23817789.902    97529879.1104   23817790.180  
                
  23415349.836   123048491.373    23415355.719    95881957.3534   23415355.898  
                
  22179988.547   116556636.540    22179992.508    90823373.5444                 
                
  20050823.273   105367813.505    20050832.430    82104820.0974   20050832.695  
                
 21  8 16  3 33  0.0000000  0 14G 6G20R16R19G29G12R15R18R 9R17G 5G31
                                G 2G25
  24337637.359   127895141.072    24337646.910    99658588.2824   24337647.297  
                
  22580163.859   118659545.904    22580169.945    92462028.0414                 
                
  19550309.188   104434250.247                    81226625.728    19550311.055  
  19550309.051  
  19731972.867   105552789.939                    82096601.136    19731975.730  
  19731970.723  
  21436216.688   112648091.889    21436223.141    87777762.5954   21436223.254  
                
  20770704.133   109150797.402    20770710.266    85052598.0394   20770710.352  
                
  23205524.398   124003288.521                    96446974.899    23205529.816  
  23205524.656  
  19843809.273   105927611.781                    82388140.617    19843812.137  
  19843807.863  
  20278476.297   108285926.515                    84222390.538    20278478.598  
  20278475.832  
  23328871.344   124837489.222                    97095820.991    23328875.043  
  23328869.254  
  23811588.789   125130745.542    23811595.711    97504515.2204   23811595.996  
                
  23412070.703   123031259.414    23412076.602    95868529.8544   23412076.773  
                
  22184047.031   116577964.035    22184050.980    90839992.3704                 
                
  20050301.180   105365069.886    20050310.336    82102682.2054   20050310.590  
                
 21  8 16  3 33 10.0000000  0 14G 6G20R16R19G29G12R15R18R 9R17G 5G31
                                G 2G25
  24344246.500   127929872.341    24344256.109    99685651.5894   24344256.480  
                
  22576993.875   118642887.468    22576999.973    92449047.4464                 
                
  19553547.836   104451550.447                    81240081.442    19553549.703  
  19553547.703  
  19729565.344   105539911.359                    82086584.464    19729568.250  
  19729563.164  
  21432823.344   112630259.738    21432829.793    87763867.4154   21432829.895  
                
  20774136.656   109168835.420    20774142.801    85066653.6364   20774142.879  
                
  23213679.797   124046867.857                    96480869.924    23213685.125  
  23213680.020  
  19847718.938   105948481.799                    82404372.862    19847721.797  
  19847717.535  
  20273947.875   108261745.022                    84203582.700    20273950.188  
  20273947.402  
  23335994.883   124875608.619                    97125469.411    23335998.543  
  23335992.742  
  23805397.719   125098211.128    23805404.578    97479163.7424   23805404.863  
                
  23408802.281   123014083.718    23408808.184    95855146.2044   23408808.332  
                
  22188112.211   116599326.719    22188116.156    90856638.6144                 
                
  20049789.484   105362380.875    20049798.637    82100586.8714   20049798.883  
                
 21  8 16  3 33 20.0000000  0 14G 6G20R16R19G29G12R15R18R 9R17G 5G31
                                G 2G25
  24350858.578   127964619.000    24350868.215    99712726.8784   24350868.590  
                
  22573833.438   118626279.248    22573839.559    92436105.9794                 
                
  19556801.203   104468929.352                    81253598.370    19556803.086  
  19556801.062  
  19727169.305   105527094.173                    82076615.536    19727172.242  
  19727167.109  
  21429435.586   112612456.954    21429442.000    87749995.1144   21429442.113  
                
  20777578.055   109186920.065    20777584.215    85080745.5574   20777584.297  
                
  23221838.719   124090466.344                    96514779.841    23221844.004  
  23221838.953  
  19851636.914   105969396.221                    82420639.625    19851639.770  
  19851635.504  
  20269431.812   108237629.490                    84184826.177    20269434.133  
  20269431.348  
  23343118.086   124913726.304                    97155116.465    23343121.738  
  23343115.922  
  23799209.625   125065692.717    23799216.551    97453824.7364   23799216.812  
                
  23405544.562   122996964.262    23405550.441    95841806.3704   23405550.602  
                
  22192184.070   116620724.464    22192188.008    90873312.1794                 
                
  20049288.203   105359746.573    20049297.355    82098534.1614   20049297.602  
                
 21  8 16  3 33 30.0000000  0 14G 6G20R16R19G29G12R15R18R 9R17G 5G31
                                G 2G25
  24357473.570   127999380.971    24357483.211    99739814.1264   24357483.586  
                
  22570682.547   118609721.256    22570688.719    92423203.6564                 
                
  19560069.336   104486387.120                    81267176.626    19560071.230  
  19560069.191  
  19724784.719   105514338.262                    82066694.271    19724787.676  
  19724782.531  
  21426053.414   112594683.536    21426059.781    87736145.6954   21426059.922  
                
  20781028.312   109205051.342    20781034.492    85094873.8194   20781034.574  
                
  23230001.141   124134083.807                    96548704.510    23230006.438  
  23230001.383  
  19855563.219   105990355.109                    82436940.981    19855566.074  
  19855561.805  
  20264928.070   108213579.756                    84166120.833    20264930.410  
  20264927.594  
  23350240.898   124951841.965                    97184761.948    23350244.590  
  23350238.711  
  23793024.617   125033190.307    23793031.566    97428498.1944   23793031.785  
                
  23402297.555   122979901.129    23402303.438    95828510.4064   23402303.613  
                
  22196262.586   116642157.203    22196266.523    90890013.0044                 
                
  20048797.312   105357166.913    20048806.465    82096524.0384   20048806.711  
                
 21  8 16  3 33 40.0000000  0 14G 6G20R16R19G29G12R15R18R 9R17G 5G31
                                G 2G25
  24364091.477   128034158.197    24364101.102    99766913.2604   24364101.480  
                
  22567541.242   118593213.542    22567547.488    92410340.5044                 
                
  19563352.242   104503923.796                    81280816.266    19563354.121  
  19563352.070  
  19722411.656   105501644.097                    82056821.042    19722414.652  
  19722409.473  
  21422676.828   112576939.520    21422683.176    87722319.1974   21422683.340  
                
  20784487.469   109223229.322    20784493.668    85109038.4724   20784493.746  
                
  23238167.094   124177720.108                    96582643.817    23238172.379  
  23238167.352  
  19859497.805   106011358.163                    82453276.686    19859500.652  
  19859496.387  
  20260436.719   108189596.178                    84147466.934    20260439.062  
  20260436.258  
  23357363.359   124989955.835                    97214406.035    23357367.125  
  23357361.121  
  23786842.695   125000704.116    23786849.680    97403184.2864   23786849.871  
                
  23399061.297   122962894.440    23399067.227    95815258.4554   23399067.359  
                
  22200347.758   116663624.925    22200351.691    90906741.0924                 
                
  20048316.859   105354642.050    20048326.020    82094556.6074   20048326.250  
                
 21  8 16  3 33 50.0000000  0 14G 6G20R16R19G29G12R15R18R 9R17G 5G31
                                G 2G25
  24370712.250   128068950.553    24370721.871    99794024.1874   24370722.266  
                
  22564409.516   118576756.250    22564415.840    92397516.6584                 
                
  19566649.875   104521539.180                    81294517.101    19566651.742  
  19566649.680  
  19720050.023   105489011.012                    82046995.315    19720053.070  
  19720047.801  
  21419305.844   112559224.917    21419312.199    87708515.6124   21419312.344  
                
  20787955.492   109241453.885    20787961.719    85123239.4254   20787961.785  
                
  23246336.508   124221375.149                    96616597.728    23246341.848  
  23246336.848  
  19863440.648   106032405.300                    82469646.672    19863443.500  
  19863439.223  
  20255957.758   108165678.778                    84128864.522    20255960.109  
  20255957.293  
  23364485.430   125028067.539                    97244048.421    23364489.266  
  23364483.145  
  23780663.867   124968234.201    23780670.898    97377883.0644   23780671.066  
                
  23395835.773   122945944.206    23395841.715    95802050.4894   23395841.836  
                
  22204439.562   116685127.490    22204443.484    90923496.3394                 
                
  20047846.812   105352171.953    20047855.977    82092631.8524   20047856.203  
                
 21  8 16  3 34  0.0000000  0 14G 6G20R16R19G29G12R15R18R 9R17G 5G31
                                G 2G25
  24377335.906   128103757.984    24377345.512    99821146.8654   24377345.922  
                
  22561287.430   118560349.499    22561293.773    92384732.1694                 
                
  19569962.203   104539233.033                    81308278.973    19569964.070  
  19569961.977  
  19717699.883   105476439.351                    82037217.360    19717702.984  
  19717697.645  
  21415940.461   112541539.722    21415946.836    87694734.9454   21415946.938  
                
  20791432.391   109259725.082    20791438.652    85137476.7174   20791438.707  
                
  23254509.375   124265048.919                    96650566.186    23254514.824  
  23254509.820  
  19867391.750   106053496.484                    82486050.920    19867394.598  
  19867390.320  
  20251491.242   108141827.857                    84110313.805    20251493.621  
  20251490.781  
  23371607.102   125066177.146                    97273689.206    23371610.992  
  23371604.824  
  23774488.227   124935780.723    23774495.262    97352594.6634   23774495.422  
                
  23392621.031   122929050.608    23392626.996    95788886.6444   23392627.102  
                
  22208537.992   116706664.908    22208541.906    90940278.7314                 
                
  20047387.211   105349756.674    20047396.379    82090749.8144   20047396.598  
                
 21  8 16  3 34 10.0000000  0 14G 6G20R16R19G29G12R15R18R 9R17G 5G31
                                G 2G25
  24383962.391   128138580.287    24383971.988    99848281.1224   24383972.410  
                
  22558174.938   118543993.236    22558181.258    92371987.0334                 
                
  19573289.234   104557005.450                    81322101.966    19573291.109  
  19573288.984  
  19715361.172   105463928.877                    82027487.010    19715364.305  
  19715358.941  
  21412580.656   112523883.819    21412587.055    87680977.1104   21412587.156  
                
  20794918.133   109278042.789    20794924.438    85151750.2454   20794924.473  
                
  23262685.773   124308741.130                    96684549.003    23262691.234  
  23262686.211  
  19871351.070   106074631.568                    82502489.317    19871353.910  
  19871349.633  
  20247037.164   108118043.309                    84091814.704    20247039.555  
  20247036.695  
  23378728.344   125104284.507                    97303328.246    23378732.289  
  23378726.016  
  23768315.711   124903343.843    23768322.781    97327319.1894   23768322.945  
                
  23389417.047   122912213.541    23389423.055    95775766.8674   23389423.145  
                
  22212643.023   116728236.979    22212646.941    90957088.1414                 
                
  20046938.023   105347396.176    20046947.195    82088910.4634   20046947.414  
                
 21  8 16  3 34 20.0000000  0 14G 6G20R16R19G29G12R15R18R 9R17G 5G31
                                G 2G25
  24390591.703   128173417.521    24390601.312    99875427.0014   24390601.758  
                
  22555072.078   118527687.613    22555078.387    92359281.3604                 
                
  19576630.969   104574856.445                    81335986.055    19576632.859  
  19576630.699  
  19713033.961   105451479.851                    82017804.431    19713037.074  
  19713031.742  
  21409226.445   112506257.347    21409232.863    87667242.1994   21409232.965  
                
  20798412.711   109296406.917    20798419.062    85166059.9564   20798419.078  
                
  23270865.664   124352451.809                    96718546.171    23270871.121  
  23270866.070  
  19875318.609   106095810.561                    82518961.866    19875321.453  
  19875317.180  
  20242595.578   108094325.498                    84073367.506    20242597.984  
  20242595.102  
  23385849.172   125142389.642                    97332965.568    23385853.172  
  23385846.887  
  23762146.359   124870923.604    23762153.477    97302056.6894   23762153.625  
                
  23386223.844   122895433.151    23386229.910    95762691.2394   23386229.965  
                
  22216754.641   116749843.669    22216758.570    90973924.5214                 
                
  20046499.289   105345090.595    20046508.457    82087113.9034   20046508.672  
                
 21  8 16  3 34 30.0000000  0 14G 6G20R16R19G29G12R15R18R 9R17G 5G31
                                G 2G25
  24397223.766   128208269.282    24397233.414    99902584.1964   24397233.879  
                
  22551978.828   118511432.469    22551985.156    92346615.0114                 
                
  19579987.305   104592785.417                    81349930.825    19579989.176  
  19579987.016  
  19710718.148   105439091.876                    82008169.330    19710721.234  
  19710715.906  
  21405877.781   112488660.022    21405884.176    87653529.9964   21405884.285  
                
  20801916.086   109314817.312    20801922.477    85180405.7094   20801922.473  
                
  23279048.969   124396180.465                    96752557.334    23279054.348  
  23279049.293  
  19879294.312   106117033.129                    82535468.305    19879297.152  
  19879292.887  
  20238166.422   108070674.113                    84054971.987    20238168.855  
  20238165.930  
  23392969.547   125180492.284                    97362600.930    23392973.609  
  23392967.289  
  23755980.133   124838519.939    23755987.305    97276807.1024   23755987.434  
                
  23383041.391   122878709.261    23383047.504    95749659.6374   23383047.512  
                
  22220872.781   116771484.653    22220876.734    90990787.6214                 
                
  20046070.945   105342839.621    20046080.105    82085359.8954   20046080.320  
                
 21  8 16  3 34 40.0000000  0 14G 6G20R16R19G29G12R15R18R 9R17G 5G31
                                G 2G25
  24403858.664   128243135.910    24403868.367    99929752.9704   24403868.844  
                
  22548895.289   118495228.328    22548901.562    92333988.4054                 
                
  19583358.383   104610793.096                    81363936.776    19583360.234  
  19583358.090  
  19708413.859   105426765.495                    81998582.140    19708416.941  
  19708411.590  
  21402534.750   112471092.259    21402541.090    87639840.8334   21402541.207  
                
  20805428.359   109333274.372    20805434.785    85194787.8194   20805434.777  
                
  23287235.641   124439927.479                    96786582.774    23287241.016  
  23287235.949  
  19883278.188   106138299.238                    82552008.616    19883281.035  
  19883276.766  
  20233749.836   108047089.775                    84036628.623    20233752.293  
  20233749.336  
  23400089.516   125218592.676                    97392234.547    23400093.625  
  23400087.289  
  23749817.242   124806133.420    23749824.348    97251570.8514   23749824.516  
                
  23379869.812   122862042.467    23379875.938    95736672.5234   23379875.953  
                
  22224997.523   116793160.311    22225001.516    91007677.7264                 
                
  20045653.102   105340643.798    20045662.254    82083648.8594   20045662.480  
                
 21  8 16  3 34 50.0000000  0 14G 6G20R16R19G29G12R15R18R 9R17G 5G31
                                G 2G25
  24410496.344   128278017.069    24410506.090    99956933.0814   24410506.559  
                
  22545821.414   118479074.980    22545827.594    92321401.3774                 
                
  19586744.117   104628879.009                    81378003.602    19586745.945  
  19586743.828  
  19706120.969   105414500.087                    81989042.393    19706124.059  
  19706118.711  
  21399197.305   112453553.854    21399203.590    87626174.5544   21399203.727  
                
  20808949.461   109351777.872    20808955.922    85209206.1284   20808955.891  
                
  23295425.742   124483692.606                    96820622.291    23295431.094  
  23295426.000  
  19887270.219   106159608.928                    82568582.819    19887273.055  
  19887268.805  
  20229345.781   108023572.393                    84018337.334    20229348.262  
  20229345.273  
  23407209.000   125256690.514                    97421866.167    23407213.148  
  23407206.797  
  23743657.484   124773763.775    23743664.551    97226347.7504   23743664.738  
                
  23376709.062   122845432.558    23376715.195    95723729.7344   23376715.227  
                
  22229128.789   116814870.255    22229132.820    91024594.5654                 
                
  20045245.695   105338502.840    20045254.844    82081980.5794   20045255.074  
                
 21  8 16  3 35  0.0000000  0 14G 6G20R16R19G29G12R15R18R 9R17G 5G31
                                G 2G25
  24417136.805   128312912.815    24417146.582    99984124.5454   24417147.055  
                
  22542757.266   118462972.726    22542763.402    92308854.1664                 
                
  19590144.555   104647043.501                    81392131.533    19590146.348  
  19590144.266  
  19703839.562   105402296.059                    81979550.379    19703842.652  
  19703837.316  
  21395865.492   112436045.020    21395871.730    87612531.2904   21395871.891  
                
  20812479.430   109370327.919    20812485.914    85223660.7014   20812485.879  
                
  23303619.180   124527475.693                    96854675.773    23303624.531  
  23303619.434  
  19891270.383   106180962.003                    82585190.765    19891273.215  
  19891268.980  
  20224954.305   108000122.201                    84000098.291    20224956.797  
  20224953.793  
  23414328.016   125294785.919                    97451495.890    23414332.207  
  23414325.824  
  23737501.031   124741411.409    23737508.023    97201138.1204   23737508.234  
                
  23373559.172   122828879.714    23373565.293    95710831.4164   23373565.336  
                
  22233266.586   116836614.576    22233270.656    91041538.1864                 
                
  20044848.781   105336417.001    20044857.922    82080355.2504   20044858.164  
                
 21  8 16  3 35 10.0000000  0 14G 6G20R16R19G29G12R15R18R 9R17G 5G31
                                G 2G25
  24423779.930   128347822.549    24423789.734   100011326.9214   24423790.195  
                
  22539702.727   118446921.041    22539708.867    92296346.3564                 
                
  19593559.539   104665285.747                    81406319.945    19593561.305  
  19593559.230  
  19701569.555   105390152.978                    81970105.767    19701572.637  
  19701567.332  
  21392539.188   112418565.204    21392545.414    87598910.6574   21392545.574  
                
  20816018.125   109388923.907    20816024.637    85238151.0734   20816024.582  
                
  23311815.969   124571276.242                    96888742.834    23311821.207  
  23311816.078  
  19895278.586   106202358.035                    82601832.124    19895281.438  
  19895277.195  
  20220575.352   107976738.859                    83981911.261    20220577.863  
  20220574.820  
  23421446.477   125332878.306                    97481123.241    23421450.672  
  23421444.297  
  23731347.805   124709075.957    23731354.738    97175941.6744   23731354.930  
                
  23370420.008   122812383.310    23370426.121    95697977.0744   23370426.164  
                
  22237410.828   116858392.725    22237414.922    91058508.1654                 
                
  20044462.242   105334385.753    20044471.375    82078772.4554   20044471.613  
                
 21  8 16  3 35 20.0000000  0 14G 6G20R16R19G29G12R15R18R 9R17G 5G31
                                G 2G25
  24430425.828   128382746.800    24430435.645   100038540.6174   24430436.109  
                
  22536657.969   118430920.704    22536664.109    92283878.5644                 
                
  19596989.195   104683606.335                    81420569.274    19596990.949  
  19596988.887  
  19699311.023   105378071.274                    81960708.895    19699314.070  
  19699308.828  
  21389218.539   112401115.116    21389224.773    87585313.1934   21389224.926  
                
  20819565.695   109407566.476    20819572.230    85252677.7434   20819572.168  
                
  23320015.938   124615094.640                    96922823.790    23320021.242  
  23320016.047  
  19899294.906   106223797.434                    82618507.193    19899297.766  
  19899293.512  
  20216209.047   107953423.089                    83963776.770    20216211.566  
  20216208.492  
  23428564.500   125370968.157                    97510748.685    23428568.668  
  23428562.367  
  23725197.930   124676758.118    23725204.781    97150758.9534   23725204.996  
                
  23367291.719   122795944.059    23367297.844    95685167.2724   23367297.883  
                
  22241561.609   116880205.194    22241565.727    91075504.8914                 
                
  20044086.227   105332409.756    20044095.352    82077232.7134   20044095.590  
                
 21  8 16  3 35 30.0000000  0 14G 6G20R16R19G29G12R15R18R 9R17G 5G31
                                G 2G25
  24437074.445   128417685.404    24437084.266   100065765.4934   24437084.738  
                
  22533622.961   118414971.685    22533629.090    92271450.7614                 
                
  19600433.508   104702005.180                    81434879.474    19600435.234  
  19600433.219  
  19697063.961   105366051.044                    81951359.822    19697066.973  
  19697061.770  
  21385903.523   112383694.578    21385909.777    87571738.7504   21385909.922  
                
  20823122.109   109426255.532    20823128.672    85267240.6454   20823128.598  
                
  23328219.227   124658930.774                    96956918.546    23328224.566  
  23328219.375  
  19903319.312   106245280.011                    82635215.859    19903322.207  
  19903317.930  
  20211855.414   107930174.951                    83945694.872    20211857.926  
  20211854.863  
  23435681.992   125409055.424                    97540372.100    23435686.172  
  23435679.867  
  23719051.422   124644457.939    23719058.156    97125589.9684   23719058.414  
                
  23364174.305   122779561.959    23364180.461    95672402.0144   23364180.484  
                
  22245718.883   116902051.831    22245723.020    91092528.2414                 
                
  20043720.711   105330488.972    20043729.820    82075735.9944   20043730.062  
                
 21  8 16  3 35 40.0000000  0 14G 6G20R16R19G29G12R15R18R 9R17G 5G31
                                G 2G25
  24443725.789   128452638.302    24443735.629   100093001.4944   24443736.105  
                
  22530597.758   118399074.107    22530603.867    92259063.0394                 
                
  19603892.422   104720482.033                    81449250.361    19603894.129  
  19603892.148  
  19694828.375   105354092.131                    81942058.442    19694831.348  
  19694826.172  
  21382594.125   112366303.595    21382600.383    87558187.3434   21382600.516  
                
  20826687.383   109444991.112    20826693.957    85281839.7864   20826693.871  
                
  23336425.867   124702784.564                    96991027.024    23336431.234  
  23336426.031  
  19907351.781   106266805.591                    82651957.968    19907354.688  
  19907350.406  
  20207514.461   107906994.511                    83927665.659    20207516.977  
  20207513.910  
  23442798.977   125447139.989                    97569993.357    23442803.156  
  23442796.887  
  23712908.258   124612175.516    23712914.906    97100434.8334   23712915.199  
                
  23361067.789   122763237.165    23361073.977    95659681.4084   23361073.980  
                
  22249882.664   116923932.599    22249886.820    91109578.1914                 
                
  20043365.711   105328623.416    20043374.797    82074282.3114   20043375.055  
                
 21  8 16  3 35 50.0000000  0 14G 6G20R16R19G29G12R15R18R 9R17G 5G31
                                G 2G25
  24450379.828   128487605.305    24450389.695   100120248.4884   24450390.152  
                
  22527582.328   118383227.950    22527588.414    92246715.3804                 
                
  19607365.945   104739036.920                    81463681.934    19607367.641  
  19607365.699  
  19692604.258   105342194.539                    81932804.742    19692607.188  
  19692602.074  
  21379290.352   112348942.110    21379296.586    87544658.9174   21379296.723  
                
  20830261.477   109463773.053    20830268.039    85296475.0614   20830267.957  
                
  23344635.852   124746655.724                    97025149.022    23344641.160  
  23344635.961  
  19911392.312   106288374.208                    82668733.557    19911395.223  
  19911390.922  
  20203186.219   107883881.972                    83909689.236    20203188.750  
  20203185.676  
  23449915.469   125485221.677                    97599612.446    23449919.625  
  23449913.500  
  23706768.492   124579910.859    23706775.090    97075293.5474   23706775.402  
                
  23357972.188   122746969.655    23357978.383    95647005.4224   23357978.379  
                
  22254052.914   116945847.416    22254057.082    91126654.6654                 
                
  20043021.227   105326813.098    20043030.289    82072871.6694   20043030.551  
                
 21  8 16  3 36  0.0000000  0 14G 6G20R16R19G29G12R15R18R 9R17G 5G31
                                G 2G25
  24457036.477   128522586.022    24457046.367   100147506.1634   24457046.785  
                
  22524576.633   118367432.938    22524582.684    92234407.5814                 
                
  19610854.023   104757669.569                    81478173.990    19610855.707  
  19610853.789  
  19690391.492   105330357.712                    81923598.317    19690394.379  
  19690389.371  
  21375992.102   112331609.708    21375998.281    87531153.1394   21375998.441  
                
  20833844.328   109482601.048    20833850.883    85311146.2224   20833850.805  
                
  23352848.898   124790543.929                    97059284.278    23352854.277  
  23352849.039  
  19915440.805   106309985.318                    82685542.196    19915443.727  
  19915439.410  
  20198870.641   107860837.066                    83891765.427    20198873.176  
  20198870.082  
  23457031.328   125523299.994                    97629228.907    23457035.465  
  23457029.445  
  23700632.109   124547663.791    23700638.660    97050165.9694   23700638.934  
                
  23354887.445   122730759.168    23354893.625    95634373.8814   23354893.637  
                
  22258229.555   116967795.762    22258233.734    91143757.2734                 
                
  20042687.188   105325057.681    20042696.227    82071503.8074   20042696.508  
                
 21  8 16  3 36 10.0000000  0 14G 6G20R16R19G29G12R15R18R 9R17G 5G31
                                G 2G25
  24463695.773   128557580.810    24463705.648   100174774.8034   24463706.043  
                
  22521580.781   118351689.616    22521586.789    92222140.0624                 
                
  19614356.703   104776380.213                    81492726.705    19614358.367  
  19614356.480  
  19688190.195   105318582.234                    81914439.627    19688193.047  
  19688188.133  
  21372699.508   112314307.022    21372705.645    87517670.5274   21372705.836  
                
  20837436.031   109501475.534    20837442.566    85325853.5964   20837442.504  
                
  23361065.070   124834449.460                    97093433.011    23361070.637  
  23361065.309  
  19919497.305   106331639.175                    82702384.079    19919500.238  
  19919495.891  
  20194567.836   107837860.344                    83873894.637    20194570.359  
  20194567.266  
  23464146.656   125561375.503                    97658843.174    23464150.785  
  23464144.797  
  23694499.180   124515434.857    23694505.691    97025052.5234   23694505.953  
                
  23351813.641   122714606.205    23351819.809    95621787.1554   23351819.820  
                
  22262412.656   116989778.090    22262416.852    91160886.3514                 
                
  20042363.688   105323357.661    20042372.703    82070179.1174   20042373.008  
                
 21  8 16  3 36 20.0000000  0 14G 6G20R16R19G29G12R15R18R 9R17G 5G31
                                G 2G25
  24470357.734   128592589.529    24470367.562   100202054.3034   24470367.941  
                
  22518594.742   118335997.885    22518600.711    92209912.7274                 
                
  19617874.023   104795168.984                    81507340.191    19617875.684  
  19617873.797  
  19686000.344   105306868.036                    81905328.598    19686003.199  
  19685998.273  
  21369412.562   112297034.010    21369418.691    87504211.0384   21369418.883  
                
  20841036.555   109520396.399    20841043.066    85340597.1254   20841043.023  
                
  23369284.531   124878372.130                    97127595.057    23369290.195  
  23369284.738  
  19923561.805   106353335.709                    82719259.165    19923564.742  
  19923560.383  
  20190277.797   107814951.812                    83856076.894    20190280.316  
  20190277.227  
  23471261.438   125599448.006                    97688455.080    23471265.586  
  23471259.574  
  23688369.727   124483224.209    23688376.180    96999953.3274   23688376.434  
                
  23348750.789   122698510.755    23348756.914    95609245.2434   23348756.934  
                
  22266602.195   117011794.231    22266606.406    91178041.7824                 
                
  20042050.734   105321713.037    20042059.738    82068897.5904   20042060.047  
                
 21  8 16  3 36 30.0000000  0 14G 6G20R16R19G29G12R15R18R 9R17G 5G31
                                G 2G25
  24477022.328   128627611.960    24477032.066   100229344.5044   24477032.438  
                
  22515618.531   118320357.811    22515624.473    92197725.6664                 
                
  19621405.867   104814035.382                    81522014.054    19621407.539  
  19621405.641  
  19683821.930   105295215.020                    81896265.156    19683824.762  
  19683819.840  
  21366131.250   112279790.563    21366137.398    87490774.5874   21366137.582  
                
  20844645.883   109539363.491    20844652.383    85355376.6684   20844652.344  
                
  23377507.164   124922311.741                    97161770.280    23377512.941  
  23377507.414  
  19927634.266   106375074.719                    82736167.280    19927637.219  
  19927632.836  
  20186000.578   107792111.695                    83838312.356    20186003.094  
  20186000.020  
  23478375.648   125637517.423                    97718064.589    23478379.812  
  23478373.754  
  23682243.695   124451031.855    23682250.191    96974868.3804   23682250.434  
                
  23345698.891   122682472.858    23345704.977    95596748.1874   23345705.020  
                
  22270798.148   117033844.012    22270802.363    91195223.4264                 
                
  20041748.305   105320123.724    20041757.297    82067659.1594   20041757.609  
                
 21  8 16  3 36 40.0000000  0 14G 6G20R16R19G29G12R15R18R 9R17G 5G31
                                G 2G25
  24483689.430   128662647.690    24483699.043   100256645.0744   24483699.422  
                
  22512652.125   118304769.253    22512658.082    92185578.7434                 
                
  19624952.188   104832979.205                    81536748.135    19624953.875  
  19624951.961  
  19681654.922   105283622.946                    81887249.071    19681657.699  
  19681652.855  
  21362855.484   112262576.331    21362861.676    87477360.9084   21362861.848  
                
  20848263.922   109558376.410    20848270.422    85370191.9184   20848270.387  
                
  23385733.023   124966267.796                    97195958.285    23385738.758  
  23385733.273  
  19931714.570   106396855.707                    82753108.032    19931717.535  
  19931713.145  
  20181736.094   107769339.618                    83820600.740    20181738.598  
  20181735.543  
  23485489.172   125675583.212                    97747671.283    23485493.355  
  23485487.254  
  23676121.086   124418857.576    23676127.668    96949797.5364   23676127.879  
                
  23342657.852   122666492.105    23342663.930    95584295.6644   23342663.965  
                
  22275000.414   117055927.007    22275004.625    91212430.9464                 
                
  20041456.328   105318589.384    20041465.305    82066463.5664   20041465.629  
                
 21  8 16  3 36 50.0000000  0 13G 6G20R16R19G29G12R15R18R 9G 5G31G 2
                                G25
  24490359.148   128697697.115    24490368.637   100283956.3134   24490369.020  
                
  22509695.617   118289232.677    22509701.570    92173472.3194                 
                
  19628513.070   104852000.745                    81551542.652    19628514.762  
  19628512.836  
  19679499.375   105272092.084                    81878280.597    19679502.082  
  19679497.371  
  21359585.383   112245391.844    21359591.617    87463970.4064   21359591.770  
                
  20851890.797   109577435.698    20851897.289    85385043.3024   20851897.258  
                
  23393962.109   125010240.711                    97230159.415    23393967.703  
  23393962.289  
  19935802.852   106418679.206                    82770081.862    19935805.836  
  19935801.406  
  20177484.461   107746636.159                    83802942.488    20177486.957  
  20177483.902  
  23670002.086   124386702.016    23670008.676    96924741.2504   23670008.859  
                
  23339627.797   122650569.068    23339633.875    95571888.1064   23339633.914  
                
  22279209.078   117078043.625    22279213.281    91229664.6764                 
                
  20041174.930   105317110.579    20041183.902    82065311.2514   20041184.219  
                
 21  8 16  3 37  0.0000000  0 13G 6G20R16R19G29G12R15R18R 9G 5G31G 2
                                G25
  24497031.352   128732759.694    24497040.766   100311277.8074   24497041.113  
                
  22506748.930   118273747.784    22506754.891    92161406.1864                 
                
  19632088.430   104871099.662                    81566397.349    19632090.152  
  19632088.180  
  19677355.164   105260622.012                    81869359.426    19677357.824  
  19677353.188  
  21356320.836   112228236.590    21356327.078    87450602.6744   21356327.227  
                
  20855526.367   109596540.781    20855532.844    85399930.3714   20855532.824  
                
  23402194.219   125054229.910                    97264373.201    23402199.707  
  23402194.332  
  19939898.945   106440544.446                    82787088.150    19939901.934  
  19939897.496  
  20173245.625   107724001.027                    83785337.390    20173248.109  
  20173245.062  
  23663886.641   124354564.701    23663893.102    96899699.1864   23663893.273  
                
  23336608.641   122634703.282    23336614.719    95559525.1544   23336614.773  
                
  22283424.016   117100193.252    22283428.211    91246924.1204                 
                
  20040904.000   105315686.813    20040912.961    82064201.8164   20040913.270  
                
 21  8 16  3 37 10.0000000  0 13G 6G20R16R19G29G12R15R18R 9G 5G31G 2
                                G25
  24503706.117   128767835.748    24503715.504   100338609.8014   24503715.816  
                
  22503812.172   118258315.035    22503818.164    92149380.6584                 
                
  19635678.312   104890276.142                    81581312.388    19635680.074  
  19635678.070  
  19675222.414   105249213.310                    81860486.017    19675225.082  
  19675220.445  
  21353061.945   112211111.009    21353068.188    87437258.0644   21353068.336  
                
  20859170.758   109615692.130    20859177.227    85414853.4944   20859177.219  
                
  23410429.422   125098235.737                    97298599.941    23410434.836  
  23410429.484  
  19944002.961   106462451.957                    82804127.327    19944005.953  
  19944001.500  
  20169019.695   107701434.804                    83767785.878    20169022.168  
  20169019.137  
  23657774.781   124322446.292    23657781.113    96874671.8364   23657781.301  
                
  23333600.477   122618895.321    23333606.527    95547207.2644   23333606.629  
                
  22287645.328   117122376.305    22287649.504    91264209.6174                 
                
  20040643.648   105314318.617    20040652.598    82063135.6874   20040652.910  
                
 21  8 16  3 37 20.0000000  0 13G 6G20R16R19G29G12R15R18R 9G 5G31G 2
                                G25
  24510383.453   128802925.285    24510392.844   100365952.2854   24510393.113  
                
  22500885.352   118242934.500    22500891.395    92137395.8434                 
                
  19639282.727   104909530.320                    81596287.851    19639284.496  
  19639282.488  
  19673101.117   105237865.835                    81851660.211    19673103.789  
  19673099.098  
  21349808.703   112194015.196    21349814.949    87423936.6554   21349815.098  
                
  20862823.961   109634889.827    20862830.422    85429812.7184   20862830.398  
                
  23418667.617   125142258.011                    97332839.474    23418673.012  
  23418667.676  
  19948114.852   106484401.489                    82821199.177    19948117.836  
  19948113.391  
  20164806.695   107678937.665                    83750288.109    20164809.160  
  20164806.129  
  23651666.477   124290347.010    23651672.805    96849659.4014   23651672.992  
                
  23330603.344   122603145.307    23330609.383    95534934.5344   23330609.512  
                
  22291872.984   117144592.766    22291877.141    91281521.1404                 
                
  20040393.875   105313006.049    20040402.812    82062112.9024   20040403.137  
                
 21  8 16  3 37 30.0000000  0 13G 6G20R16R19G29G12R15R18R 9G 5G31G 2
                                G25
  24517063.328   128838028.120    24517072.746   100393305.1414   24517072.965  
                
  22497968.477   118227606.230    22497974.578    92125451.7304                 
                
  19642901.664   104928861.982                    81611323.576    19642903.445  
  19642901.410  
  19670991.273   105226579.572                    81842882.019    19670993.922  
  19670989.207  
  21346561.156   112176949.185    21346567.414    87410638.4704   21346567.578  
                
  20866485.977   109654133.781    20866492.418    85444808.0074   20866492.402  
                
  23426908.914   125186296.691                    97367091.751    23426914.262  
  23426908.988  
  19952234.570   106506392.797                    82838303.516    19952237.555  
  19952233.105  
  20160606.656   107656509.694                    83732844.129    20160609.125  
  20160606.102  
  23645561.680   124258266.767    23645568.172    96824661.8154   23645568.336  
                
  23327617.234   122587453.263    23327623.273    95522706.9704   23327623.406  
                
  22296106.984   117166842.477    22296111.125    91298858.5774                 
                
  20040154.695   105311749.094    20040163.621    82061133.4524   20040163.941  
                
 21  8 16  3 37 40.0000000  0 13G 6G20R16R19G29G12R15R18R 9G 5G31G 2
                                G25
  24523745.648   128873143.889    24523755.113   100420668.0584   24523755.297  
                
  22495061.508   118212329.989    22495067.660    92113548.1704                 
                
  19646535.055   104948270.856                    81626419.370    19646536.832  
  19646534.797  
  19668892.812   105215354.144                    81834151.114    19668895.434  
  19668890.766  
  21343319.180   112159912.502    21343325.461    87397363.1384   21343325.625  
                
  20870156.719   109673423.629    20870163.129    85459839.0484   20870163.125  
                
  23435153.195   125230351.461                    97401356.546    23435158.539  
  23435153.289  
  19956362.086   106528425.727                    82855440.238    19956365.094  
  19956360.633  
  20156419.547   107634150.747                    83715453.838    20156422.020  
  20156419.000  
  23639460.430   124226205.336    23639467.117    96799678.8944   23639467.250  
                
  23324642.109   122571818.869    23324648.121    95510524.3374   23324648.262  
                
  22300347.234   117189125.142    22300351.355    91316221.6834                 
                
  20039926.039   105310547.464    20039934.953    82060197.1074   20039935.281  
                
 21  8 16  3 37 50.0000000  0 13G 6G20R16R19G29G12R15R18R 9G 5G31G 2
                                G25
  24530430.438   128908272.734    24530439.961   100448041.1524   24530440.125  
                
  22492164.492   118197106.097    22492170.656    92101685.4044                 
                
  19650182.906   104967757.016                    81641575.261    19650184.699  
  19650182.633  
  19666805.750   105204189.815                    81825467.733    19666808.348  
  19666803.703  
  21340082.836   112142905.460    21340089.137    87384110.9064   21340089.273  
                
  20873836.219   109692759.538    20873842.594    85474905.9854   20873842.605  
                
  23443400.367   125274422.189                    97435633.752    23443405.793  
  23443400.578  
  19960497.430   106550500.438                    82872609.455    19960500.449  
  19960495.969  
  20152245.406   107611861.124                    83698117.459    20152247.871  
  20152244.855  
  23633362.914   124194163.154    23633369.707    96774710.9634   23633369.840  
                
  23321678.008   122556242.414    23321683.980    95498386.8234   23321684.145  
                
  22304593.781   117211440.851    22304597.891    91333610.5454                 
                
  20039707.953   105309401.399    20039716.863    82059304.0664   20039717.195  
                
 21  8 16  3 38  0.0000000  0 13G 6G20R16R19G29G12R15R18R 9G 5G31G 2
                                G25
  24537117.680   128943414.365    24537127.238   100475424.2214   24537127.387  
                
  22489277.438   118181934.504    22489283.586    92089863.3754                 
                
  19653845.125   104987319.941                    81656790.856    19653846.914  
  19653844.832  
  19664730.094   105193086.499                    81816831.825    19664732.691  
  19664728.004  
  21336852.109   112125927.872    21336858.422    87370881.6144   21336858.551  
                
  20877524.469   109712141.329    20877530.816    85490008.6754   20877530.828  
                
  23451650.609   125318508.590                    97469923.168    23451655.992  
  23451650.762  
  19964640.516   106572616.473                    82889810.810    19964643.547  
  19964639.059  
  20148084.250   107589640.773                    83680834.976    20148086.719  
  20148083.707  
  23627269.055   124162140.247    23627275.980    96749758.0664   23627276.102  
                
  23318724.914   122540723.783    23318730.879    95486294.3874   23318731.039  
                
  22308846.578   117233789.383    22308850.680    91351024.9874                 
                
  20039500.422   105308310.790    20039509.332    82058454.2404   20039509.656  
                
 21  8 16  3 38 10.0000000  0 13G 6G20R16R19G29G12R15R18R 9G 5G31G 2
                                G25
  24543807.367   128978568.907    24543816.902   100502817.3624   24543817.098  
                
  22486400.375   118166815.410    22486406.484    92078082.2604                 
                
  19657521.836   105006960.207                    81672066.616    19657523.625  
  19657521.535  
  19662665.836   105182044.191                    81808243.366    19662668.449  
  19662663.680  
  21333627.016   112108979.948    21333633.328    87357675.4474   21333633.465  
                
  20881221.453   109731569.111    20881227.777    85505147.1894   20881227.797  
                
  23459903.758   125362610.958                    97504224.994    23459909.133  
  23459903.887  
  19968791.352   106594773.894                    82907044.348    19968794.383  
  19968789.906  
  20143936.117   107567490.006                    83663606.595    20143938.598  
  20143935.582  
  23621179.023   124130136.896    23621185.988    96724820.3944   23621186.105  
                
  23315782.867   122525263.206    23315788.844    95474247.1794   23315789.012  
                
  22313105.633   117256170.830    22313109.730    91368465.0734                 
                
  20039303.477   105307275.815    20039312.383    82057647.7664   20039312.707  
                
 21  8 16  3 38 20.0000000  0 13G 6G20R16R19G29G12R15R18R 9G 5G31G 2
                                G25
  24550499.508   129013736.316    24550508.977   100530220.5324   24550509.219  
                
  22483533.312   118151748.898    22483539.406    92066342.1284                 
                
  19661213.008   105026677.768                    81687402.492    19661214.812  
  19661212.715  
  19660613.039   105171063.170                    81799702.584    19660615.703  
  19660610.840  
  21330407.586   112092061.709    21330413.887    87344492.4044   21330414.031  
                
  20884927.203   109751042.933    20884933.508    85520321.5924   20884933.547  
                
  23468159.820   125406729.050                    97538539.061    23468165.254  
  23468159.980  
  19972949.953   106616972.714                    82924310.104    19972952.973  
  19972948.512  
  20139801.039   107545408.907                    83646432.405    20139803.531  
  20139800.516  
  23615092.773   124098153.307    23615099.777    96699898.1164   23615099.852  
                
  23312851.883   122509860.776    23312857.895    95462245.2834   23312858.031  
                
  22317370.945   117278585.183    22317375.047    91385930.7934                 
                
  20039117.133   105306296.609    20039126.031    82056884.7394   20039126.359  
                
 21  8 16  3 38 30.0000000  0 13G 6G20R16R19G29G12R15R18R 9G 5G31G 2
                                G25
  24557194.023   129048916.184    24557203.426   100557633.4204   24557203.711  
                
  22480676.227   118136734.802    22480682.332    92054642.8434                 
                
  19664918.570   105046472.153                    81702798.112    19664920.379  
  19664918.277  
  19658571.586   105160142.802                    81791208.970    19658574.297  
  19658569.398  
  21327193.750   112075172.955    21327200.035    87331332.3334   21327200.180  
                
  20888641.680   109770562.597    20888647.969    85535531.7154   20888648.008  
                
  23476418.750   125450862.512                    97572865.058    23476424.227  
  23476418.930  
  19977116.219   106639212.520                    82941607.734    19977119.234  
  19977114.773  
  20135679.000   107523397.465                    83629312.395    20135681.488  
  20135678.488  
  23609010.188   124066189.208    23609017.242    96674991.0134   23609017.305  
                
  23309931.930   122494516.251    23309937.949    95450288.5074   23309938.059  
                
  22321642.438   117301032.027    22321646.562    91403421.8344                 
                
  20038941.352   105305372.845    20038950.234    82056164.9194   20038950.570  
                
 21  8 16  3 38 40.0000000  0 13G 6G20R16R19G29G12R15R18R 9G 5G31G 2
                                G25
  24563891.055   129084109.332    24563900.395   100585056.6454   24563900.715  
                
  22477829.305   118121774.059    22477835.430    92042985.1274                 
                
  19668638.656   105066344.175                    81718254.126    19668640.461  
  19668638.371  
  19656541.703   105149284.277                    81782763.440    19656544.406  
  19656539.531  
  21323985.695   112058314.533    21323991.973    87318195.9104   21323992.129  
                
  20892365.008   109790128.805    20892371.277    85550778.1024   20892371.320  
                
  23484680.711   125495012.194                    97607203.673    23484686.219  
  23484680.898  
  19981290.305   106661494.041                    82958937.793    19981293.316  
  19981288.871  
  20131570.188   107501456.601                    83612247.279    20131572.672  
  20131569.688  
  23602931.469   124034245.579    23602938.578    96650099.8914   23602938.656  
                
  23307023.164   122479230.553    23307029.188    95438377.5794   23307029.273  
                
  22325920.266   117323512.128    22325924.438    91420938.7924                 
                
  20038776.289   105304505.444    20038785.168    82055489.0224   20038785.504  
                
 21  8 16  3 38 50.0000000  0 13G 6G20R16R19G29G12R15R18R 9G 5G31G 2
                                G25
  24570590.266   129119313.925    24570599.555   100612488.7904   24570599.871  
                
  22474992.211   118106865.070    22474998.340    92031367.7424                 
                
  19672372.922   105086291.919                    81733769.020    19672374.703  
  19672372.664  
  19654522.969   105138485.524                    81774364.416    19654525.691  
  19654520.773  
  21320783.078   112041484.662    21320789.348    87305081.7264   21320789.500  
                
  20896096.852   109809739.772    20896103.094    85566059.3624   20896103.156  
                
  23492945.352   125539175.995                    97641553.285    23492950.852  
  23492945.504  
  19985471.836   106683815.338                    82976298.799    19985474.844  
  19985470.398  
  20127474.266   107479584.614                    83595235.730    20127476.754  
  20127473.785  
  23596856.430   124002320.833    23596863.488    96625223.4674   23596863.555  
                
  23304125.266   122464002.057    23304131.297    95426511.2174   23304131.348  
                
  22330204.062   117346023.658    22330208.281    91438480.2414                 
                
  20038621.633   105303692.705    20038630.508    82054855.7144   20038630.859  
                
 21  8 16  3 39  0.0000000  0 13G 6G20R16R19G29G12R15R18R 9G 5G31G 2
                                G25
  24577291.875   129154531.152    24577301.125   100639930.7944   24577301.438  
                
  22472165.234   118092009.237    22472171.344    92019791.7704                 
                
  19676121.625   105106316.765                    81749343.913    19676123.402  
  19676121.387  
  19652515.641   105127747.803                    81766012.860    19652518.406  
  19652513.383  
  21317586.148   112024684.678    21317592.418    87291990.8274   21317592.559  
                
  20899837.445   109829396.680    20899843.672    85581376.4304   20899843.742  
                
  23501212.867   125583355.282                    97675914.930    23501218.422  
  23501213.059  
  19989661.102   106706177.936                    82993691.926    19989664.113  
  19989659.656  
  20123391.555   107457783.122                    83578279.016    20123394.039  
  20123391.082  
  23590785.258   123970416.315    23590792.227    96600362.8034   23590792.305  
                
  23301238.516   122448832.075    23301244.566    95414690.4574   23301244.598  
                
  22334494.102   117368567.887    22334498.359    91456047.1634                 
                
  20038477.625   105302935.943    20038486.496    82054266.0304   20038486.852  
                
 21  8 16  3 39 10.0000000  0 13G 6G20R16R19G29G12R15R18R 9G 5G31G 2
                                G25
  24583995.859   129189760.763    24584005.066   100667382.4584   24584005.383  
                
  22469348.336   118077206.329    22469354.398    92008257.0374                 
                
  19679884.711   105126418.516                    81764978.594    19679886.473  
  19679884.480  
  19650519.758   105117071.246                    81757708.864    19650522.555  
  19650517.473  
  21314394.828   112007914.180    21314401.098    87278922.9024   21314401.227  
                
  20903586.766   109849099.479    20903592.969    85596729.2544   20903593.047  
                
  23509483.297   125627549.719                    97710288.345    23509488.828  
  23509483.473  
  19993858.008   106728581.309                    83011116.768    19993861.023  
  19993856.562  
  20119322.008   107436051.988                    83561377.023    20119324.488  
  20119321.562  
  23584717.836   123938532.048    23584724.773    96575517.8984   23584724.887  
                
  23298362.859   122433720.499    23298368.914    95402915.2124   23298368.922  
                
  22338790.297   117391144.547    22338794.594    91473639.3654                 
                
  20038344.242   105302235.038    20038353.117    82053719.8684   20038353.473  
                
 21  8 16  3 39 20.0000000  0 13G 6G20R16R19G29G12R15R18R 9G 5G31G 2
                                G25
  24590702.141   129225002.497    24590711.348   100694843.5404   24590711.676  
                
  22466541.492   118062456.293    22466547.543    91996763.5044                 
                
  19683662.133   105146596.791                    81780672.804    19683663.887  
  19683661.902  
  19648535.273   105106455.545                    81749452.211    19648538.098  
  19648533.012  
  21311209.109   111991173.112    21311215.398    87265877.9174   21311215.516  
                
  20907344.820   109868848.173    20907350.984    85612117.8394   20907351.086  
                
  23517756.578   125671759.139                    97744673.442    23517762.039  
  23517756.723  
  19998062.508   106751025.219                    83028573.127    19998065.520  
  19998061.074  
  20115265.625   107414391.120                    83544529.668    20115268.090  
  20115265.184  
  23578654.242   123906668.004    23578661.215    96550688.7754   23578661.367  
                
  23295498.320   122418667.261    23295504.367    95391185.4064   23295504.383  
                
  22343092.609   117413753.365    22343096.938    91491256.6214                 
                
  20038221.469   105301589.827    20038230.348    82053217.1074   20038230.707  
                
 21  8 16  3 39 30.0000000  0 13G 6G20R16R19G29G12R15R18R 9G 5G31G 2
                                G25
  24597410.719   129260256.259    24597419.969   100722313.9944   24597420.316  
                
  22463744.734   118047759.180    22463750.773    91985311.2214                 
                
  19687453.859   105166851.439                    81796426.411    19687455.613  
  19687453.629  
  19646562.117   105095900.422                    81741242.674    19646564.980  
  19646559.887  
  21308029.047   111974461.767    21308035.344    87252856.0914   21308035.441  
                
  20911111.578   109888642.587    20911117.715    85627542.0544   20911117.848  
                
  23526032.602   125715983.227                    97779069.935    23526038.004  
  23526032.703  
  20002274.586   106773509.519                    83046060.910    20002277.609  
  20002273.148  
  20111222.430   107392800.615                    83527737.066    20111224.895  
  20111221.992  
  23572594.422   123874824.326    23572601.590    96525875.5344   23572601.742  
                
  23292644.875   122403672.294    23292650.922    95379501.0194   23292650.949  
                
  22347401.055   117436394.315    22347405.391    91508898.9064                 
                
  20038109.297   105301000.318    20038118.184    82052757.7464   20038118.539  
                
 21  8 16  3 39 40.0000000  0 13G 6G20R16R19G29G12R15R18R 9G 5G31G 2
                                G25
  24604121.641   129295522.475    24604130.961   100749794.1324   24604131.316  
                
  22460958.141   118033115.581    22460964.180    91973900.6254                 
                
  19691260.000   105187183.151                    81812239.960    19691261.762  
  19691259.777  
  19644600.430   105085406.762                    81733080.958    19644603.352  
  19644598.195  
  21304854.727   111957780.620    21304861.020    87239857.8044   21304861.102  
                
  20914887.094   109908483.096    20914893.207    85643002.1754   20914893.371  
                
  23534311.422   125760222.390                    97813478.158    23534316.809  
  23534311.523  
  20006494.273   106796034.499                    83063580.338    20006497.297  
  20006492.836  
  20107192.516   107371281.118                    83510999.669    20107194.984  
  20107192.074  
  23566538.602   123843001.513    23566545.922    96501078.5304   23566546.078  
                
  23289802.617   122388736.200    23289808.645    95367862.4984   23289808.703  
                
  22351715.656   117459067.743    22351719.980    91526566.5054                 
                
  20038007.812   105300467.031    20038016.711    82052342.1974   20038017.066  
                
 21  8 16  3 39 50.0000000  0 13G 6G20R16R19G29G12R15R18R 9G 5G31G 2
                                G25
  24610834.820   129330800.649    24610844.207   100777283.5804   24610844.570  
                
  22458181.672   118018525.169    22458187.715    91962531.4734                 
                
  19695080.445   105207591.264                    81828112.941    19695082.188  
  19695080.227  
  19642650.070   105074973.707                    81724966.378    19642653.043  
  19642647.805  
  21301686.070   111941129.243    21301692.355    87226882.6984   21301692.438  
                
  20918671.328   109928369.334    20918677.426    85658497.9364   20918677.598  
                
  23542592.961   125804476.214                    97847897.773    23542598.309  
  23542593.047  
  20010721.531   106818599.885                    83081131.184    20010724.543  
  20010720.082  
  20103175.852   107349832.395                    83494317.327    20103178.320  
  20103175.406  
  23560486.781   123811199.272    23560494.176    96476297.5814   23560494.336  
                
  23286971.523   122373858.664    23286977.547    95356269.6214   23286977.633  
                
  22356036.359   117481773.217    22356040.676    91544259.0744                 
                
  20037916.961   105299989.601    20037925.867    82051970.1704   20037926.219  
                
 21  8 16  3 40  0.0000000  0 13G 6G20R16R19G29G12R15R18R 9G 5G31G 2
                                G25
  24617550.305   129366090.908    24617559.762   100804782.4394   24617560.125  
                
  22455415.391   118003988.220    22455421.434    91951203.9854                 
                
  19698915.242   105228076.018                    81844045.512    19698916.992  
  19698915.016  
  19640711.133   105064601.668                    81716899.217    19640714.094  
  19640708.863  
  21298523.102   111924507.725    21298529.395    87213930.8614   21298529.473  
                
  20922464.289   109948301.433    20922470.383    85674029.4354   20922470.562  
                
  23550877.258   125848744.747                    97882328.855    23550882.574  
  23550877.336  
  20014956.383   106841205.770                    83098713.539    20014959.387  
  20014954.941  
  20099172.508   107328454.752                    83477690.281    20099174.969  
  20099172.070  
  23554438.984   123779418.035    23554446.434    96451532.9964   23554446.605  
                
  23284151.602   122359039.896    23284157.652    95344722.5364   23284157.766  
                
  22360363.203   117504510.893    22360367.500    91561976.7384                 
                
  20037836.781   105299568.270    20037845.707    82051641.8584   20037846.043  
                
 21  8 16  3 40 10.0000000  0 13G 6G20R16R19G29G12R15R18R 9G 5G31G 2
                                G25
  24624268.023   129401392.849    24624277.543   100832290.4224   24624277.902  
                
  22452659.227   117989504.473    22452665.266    91939917.9464                 
                
  19702764.281   105248636.831                    81860037.255    19702766.043  
  19702764.062  
  19638783.570   105054290.392                    81708879.326    19638786.527  
  19638781.332  
  21295365.758   111907915.812    21295372.082    87201002.1094   21295372.137  
                
  20926265.914   109968279.108    20926272.023    85689596.4444   20926272.203  
                
  23559164.273   125893027.670                    97916771.113    23559169.543  
  23559164.316  
  20019198.711   106863851.587                    83116326.941    20019201.695  
  20019197.266  
  20095182.445   107307148.030                    83461118.382    20095184.910  
  20095181.992  
  23548395.125   123747657.664    23548402.641    96426784.6624   23548402.832  
                
  23281342.820   122344279.712    23281348.887    95333221.1014   23281349.016  
                
  22364696.094   117527280.392    22364700.363    91579719.1954                 
                
  20037767.234   105299202.782    20037776.172    82051357.0594   20037776.500  
                
 21  8 16  3 40 20.0000000  0 12G 6G20R16R19G29G12R18R 9G 5G31G 2G25
  24630987.891   129436706.028    24630997.453   100859807.1724   24630997.809  
                
  22449913.133   117975073.664    22449919.230    91928673.1684                 
                
  19706627.523   105269273.571                    81876088.040    19706629.285  
  19706627.309  
  19636867.273   105044039.445                    81700906.357    19636870.234  
  19636865.078  
  21292213.992   111891353.178    21292220.344    87188096.1564   21292220.355  
                
  20930076.141   109988302.008    20930082.277    85705198.6974   20930082.453  
                
  20023448.438   106886536.916                    83133971.092    20023451.418  
  20023447.008  
  20091205.617   107285911.995                    83444601.452    20091208.078  
  20091205.160  
  23542355.242   123715917.860    23542362.762    96402052.3494   23542362.961  
                
  23278545.125   122329577.797    23278551.195    95321765.0564   23278551.352  
                
  22369034.953   117550081.247    22369039.195    91597486.0984                 
                
  20037708.242   105298892.782    20037717.195    82051115.4934   20037717.512  
                
 21  8 16  3 40 30.0000000  0 12G 6G20R16R19G29G12R18R 9G 5G31G 2G25
  24637710.078   129472031.285    24637719.645   100887333.3544   24637719.996  
                
  22447177.320   117960696.883    22447183.453    91917470.4884                 
                
  19710505.141   105289987.050                    81892198.526    19710506.914  
  19710504.910  
  19634962.406   105033849.628                    81692980.961    19634965.414  
  19634960.234  
  21289067.969   111874820.755    21289074.336    87175213.7534   21289074.328  
                
  20933895.141   110008370.938    20933901.305    85720836.8124   20933901.457  
                
  20027705.773   106909262.817                    83151646.798    20027708.738  
  20027704.359  
  20087242.188   107264747.521                    83428140.198    20087244.668  
  20087241.734  
  23536319.508   123684199.650    23536327.004    96377336.8614   23536327.207  
                
  23275758.703   122314935.102    23275764.770    95310355.1584   23275764.922  
                
  22373379.938   117572914.230    22373384.184    91615278.0374                 
                
  20037660.000   105298639.234    20037668.961    82050917.9224   20037669.273  
                
 21  8 16  3 40 40.0000000  0 12G 6G20R16R19G29G12R18R 9G 5G31G 2G25
  24644434.438   129507367.985    24644444.008   100914868.4364   24644444.363  
                
  22444451.672   117946373.564    22444457.812    91906309.4584                 
                
  19714396.945   105310776.376                    81908367.986    19714398.734  
  19714396.699  
  19633068.867   105023720.445                    81685102.721    19633071.914  
  19633066.719  
  21285927.586   111858317.947    21285933.941    87162354.4284   21285933.934  
                
  20937722.781   110028485.292    20937728.953    85736510.3274   20937729.098  
                
  20031970.516   106932028.268                    83169353.257    20031973.477  
  20031969.098  
  20083292.125   107243654.444                    83411734.471    20083294.613  
  20083291.660  
  23530287.781   123652502.653    23530295.277    96352637.8994   23530295.492  
                
  23272983.453   122300351.080    23272989.531    95298990.9774   23272989.684  
                
  22377730.914   117595778.776    22377735.156    91633094.5594                 
                
  20037622.391   105298441.567    20037631.352    82050763.8974   20037631.672  
                
 21  8 16  3 40 50.0000000  0 12G 6G20R16R19G29G12R18R 9G 5G31G 2G25
  24651160.961   129542716.086    24651170.520   100942412.4044   24651170.887  
                
  22441736.211   117932103.788    22441742.387    91895190.1704                 
                
  19718302.984   105331641.717                    81924596.583    19718304.832  
  19718302.727  
  19631186.664   105013651.988                    81677271.714    19631189.750  
  19631184.527  
  21282792.852   111841844.812    21282799.184    87149518.2164   21282799.195  
                
  20941559.109   110048645.304    20941565.293    85752219.4244   20941565.449  
                
  20036242.688   106954833.377                    83187090.549    20036245.652  
  20036241.262  
  20079355.445   107222632.773                    83395384.273    20079357.941  
  20079354.973  
  23524260.125   123620827.028    23524267.598    96327955.6014   23524267.832  
                
  23270219.391   122285825.813    23270225.480    95287672.5894   23270225.617  
                
  22382087.898   117618674.876    22382092.129    91650935.6734                 
                
  20037595.438   105298299.926    20037604.391    82050653.5194   20037604.723  
                
 21  8 16  3 41  0.0000000  0 12G 6G20R16R19G29G12R18R 9G 5G31G 2G25
  24657889.625   129578075.380    24657899.156   100969965.0884   24657899.547  
                
  22439030.945   117917887.542    22439037.160    91884112.5704                 
                
  19722223.203   105352582.781                    81940884.065    19722225.090  
  19722222.930  
  19629315.789   105003643.990                    81669487.713    19629318.859  
  19629313.664  
  21279663.727   111825401.173    21279670.035    87136704.9954   21279670.059  
                
  20945404.055   110068850.588    20945410.262    85767963.7844   20945410.398  
                
  20040522.266   106977678.000                    83204858.585    20040525.227  
  20040520.855  
  20075432.133   107201682.457                    83379089.596    20075434.645  
  20075431.645  
  23518236.641   123589172.718    23518243.969    96303289.8914   23518244.195  
                
  23267466.508   122271359.291    23267472.598    95276399.9864   23267472.742  
                
  22386450.852   117641602.317    22386455.082    91668801.2064                 
                
  20037579.125   105298214.144    20037588.062    82050586.6694   20037588.410  
                
 21  8 16  3 41 10.0000000  0 12G 6G20R16R19G29G12R18R 9G 5G31G 2G25
  24664620.477   129613446.199    24664629.992   100997526.7474   24664630.410  
                
  22436335.961   117903725.320    22436342.180    91873077.0784                 
                
  19726157.680   105373600.042                    81957230.813    19726159.570  
  19726157.406  
  19627456.328   104993697.057                    81661751.193    19627459.367  
  19627454.246  
  21276540.320   111808987.548    21276546.621    87123915.1574   21276546.664  
                
  20949257.695   110089101.594    20949263.926    85783743.7824   20949264.047  
                
  20044809.289   107000562.374                    83222657.528    20044812.234  
  20044807.895  
  20071522.281   107180804.092                    83362850.868    20071524.797  
  20071521.805  
  23512217.180   123557540.262    23512224.445    96278641.2124   23512224.680  
                
  23264724.906   122256951.989    23264730.980    95265173.5174   23264731.129  
                
  22390819.828   117664561.419    22390824.074    91686691.4044                 
                
  20037573.531   105298184.705    20037582.445    82050563.7274   20037582.812  
                
 21  8 16  3 41 20.0000000  0 12G 6G20R16R19G29G12R18R 9G 5G31G 2G25
  24671353.430   129648828.040    24671362.938   101025096.9954   24671363.383  
                
  22433651.188   117889616.777    22433657.406    91862083.4034                 
                
  19730106.328   105394692.981                    81973636.423    19730108.250  
  19730106.074  
  19625608.156   104983810.555                    81654061.701    19625611.195  
  19625606.078  
  21273422.523   111792603.420    21273428.840    87111148.3094   21273428.875  
                
  20953119.961   110109397.912    20953126.223    85799559.0834   20953126.332  
                
  20049103.633   107023485.854                    83240486.913    20049106.570  
  20049102.254  
  20067625.859   107159997.437                    83346667.904    20067628.387  
  20067625.395  
  23506201.734   123525929.383    23506209.078    96254009.3644   23506209.312  
                
  23261994.500   122242603.583    23262000.562    95253992.9264   23262000.691  
                
  22395194.727   117687551.678    22395198.969    91704605.8904                 
                
  20037578.586   105298211.234    20037587.473    82050584.3944   20037587.855  
                
 21  8 16  3 41 30.0000000  0 12G 6G20R16R19G29G12R18R 9G 5G31G 2G25
  24678088.492   129684221.057    24678098.023   101052675.9424   24678098.492  
                
  22430976.688   117875562.256    22430982.895    91851131.8384                 
                
  19734069.148   105415861.669                    81990100.957    19734071.086  
  19734068.902  
  19623771.289   104973984.616                    81646419.313    19623774.344  
  19623769.219  
  21270310.398   111776249.171    21270316.738    87098404.7384   21270316.773  
                
  20956990.875   110129739.691    20956997.172    85815409.8094   20956997.281  
                
  20053405.359   107046448.711                    83258346.904    20053408.277  
  20053403.992  
  20063742.922   107139262.791                    83330540.959    20063745.465  
  20063742.445  
  23500190.523   123494340.402    23500197.910    96229394.5924   23500198.156  
                
  23259275.328   122228314.257    23259281.387    95242858.3894   23259281.500  
                
  22399575.586   117710573.261    22399579.812    91722544.7884                 
                
  20037594.328   105298293.939    20037603.195    82050648.8394   20037603.590  
                
 21  8 16  3 41 40.0000000  0 12G 6G20R16R19G29G12R18R 9G 5G31G 2G25
  24684825.680   129719625.267    24684835.258   101080263.6024   24684835.738  
                
  22428312.500   117861561.887    22428318.680    91840222.4574                 
                
  19738046.180   105437106.207                    82006624.481    19738048.152  
  19738045.930  
  19621945.836   104964219.640                    81638824.343    19621948.906  
  19621943.770  
  21267203.977   111759924.788    21267210.336    87085684.4484   21267210.363  
                
  20960870.461   110150126.989    20960876.797    85831296.0074   20960876.883  
                
  20057714.430   107069450.795                    83276237.413    20057717.344  
  20057713.059  
  20059873.523   107118600.395                    83314470.219    20059876.074  
  20059873.043  
  23494183.625   123462773.613    23494190.996    96204797.0924   23494191.230  
                
  23256567.430   122214084.157    23256573.461    95231769.9874   23256573.578  
                
  22403962.430   117733626.274    22403966.652    91740508.1694                 
                
  20037620.797   105298432.999    20037629.652    82050757.1934   20037630.055  
                
 21  8 16  3 41 50.0000000  0 12G 6G20R16R19G29G12R18R 9G 5G31G 2G25
  24691564.953   129755040.372    24691574.559   101107859.7524   24691575.047  
                
  22425658.570   117847615.479    22425664.727    91829355.1354                 
                
  19742037.344   105458426.288                    82023206.759    19742039.312  
  19742037.082  
  19620131.695   104954515.213                    81631276.458    19620134.746  
  19620129.652  
  21264103.195   111743630.115    21264109.566    87072987.3064   21264109.582  
                
  20964758.656   110170559.590    20964765.020    85847217.5044   20964765.102  
                
  20062030.805   107092491.906                    83294158.258    20062033.699  
  20062029.418  
  20056017.633   107098010.204                    83298455.608    20056020.176  
  20056017.156  
  23488180.867   123431228.842    23488188.277    96180216.7584   23488188.488  
                
  23253870.805   122199913.244    23253876.785    95220727.7104   23253876.910  
                
  22408355.227   117756710.557    22408359.457    91758495.9184                 
                
  20037657.945   105298628.205    20037666.789    82050909.3024   20037667.195  
                
 21  8 16  3 42  0.0000000  0 12G 6G20R16R19G29G12R18R 9G 5G31G 2G25
  24698306.234   129790466.032    24698315.867   101135464.1474   24698316.363  
                
  22423014.898   117833722.954    22423021.043    91818529.7994                 
                
  19746042.602   105479821.601                    82039847.538    19746044.594  
  19746042.332  
  19618328.859   104944871.127                    81623775.501    19618331.875  
  19618326.840  
  21261008.062   111727365.060    21261014.438    87060313.2354   21261014.461  
                
  20968655.438   110191037.286    20968661.816    85863174.1394   20968661.895  
                
  20066354.438   107115571.719                    83312109.232    20066357.332  
  20066353.031  
  20052175.227   107077491.986                    83282497.003    20052177.785  
  20052174.730  
  23482182.320   123399705.995    23482189.719    96155653.4914   23482189.902  
                
  23251185.383   122185801.223    23251191.281    95209731.3274   23251191.441  
                
  22412753.852   117779825.479    22412758.102    91776507.5404                 
                
  20037705.742   105298879.339    20037714.578    82051104.9814   20037714.988  
                
 21  8 16  3 42 10.0000000  0 12G 6G20R16R19G29G12R18R 9G 5G31G 2G25
  24705049.859   129825903.981    24705059.508   101163078.1124   24705060.004  
                
  22420381.844   117819886.220    22420387.992    91807747.9254                 
                
  19750062.266   105501293.929                    82056548.238    19750064.281  
  19750062.012  
  19616537.555   104935288.905                    81616322.660    19616540.547  
  19616535.551  
  21257918.898   111711131.415    21257925.285    87047663.6394   21257925.316  
                
  20972561.148   110211561.868    20972567.535    85879167.3094   20972567.613  
                
  20070685.641   107138691.956                    83330091.642    20070688.523  
  20070684.238  
  20048346.672   107057047.759                    83266595.938    20048349.230  
  20048346.172  
  23476188.406   123368207.109    23476195.746    96131108.9094   23476195.898  
                
  23248511.523   122171749.994    23248517.348    95198782.3114   23248517.547  
                
  22417158.656   117802972.844    22417162.910    91794544.4404                 
                
  20037764.531   105299188.251    20037773.367    82051345.6954   20037773.770  
                
 21  8 16  3 42 20.0000000  0 12G 6G20R16R19G29G12R18R 9G 5G31G 2G25
  24711795.391   129861351.844    24711805.059   101190699.8084   24711805.531  
                
  22417758.984   117806103.027    22417765.109    91797007.7634                 
                
  19754095.914   105522840.876                    82073306.964    19754097.930  
  19754095.676  
  19614757.461   104925766.619                    81608916.434    19614760.418  
  19614755.445  
  21254835.266   111694926.811    21254841.664    87035036.6794   21254841.688  
                
  20976475.328   110232130.956    20976481.730    85895195.1644   20976481.809  
                
  20075023.961   107161850.227                    83348103.620    20075026.836  
  20075022.555  
  20044531.570   107036675.324                    83250750.705    20044534.121  
  20044531.082  
  23470198.594   123336730.055    23470205.891    96106581.3324   23470206.031  
                
  23245848.812   122157757.340    23245854.590    95187878.9324   23245854.828  
                
  22421569.180   117826150.283    22421573.434    91812604.7784                 
                
  20037833.875   105299552.663    20037842.715    82051629.6454   20037843.109  
                
 21  8 16  3 42 30.0000000  0 12G 6G20R16R19G29G12R18R 9G 5G31G 2G25
  24718542.844   129896809.847    24718552.520   101218329.4254   24718552.961  
                
  22415146.383   117792373.738    22415152.488    91786309.6094                 
                
  19758143.562   105544462.647                    82090123.901    19758145.559  
  19758143.324  
  19612988.555   104916304.208                    81601556.789    19612991.496  
  19612986.531  
  21251757.227   111678751.617    21251763.629    87022432.6344   21251763.645  
                
  20980398.016   110252744.830    20980404.441    85911257.9074   20980404.512  
                
  20079369.430   107185046.603                    83366145.255    20079372.293  
  20079368.008  
  20040729.969   107016375.011                    83234961.574    20040732.516  
  20040729.473  
  23464212.883   123305274.998    23464220.223    96082070.9114   23464220.344  
                
  23243197.297   122143823.545    23243203.055    95177021.4224   23243203.297  
                
  22425985.453   117849358.039    22425989.699    91830688.7364                 
                
  20037913.852   105299972.936    20037922.699    82051957.1304   20037923.078  
                
 21  8 16  3 42 40.0000000  0 12G 6G20R16R19G29G12R18R 9G 5G31G 2G25
  24725292.305   129932278.362    24725301.973   101245967.2384   24725302.391  
                
  22412544.109   117778698.769    22412550.234    91775653.8114                 
                
  19762205.328   105566159.797                    82106999.450    19762207.297  
  19762205.094  
  19611230.984   104906902.305                    81594244.192    19611233.883  
  19611228.969  
  21248684.867   111662606.271    21248691.289    87009851.8504   21248691.301  
                
  20984329.328   110273403.911    20984335.770    85927355.8874   20984335.828  
                
  20083722.117   107208281.540                    83384216.864    20083725.000  
  20083720.684  
  20036942.008   106996147.502                    83219229.067    20036944.555  
  20036941.523  
  23458231.523   123273842.566    23458238.875    96057578.1344   23458238.969  
                
  23240557.070   122129949.067    23240562.801    95166210.1414   23240563.051  
                
  22430407.594   117872596.535    22430411.824    91848796.6464                 
                
  20038004.547   105300449.511    20038013.406    82052328.4834   20038013.773  
                
 21  8 16  3 42 50.0000000  0 12G 6G20R16R19G29G12R18R 9G 5G31G 2G25
  24732043.734   129967757.246    24732053.406   101273613.1254   24732053.785  
                
  22409952.211   117765078.273    22409958.344    91765040.4374                 
                
  19766281.141   105587932.011                    82123933.396    19766283.078  
  19766280.918  
  19609484.711   104897560.912                    81586978.668    19609487.590  
  19609482.703  
  21245618.172   111646490.683    21245624.613    86997294.2504   21245624.613  
                
  20988269.203   110294108.102    20988275.664    85943489.0144   20988275.703  
                
  20088082.000   107231554.944                    83402318.394    20088084.902  
  20088080.555  
  20033167.680   106975992.817                    83203553.197    20033170.227  
  20033167.195  
  23452254.586   123242433.032    23452261.879    96033103.1874   23452261.969  
                
  23237928.141   122116134.006    23237933.848    95155445.1554   23237934.105  
                
  22434835.539   117895865.590    22434839.742    91866928.3744                 
                
  20038105.945   105300982.362    20038114.812    82052743.6894   20038115.176  
                
 21  8 16  3 43  0.0000000  0 12G 6G20R16R19G29G12R18R 9G 5G31G 2G25
  24738797.094   130003246.283    24738806.785   101301266.9074   24738807.145  
                
  22407370.648   117751512.133    22407376.781    91754469.4134                 
                
  19770370.938   105609778.966                    82140925.478    19770372.867  
  19770370.727  
  19607749.688   104888279.643                    81579759.911    19607752.523  
  19607747.668  
  21242557.078   111630404.540    21242563.543    86984759.5894   21242563.523  
                
  20992217.648   110314857.311    20992224.125    85959657.2164   20992224.145  
                
  20092449.023   107254866.372                    83420449.487    20092451.934  
  20092447.578  
  20029407.000   106955911.007                    83187934.005    20029409.527  
  20029406.512  
  23446281.992   123211046.176    23446289.164    96008645.8924   23446289.273  
                
  23235310.500   122102378.229    23235316.176    95144726.3704   23235316.445  
                
  22439269.250   117919164.946    22439273.426    91885083.6994                 
                
  20038218.031   105301571.380    20038226.906    82053202.6584   20038227.258  
                
 21  8 16  3 43 10.0000000  0 12G 6G20R16R19G29G12R18R 9G 5G31G 2G25
  24745552.453   130038745.902    24745562.176   101328928.9214   24745562.523  
                
  22404799.562   117738000.958    22404805.688    91743941.2284                 
                
  19774474.875   105631701.436                    82157976.275    19774476.789  
  19774474.656  
  19606026.062   104879059.366                    81572588.581    19606028.852  
  19606024.020  
  21239501.742   111614348.665    21239508.230    86972248.5174   21239508.191  
                
  20996174.750   110335651.974    20996181.230    85975860.8454   20996181.242  
                
  20096823.266   107278216.400                    83438610.613    20096826.168  
  20096821.824  
  20025660.062   106935902.569                    83172371.892    20025662.578  
  20025659.590  
  23440313.789   123179682.712    23440320.863    95984206.8334   23440320.980  
                
  23232704.250   122088682.380    23232709.914    95134054.2674   23232710.191  
                
  22443708.852   117942495.200    22443713.004    91903263.1204                 
                
  20038340.906   105302217.100    20038349.781    82053705.8154   20038350.129  
                
 21  8 16  3 43 20.0000000  0 12G 6G20R16R19G29G12R18R 9G 5G31G 2G25
  24752309.711   130074255.475    24752319.461   101356598.6944   24752319.797  
                
  22402238.859   117724544.336    22402245.000    91733455.5514                 
                
  19778592.781   105653698.523                    82175085.111    19778594.691  
  19778592.562  
  19604313.641   104869899.118                    81565463.946    19604316.410  
  19604311.578  
  21236452.070   111598322.496    21236458.578    86959760.5974   21236458.539  
                
  21000140.391   110356491.503    21000146.863    85992099.4364   21000146.883  
                
  20101204.633   107301604.379                    83456801.252    20101207.543  
  20101203.188  
  20021926.805   106915967.158                    83156866.572    20021929.309  
  20021926.332  
  23434349.898   123148342.366    23434356.934    95959785.7894   23434357.070  
                
  23230109.312   122075045.895    23230114.961    95123428.4544   23230115.246  
                
  22448154.188   117965855.614    22448158.316    91921466.0284                 
                
  20038474.484   105302919.015    20038483.355    82054252.7594   20038483.707  
                
 21  8 16  3 43 30.0000000  0 13G 6G20R16R19G29G12R18R 9R20G 5G31G 2
                                G25
  24759068.844   130109775.014    24759078.625   101384276.2194   24759078.977  
                
  22399688.562   117711142.433    22399694.758    91723012.5104                 
                
  19782724.695   105675770.392                    82192252.119    19782726.578  
  19782724.492  
  19602612.492   104860799.136                    81558386.176    19602615.234  
  19602610.402  
  21233408.055   111582326.117    21233414.562    86947295.8844   21233414.531  
                
  21004114.578   110377376.022    21004121.039    86008373.0774   21004121.059  
                
  20105593.062   107325030.177                    83475021.314    20105595.977  
  20105591.602  
  20018207.297   106896105.177                    83141418.355    20018209.785  
  20018206.832  
  23565531.211   126015487.456                    98012066.926    23565536.773  
  23565529.320  
  23428390.430   123117025.166    23428397.398    95935382.7744   23428397.570  
                
  23227525.719   122061469.030    23227531.328    95112849.0654   23227531.645  
                
  22452605.273   117989246.219    22452609.371    91939692.4764                 
                
  20038618.766   105303677.259    20038627.633    82054843.5954   20038627.988  
                
 21  8 16  3 43 40.0000000  0 12G20R16R19G29G12R18R 9R20G 5G31G 2G25
  22397148.719   117697795.506    22397154.961    91712612.3204                 
                
  19786870.648   105697917.280                    82209477.482    19786872.539  
  19786870.453  
  19600922.672   104851759.759                    81551355.556    19600925.395  
  19600920.555  
  21230369.766   111566359.800    21230376.258    86934854.6054   21230376.246  
                
  21008097.391   110398305.774    21008103.844    86024681.9674   21008103.871  
                
  20109988.641   107348494.064                    83493271.002    20109991.559  
  20109987.152  
  20014501.570   106876316.754                    83126027.365    20014504.047  
  20014501.121  
  23558785.180   125979412.974                    97984008.978    23558790.355  
  23558783.262  
  23422435.461   123085731.584    23422442.406    95910998.1724   23422442.582  
                
  23224953.523   122047952.067    23224959.113    95102316.3584   23224959.457  
                
  22457062.156   118012667.358    22457066.227    91957942.7144                 
                
  20038773.852   105304492.189    20038782.719    82055478.6044   20038783.070  
                
 21  8 16  3 43 50.0000000  0 12G20R16R19G29G12R18R 9R20G 5G31G 2G25
  22394619.336   117684503.489    22394625.555    91702254.8984                 
                
  19791030.531   105720138.611                    82226760.721    19791032.422  
  19791030.316  
  19599244.117   104842780.643                    81544371.794    19599246.809  
  19599241.977  
  21227337.180   111550423.438    21227343.648    86922436.6584   21227343.656  
                
  21012088.781   110419280.631    21012095.227    86041026.0014   21012095.238  
                
  20114391.320   107371995.852                    83511550.150    20114394.223  
  20114389.801  
  20010809.625   106856601.973                    83110693.639    20010812.094  
  20010809.191  
  23552043.188   125943361.896                    97955969.257    23552048.551  
  23552041.539  
  23416485.008   123054461.541    23416491.934    95886631.9054   23416492.082  
                
  23222392.695   122034494.863    23222398.297    95091830.2344   23222398.664  
                
  22461524.805   118036118.692    22461528.828    91976216.4664                 
                
  20038939.680   105305363.637    20038948.543    82056157.6454   20038948.891  
                
 21  8 16  3 44  0.0000000  0 12G20R16R19G29G12R18R 9R20G 5G31G 2G25
  22392100.367   117671266.194    22392106.539    91691940.1204                 
                
  19795204.398   105742434.606                    82244102.051    19795206.277  
  19795204.180  
  19597576.781   104833861.528                    81537434.706    19597579.445  
  19597574.613  
  21224310.219   111534516.618    21224316.680    86910041.7284   21224316.703  
                
  21016088.688   110440300.269    21016095.105    86057404.9334   21016095.121  
                
  20118801.008   107395535.053                    83529858.430    20118803.918  
  20118799.480  
  20007131.453   106836960.692                    83095417.078    20007133.891  
  20007131.035  
  23545305.875   125907334.145                    97927947.673    23545311.184  
  23545304.156  
  23410538.953   123023214.890    23410545.918    95862283.8784   23410546.043  
                
  23219843.203   122021097.182    23219848.848    95081390.4784   23219849.246  
                
  22465993.109   118059599.828    22465997.094    91994513.4614                 
                
  20039116.219   105306291.335    20039125.078    82056880.5294   20039125.430  
                
 21  8 16  3 44 10.0000000  0 12G20R16R19G29G12R18R 9R20G 5G31G 2G25
  22389591.891   117658084.137    22389598.043    91681668.4024                 
                
  19799392.188   105764805.099                    82261501.313    19799394.066  
  19799391.957  
  19595920.766   104825003.081                    81530544.809    19595923.430  
  19595918.590  
  21221288.961   111518639.848    21221295.414    86897670.2314   21221295.426  
                
  21020097.180   110461365.004    21020103.578    86073819.0074   21020103.609  
                
  20123217.781   107419112.054                    83548196.092    20123220.688  
  20123216.238  
  20003467.133   106817393.448                    83080198.113    20003469.562  
  20003466.707  
  23538573.086   125871330.150                    97899944.529    23538578.117  
  23538571.215  
  23404597.430   122991992.304    23404604.414    95837954.6014   23404604.559  
                
  23217305.117   122007759.545    23217310.809    95070997.4964   23217311.191  
                
  22470467.172   118083111.222    22470471.133    92012834.0284                 
                
  20039303.547   105307275.766    20039312.410    82057647.6224   20039312.758  
                
 21  8 16  3 44 20.0000000  0 12G20R16R19G29G12R18R 9R20G 5G31G 2G25
  22387094.008   117644957.638    22387100.160    91671439.9704                 
                
  19803594.047   105787250.632                    82278958.940    19803595.902  
  19803593.801  
  19594276.094   104816205.263                    81523702.056    19594278.754  
  19594273.883  
  21218273.484   111502793.404    21218279.906    86885322.3474   21218279.934  
                
  21024114.289   110482475.038    21024120.680    86090268.3864   21024120.699  
                
  20127641.672   107442727.033                    83566563.302    20127644.570  
  20127640.152  
  19999816.750   106797900.550                    83065036.966    19999819.164  
  19999816.344  
  23531844.773   125835350.328                    97871960.205    23531849.715  
  23531842.926  
  23398660.625   122960794.196    23398667.555    95813644.3874   23398667.730  
                
  23214778.531   121994482.268    23214784.266    95060651.5654   23214784.621  
                
  22474947.023   118106652.999    22474950.988    92031178.2594                 
                
  20039501.734   105308317.228    20039510.590    82058459.1444   20039510.938  
                
 21  8 16  3 44 30.0000000  0 12G20R16R19G29G12R18R 9R20G 5G31G 2G25
  22384606.547   117631885.975    22384612.695    91661254.2514                 
                
  19807809.750   105809770.159                    82296474.125    19807811.578  
  19807809.500  
  19592642.570   104807467.073                    81516905.691    19592645.227  
  19592640.340  
  21215263.625   111486976.554    21215270.004    86872997.5294   21215270.059  
                
  21028139.875   110503629.618    21028146.262    86106752.4604   21028146.266  
                
  20132072.484   107466379.005                    83584959.273    20132075.375  
  20132070.969  
  19996180.180   106778481.468                    83049933.234    19996182.578  
  19996179.777  
  23525120.758   125799393.817                    97843994.036    23525125.629  
  23525118.855  
  23392728.328   122929619.653    23392735.188    95789352.5274   23392735.383  
                
  23212263.266   121981264.482    23212269.027    95050351.9884   23212269.363  
                
  22479432.492   118130224.305    22479436.484    92049545.5074                 
                
  20039710.602   105309414.841    20039719.453    82059314.4284   20039719.812  
                
 21  8 16  3 44 40.0000000  0 12G20R16R19G29G12R18R 9R20G 5G31G 2G25
  22382129.633   117618869.759    22382135.773    91651111.7564                 
                
  19812039.430   105832364.304                    82314047.336    19812041.227  
  19812039.184  
  19591020.359   104798789.380                    81510156.384    19591023.016  
  19591018.086  
  21212259.516   111471189.873    21212265.848    86860696.2184   21212265.922  
                
  21032174.039   110524829.272    21032180.410    86123271.6674   21032180.422  
                
  20136510.352   107490068.591                    83603384.508    20136513.250  
  20136508.859  
  19992557.508   106759136.553                    83034887.186    19992559.898  
  19992557.105  
  23518401.133   125763461.295                    97816046.502    23518406.070  
  23518399.312  
  23386800.641   122898469.443    23386807.473    95765079.6354   23386807.680  
                
  23209759.453   121968106.847    23209765.266    95040099.2844   23209765.582  
                
  22483923.680   118153825.621    22483927.699    92067936.1394                 
                
  20039930.297   105310569.290    20039939.141    82060213.9974   20039939.508  
                
 21  8 16  3 44 50.0000000  0 13G20R16R19G29G12R18G18R 9R20G 5G31G 2
                                G25
  22379663.641   117605910.939    22379669.762    91641013.9784                 
                
  19816283.398   105855034.807                    82331679.951    19816285.195  
  19816283.137  
  19589409.820   104790174.051                    81503455.567    19589412.457  
  19589407.547  
  21209261.484   111455435.121    21209267.758    86848419.7894   21209267.852  
                
  21036217.133   110546075.858    21036223.484    86139827.4454   21036223.500  
                
  20140955.570   107513797.418                    83621840.248    20140958.457  
  20140954.090  
  24602947.641   129289383.533    24602955.371   100744988.8524   24602955.203  
                
  19988949.156   106739868.162                    83019900.657    19988951.555  
  19988948.770  
  23511686.445   125727554.789                    97788119.243    23511691.387  
  23511684.602  
  23380878.039   122867345.588    23380884.785    95740827.2834   23380885.008  
                
  23207267.469   121955011.327    23207273.348    95029894.9824   23207273.625  
                
  22488420.922   118177458.752    22488424.977    92086351.5594                 
                
  20040161.148   105311782.443    20040169.984    82061159.3034   20040170.359  
                
 21  8 16  3 45  0.0000000  0 14G20R16R19G29G12R10R18G18R 9R20G 5G31
                                G 2G25
  22377207.914   117593006.027    22377214.043    91630958.1974                 
                
  19820540.961   105877777.906                    82349369.018    19820542.758  
  19820540.691  
  19587810.258   104781617.412                    81496800.398    19587812.906  
  19587807.977  
  21206268.875   111439708.892    21206275.113    86836165.5864   21206275.223  
                
  21040268.500   110567365.853    21040274.832    86156417.0434   21040274.852  
                
  23604373.859   125824592.054                                                  
  23604373.578  
  20145407.422   107537561.629                    83640323.523    20145410.316  
  20145405.941  
  24595866.977   129252174.622    24595874.719   100715994.9074   24595874.578  
                
  19985354.477   106720672.734                    83004970.876    19985356.879  
  19985354.078  
  23504975.633   125691670.538                    97760209.267    23504980.855  
  23504974.020  
  23374959.758   122836244.680    23374966.523    95716592.8164   23374966.734  
                
  23204786.625   121941974.407    23204792.555    95019736.3534   23204792.797  
                
  22492923.508   118201119.936    22492927.598    92104788.8394                 
                
  20040402.508   105313050.753    20040411.336    82062147.5944   20040411.723  
                
 21  8 16  3 45 10.0000000  0 14G20R16R19G29G12R10R18G18R 9R20G 5G31
                                G 2G25
  22374762.648   117580156.160    22374768.781    91620945.3334                 
                
  19824812.305   105900594.639                    82367115.361    19824814.109  
  19824812.039  
  19586221.812   104773120.404                    81490191.625    19586224.473  
  19586219.539  
  21203281.906   111424012.268    21203288.129    86823934.4564   21203288.262  
                
  21044328.305   110588700.222    21044334.621    86173041.2174   21044334.641  
                
  23596571.336   125783000.137                                                  
  23596571.008  
  20149866.141   107561362.562                    83658835.347    20149869.043  
  20149864.672  
  24588788.148   129214975.297    24588795.938   100687008.4104   24588795.809  
                
  19981773.656   106701551.365                    82990098.702    19981776.070  
  19981773.254  
  23498269.406   125655809.922                    97732317.653    23498274.711  
  23498267.848  
  23369045.953   122805167.942    23369052.879    95692377.1844   23369053.066  
                
  23202317.141   121928997.175    23202323.102    95009624.2184   23202323.332  
                
  22497431.633   118224810.260    22497435.746    92123248.8264                 
                
  20040654.562   105314375.318    20040663.379    82063179.7114   20040663.773  
                
 21  8 16  3 45 20.0000000  0 14G20R16R19G29G12R10R18G18R 9R20G 5G31
                                G 2G25
  22372327.938   117567361.718    22372334.023    91610975.6424                 
                
  19829097.461   105923485.110                    82384919.052    19829099.254  
  19829097.156  
  19584644.594   104764683.419                    81483629.531    19584647.258  
  19584642.305  
  21200300.625   111408345.551    21200306.844    86811726.6214   21200306.961  
                
  21048396.602   110610079.219    21048402.922    86189700.1704   21048402.941  
                
  23588772.273   125741426.114                                                  
  23588771.840  
  20154331.758   107585200.334                    83677375.829    20154334.668  
  20154330.293  
  24581711.203   129177785.906    24581719.020   100658029.6914   24581718.926  
                
  19978206.781   106682504.445                    82975284.430    19978209.207  
  19978206.379  
  23491567.961   125619973.078                    97704444.547    23491573.039  
  23491566.242  
  23363136.836   122774115.735    23363143.910    95668180.6914   23363144.074  
                
  23199859.070   121916079.925    23199865.047    94999558.8254   23199865.289  
                
  22501945.359   118248529.966    22501949.469    92141731.7194                 
                
  20040917.391   105315756.453    20040926.195    82064255.9194   20040926.594  
                
 21  8 16  3 45 30.0000000  0 15R 2G20R16R19G29G12R10R18G18R 9R20G 5
                                G31G 2G25
  23527264.562   125545994.900                    97646872.875    23527267.246  
  23527262.652  
  22369903.812   117554622.872    22369909.867    91601049.2864                 
                
  19833396.461   105946449.550                    82402780.271    19833398.242  
  19833396.156  
  19583078.602   104756306.414                    81477114.077    19583081.266  
  19583076.285  
  21197325.039   111392708.749    21197331.254    86799542.1144   21197331.367  
                
  21052473.406   110631502.907    21052479.727    86206393.9474   21052479.750  
                
  23580976.516   125699870.503                                                  
  23580976.094  
  20158804.242   107609074.718                    83695944.807    20158807.148  
  20158802.773  
  24574636.164   129140606.619    24574644.055   100629058.8314   24574643.945  
                
  19974653.891   106663532.185                    82960528.223    19974656.316  
  19974653.484  
  23484870.836   125584160.148                    97676590.037    23484875.816  
  23484869.051  
  23357232.570   122743088.260    23357239.605    95644003.4414   23357239.754  
                
  23197412.453   121903222.878    23197418.449    94989540.3434   23197418.684  
                
  22506464.664   118272279.055    22506468.797    92160237.4964                 
                
  20041191.008   105317194.292    20041199.805    82065376.3144   20041200.215  
                
 21  8 16  3 45 40.0000000  0 15R 2G20R16R19G29G12R10R18G18R 9R20G 5
                                G31G 2G25
  23524611.688   125531837.939                    97635861.912    23524614.441  
  23524609.691  
  22367490.172   117541939.149    22367496.207    91591165.8744                 
                
  19837709.188   105969487.328                    82420698.548    19837710.973  
  19837708.887  
  19581523.727   104747988.858                    81470644.866    19581526.414  
  19581521.422  
  21194355.039   111377101.325    21194361.246    86787380.4834   21194361.375  
                
  21056558.602   110652970.734    21056564.930    86223122.1104   21056564.945  
                
  23573184.219   125658332.767                                                  
  23573183.754  
  20163283.508   107632985.286                    83714541.909    20163286.418  
  20163282.023  
  24567563.047   129103436.989    24567570.898   100600095.4604   24567570.766  
                
  19971114.961   106644634.479                    82945830.007    19971117.398  
  19971114.547  
  23478177.891   125548370.775                    97648753.867    23478183.043  
  23478176.234  
  23351332.859   122712085.045    23351339.934    95619845.1024   23351340.070  
                
  23194977.188   121890425.522    23194983.215    94979568.3774   23194983.430  
                
  22510989.445   118296056.904    22510993.625    92178765.6874                 
                
  20041475.312   105318688.279    20041484.098    82066540.4514   20041484.516  
                
 21  8 16  3 45 50.0000000  0 15R 2G20R16R19G29G12R10R18G18R 9R20G 5
                                G31G 2G25
  23521972.078   125517752.766                    97624906.810    23521975.020  
  23521970.051  
  22365087.133   117529311.142    22365093.164    91581325.8694                 
                
  19842035.664   105992598.541                    82438673.921    19842037.445  
  19842035.355  
  19579980.102   104739731.534                    81464222.504    19579982.801  
  19579977.805  
  21191390.742   111361523.832    21191396.949    86775242.1804   21191397.062  
                
  21060652.289   110674483.132    21060658.629    86239885.0104   21060658.652  
                
  23565395.430   125616813.434                                                  
  23565394.844  
  20167769.594   107656932.347                    83733167.402    20167772.496  
  20167768.098  
  24560491.875   129066277.585    24560499.684   100571140.0734   24560499.539  
                
  19967590.023   106625811.501                    82931189.907    19967592.469  
  19967589.605  
  23471489.609   125512605.475                    97620936.413    23471494.742  
  23471487.895  
  23345437.961   122681106.869    23345445.062    95595706.2784   23345445.176  
                
  23192553.414   121877688.464    23192559.461    94969643.3984   23192559.660  
                
  22515519.797   118319863.989    22515524.012    92197316.6584                 
                
  20041770.398   105320238.975    20041779.176    82067748.7864   20041779.602  
                
 21  8 16  3 46  0.0000000  0 15R 2G20R16R19G29G12R10R18G18R 9R20G 5
                                G31G 2G25
  23519346.000   125503739.658                    97614007.731    23519349.141  
  23519344.004  
  22362694.789   117516739.308    22362700.801    91571529.6354                 
                
  19846376.070   106015784.201                    82456707.202    19846377.852  
  19846375.762  
  19578447.789   104731534.698                    81457847.202    19578450.504  
  19578445.508  
  21188432.234   111345976.804    21188438.438    86763127.6124   21188438.551  
                
  21064754.539   110696040.563    21064760.902    86256683.0004   21064760.926  
                
  23557610.180   125575313.183                                                  
  23557609.508  
  20172262.609   107680916.322                    83751821.599    20172265.508  
  20172261.113  
  24553422.766   129029128.959    24553430.520   100542193.1144   24553430.379  
                
  19964079.250   106607064.178                    82916608.652    19964081.695  
  19964078.812  
  23464806.031   125476864.900                    97593138.178    23464811.098  
  23464804.199  
  23339547.969   122650154.322    23339555.059    95571587.4224   23339555.172  
                
  23190141.195   121865012.161    23190147.223    94959765.7514   23190147.426  
                
  22520055.781   118343700.732    22520060.000    92215890.7444                 
                
  20042076.367   105321846.891    20042085.137    82069001.6964   20042085.574  
                
 21  8 16  3 46 10.0000000  0 15R 2G20R16R19G29G12R10R18G18R 9R20G 5
                                G31G 2G25
  23516733.312   125489797.828                    97603164.105    23516736.531  
  23516731.352  
  22360312.984   117504222.888    22360318.926    91561776.5864                 
                
  19850730.133   106039042.775                    82474797.207    19850731.914  
  19850729.836  
  19576926.602   104723397.335                    81451518.139    19576929.320  
  19576924.355  
  21185479.344   111330459.295    21185485.551    86751036.0564   21185485.676  
                
  21068865.188   110717642.118    21068871.574    86273515.3624   21068871.586  
                
  23549828.328   125533831.439                                                  
  23549827.691  
  20176762.352   107704936.204                    83770503.729    20176765.258  
  20176760.875  
  24546355.547   128991990.301    24546363.277   100513253.9034   24546363.137  
                
  19960582.469   106588391.556                    82902085.494    19960584.914  
  19960582.004  
  23458126.602   125441147.903                    97565358.292    23458131.852  
  23458124.926  
  23333662.695   122619226.561    23333669.746    95547487.8634   23333669.848  
                
  23187740.375   121852395.728    23187746.406    94949934.7754   23187746.629  
                
  22524597.234   118367566.134    22524601.461    92234487.1594                 
                
  20042393.070   105323511.153    20042401.836    82070298.5244   20042402.289  
                
 21  8 16  3 46 20.0000000  0 15R 2G20R16R19G29G12R10R18G18R 9R20G 5
                                G31G 2G25
  23514134.305   125475928.693                    97592377.011    23514137.488  
  23514132.305  
  22357941.883   117491762.691    22357947.805    91552067.3524                 
                
  19855097.984   106062375.055                    82492944.530    19855099.781  
  19855097.691  
  19575416.633   104715319.974                    81445235.753    19575419.359  
  19575414.387  
  21182532.242   111314972.184    21182538.453    86738968.1714   21182538.590  
                
  21072984.375   110739288.540    21072990.773    86290382.7034   21072990.766  
                
  23542050.148   125492369.031                                                  
  23542049.504  
  20181268.922   107728992.575                    83789214.233    20181271.832  
  20181267.461  
  24539290.438   128954862.469    24539298.066   100484323.1254   24539297.934  
                
  19957099.852   106569794.612                    82887621.214    19957102.312  
  19957099.375  
  23451451.805   125405455.668                    97537597.653    23451457.223  
  23451450.250  
  23327782.266   122588324.450    23327789.293    95523408.2874   23327789.375  
                
  23185351.125   121839840.094    23185357.188    94940151.1654   23185357.391  
                
  22529144.250   118391460.837    22529148.500    92253106.4064                 
                
  20042720.641   105325232.564    20042729.418    82071639.8784   20042729.863  
                
 21  8 16  3 46 30.0000000  0 15R 2G20R16R19G29G12R10R18G18R 9R20G 5
                                G31G 2G25
  23511548.828   125462132.012                    97581646.300    23511552.031  
  23511546.816  
  22355581.523   117479358.931    22355587.449    91542402.0904                 
                
  19859479.734   106085781.517                    82511149.539    19859481.527  
  19859479.441  
  19573917.961   104707303.089                    81439000.403    19573920.695  
  19573915.758  
  21179590.945   111299515.546    21179597.160    86726924.0454   21179597.293  
                
  21077112.125   110760979.940    21077118.543    86307285.0854   21077118.539  
                
  23534275.555   125450925.867                                                  
  23534274.922  
  20185782.375   107753085.673                    83807953.296    20185785.277  
  20185780.910  
  24532227.398   128917745.647    24532234.953   100455400.9244   24532234.820  
                
  19953631.461   106551273.584                    82873215.954    19953633.922  
  19953630.977  
  23444781.758   125369788.197                    97509856.278    23444787.254  
  23444780.223  
  23321906.719   122557448.239    23321913.758    95499348.8974   23321913.820  
                
  23182973.469   121827345.412    23182979.566    94930415.0414   23182979.758  
                
  22533696.875   118415384.987    22533701.133    92271748.5894                 
                
  20043059.117   105327011.261    20043067.902    82073025.8694   20043068.348  
                
 21  8 16  3 46 40.0000000  0 15R 2G20R16R19G29G12R10R18G18R 9R20G 5
                                G31G 2G25
  23508976.852   125448407.288                    97570971.490    23508980.031  
  23508974.816  
  22353231.750   117467010.834    22353237.688    91532780.1944                 
                
  19863875.117   106109260.839                    82529411.229    19863876.914  
  19863874.820  
  19572430.430   104699345.780                    81432811.380    19572433.188  
  19572428.238  
  21176655.281   111284088.485    21176661.496    86714902.9564   21176661.633  
                
  21081248.258   110782715.454    21081254.688    86324221.8224   21081254.688  
                
  23526504.477   125409501.656                                                  
  23526503.867  
  20190302.523   107777214.529                    83826720.174    20190305.434  
  20190301.051  
  24525166.172   128880639.053    24525173.793   100426486.6954   24525173.660  
                
  19950177.125   106532827.611                    82858869.093    19950179.605  
  19950176.609  
  23438116.430   125334144.840                    97482133.667    23438121.805  
  23438114.719  
  23316036.008   122526597.259    23316043.027    95475309.1824   23316043.070  
                
  23180607.250   121814910.822    23180613.352    94920725.7484   23180613.543  
                
  22538254.922   118439337.621    22538259.168    92290412.9784                 
                
  20043408.336   105328846.419    20043417.133    82074455.8554   20043417.574  
                
 21  8 16  3 46 50.0000000  0 15R 2G20R16R19G29G12R10R18G18R 9R20G 5
                                G31G 2G25
  23506418.336   125434754.658                    97560352.805    23506421.535  
  23506416.312  
  22350892.688   117454719.033    22350898.598    91523202.1634                 
                
  19868284.203   106132813.376                    82547729.870    19868286.008  
  19868283.895  
  19570954.102   104691448.403                    81426668.984    19570956.859  
  19570951.922  
  21173725.352   111268691.581    21173731.574    86702905.3754   21173731.703  
                
  21085392.891   110804495.590    21085399.328    86341193.3574   21085399.328  
                
  23518737.039   125368096.863                                                  
  23518736.418  
  20194829.406   107801379.359                    83845515.038    20194832.324  
  20194827.906  
  24518106.977   128843543.315    24518114.723   100397580.9314   24518114.605  
                
  19946736.984   106514457.487                    82844581.221    19946739.500  
  19946736.488  
  23431455.641   125298526.058                    97454430.164    23431460.898  
  23431453.832  
  23310170.211   122495772.361    23310177.266    95451289.7874   23310177.320  
                
  23178252.570   121802536.938    23178258.672    94911083.7754   23178258.855  
                
  22542818.453   118463319.095    22542822.707    92309099.8384                 
                
  20043768.398   105330738.573    20043777.203    82075930.2584   20043777.641  
                
 21  8 16  3 47  0.0000000  0 15R 2G20R16R19G29G12R10R18G18R 9R20G 5
                                G31G 2G25
  23503873.422   125421174.369                    97549790.371    23503876.625  
  23503871.348  
  22348564.344   117442483.547    22348570.230    91513668.0254                 
                
  19872707.031   106156439.305                    82566105.573    19872708.852  
  19872706.715  
  19569489.000   104683611.063                    81420573.274    19569491.758  
  19569486.832  
  21170801.164   111253324.872    21170807.402    86690931.3154   21170807.516  
                
  21089546.008   110826320.304    21089552.441    86358199.6184   21089552.441  
                
  23510973.320   125326711.732                                                  
  23510972.703  
  20199363.062   107825580.298                    83864337.986    20199365.988  
  20199361.543  
  24511049.898   128806458.520    24511057.723   100368683.6894   24511057.605  
                
  19943311.070   106496163.340                    82830352.440    19943313.598  
  19943310.559  
  23424799.312   125262931.815                    97426745.745    23424804.629  
  23424797.543  
  23304309.328   122464973.434    23304316.453    95427290.6304   23304316.512  
                
  23175909.469   121790223.825    23175915.543    94901489.1354   23175915.730  
                
  22547387.484   118487329.473    22547391.758    92327809.2094                 
                
  20044139.336   105332687.819    20044148.160    82077449.1484   20044148.594  
                
 21  8 16  3 47 10.0000000  0 15R 2G20R16R19G29G12R10R18G18R 9R20G 5
                                G31G 2G25
  23501342.125   125407666.561                    97539284.276    23501345.285  
  23501340.020  
  22346246.688   117430304.197    22346252.566    91504177.6444                 
                
  19877143.531   106180138.282                    82584538.104    19877145.348  
  19877143.199  
  19568035.039   104675833.333                    81414523.924    19568037.805  
  19568032.887  
  21167882.688   111237988.165    21167888.941    86678980.6354   21167889.031  
                
  21093707.539   110848189.276    21093713.961    86375240.3634   21093713.973  
                
  23503213.203   125285346.164                                                  
  23503212.598  
  20203903.352   107849816.705                    83883188.519    20203906.309  
  20203901.828  
  24503994.820   128769384.460    24504002.734   100339794.8294   24504002.613  
                
  19939899.344   106477944.903                    82816182.539    19939901.891  
  19939898.824  
  23418147.469   125227362.041                    97399080.362    23418152.914  
  23418145.820  
  23298453.391   122434200.372    23298460.527    95403311.6214   23298460.570  
                
  23173577.883   121777971.222    23173583.934    94891941.6584   23173584.152  
                
  22551961.945   118511368.400    22551966.234    92346540.8444                 
                
  20044521.078   105334693.919    20044529.918    82079012.3414   20044530.348  
                
 21  8 16  3 47 20.0000000  0 15R 2G20R16R19G29G12R10R18G18R 9R20G 5
                                G31G 2G25
  23498824.406   125394231.465                    97528834.775    23498827.562  
  23498822.301  
  22343939.758   117418181.245    22343945.621    91494731.1854                 
                
  19881593.688   106203910.178                    82603027.355    19881595.488  
  19881593.355  
  19566592.281   104668115.552                    81408521.219    19566595.055  
  19566590.141  
  21164969.953   111222681.597    21164976.219    86667053.4314   21164976.301  
                
  21097877.523   110870102.654    21097883.922    86392315.7134   21097883.953  
                
  23495456.844   125244000.370                                                  
  23495456.199  
  20208450.367   107874088.955                    83902066.944    20208453.336  
  20208448.855  
  24496941.906   128732321.415    24496949.852   100310914.5504   24496949.699  
                
  19936501.867   106459802.576                    82802071.852    19936504.414  
  19936501.348  
  23411500.242   125191816.955                    97371434.181    23411505.816  
  23411498.738  
  23292602.453   122403453.578    23292609.602    95379353.0834   23292609.656  
                
  23171257.867   121765779.408    23171263.910    94882441.5414   23171264.137  
                
  22556541.867   118535436.001    22556546.145    92365294.8144                 
                
  20044913.680   105336757.047    20044922.543    82080619.9674   20044922.957  
                
 21  8 16  3 47 30.0000000  0 15R 2G20R16R19G29G12R10R18G18R 9R20G 5
                                G31G 2G25
  23496320.219   125380868.871                    97518441.666    23496323.391  
  23496318.113  
  22341643.562   117406114.681    22341649.406    91485328.6674                 
                
  19886057.523   106227755.243                    82621573.509    19886059.352  
  19886057.176  
  19565160.711   104660457.630                    81402565.057    19565163.477  
  19565158.562  
  21162062.906   111207404.943    21162069.184    86655149.5494   21162069.254  
                
  21102055.953   110892060.374    21102062.312    86409425.6234   21102062.359  
                
  23487704.195   125202674.552                                                  
  23487703.500  
  20213004.031   107898396.671                    83920972.937    20213007.012  
  20213002.531  
  24489891.219   128695269.390    24489899.023   100282042.8114   24489898.867  
                
  19933118.625   106441736.295                    82788020.292    19933121.188  
  19933118.113  
  23404857.805   125156296.494                    97343807.142    23404863.324  
  23404856.215  
  23286756.336   122372732.960    23286763.656    95355414.9534   23286763.699  
                
  23168949.406   121753648.318    23168955.418    94872988.7434   23168955.637  
                
  22561127.219   118559532.111    22561131.461    92384071.0034                 
                
  20045317.117   105338877.154    20045326.008    82082272.0014   20045326.410  
                
 21  8 16  3 47 40.0000000  0 15R 2G20R16R19G29G12R10R18G18R 9R20G 5
                                G31G 2G25
  23493829.633   125367578.902                    97508105.026    23493832.840  
  23493827.539  
  22339358.094   117394104.522    22339363.949    91475970.0984                 
                
  19890534.953   106251672.782                    82640176.031    19890536.785  
  19890534.625  
  19563740.281   104652859.268                    81396655.214    19563743.055  
  19563738.141  
  21159161.594   111192158.401    21159167.871    86643269.1244   21159167.930  
                
  21106242.789   110914062.312    21106249.105    86426569.9844   21106249.180  
                
  23479955.289   125161368.612                                                  
  23479954.496  
  20217564.336   107922739.855                    83939906.523    20217567.320  
  20217562.848  
  24482842.555   128658228.306    24482850.270   100253179.6214   24482850.129  
                
  19929749.625   106423746.021                    82774027.860    19929752.203  
  19929749.113  
  23398219.875   125120800.728                    97316199.321    23398225.496  
  23398218.309  
  23280915.234   122342038.604    23280922.734    95331497.2884   23280922.773  
                
  23166652.484   121741577.872    23166658.477    94863583.1994   23166658.695  
                
  22565717.945   118583656.477    22565722.164    92402869.2064                 
                
  20045731.391   105341054.130    20045740.309    82083968.3404   20045740.695  
                
 21  8 16  3 47 50.0000000  0 15R 2G20R16R19G29G12R10R18G18R 9R20G 5
                                G31G 2G25
  23491352.711   125354361.744                    97497825.061    23491355.914  
  23491350.609  
  22337083.391   117382150.927    22337089.266    91466655.6114                 
                
  19895026.031   106275663.255                    82658835.280    19895027.871  
  19895025.691  
  19562331.031   104645320.717                    81390791.897    19562333.812  
  19562328.891  
  21156266.016   111176942.042    21156272.285    86631412.2234   21156272.355  
                
  21110438.062   110936108.588    21110444.332    86443748.8914   21110444.430  
                
  23472210.125   125120082.770                                                  
  23472209.258  
  20222131.250   107947118.332                    83958867.548    20222134.234  
  20222129.758  
  24475795.930   128621198.404    24475803.629   100224325.1774   24475803.500  
                
  19926394.922   106405832.161                    82760094.861    19926397.520  
  19926394.410  
  23391586.734   125085329.658                    97288610.694    23391592.246  
  23391585.031  
  23275079.219   122311370.813    23275086.879    95307600.3304   23275086.898  
                
  23164367.141   121729568.284    23164373.117    94854225.0774   23164373.348  
                
  22570314.070   118607809.228    22570318.281    92421689.5284                 
                
  20046156.508   105343288.166    20046165.449    82085709.1414   20046165.820  
                
 21  8 16  3 48  0.0000000  0 15R 2G20R16R19G29G12R10R18G18R 9R20G 5
                                G31G 2G25
  23488889.547   125341218.037                    97487602.171    23488892.762  
  23488887.387  
  22334819.469   117370253.921    22334825.379    91457385.2294                 
                
  19899530.711   106299726.469                    82677551.113    19899532.531  
  19899530.367  
  19560932.922   104637841.768                    81384974.936    19560935.699  
  19560930.801  
  21153376.172   111161755.811    21153382.422    86619578.7934   21153382.523  
                
  21114641.766   110958199.155    21114647.992    86460962.3134   21114648.109  
                
  23464468.773   125078817.271                                                  
  23464467.871  
  20226704.797   107971532.200                    83977856.105    20226707.809  
  20226703.281  
  24468751.484   128584179.736    24468759.137   100195479.4524   24468759.039  
                
  19923054.562   106387994.821                    82746221.371    19923057.176  
  19923054.059  
  23384958.102   125049883.473                    97261041.453    23384963.660  
  23384956.430  
  23269248.430   122280729.569    23269256.066    95283724.0454   23269256.082  
                
  23162093.383   121717619.543    23162099.316    94844914.3604   23162099.559  
                
  22574915.570   118631990.253    22574919.785    92440531.8824                 
                
  20046592.492   105345579.270    20046601.453    82087494.4114   20046601.820  
                
 21  8 16  3 48 10.0000000  0 15R 2G20R16R19G29G12R10R18G18R 9R20G 5
                                G31G 2G25
  23486439.945   125328146.785                    97477435.661    23486443.148  
  23486437.758  
  22332566.305   117358413.503    22332572.242    91448158.9244                 
                
  19904048.945   106323862.022                    82696323.194    19904050.766  
  19904048.605  
  19559545.953   104630422.423                    81379204.330    19559548.723  
  19559543.828  
  21150492.062   111146599.680    21150498.277    86607768.8124   21150498.395  
                
  21118853.859   110980333.802    21118860.070    86478210.0884   21118860.199  
                
  23456731.289   125037572.255                                                  
  23456730.363  
  20231284.898   107995981.065                    83996871.875    20231287.906  
  20231283.363  
  24461709.195   128547172.233    24461716.816   100166642.4544   24461716.742  
                
  19919728.516   106370233.933                    82732407.347    19919731.129  
  19919728.027  
  23378334.031   125014462.130                    97233491.518    23378339.707  
  23378332.426  
  23263422.680   122250115.007    23263430.301    95259868.5334   23263430.324  
                
  23159831.203   121705731.636    23159837.098    94835651.0574   23159837.352  
                
  22579522.422   118656199.368    22579526.645    92459396.1194                 
                
  20047039.305   105347927.280    20047048.281    82089324.0314   20047048.648  
                
 21  8 16  3 48 20.0000000  0 15R 2G20R16R19G29G12R10R18G18R 9R20G 5
                                G31G 2G25
  23484004.031   125315148.538                    97467325.919    23484007.223  
  23484001.840  
  22330323.914   117346629.718    22330329.867    91438976.7554                 
                
  19908580.773   106348070.238                    82715151.789    19908582.582  
  19908580.434  
  19558170.117   104623062.681                    81373480.089    19558172.898  
  19558167.973  
  21147613.664   111131473.656    21147619.848    86595982.3014   21147619.992  
                
  21123074.359   111002512.631    21123080.570    86495492.2834   21123080.707  
                
  23448997.656   124996347.529                                                  
  23448996.719  
  20235871.578   108020465.065                    84015914.984    20235874.586  
  20235870.051  
  24454668.930   128510176.060    24454676.672   100137814.2884   24454676.590  
                
  19916416.828   106352549.712                    82718652.955    19916419.438  
  19916416.359  
  23371714.719   124979065.516                    97205960.788    23371720.367  
  23371713.094  
  23257602.031   122219527.272    23257609.621    95236033.9464   23257609.648  
                
  23157580.641   121693904.778    23157586.500    94826435.3274   23157586.773  
                
  22584134.609   118680436.567    22584138.875    92478282.2384                 
                
  20047496.984   105350332.392    20047505.965    82091198.1444   20047506.328  
                
 21  8 16  3 48 30.0000000  0 15R 2G20R16R19G29G12R10R18G18R 9R20G 5
                                G31G 2G25
  23481581.883   125302223.554                    97457273.144    23481585.039  
  23481579.656  
  22328092.328   117334902.698    22328098.309    91429838.8194                 
                
  19913126.117   106372350.637                    82734036.541    19913127.930  
  19913125.785  
  19556805.406   104615762.429                    81367802.124    19556808.195  
  19556803.258  
  21144741.000   111116377.698    21144747.168    86584219.2214   21144747.340  
                
  21127303.258   111024735.576    21127309.473    86512808.8604   21127309.609  
                
  23441267.875   124955143.544                                                  
  23441266.961  
  20240464.797   108044983.936                    84034985.216    20240467.801  
  20240463.285  
  24447631.008   128473191.313    24447638.680   100108995.0174   24447638.602  
                
  19913119.523   106334942.224                    82704958.244    19913122.121  
  19913119.066  
  23365100.047   124943693.939                    97178449.590    23365105.730  
  23365098.484  
  23251786.445   122188966.483    23251794.051    95212220.3584   23251794.074  
                
  23155341.664   121682138.830    23155347.496    94817267.0474   23155347.758  
                
  22588752.125   118704701.761    22588756.418    92497190.1774                 
                
  20047965.516   105352794.552    20047974.496    82093116.7074   20047974.867  
                
 21  8 16  3 48 40.0000000  0 15R 2G20R16R19G29G12R10R18G18R 9R20G 5
                                G31G 2G25
  23479173.406   125289371.769                    97447277.321    23479176.535  
  23479171.164  
  22325871.555   117323232.481    22325877.582    91420745.1544                 
                
  19917684.984   106396703.254                    82752977.462    19917686.793  
  19917684.656  
  19555451.805   104608521.633                    81362170.387    19555454.582  
  19555449.648  
  21141874.055   111101311.782    21141880.219    86572479.5494   21141880.387  
                
  21131540.539   111047002.595    21131546.754    86530159.7764   21131546.898  
                
  23433542.055   124913960.563                                                  
  23433541.207  
  20245064.531   108069537.594                    84054082.493    20245067.531  
  20245063.047  
  24440595.258   128436217.938    24440602.855   100080184.5754   24440602.766  
                
  19909836.562   106317411.368                    82691323.132    19909839.148  
  19909836.121  
  23358489.992   124908347.136                    97150957.616    23358495.699  
  23358488.426  
  23245975.984   122158432.576    23245983.605    95188427.7034   23245983.633  
                
  23153114.273   121670433.724    23153120.078    94808146.1904   23153120.363  
                
  22593374.938   118728994.765    22593379.250    92516119.7854                 
                
  20048444.891   105355313.681    20048453.863    82095079.6614   20048454.250  
                
 21  8 16  3 48 50.0000000  0 15R 2G20R16R19G29G12R10R18G18R 9R20G 5
                                G31G 2G25
  23476778.703   125276593.367                    97437338.607    23476781.844  
  23476776.453  
  22323661.586   117311619.084    22323667.676    91411695.7824                 
                
  19922257.367   106421128.079                    82771974.538    19922259.172  
  19922257.059  
  19554109.328   104601340.229                    81356584.856    19554112.094  
  19554107.160  
  21139012.828   111086275.971    21139019.004    86560763.3354   21139019.168  
                
  21135786.203   111069313.652    21135792.457    86547545.0044   21135792.570  
                
  23425820.203   124872798.428                                                  
  23425819.383  
  20249670.766   108094125.917                    84073206.747    20249673.758  
  20249669.285  
  24433561.742   128399256.092    24433569.195   100051383.1224   24433569.129  
                
  19906568.016   106299957.496                    82677747.890    19906570.590  
  19906567.582  
  23351884.781   124873025.417                    97123485.155    23351890.336  
  23351883.105  
  23240170.766   122127925.782    23240178.328    95164656.1874   23240178.355  
                
  23150898.508   121658789.711    23150904.309    94799072.9234   23150904.594  
                
  22598003.047   118753315.636    22598007.367    92535071.1064                 
                
  20048935.141   105357889.931    20048944.098    82097087.1214   20048944.508  
                
 21  8 16  3 49  0.0000000  0 15R 2G20R16R19G29G12R10R18G18R 9R20G 5
                                G31G 2G25
  23474397.727   125263888.258                    97427456.863    23474400.855  
  23474395.414  
  22321462.453   117300062.577    22321468.566    91402690.7024                 
                
  19926843.297   106445625.258                    82791027.897    19926845.094  
  19926843.000  
  19552777.945   104594218.307                    81351045.579    19552780.699  
  19552775.781  
  21136157.344   111071270.282    21136163.523    86549070.5924   21136163.684  
                
  21140040.242   111091668.711    21140046.527    86564964.5184   21140046.625  
                
  23418102.281   124831657.133                                                  
  23418101.414  
  20254283.461   108118748.768                    84092357.849    20254286.445  
  20254281.984  
  24426530.461   128362305.894    24426537.727   100022590.7414   24426537.695  
                
  19903313.930   106282580.821                    82664232.702    19903316.492  
  19903313.492  
  23345284.133   124837728.709                    97096032.169    23345289.695  
  23345282.449  
  23234370.734   122097446.326    23234378.195    95140905.9524   23234378.250  
                
  23148694.359   121647206.820    23148700.148    94790047.2914   23148700.414  
                
  22602636.461   118777664.306    22602640.785    92554044.0994                 
                
  20049436.250   105360523.294    20049445.188    82099139.0904   20049445.629  
                
 21  8 16  3 49 10.0000000  0 15R 2G20R16R19G29G12R10R18G18R 9R20G 5
                                G31G 2G25
  23472030.484   125251256.579                    97417632.216    23472033.637  
  23472028.113  
  22319274.156   117288563.057    22319280.270    91393730.0344                 
                
  19931442.703   106470194.412                    82810137.226    19931444.465  
  19931442.406  
  19551457.695   104587155.855                    81345552.564    19551460.449  
  19551455.512  
  21133307.609   111056294.805    21133313.781    86537401.3844   21133313.941  
                
  21144302.625   111114067.673    21144308.910    86582418.2414   21144309.020  
                
  23410388.344   124790537.330                                                  
  23410387.422  
  20258902.625   108143406.154                    84111535.799    20258905.602  
  20258901.145  
  24419501.320   128325367.350    24419508.496    99993807.4564   24419508.531  
                
  19900074.273   106265281.214                    82650777.444    19900076.824  
  19900073.848  
  23338688.172   124802457.205                    97068598.754    23338693.762  
  23338686.480  
  23228575.891   122066994.285    23228583.227    95117177.0844   23228583.316  
                
  23146501.852   121635685.021    23146507.617    94781069.2694   23146507.902  
                
  22607275.133   118802040.672    22607279.465    92573038.6654                 
                
  20049948.242   105363213.788    20049957.156    82101235.5814   20049957.621  
                
 21  8 16  3 49 20.0000000  0 15R 2G20R16R19G29G12R10R18G18R 9R20G 5
                                G31G 2G25
  23469677.031   125238698.611                    97407864.938    23469680.270  
  23469674.609  
  22317096.758   117277120.849    22317102.855    91384814.0314                 
                
  19936055.594   106494835.627                    82829302.612    19936057.352  
  19936055.309  
  19550148.602   104580153.062                    81340105.951    19550151.348  
  19550146.426  
  21130463.609   111041349.510    21130469.770    86525755.6984   21130469.926  
                
  21148573.414   111136510.765    21148579.695    86599906.3584   21148579.805  
                
  23402678.383   124749439.069                                                  
  23402677.445  
  20263528.289   108168098.198                    84130740.723    20263531.246  
  20263526.781  
  24412474.359   128288440.729    24412481.547    99965033.4884   24412481.645  
                
  19896849.109   106248059.025                    82637382.405    19896851.633  
  19896848.703  
  23332096.875   124767211.002                    97041185.021    23332102.512  
  23332095.219  
  23222786.320   122036569.971    23222793.555    95093469.8264   23222793.684  
                
  23144321.008   121624224.579    23144326.734    94772139.0494   23144327.043  
                
  22611919.094   118826444.849    22611923.395    92592054.9014                 
                
  20050471.141   105365961.656    20050480.031    82103376.7704   20050480.523  
                
 21  8 16  3 49 30.0000000  0 15R 2G20R16R19G29G12R10R18G18R 9R20G 5
                                G31G 2G25
  23467337.445   125226214.526                    97398155.091    23467340.719  
  23467335.008  
  22314930.234   117265735.788    22314936.344    91375942.5644                 
                
  19940681.961   106519548.828                    82848523.970    19940683.707  
  19940681.660  
  19548850.578   104573209.520                    81334705.417    19548853.324  
  19548848.402  
  21127625.367   111026434.455    21127631.516    86514133.5744   21127631.672  
                
  21152852.555   111158997.773    21152858.852    86617428.6894   21152858.953  
                
  23394972.492   124708362.278                                                  
  23394971.484  
  20268160.383   108192824.575                    84149972.357    20268163.348  
  20268158.859  
  24405449.734   128251525.967    24405456.891    99936268.7454   24405456.992  
                
  19893638.461   106230914.326                    82624047.634    19893640.977  
  19893638.059  
  23325510.383   124731990.118                    97013791.028    23325516.066  
  23325508.730  
  23217002.023   122006173.434    23217009.227    95069784.2124   23217009.355  
                
  23142151.805   121612825.327    23142157.512    94763256.5134   23142157.828  
                
  22616568.297   118850876.548    22616572.551    92611092.5894                 
                
  20051004.922   105368766.691    20051013.793    82105562.5124   20051014.312  
                
 21  8 16  3 49 40.0000000  0 15R 2G20R16R19G29G12R10R18G18R 9R20G 5
                                G31G 2G25
  23465011.711   125213804.091                    97388502.549    23465014.988  
  23465009.266  
  22312774.609   117254407.934    22312780.738    91367115.6704                 
                
  19945321.711   106544333.550                    82867800.977    19945323.457  
  19945321.410  
  19547563.672   104566325.457                    81329351.150    19547566.422  
  19547561.496  
  21124792.883   111011549.658    21124799.031    86502535.0374   21124799.180  
                
  21157140.055   111181528.643    21157146.371    86634985.2094   21157146.465  
                
  23387270.680   124667307.168                                                  
  23387269.625  
  20272798.859   108217585.064                    84169230.510    20272801.816  
  20272797.328  
  24398427.375   128214623.134    24398434.535    99907513.2954   24398434.609  
                
  19890442.344   106213847.202                    82610773.203    19890444.859  
  19890441.957  
  23318928.547   124696794.580                    96986416.709    23318934.355  
  23318926.996  
  23211223.023   121975804.729    23211230.219    95046120.2894   23211230.320  
                
  23139994.258   121601487.284    23139999.938    94754421.6614   23140000.266  
                
  22621222.727   118875335.746    22621226.953    92630151.7124                 
                
  20051549.594   105371628.938    20051558.449    82107792.8314   20051558.980  
                
 21  8 16  3 49 50.0000000  0 15R 2G20R16R19G29G12R10R18G18R 9R20G 5
                                G31G 2G25
  23462699.812   125201467.499                    97378907.441    23462703.062  
  23462697.363  
  22310629.852   117243137.231    22310636.008    91358333.3004                 
                
  19949974.898   106569189.973                    82887133.747    19949976.605  
  19949974.609  
  19546287.820   104559500.525                    81324042.853    19546290.555  
  19546285.633  
  21121966.125   110996694.946    21121972.289    86490959.9374   21121972.418  
                
  21161435.875   111204103.279    21161442.203    86652575.8164   21161442.305  
                
  23379572.906   124626273.718                                                  
  23379571.820  
  20277443.719   108242379.639                    84188515.172    20277446.672  
  20277442.195  
  24391407.320   128177732.119    24391414.445    99878767.0364   24391414.469  
                
  19887260.719   106196857.490                    82597558.991    19887263.223  
  19887260.316  
  23312351.375   124661624.150                    96959061.923    23312357.348  
  23312349.957  
  23205449.383   121945463.818    23205456.512    95022478.0344   23205456.613  
                
  23137848.344   121590210.352    23137853.988    94745634.4274   23137854.316  
                
  22625882.359   118899822.263    22625886.574    92649232.1044                 
                
  20052105.125   105374548.260    20052113.973    82110067.6194   20052114.512  
                
 21  8 16  3 50  0.0000000  0 15R 2G20R16R19G29G12R10R18G18R 9R20G 5
                                G31G 2G25
  23460401.758   125189204.703                    97369369.700    23460404.969  
  23460399.344  
  22308495.961   117231923.666    22308502.156    91349595.4864                 
                
  19954641.469   106594117.898                    82906522.138    19954643.164  
  19954641.199  
  19545023.070   104552734.997                    81318780.783    19545025.816  
  19545020.887  
  21119145.094   110981870.309    21119151.285    86479408.2804   21119151.395  
                
  21165740.000   111226721.582    21165746.328    86670200.4664   21165746.434  
                
  23371879.195   124585262.042                                                  
  23371878.113  
  20282094.938   108267208.151                    84207826.217    20282097.898  
  20282093.430  
  24384389.555   128140853.049    24384396.684    99850030.1014   24384396.676  
                
  19884093.625   106179945.390                    82584405.118    19884096.109  
  19884093.219  
  23305779.266   124626479.094                    96931726.868    23305785.066  
  23305777.688  
  23199680.992   121915150.867    23199688.125    94998857.5574   23199688.227  
                
  23135714.062   121578994.604    23135719.707    94736894.8844   23135720.012  
                
  22630547.164   118924335.956    22630551.387    92668333.6704                 
                
  20052671.523   105377524.698    20052680.359    82112386.9184   20052680.895  
                
 21  8 16  3 50 10.0000000  0 15R 2G20R16R19G29G12R10R18G18R 9R20G 5
                                G31G 2G25
  23458117.555   125177015.945                    97359889.529    23458120.777  
  23458115.129  
  22306373.000   117220767.473    22306379.223    91340902.3484                 
                
  19959321.352   106619117.007                    82925965.881    19959323.035  
  19959321.090  
  19543769.383   104546028.603                    81313564.704    19543772.133  
  19543767.195  
  21116329.789   110967075.807    21116336.004    86467880.0954   21116336.102  
                
  21170052.438   111249383.562    21170058.773    86687859.1404   21170058.875  
                
  23364189.602   124544272.281                                                  
  23364188.496  
  20286752.469   108292070.408                    84227163.526    20286755.438  
  20286750.934  
  24377373.992   128103985.987    24377381.168    99821302.5424   24377381.141  
                
  19880941.094   106163111.048                    82571311.734    19880943.559  
  19880940.688  
  23299211.664   124591359.286                    96904411.459    23299217.523  
  23299210.160  
  23193917.961   121884865.973    23193925.141    94975258.9544   23193925.199  
                
  23133591.453   121567840.177    23133597.074    94728203.1134   23133597.355  
                
  22635217.117   118948876.769    22635221.367    92687456.3774                 
                
  20053248.797   105380558.283    20053257.625    82114750.7474   20053258.164  
                
 21  8 16  3 50 20.0000000  0 15R 2G20R16R19G29G12R10R18G18R 9R20G 5
                                G31G 2G25
  23455847.281   125164901.354                    97350467.080    23455850.512  
  23455844.875  
  22304261.031   117209669.044    22304267.242    91332254.2064                 
                
  19964014.719   106644188.030                    82945465.553    19964016.391  
  19964014.449  
  19542526.820   104539381.699                    81308394.896    19542529.574  
  19542524.637  
  21113520.297   110952311.791    21113526.512    86456375.6624   21113526.602  
                
  21174373.258   111272089.577    21174379.613    86705552.1264   21174379.703  
                
  23356504.188   124503304.980                                                  
  23356503.082  
  20291416.406   108316966.812                    84246527.379    20291419.406  
  20291414.867  
  24370360.820   128067131.384    24370368.008    99792584.6694   24370367.965  
                
  19877803.219   106146354.929                    82558279.206    19877805.676  
  19877802.820  
  23292649.055   124556265.078                    96877115.966    23292654.754  
  23292647.449  
  23188160.383   121854609.641    23188167.570    94951682.6024   23188167.605  
                
  23131480.562   121556747.409    23131486.176    94719559.3994   23131486.449  
                
  22639892.305   118973445.018    22639896.594    92706600.4624                 
                
  20053837.023   105383649.407    20053845.848    82117159.4094   20053846.391  
                
 21  8 16  3 50 30.0000000  0 15R 2G20R16R19G29G12R10R18G18R 9R20G 5
                                G31G 2G25
  23453590.914   125152860.943                    97341102.296    23453594.184  
  23453588.488  
  22302159.953   117198627.869    22302166.156    91323650.7134                 
                
  19968721.406   106669330.278                    82965020.639    19968723.082  
  19968721.125  
  19541295.266   104532793.683                    81303270.882    19541298.004  
  19541293.090  
  21110716.523   110937577.831    21110722.727    86444894.6514   21110722.828  
                
  21178702.359   111294839.108    21178708.727    86723279.0264   21178708.820  
                
  23348822.906   124462359.740                                                  
  23348821.828  
  20296086.633   108341896.821                    84265917.378    20296089.648  
  20296085.094  
  24363349.945   128030288.877    24363357.148    99763876.2234   24363357.121  
                
  19874679.906   106129676.608                    82545307.170    19874682.348  
  19874679.523  
  23286091.047   124521196.402                    96849840.321    23286096.762  
  23286089.449  
  23182408.219   121824381.639    23182415.324    94928128.3074   23182415.379  
                
  23129381.344   121545715.881    23129386.965    94710963.4004   23129387.219  
                
  22644572.609   118998040.197    22644576.934    92725765.5304                 
                
  20054436.117   105386797.644    20054444.941    82119612.5764   20054445.488  
                
 21  8 16  3 50 40.0000000  0 15R 2G20R16R19G29G12R10R18G18R 9R20G 5
                                G31G 2G25
  23451348.469   125140894.837                    97331795.331    23451351.762  
  23451346.047  
  22300069.859   117187644.412    22300076.043    91315092.1864                 
                
  19973441.445   106694543.878                    82984631.204    19973443.125  
  19973441.152  
  19540074.805   104526265.024                    81298193.047    19540077.539  
  19540072.637  
  21107918.516   110922874.223    21107924.695    86433437.2944   21107924.809  
                
  21183039.805   111317632.514    21183046.180    86741040.1034   21183046.258  
                
  23341145.953   124421437.385                                                  
  23341144.891  
  20300763.164   108366860.517                    84285333.592    20300766.203  
  20300761.629  
  24356341.375   127993458.860    24356348.660    99735177.5184   24356348.629  
                
  19871571.266   106113076.631                    82532396.077    19871573.699  
  19871570.867  
  23279537.805   124486153.520                    96822584.740    23279543.582  
  23279536.238  
  23176661.500   121794182.299    23176668.531    94904596.3554   23176668.605  
                
  23127293.852   121534746.044    23127299.500    94702415.4674   23127299.727  
                
  22649258.094   119022662.592    22649262.418    92744951.8184                 
                
  20055046.141   105390003.331    20055054.980    82122110.5114   20055055.508  
                
 21  8 16  3 50 50.0000000  0 15R 2G20R16R19G29G12R10R18G18R 9R20G 5
                                G31G 2G25
  23449119.992   125129003.316                    97322546.376    23449123.301  
  23449117.578  
  22297990.742   117176718.598    22297996.898    91306578.5724                 
                
  19978174.812   106719828.635                    83004297.115    19978176.488  
  19978174.512  
  19538865.398   104519795.541                    81293161.215    19538868.129  
  19538863.223  
  21105126.266   110908200.867    21105132.426    86422003.5124   21105132.547  
                
  21187385.555   111340469.570    21187391.922    86758835.2064   21187392.020  
                
  23333473.219   124380537.619                                                  
  23333472.180  
  20305446.023   108391857.920                    84304776.019    20305449.070  
  20305444.500  
  24349335.242   127956641.241    24349342.539    99706488.4824   24349342.496  
                
  19868477.273   106096554.913                    82519545.850    19868479.703  
  19868476.875  
  23272989.328   124451136.224                    96795349.077    23272995.207  
  23272987.793  
  23170920.234   121764011.574    23170927.199    94881086.7014   23170927.273  
                
  23125218.094   121523837.825    23125223.773    94693915.5534   23125223.977  
                
  22653948.727   119047311.976    22653953.039    92764159.1174                 
                
  20055667.078   105393266.377    20055675.934    82124653.1354   20055676.438  
                
 21  8 16  3 51  0.0000000  0 15R 2G20R16R19G29G12R10R18G18R 9R20G 5
                                G31G 2G25
  23446905.477   125117186.272                    97313355.305    23446908.816  
  23446903.035  
  22295922.578   117165850.353    22295928.723    91298109.8034                 
                
  19982921.438   106745184.188                    83024018.091    19982923.129  
  19982921.152  
  19537667.000   104513384.910                    81288175.174    19537669.742  
  19537664.836  
  21102339.766   110893557.671    21102345.918    86410593.2364   21102346.055  
                
  21191739.578   111363350.088    21191745.934    86776664.1754   21191746.047  
                
  23325804.758   124339660.295                                                  
  23325803.723  
  20310135.094   108416888.472                    84324244.223    20310138.141  
  20310133.559  
  24342331.453   127919835.976    24342338.719    99677809.0394   24342338.680  
                
  19865397.930   106080111.354                    82506756.412    19865400.355  
  19865397.527  
  23266445.430   124416144.303                    96768133.114    23266451.523  
  23266444.062  
  23165184.391   121733869.432    23165191.320    94857599.3094   23165191.387  
                
  23123154.016   121512991.010    23123159.723    94685463.4864   23123159.922  
                
  22658644.438   119071988.114    22658648.770    92783387.2674                 
                
  20056298.906   105396586.605    20056307.781    82127240.3234   20056308.258  
                
 21  8 16  3 51 10.0000000  0 15R 2G20R16R19G29G12R10R18G18R 9R20G 5
                                G31G 2G25
  23444704.922   125105443.653                    97304222.176    23444708.285  
  23444702.520  
  22293865.422   117155039.942    22293871.609    91289686.1124                 
                
  19987681.367   106770610.857                    83043794.378    19987683.074  
  19987681.098  
  19536479.695   104507033.656                    81283235.297    19536482.422  
  19536477.547  
  21099559.031   110878944.838    21099565.184    86399206.6044   21099565.320  
                
  21196101.898   111386274.275    21196108.254    86794527.1624   21196108.379  
                
  23318140.594   124298806.113                                                  
  23318139.582  
  20314830.414   108441952.396                    84343738.384    20314833.445  
  20314828.879  
  24335330.055   127883043.361    24335337.309    99649139.4714   24335337.285  
                
  19862333.297   106063746.392                    82494028.106    19862335.723  
  19862332.902  
  23259906.656   124381178.391                    96740937.401    23259912.707  
  23259905.277  
  23159453.992   121703756.251    23159460.988    94834134.5084   23159461.027  
                
  23121101.664   121502205.836    23121107.355    94677059.4614   23121107.555  
                
  22663345.273   119096691.194    22663349.633    92802636.4074                 
                
  20056941.664   105399964.316    20056950.559    82129872.2974   20056951.020  
                
 21  8 16  3 51 20.0000000  0 15R 2G20R16R19G29G12R10R18G18R 9R20G 5
                                G31G 2G25
  23442518.352   125093775.743                    97295147.109    23442521.742  
  23442515.953  
  22291819.266   117144287.342    22291825.488    91281307.4694                 
                
  19992454.570   106796108.399                    83063625.802    19992456.289  
  19992454.305  
  19535303.445   104500741.458                    81278341.374    19535306.168  
  19535301.312  
  21096784.062   110864362.245    21096790.230    86387843.5484   21096790.359  
                
  21200472.531   111409242.066    21200478.883    86812424.1314   21200479.008  
                
  23310480.734   124257975.009                                                  
  23310479.758  
  20319531.992   108467049.733                    84363258.537    20319535.012  
  20319530.445  
  24328331.086   127846263.430    24328338.324    99620479.7854   24328338.320  
                
  19859283.391   106047460.014                    82481360.920    19859285.805  
  19859283.008  
  23253372.719   124346238.307                    96713761.769    23253378.762  
  23253371.312  
  23153729.164   121673672.216    23153736.195    94810692.4004   23153736.230  
                
  23119061.055   121491482.300    23119066.684    94668703.4564   23119066.914  
                
  22668051.195   119121420.984    22668055.574    92821906.3634                 
                
  20057595.352   105403399.430    20057604.273    82132549.0134   20057604.711  
                
 21  8 16  3 51 30.0000000  0 15R 2G20R16R19G29G12R10R18G18R 9R20G 5
                                G31G 2G25
  23440345.844   125082182.846                    97286130.433    23440349.250  
  23440343.391  
  22289784.109   117133592.558    22289790.352    91272973.8784                 
                
  19997241.078   106821677.006                    83083512.490    19997242.828  
  19997240.840  
  19534138.219   104494508.269                    81273493.337    19534140.922  
  19534136.102  
  21094014.852   110849809.935    21094021.023    86376504.0924   21094021.148  
                
  21204851.430   111432253.334    21204857.781    86830354.9844   21204857.922  
                
  23302825.234   124217167.120                                                  
  23302824.262  
  20324239.750   108492180.134                    84382804.401    20324242.754  
  20324238.211  
  24321334.508   127809496.166    24321341.770    99591829.9734   24321341.781  
                
  19856248.219   106031252.324                    82468754.937    19856250.629  
  19856247.852  
  23246843.508   124311324.065                    96686606.258    23246849.664  
  23246842.172  
  23148009.836   121643617.359    23148016.906    94787273.0234   23148016.953  
                
  23117032.172   121480820.430    23117037.738    94660395.4904   23117038.023  
                
  22672762.172   119146177.376    22672766.570    92841197.0664                 
                
  20058259.961   105406891.910    20058268.902    82135270.4174   20058269.324  
                
 21  8 16  3 51 40.0000000  0 15R 2G20R16R19G29G12R10R18G18R 9R20G 5
                                G31G 2G25
  23438187.266   125070664.317                    97277171.558    23438190.758  
  23438184.840  
  22287759.977   117122955.712    22287766.215    91264685.4374                 
                
  20002040.766   106847316.050                    83103453.947    20002042.516  
  20002040.531  
  19532984.016   104488334.078                    81268691.187    19532986.715  
  19532981.902  
  21091251.406   110835287.935    21091257.574    86365188.2474   21091257.695  
                
  21209238.609   111455308.132    21209244.977    86848319.7414   21209245.113  
                
  23295174.086   124176382.471                                                  
  23295173.098  
  20328953.695   108517343.500                    84402375.909    20328956.691  
  20328952.152  
  24314340.359   127772741.697    24314347.648    99563190.1364   24314347.660  
                
  19853227.781   106015123.353                    82456210.186    19853230.180  
  19853227.414  
  23240319.305   124276435.588                    96659470.791    23240325.355  
  23240317.836  
  23142296.141   121613591.732    23142303.180    94763876.4344   23142303.234  
                
  23115015.016   121470220.260    23115020.547    94652135.6304   23115020.840  
                
  22677478.203   119170960.353    22677482.629    92860508.4614                 
                
  20058935.484   105410441.835    20058944.438    82138036.5874   20058944.855  
                
 21  8 16  3 51 50.0000000  0 15R 2G20R16R19G29G12R10R18G18R 9R20G 5
                                G31G 2G25
  23436042.766   125059220.920                    97268271.140    23436046.352  
  23436040.383  
  22285746.875   117112376.778    22285753.105    91256442.1264                 
                
  20006853.688   106873025.758                    83123450.388    20006855.453  
  20006853.434  
  19531840.781   104482218.517                    81263934.648    19531843.488  
  19531838.664  
  21088493.703   110820796.132    21088499.852    86353895.9374   21088499.977  
                
  21213634.031   111478406.205    21213640.434    86866318.2384   21213640.547  
                
  23287527.352   124135621.212                                                  
  23287526.359  
  20333673.859   108542540.020                    84421973.196    20333676.852  
  20333672.293  
  24307348.602   127735999.935    24307355.906    99534560.1914   24307355.934  
                
  19850222.109   105999073.203                    82443726.733    19850224.520  
  19850221.750  
  23233799.734   124241572.960                    96632355.429    23233805.891  
  23233798.320  
  23136587.961   121583595.455    23136595.074    94740502.7314   23136595.133  
                
  23113009.594   121459681.699    23113015.086    94643923.7564   23113015.410  
                
  22682199.258   119195769.673    22682203.719    92879840.3894                 
                
  20059621.930   105414049.080    20059630.902    82140847.4304   20059631.312  
                
 21  8 16  3 52  0.0000000  0 15R 2G20R16R19G29G12R10R18G18R 9R20G 5
                                G31G 2G25
  23433912.297   125047852.278                    97259428.896    23433915.945  
  23433909.980  
  22283744.828   117101855.968    22283751.051    91248244.0984                 
                
  20011679.789   106898805.885                    83143501.584    20011681.574  
  20011679.547  
  19530708.578   104476162.014                    81259224.024    19530711.270  
  19530706.477  
  21085741.797   110806334.744    21085747.918    86342627.3174   21085748.066  
                
  21218037.727   111501547.772    21218044.141    86884350.6124   21218044.254  
                
  23279885.078   124094883.704                                                  
  23279884.051  
  20338400.141   108567769.242                    84441595.912    20338403.152  
  20338398.566  
  24300359.383   127699271.171    24300366.660    99505940.3684   24300366.676  
                
  19847231.242   105983102.106                    82431304.762    19847233.652  
  19847230.883  
  23227285.023   124206736.425                    96605260.342    23227291.289  
  23227283.668  
  23130885.328   121553628.761    23130892.574    94717152.0734   23130892.660  
                
  23111015.953   121449204.994    23111021.414    94635760.0904   23111021.762  
                
  22686925.359   119220605.501    22686929.855    92899192.9814                 
                
  20060319.312   105417713.824    20060328.301    82143703.0694   20060328.695  
                
 21  8 16  3 52 10.0000000  0 15R 2G20R16R19G29G12R10R18G18R 9R20G 5
                                G31G 2G25
  23431795.922   125036558.737                    97250645.024    23431799.574  
  23431793.672  
  22281753.812   117091393.101    22281760.023    91240091.2074                 
                
  20016519.070   106924656.412                    83163607.548    20016520.883  
  20016518.824  
  19529587.398   104470164.391                    81254559.199    19529590.062  
  19529585.305  
  21082995.594   110791903.344    21083001.695    86331382.0744   21083001.859  
                
  21222449.641   111524732.480    21222456.047    86902416.6084   21222456.184  
                
  23272247.250   124054169.823                                                  
  23272246.180  
  20343132.539   108593031.076                    84461243.992    20343135.551  
  20343130.984  
  24293372.539   127662555.248    24293379.887    99477330.5784   24293379.875  
                
  19844255.148   105967209.916                    82418944.161    19844257.562  
  19844254.789  
  23220775.312   124171925.754                    96578185.377    23220781.523  
  23220773.867  
  23125188.461   121523691.627    23125195.695    94693824.4354   23125195.809  
                
  23109034.047   121438789.979    23109039.508    94627644.4944   23109039.840  
                
  22691656.453   119245467.532    22691660.980    92918565.9904                 
                
  20061027.609   105421435.903    20061036.617    82146603.3874   20061037.008  
                
 21  8 16  3 52 20.0000000  0 15R 2G20R16R19G29G12R10R18G18R 9R20G 5
                                G31G 2G25
  23429693.523   125025339.904                    97241919.270    23429697.188  
  23429691.363  
  22279773.859   117080988.433    22279780.062    91231983.6794                 
                
  20021371.477   106950577.144                    83183768.121    20021373.316  
  20021371.242  
  19528477.203   104464225.622                    81249940.167    19528479.867  
  19528475.102  
  21080255.172   110777502.370    21080261.262    86320160.5284   21080261.430  
                
  21226869.797   111547960.574    21226876.211    86920516.4084   21226876.363  
                
  23264613.891   124013479.719                                                  
  23264612.805  
  20347871.047   108618325.559                    84480917.469    20347874.074  
  20347869.496  
  24286388.195   127625852.409    24286395.578    99448730.9744   24286395.570  
                
  19841293.898   105951397.024                    82406645.244    19841296.316  
  19841293.535  
  23214270.469   124137141.225                    96551130.754    23214276.637  
  23214268.965  
  23119497.328   121493784.330    23119504.430    94670520.0454   23119504.578  
                
  23107063.922   121428436.871    23107069.387    94619577.1314   23107069.711  
                
  22696392.555   119270355.907    22696397.094    92937959.5134                 
                
  20061746.844   105425215.468    20061755.879    82149548.5054   20061756.258  
                
 21  8 16  3 52 30.0000000  0 15R 2G20R16R19G29G12R10R18G18R 9R20G 5
                                G31G 2G25
  23427605.281   125014196.640                    97233252.267    23427608.957  
  23427603.141  
  22277804.984   117070641.947    22277811.180    91223921.4904                 
                
  20026237.078   106976568.277                    83203983.440    20026238.898  
  20026236.832  
  19527377.992   104458345.556                    81245366.781    19527380.652  
  19527375.887  
  21077520.539   110763131.790    21077526.645    86308962.6754   21077526.809  
                
  21231298.195   111571231.942    21231304.637    86938649.9324   21231304.781  
                
  23256985.070   123972813.734                                                  
  23256983.984  
  20352615.641   108643652.460                    84500616.158    20352618.676  
  20352614.098  
  24279406.312   127589162.610    24279413.730    99420141.5204   24279413.715  
                
  19838347.484   105935663.301                    82394407.910    19838349.902  
  19838347.109  
  23207770.461   124102382.853                    96524096.447    23207776.602  
  23207768.953  
  23113811.797   121463906.755    23113818.855    94647238.8144   23113819.023  
                
  23105105.562   121418145.623    23105111.039    94611557.9844   23105111.367  
                
  22701133.633   119295270.436    22701138.191    92957373.4204                 
                
  20062477.000   105429052.455    20062486.062    82152538.3594   20062486.422  
                
 21  8 16  3 52 40.0000000  0 15R 2G20R16R19G29G12R10R18G18R 9R20G 5
                                G31G 2G25
  23425531.141   125003128.574                    97224643.768    23425534.836  
  23425528.980  
  22275847.211   117060353.859    22275853.387    91215904.8114                 
                
  20031115.797   107002629.494                    83224253.266    20031117.605  
  20031115.516  
  19526289.805   104452524.437                    81240839.243    19526292.461  
  19526287.715  
  21074791.719   110748791.733    21074797.836    86297788.6144   21074797.992  
                
  21235734.852   111594546.715    21235741.316    86956817.2744   21235741.445  
                
  23249360.852   123932172.027                                                  
  23249359.773  
  20357366.344   108669012.001                    84520340.250    20357369.391  
  20357364.809  
  24272426.969   127552486.125    24272434.395    99391562.4474   24272434.367  
                
  19835415.961   105920009.061                    82382232.378    19835418.383  
  19835415.602  
  23201275.406   124067650.660                    96497082.514    23201281.473  
  23201273.848  
  23108131.930   121434059.236    23108138.992    94623981.0114   23108139.184  
                
  23103158.992   121407916.387    23103164.500    94603587.1464   23103164.801  
                
  22705879.703   119320211.218    22705884.277    92976807.7974                 
                
  20063218.117   105432947.035    20063227.211    82155573.0944   20063227.562  
                
 21  8 16  3 52 50.0000000  0 15R 2G20R16R19G29G12R10R18G18R 9R20G 5
                                G31G 2G25
  23423471.008   124992135.382                    97216093.516    23423474.723  
  23423468.836  
  22273900.523   117050123.950    22273906.648    91207933.4504                 
                
  20036007.617   107028760.754                    83244577.577    20036009.430  
  20036007.320  
  19525212.562   104446761.905                    81236357.269    19525215.191  
  19525210.465  
  21072068.656   110734481.994    21072074.785    86286638.1664   21072074.930  
                
  21240179.719   111617904.592    21240186.191    86975018.2124   21240186.316  
                
  23241741.133   123891554.336                                                  
  23241740.062  
  20362123.070   108694403.803                    84540089.431    20362126.133  
  20362121.539  
  24265450.070   127515822.759    24265457.504    99362993.6004   24265457.508  
                
  19832499.266   105904434.084                    82370118.504    19832501.688  
  19832498.910  
  23194785.062   124032944.438                    96470088.803    23194791.242  
  23194783.566  
  23102457.875   121404241.753    23102464.855    94600746.6204   23102465.102  
                
  23101224.188   121397748.943    23101229.754    94595664.4624   23101230.023  
                
  22710630.695   119345177.867    22710635.273    92996262.3244                 
                
  20063970.156   105436898.996    20063979.281    82158652.5424   20063979.605  
                
 21  8 16  3 53  0.0000000  0 15R 2G20R16R19G29G12R10R18G18R 9R20G 5
                                G31G 2G25
  23421425.125   124981218.246                    97207602.398    23421428.848  
  23421422.938  
  22271964.930   117039952.321    22271971.000    91200007.5074                 
                
  20040912.508   107054961.772                    83264956.134    20040914.324  
  20040912.199  
  19524146.305   104441058.153                    81231921.011    19524148.922  
  19524144.203  
  21069351.359   110720202.514    21069357.500    86275511.3024   21069357.645  
                
  21244632.781   111641305.565    21244639.262    86993252.7284   21244639.383  
                
  23234126.000   123850961.006                                                  
  23234124.934  
  20366885.836   108719827.717                    84559863.568    20366888.902  
  20366884.293  
  24258475.805   127479172.664    24258483.148    99334435.0794   24258483.180  
                
  19829597.484   105888938.688                    82358066.542    19829599.914  
  19829597.152  
  23188299.789   123998264.515                    96443115.526    23188305.957  
  23188298.215  
  23096789.547   121374454.398    23096796.484    94577535.6904   23096796.746  
                
  23099301.172   121387643.423    23099306.824    94587790.0264   23099307.062  
                
  22715386.617   119370170.412    22715391.215    93015737.0264                 
                
  20064733.125   105440908.414    20064742.285    82161776.7584   20064742.590  
                
 21  8 16  3 53 10.0000000  0 15R 2G20R16R19G29G12R10R18G18R 9R20G 5
                                G31G 2G25
  23419393.281   124970375.913                    97199169.461    23419397.031  
  23419391.078  
  22270040.391   117029838.795    22270046.449    91192126.8424                 
                
  20045830.445   107081232.479                    83285388.900    20045832.246  
  20045830.141  
  19523090.930   104435412.563                    81227530.001    19523093.551  
  19523088.816  
  21066639.797   110705953.159    21066645.938    86264407.9014   21066646.070  
                
  21249093.992   111664749.371    21249100.492    87011520.6164   21249100.613  
                
  23226515.438   123810392.189                                                  
  23226514.395  
  20371654.523   108745283.298                    84579662.362    20371657.598  
  20371653.020  
  24251504.102   127442535.674    24251511.281    99305886.7634   24251511.344  
                
  19826710.570   105873522.670                    82346076.304    19826712.988  
  19826710.250  
  23181819.062   123963610.573                    96416162.467    23181825.527  
  23181817.715  
  23091126.961   121344697.170    23091133.875    94554348.2534   23091134.121  
                
  23097389.891   121377599.652    23097395.617    94579963.7174   23097395.824  
                
  22720147.422   119395188.599    22720152.035    93035231.7094                 
                
  20065506.984   105444975.070    20065516.180    82164945.5784   20065516.465  
                
 21  8 16  3 53 20.0000000  0 15R 2G20R16R19G29G12R10R18G18R 9R20G 5
                                G31G 2G25
  23417375.719   124959609.883                    97190795.878    23417379.496  
  23417373.516  
  22268127.047   117019784.104    22268133.129    91184292.0284                 
                
  20050761.461   107107573.044                    83305876.005    20050763.270  
  20050761.156  
  19522046.609   104429826.180                    81223185.042    19522049.242  
  19522044.480  
  21063934.070   110691734.441    21063940.203    86253328.3784   21063940.332  
                
  21253563.469   111688236.589    21253569.992    87029822.3334   21253570.094  
                
  23218909.539   123769848.220                                                  
  23218908.516  
  20376429.320   108770771.465                    84599486.490    20376432.387  
  20376427.840  
  24244534.938   127405912.420    24244542.043    99277349.1524   24244542.129  
                
  19823838.648   105858186.753                    82334148.354    19823841.059  
  19823838.344  
  23175343.570   123928983.345                    96389230.191    23175350.109  
  23175342.238  
  23085470.266   121314970.801    23085477.145    94531184.8494   23085477.383  
                
  23095490.469   121367618.187    23095496.242    94572185.9464   23095496.434  
                
  22724913.203   119420232.947    22724917.836    93054746.7844                 
                
  20066291.852   105449099.557    20066301.086    82168159.4684   20066301.348  
                
 21  8 16  3 53 30.0000000  0 15R 2G20R16R19G29G12R10R18G18R 9R20G 5
                                G31G 2G25
  23415372.336   124948919.550                    97182481.160    23415376.129  
  23415370.078  
  22266224.891   117009788.218    22266230.996    91176503.0314                 
                
  20055705.570   107133983.522                    83326417.483    20055707.375  
  20055705.281  
  19521013.234   104424298.321                    81218885.587    19521015.871  
  19521011.121  
  21061234.141   110677546.251    21061240.270    86242272.6494   21061240.418  
                
  21258041.188   111711767.097    21258047.727    87048157.7854   21258047.816  
                
  23211308.297   123729329.340                                                  
  23211307.324  
  20381210.117   108796291.666                    84619335.538    20381213.176  
  20381208.641  
  24237568.320   127369302.908    24237575.480    99248822.2754   24237575.539  
                
  19820981.727   105842930.890                    82322282.687    19820984.141  
  19820981.434  
  23168873.305   123894382.617                    96362318.525    23168879.648  
  23168871.766  
  23079819.406   121285275.121    23079826.223    94508045.3604   23079826.469  
                
  23093602.906   121357699.038    23093608.699    94564456.7364   23093608.918  
                
  22729683.930   119445303.227    22729688.562    93074282.0544                 
                
  20067087.711   105453281.789    20067096.980    82171418.3474   20067097.215  
                
 21  8 16  3 53 40.0000000  0 15R 2G20R16R19G29G12R10R18G18R 9R20G 5
                                G31G 2G25
  23413383.141   124938304.880                    97174225.295    23413386.953  
  23413380.824  
  22264333.844   116999850.710    22264339.969    91168759.5314                 
                
  20060662.672   107160463.427                    83347012.954    20060664.484  
  20060662.395  
  19519990.797   104418828.970                    81214631.648    19519993.441  
  19519988.707  
  21058539.969   110663388.262    21058546.094    86231240.4524   21058546.250  
                
  21262527.055   111735340.446    21262533.613    87066526.6214   21262533.691  
                
  23203711.766   123688835.374                                                  
  23203710.773  
  20385996.875   108821843.668                    84639209.304    20385999.934  
  20385995.375  
  24230604.242   127332706.786    24230611.477    99220305.8514   24230611.508  
                
  19818139.734   105827754.774                    82310479.050    19818142.156  
  19818139.445  
  23162407.727   123859808.117                    96335427.260    23162414.043  
  23162406.156  
  23074174.312   121255609.931    23074181.098    94484929.6224   23074181.355  
                
  23091727.133   121347841.780    23091732.969    94556775.7614   23091733.199  
                
  22734459.492   119470398.969    22734464.109    93093837.1644                 
                
  20067894.484   105457521.396    20067903.789    82174721.9354   20067904.008  
                
 21  8 16  3 53 50.0000000  0 15R 2G20R16R19G29G12R10R18G18R 9R20G 5
                                G31G 2G25
  23411408.141   124927766.085                    97166028.476    23411412.004  
  23411405.820  
  22262453.984   116989971.974    22262460.121    91161061.8154                 
                
  20065632.781   107187012.830                    83367662.472    20065634.605  
  20065632.496  
  19518979.305   104413418.128                    81210423.216    19518981.961  
  19518977.223  
  21055851.602   110649260.793    21055857.723    86220232.0314   21055857.883  
                
  21267021.125   111758956.904    21267027.684    87084929.0404   21267027.758  
                
  23196119.930   123648366.653                                                  
  23196118.883  
  20390789.562   108847427.372                    84659107.743    20390792.637  
  20390788.070  
  24223642.734   127296124.454    24223650.074    99191800.1304   24223650.102  
                
  19815312.773   105812658.964                    82298737.857    19815315.207  
  19815312.488  
  23155947.070   123825260.204                    96308556.671    23155953.418  
  23155945.516  
  23068535.141   121225975.737    23068541.926    94461838.0624   23068542.152  
                
  23089863.180   121338046.732    23089869.105    94549143.2694   23089869.301  
                
  22739239.945   119495520.444    22739244.566    93113412.3324                 
                
  20068712.242   105461818.701    20068721.582    82178070.4754   20068721.766  
                
 21  8 16  3 54  0.0000000  0 15R 2G20R16R19G29G12R10R18G18R 9R20G 5
                                G31G 2G25
  23409447.391   124917303.275                    97157890.756    23409451.277  
  23409445.051  
  22260585.312   116980152.074    22260591.488    91153409.9474                 
                
  20070615.906   107213631.725                    83388366.056    20070617.730  
  20070615.648  
  19517978.773   104408065.980                    81206260.431    19517981.434  
  19517976.688  
  21053169.031   110635163.828    21053175.164    86209247.3904   21053175.320  
                
  21271523.352   111782616.303    21271529.902    87103364.9214   21271530.000  
                
  23188532.844   123607923.113                                                  
  23188531.754  
  20395588.188   108873042.738                    84679030.805    20395591.250  
  20395586.723  
  24216683.922   127259555.904    24216691.336    99163305.1904   24216691.332  
                
  19812500.820   105797643.278                    82287058.990    19812503.266  
  19812500.531  
  23149491.500   123790738.734                    96281706.625    23149497.738  
  23149489.871  
  23062901.852   121196372.551    23062908.645    94438770.6544   23062908.848  
                
  23088011.078   121328313.911    23088017.082    94541559.2634   23088017.242  
                
  22744025.266   119520667.456    22744029.887    93133007.3934                 
                
  20069540.961   105466173.641    20069550.332    82181463.9304   20069550.492  
                
 21  8 16  3 54 10.0000000  0 15R 2G20R16R19G29G12R10R18G18R 9R20G 5
                                G31G 2G25
  23407500.977   124906916.841                    97149812.411    23407504.844  
  23407498.676  
  22258727.898   116970391.345    22258734.141    91145804.1914                 
                
  20075612.094   107240320.394                    83409123.909    20075613.926  
  20075611.848  
  19516989.273   104402772.832                    81202143.540    19516991.941  
  19516987.184  
  21050492.375   110621097.867    21050498.512    86198286.8994   21050498.668  
                
  21276033.867   111806319.153    21276040.430    87121834.6694   21276040.527  
                
  23180950.586   123567505.487                                                  
  23180949.457  
  20400392.844   108898690.268                    84698978.876    20400395.926  
  20400391.391  
  24209727.953   127223001.728    24209735.359    99134821.4044   24209735.297  
                
  19809704.023   105782708.477                    82275443.029    19809706.477  
  19809703.719  
  23143040.969   123756244.526                    96254877.783    23143047.145  
  23143039.320  
  23057274.609   121166801.000    23057281.375    94415727.8904   23057281.562  
                
  23086170.922   121318643.876    23086176.977    94534024.1714   23086177.125  
                
  22748815.523   119545840.431    22748820.129    93152622.6934                 
                
  20070380.750   105470586.726    20070390.141    82184902.6954   20070390.289  
                
 21  8 16  3 54 20.0000000  0 15R 2G20R16R19G29G12R10R18G18R 9R20G 5
                                G31G 2G25
  23405568.555   124896605.058                    97141792.155    23405572.453  
  23405566.262  
  22256881.383   116960687.915    22256887.699    91138243.0924                 
                
  20080620.930   107267076.698                    83429934.356    20080622.766  
  20080620.688  
  19516010.367   104397536.405                    81198070.770    19516013.047  
  19516008.293  
  21047821.172   110607060.681    21047827.309    86187348.8374   21047827.473  
                
  21280552.234   111830063.354    21280558.828    87140336.6274   21280558.906  
                
  23173372.789   123527111.760                                                  
  23173371.664  
  20405203.070   108924367.590                    84718950.111    20405206.168  
  20405201.617  
  24202774.281   127186459.873    24202781.656    99106347.2554   24202781.578  
                
  19806921.961   105767852.423                    82263888.312    19806924.414  
  19806921.676  
  23136595.070   123721775.320                    96228068.401    23136601.223  
  23136593.406  
  23051652.984   121137259.146    23051659.723    94392708.2614   23051659.910  
                
  23084342.320   121309034.544    23084348.406    94526536.3834   23084348.535  
                
  22753610.312   119571037.166    22753614.906    93172256.5154                 
                
  20071231.203   105475055.900    20071240.602    82188385.1664   20071240.742  
                
 21  8 16  3 54 30.0000000  0 15R 2G20R16R19G29G12R10R18G18R 9R20G 5
                                G31G 2G25
  23403650.461   124886369.693                    97133831.324    23403654.363  
  23403648.188  
  22255046.156   116951043.741    22255052.516    91130728.1474                 
                
  20085642.750   107293902.274                    83450798.673    20085644.582  
  20085642.508  
  19515042.484   104392358.853                    81194043.777    19515045.148  
  19515040.406  
  21045155.828   110593054.206    21045161.961    86176434.7014   21045162.133  
                
  21285078.844   111853850.780    21285085.477    87158872.2704   21285085.531  
                
  23165799.930   123486744.166                                                  
  23165798.770  
  20410019.281   108950076.778                    84738946.131    20410022.391  
  20410017.824  
  24195823.492   127149932.375    24195830.707    99077884.2594   24195830.621  
                
  19804155.031   105753077.137                    82252396.429    19804157.484  
  19804154.746  
  23130154.078   123687333.280                    96201280.160    23130160.387  
  23130152.527  
  23046037.422   121107749.010    23046044.160    94369713.3534   23046044.320  
                
  23082525.641   121299487.809    23082531.727    94519097.3724   23082531.887  
                
  22758409.977   119596259.555    22758414.586    93191910.3164                 
                
  20072092.695   105479583.026    20072102.098    82191912.7914   20072102.234  
                
 21  8 16  3 54 40.0000000  0 15R 2G20R16R19G29G12R10R18G18R 9R20G 5
                                G31G 2G25
  23401746.672   124876210.727                    97125929.908    23401750.605  
  23401744.402  
  22253222.141   116941458.532    22253228.504    91123259.1704                 
                
  20090677.555   107320797.278                    83471717.012    20090679.410  
  20090677.316  
  19514085.516   104387239.763                    81190062.261    19514088.195  
  19514083.434  
  21042496.336   110579078.458    21042502.469    86165544.5114   21042502.629  
                
  21289613.625   111877681.238    21289620.293    87177441.4554   21289620.355  
                
  23158231.938   123446402.654                                                  
  23158230.766  
  20414841.359   108975817.329                    84758966.569    20414844.484  
  20414839.910  
  24188875.242   127113419.089    24188882.441    99049432.3274   24188882.332  
                
  19801403.227   105738382.645                    82240967.379    19801405.680  
  19801402.922  
  23123718.266   123652918.089                    96174512.773    23123724.535  
  23123716.715  
  23040427.852   121078270.522    23040434.648    94346743.1064   23040434.770  
                
  23080720.836   121290003.563    23080726.930    94511707.0524   23080727.105  
                
  22763214.477   119621507.349    22763219.086    93211583.9084                 
                
  20072965.195   105484168.029    20072974.594    82195485.5154   20072974.730  
                
 21  8 16  3 54 50.0000000  0 15R 2G20R16R19G29G12R10R18G18R 9R20G 5
                                G31G 2G25
  23399857.203   124866128.191                    97118087.918    23399861.145  
  23399854.918  
  22251409.391   116931932.458    22251415.730    91115836.2634                 
                
  20095725.227   107347760.972                    83492688.758    20095727.102  
  20095724.977  
  19513139.461   104382179.016                    81186126.132    19513142.164  
  19513137.371  
  21039842.664   110565133.331    21039848.801    86154678.1714   21039848.961  
                
  21294156.562   111901554.481    21294163.254    87196043.9724   21294163.320  
                
  23150668.859   123406087.244                                                  
  23150667.680  
  20419669.289   109001589.130                    84779011.299    20419672.414  
  20419667.820  
  24181929.711   127076919.991    24181936.871    99020991.4684   24181936.754  
                
  19798666.539   105723768.884                    82229601.117    19798668.992  
  19798666.211  
  23117287.375   123618529.713                    96147766.282    23117293.750  
  23117285.949  
  23034824.297   121048823.553    23034831.176    94323797.4234   23034831.258  
                
  23078927.930   121280581.775    23078934.039    94504365.4034   23078934.219  
                
  22768023.773   119646780.371    22768028.344    93231277.1574                 
                
  20073848.680   105488810.745    20073858.074    82199103.2104   20073858.215  
                
 21  8 16  3 55  0.0000000  0 15R 2G20R16R19G29G12R10R18G18R 9R20G 5
                                G31G 2G25
  23397982.016   124856121.867                    97110305.207    23397985.949  
  23397979.715  
  22249607.875   116922465.455    22249614.199    91108459.3784                 
                
  20100785.781   107374793.518                    83513714.048    20100787.676  
  20100785.527  
  19512204.305   104377176.659                    81182235.407    19512207.008  
  19512202.223  
  21037194.789   110551218.662    21037200.930    86143835.5814   21037201.082  
                
  21298707.617   111925470.418    21298714.320    87214679.7564   21298714.379  
                
  23143110.617   123365797.872                                                  
  23143109.453  
  20424503.047   109027392.024                    84799080.206    20424506.176  
  20424501.566  
  24174986.859   127040435.027    24174993.980    98992561.6204   24174993.867  
                
  19795944.984   105709235.904                    82218297.682    19795947.438  
  19795944.648  
  23110861.570   123584168.234                    96121040.668    23110867.980  
  23110860.152  
  23029226.766   121019408.396    23029233.758    94300876.5424   23029233.816  
                
  23077146.875   121271222.302    23077153.027    94497072.2924   23077153.168  
                
  22772837.844   119672078.440    22772842.363    93250989.9404                 
                
  20074743.125   105493511.103    20074752.512    82202765.8284   20074752.664  
                
 21  8 16  3 55 10.0000000  0 15R 2G20R16R19G29G12R10R18G18R 9R20G 5
                                G31G 2G25
  23396121.227   124846192.318                    97102582.209    23396125.172  
  23396118.918  
  22247817.625   116913057.578    22247823.953    91101128.5714                 
                
  20105859.195   107401894.732                    83534792.769    20105861.078  
  20105858.949  
  19511280.031   104372232.397                    81178389.872    19511282.738  
  19511277.938  
  21034552.727   110537334.513    21034558.867    86133016.7664   21034559.016  
                
  21303266.812   111949429.086    21303273.523    87233348.8414   21303273.578  
                
  23135557.391   123325534.845                                                  
  23135556.203  
  20429342.609   109053225.886                    84819173.216    20429345.754  
  20429341.125  
  24168046.711   127003964.306    24168053.816    98964142.8794   24168053.711  
                
  19793238.562   105694783.740                    82207057.108    19793241.020  
  19793238.223  
  23104441.008   123549833.478                    96094335.872    23104447.223  
  23104439.363  
  23023635.289   120990024.940    23023642.332    94277980.3494   23023642.344  
                
  23075377.703   121261925.207    23075383.910    94489827.8184   23075384.020  
                
  22777656.664   119697401.458    22777661.137    93270722.1574                 
                
  20075648.562   105498269.143    20075657.938    82206473.3974   20075658.094  
                
 21  8 16  3 55 20.0000000  0 15R 2G20R16R19G29G12R10R18G18R 9R20G 5
                                G31G 2G25
  23394274.664   124836338.727                    97094918.312    23394278.633  
  23394272.340  
  22246038.562   116903708.580    22246044.887    91093843.6454                 
                
  20110945.414   107429064.358                    83555924.685    20110947.293  
  20110945.137  
  19510366.578   104367346.068                    81174589.384    19510369.289  
  19510364.484  
  21031916.398   110523480.520    21031922.527    86122221.4484   21031922.676  
                
  21307834.062   111973430.092    21307840.770    87252050.9094   21307840.824  
                
  23128009.016   123285297.708                                                  
  23128007.812  
  20434187.875   109079090.261                    84839289.938    20434191.031  
  20434186.387  
  24161109.305   126967507.598    24161116.309    98935735.0374   24161116.219  
                
  19790547.266   105680412.372                    82195879.384    19790549.730  
  19790546.922  
  23098025.242   123515525.301                    96067651.716    23098031.426  
  23098023.582  
  23018049.836   120960673.172    23018056.848    94255108.8384   23018056.859  
                
  23073620.336   121252690.230    23073626.594    94482631.7174   23073626.660  
                
  22782480.180   119722749.159    22782484.613    93290473.6104                 
                
  20076564.906   105503084.568    20076574.270    82210225.6724   20076574.426  
                
 21  8 16  3 55 30.0000000  0 15R 2G20R16R19G29G12R10R18G18R 9R20G 5
                                G31G 2G25
  23392442.508   124826561.988                    97087314.193    23392446.488  
  23392440.207  
  22244270.789   116894418.861    22244277.086    91086604.9044                 
                
  20116044.422   107456302.295                    83577109.751    20116046.293  
  20116044.137  
  19509464.031   104362518.025                    81170834.249    19509466.730  
  19509461.922  
  21029285.891   110509657.127    21029292.004    86111449.9674   21029292.152  
                
  21312409.414   111997473.712    21312416.133    87270786.1944   21312416.180  
                
  23120465.641   123245087.332                                                  
  23120464.434  
  20439038.922   109104985.430                    84859430.629    20439042.074  
  20439037.438  
  24154174.602   126931065.331    24154181.602    98907338.4604   24154181.504  
                
  19787871.133   105666121.952                    82184764.607    19787873.609  
  19787870.773  
  23091614.516   123481244.237                    96040988.653    23091620.707  
  23091612.871  
  23012470.492   120931353.524    23012477.480    94232262.3654   23012477.504  
                
  23071874.891   121243517.830    23071881.180    94475484.3884   23071881.238  
                
  22787308.430   119748121.763    22787312.820    93310244.4784                 
                
  20077492.258   105507957.768    20077501.609    82214022.9674   20077501.766  
                
 21  8 16  3 55 40.0000000  0 15R 2G20R16R19G29G12R10R18G18R 9R20G 5
                                G31G 2G25
  23390624.664   124816861.671                    97079769.513    23390628.652  
  23390622.352  
  22242514.320   116885188.561    22242520.594    91079412.4594                 
                
  20121156.273   107483608.869                    83598348.195    20121158.129  
  20121155.973  
  19508572.359   104357748.260                    81167124.426    19508575.070  
  19508570.238  
  21026661.211   110495864.358    21026667.305    86100702.3574   21026667.473  
                
  21316992.906   112021560.098    21316999.633    87289554.7894   21316999.656  
                
  23112927.258   123204903.764                                                  
  23112926.086  
  20443895.773   109130911.590                    84879595.419    20443898.910  
  20443894.301  
  24147242.617   126894637.671    24147249.668    98878953.2694   24147249.555  
                
  19785210.234   105651912.903                    82173713.116    19785212.723  
  19785209.867  
  23085208.914   123446990.348                    96014346.740    23085215.043  
  23085207.191  
  23006897.289   120902066.196    23006904.285    94209441.0694   23006904.281  
                
  23070141.359   121234408.123    23070147.680    94468385.9274   23070147.730  
                
  22792141.414   119773519.281    22792145.781    93330034.7364                 
                
  20078430.602   105512888.828    20078439.938    82217865.3464   20078440.098  
                
 21  8 16  3 55 50.0000000  0 15R 2G20R16R19G29G12R10R18G18R 9R20G 5
                                G31G 2G25
  23388821.250   124807238.350                    97072284.683    23388825.262  
  23388818.984  
  22240769.125   116876017.458    22240775.406    91072266.1514                 
                
  20126280.891   107510983.663                    83619639.678    20126282.746  
  20126280.582  
  19507691.523   104353036.418                    81163459.655    19507694.234  
  19507689.398  
  21024042.320   110482101.990    21024048.402    86089978.4414   21024048.574  
                
  21321584.477   112045688.890    21321591.191    87308356.4394   21321591.219  
                
  23105393.898   123164746.858                                                  
  23105392.742  
  20448758.336   109156868.196                    84899783.883    20448761.441  
  20448756.883  
  24140313.477   126858224.421    24140320.520    98850579.3244   24140320.375  
                
  19782564.539   105637785.026                    82162724.769    19782567.027  
  19782564.156  
  23078808.055   123412763.423                    95987725.821    23078814.441  
  23078806.527  
  23001330.211   120872810.998    23001337.258    94186644.8094   23001337.230  
                
  23068419.734   121225360.896    23068426.047    94461336.1304   23068426.102  
                
  22796979.070   119798941.284    22796983.402    93349844.0874                 
                
  20079379.930   105517877.520    20079389.254    82221752.6344   20079389.426  
                
 21  8 16  3 56  0.0000000  0 15R 2G20R16R19G29G12R10R18G18R 9R20G 5
                                G31G 2G25
  23387032.125   124797691.270                    97064859.197    23387036.145  
  23387029.883  
  22239035.156   116866905.392    22239041.469    91065165.8514                 
                
  20131418.234   107538426.441                    83640984.050    20131420.121  
  20131417.926  
  19506821.500   104348382.376                    81159839.848    19506824.227  
  19506819.375  
  21021429.180   110468369.876    21021435.250    86079278.0894   21021435.426  
                
  21326184.055   112069859.847    21326190.754    87327190.9394   21326190.797  
                
  23097865.594   123124616.834                                                  
  23097864.445  
  20453626.539   109182854.962                    84919995.803    20453629.625  
  20453625.094  
  24133387.086   126821825.479    24133394.078    98822216.5214   24133393.934  
                
  19779934.000   105623738.118                    82151799.391    19779936.492  
  19779933.621  
  23072412.508   123378563.122                    95961125.598    23072418.836  
  23072410.848  
  22995769.219   120843587.886    22995776.340    94163873.5684   22995776.297  
                
  23066709.930   121216375.799    23066716.211    94454334.7474   23066716.273  
                
  22801821.367   119824387.673    22801825.656    93369672.4374                 
                
  20080340.172   105522923.634    20080349.484    82225684.6654   20080349.652  
                
 21  8 16  3 56 10.0000000  0 15R 2G20R16R19G29G12R10R18G18R 9R20G 5
                                G31G 2G25
  23385257.492   124788221.488                    97057493.779    23385261.473  
  23385255.289  
  22237312.562   116857853.101    22237318.906    91058112.1194                 
                
  20136568.336   107565937.301                    83662381.382    20136570.266  
  20136568.020  
  19505962.383   104343786.620                    81156265.362    19505965.094  
  19505960.258  
  21018821.914   110454668.582    21018827.961    86068601.7584   21018828.148  
                
  21330791.781   112094073.542    21330798.480    87346058.7414   21330798.520  
                
  23090342.398   123084514.112                                                  
  23090341.305  
  20458500.492   109208872.375                    84940231.561    20458503.574  
  20458499.051  
  24126463.461   126785441.513    24126470.465    98793865.3774   24126470.309  
                
  19777318.766   105609772.860                    82140937.520    19777321.270  
  19777318.379  
  23066022.047   123344390.325                    95934546.750    23066028.363  
  23066020.387  
  22990214.477   120814397.515    22990221.664    94141127.8334   22990221.590  
                
  23065012.078   121207453.539    23065018.312    94447382.3364   23065018.398  
                
  22806668.391   119849858.929    22806672.656    93389520.1674                 
                
  20081311.477   105528027.808    20081320.773    82229661.9334   20081320.949  
                
 21  8 16  3 56 20.0000000  0 15R 2G20R16R19G29G12R10R18G18R 9R20G 5
                                G31G 2G25
  23383497.352   124778828.965                    97050188.472    23383501.289  
  23383495.156  
  22235601.273   116848860.203    22235607.602    91051104.6724                 
                
  20141731.195   107593516.364                    83683831.761    20141733.137  
  20141730.879  
  19505114.086   104339248.792                    81152735.940    19505116.805  
  19505111.949  
  21016220.453   110440997.772    21016226.473    86057949.1794   21016226.664  
                
  21335407.578   112118329.673    21335414.309    87364959.6104   21335414.316  
                
  23082824.297   123044438.559                                                  
  23082823.250  
  20463380.125   109234920.085                    84960490.886    20463383.195  
  20463378.703  
  24119542.586   126749072.239    24119549.590    98765525.6784   24119549.477  
                
  19774718.797   105595889.162                    82130139.082    19774721.316  
  19774718.402  
  23059636.688   123310244.735                    95907989.063    23059642.977  
  23059635.004  
  22984665.961   120785239.922    22984673.215    94118407.6334   22984673.113  
                
  23063326.141   121198593.834    23063332.332    94440478.6804   23063332.449  
                
  22811520.078   119875354.628    22811524.316    93409386.9424                 
                
  20082293.758   105533189.707    20082303.035    82233684.1894   20082303.223  
                
 21  8 16  3 56 30.0000000  0 15R 2G20R16R19G29G12R10R18G18R 9R20G 5
                                G31G 2G25
  23381751.523   124769512.937                    97042942.645    23381755.453  
  23381749.352  
  22233901.273   116839926.603    22233907.578    91044143.4284                 
                
  20146906.727   107621163.101                    83705334.774    20146908.680  
  20146906.387  
  19504276.586   104334768.740                    81149251.456    19504279.309  
  19504274.457  
  21013624.766   110427357.323    21013630.762    86047320.2584   21013630.961  
                
  21340031.398   112142627.958    21340038.121    87383893.3274   21340038.125  
                
  23075311.297   123004390.209                                                  
  23075310.250  
  20468265.328   109260997.688                    84980773.466    20468268.402  
  20468263.930  
  24112624.461   126712717.515    24112631.484    98737197.3274   24112631.418  
                
  19772134.070   105582086.876                    82119403.978    19772136.598  
  19772133.680  
  23053256.148   123276126.008                    95881452.291    23053262.613  
  23053254.605  
  22979123.641   120756114.921    22979130.941    94095712.8384   22979130.844  
                
  23061652.078   121189796.559    23061658.219    94433623.6714   23061658.359  
                
  22816376.359   119900874.479    22816380.570    93429272.5444                 
                
  20083286.977   105538409.118    20083296.242    82237751.2524   20083296.426  
                
 21  8 16  3 56 40.0000000  0 15R 2G20R16R19G29G12R10R18G18R 9R20G 5
                                G31G 2G25
  23380020.172   124760274.104                    97035756.869    23380024.125  
  23380018.004  
  22232212.609   116831052.630    22232218.910    91037228.6494                 
                
  20152094.938   107648877.589                    83726890.478    20152096.898  
  20152094.594  
  19503449.945   104330346.772                    81145812.147    19503452.656  
  19503447.793  
  21011034.906   110413747.543    21011040.883    86036715.2274   21011041.086  
                
  21344663.289   112166968.649    21344669.961    87402860.0984   21344669.996  
                
  23067803.531   122964369.604                                                  
  23067802.441  
  20473156.195   109287105.424                    85001079.485    20473159.273  
  20473154.809  
  24105709.164   126676377.746    24105716.215    98708880.6194   24105716.184  
                
  19769564.625   105568366.204                    82108732.338    19769567.168  
  19769564.230  
  23046880.719   123242034.516                    95854936.701    23046887.348  
  23046879.301  
  22973587.602   120727022.866    22973594.957    94073043.7174   22973594.875  
                
  23059989.953   121181062.060    23059996.027    94426817.5594   23059996.211  
                
  22821237.266   119926418.663    22821241.414    93449177.1054                 
                
  20084291.211   105543686.384    20084300.453    82241863.4024   20084300.652  
                
 21  8 16  3 56 50.0000000  0 15R 2G20R16R19G29G12R10R18G18R 9R20G 5
                                G31G 2G25
  23378303.273   124751112.354                    97028631.067    23378307.238  
  23378301.148  
  22230535.344   116822238.537    22230541.652    91030360.5294                 
                
  20157295.844   107676659.919                    83748498.934    20157297.785  
  20157295.473  
  19502634.164   104325982.868                    81142418.000    19502636.879  
  19502632.020  
  21008450.906   110400168.521    21008456.875    86026134.1774   21008457.074  
                
  21349303.273   112191351.867    21349309.906    87421859.9944   21349309.969  
                
  23060300.969   122924376.792                                                  
  23060299.867  
  20478052.734   109313243.468                    85021409.066    20478055.793  
  20478051.359  
  24098796.781   126640053.155    24098803.848    98680575.7434   24098803.859  
                
  19767010.578   105554727.709                    82098124.615    19767013.125  
  19767010.172  
  23040510.609   123207970.765                    95828442.666    23040517.277  
  23040509.219  
  22968057.906   120697964.080    22968065.285    94050400.5084   22968065.199  
                
  23058339.812   121172390.488    23058345.836    94420060.4984   23058346.074  
                
  22826102.836   119951987.328    22826106.934    93469100.7484                 
                
  20085306.492   105549021.668    20085315.723    82246020.7594   20085315.926  
                
 21  8 16  3 57  0.0000000  0 15R 2G20R16R19G29G12R10R18G18R 9R20G 5
                                G31G 2G25
  23376600.828   124742027.721                    97021565.256    23376604.828  
  23376598.746  
  22228869.398   116813483.921    22228875.699    91023538.7624                 
                
  20162509.359   107704509.538                    83770159.744    20162511.297  
  20162508.973  
  19501829.164   104321676.675                    81139068.744    19501831.879  
  19501827.047  
  21005872.695   110386619.918    21005878.656    86015576.8214   21005878.852  
                
  21353951.266   112215777.140    21353957.891    87440892.6724   21353957.949  
                
  23052803.578   122884411.547                                                  
  23052802.438  
  20482954.867   109339411.315                    85041761.826    20482957.910  
  20482953.488  
  24091887.211   126603743.367    24091894.316    98652282.4084   24091894.375  
                
  19764471.812   105541170.834                    82087580.383    19764474.363  
  19764471.402  
  23034145.523   123173933.965                    95801969.589    23034152.223  
  23034144.184  
  22962534.461   120668938.196    22962541.852    94027782.9414   22962541.762  
                
  23056701.562   121163781.422    23056707.570    94413352.1334   23056707.812  
                
  22830972.977   119977580.017    22830977.027    93489043.0934                 
                
  20086332.719   105554414.525    20086341.938    82250222.9894   20086342.148  
                
 21  8 16  3 57 10.0000000  0 15R 2G20R16R19G29G12R10R18G18R 9R20G 5
                                G31G 2G25
  23374912.914   124733020.607                    97014559.697    23374916.898  
  23374910.828  
  22227214.812   116804789.052    22227221.102    91016763.5364                 
                
  20167735.570   107732426.974                    83791873.315    20167737.480  
  20167735.203  
  19501034.961   104317428.243                    81135764.400    19501037.672  
  19501032.832  
  21003300.312   110373101.938    21003306.266    86005043.3314   21003306.480  
                
  21358607.297   112240244.703    21358613.898    87459958.2834   21358613.945  
                
  23045311.430   122844474.398                                                  
  23045310.320  
  20487862.570   109365608.948                    85062137.766    20487865.602  
  20487861.180  
  24084980.477   126567448.669    24084987.680    98624000.8484   24084987.734  
                
  19761948.406   105527695.978                    82077099.933    19761950.969  
  19761947.992  
  23027785.727   123139924.670                    95775517.908    23027792.348  
  23027784.289  
  22957017.320   120639945.537    22957024.703    94005191.2624   22957024.613  
                
  23055075.242   121155235.046    23055081.270    94406692.6264   23055081.480  
                
  22835847.719   120003196.875    22835851.719    93509004.2804                 
                
  20087369.953   105559865.229    20087379.160    82254470.2904   20087379.379  
                
 21  8 16  3 57 20.0000000  0 15R 2G20R16R19G29G12R10R18G18R 9R20G 5
                                G31G 2G25
  23373239.398   124724090.354                    97007613.938    23373243.367  
  23373237.348  
  22225571.555   116796153.706    22225577.871    91010034.7014                 
                
  20172974.328   107760411.430                    83813638.989    20172976.215  
  20172974.004  
  19500251.492   104313237.220                    81132504.716    19500254.211  
  19500249.367  
  21000733.711   110359614.301    21000739.652    85994533.4804   21000739.855  
                
  21363271.320   112264754.209    21363277.891    87479056.5954   21363277.941  
                
  23037824.500   122804565.160                                                  
  23037823.449  
  20492775.805   109391836.059                    85082536.627    20492778.797  
  20492774.406  
  24078076.648   126531168.926    24078083.871    98595730.9454   24078083.934  
                
  19759440.312   105514302.895                    82066683.094    19759442.891  
  19759439.895  
  23021430.969   123105942.630                    95749087.448    23021437.566  
  23021429.531  
  22951506.484   120610986.047    22951513.863    93982625.4264   22951513.781  
                
  23053460.828   121146751.233    23053466.898    94400081.8604   23053467.059  
                
  22840726.977   120028837.540    22840730.961    93528984.0244                 
                
  20088418.156   105565373.509    20088427.352    82258762.4544   20088427.574  
                
 21  8 16  3 57 30.0000000  0 15R 2G20R16R19G29G12R10R18G18R 9R20G 5
                                G31G 2G25
  23371580.453   124715237.822                    97000728.635    23371584.418  
  23371578.434  
  22223939.664   116787578.094    22223946.031    91003352.4054                 
                
  20178225.633   107788462.912                    83835456.800    20178227.508  
  20178225.328  
  19499478.789   104309103.778                    81129289.817    19499481.500  
  19499476.680  
  20998172.906   110346157.215    20998178.844    85984047.4384   20998179.051  
                
  21367943.320   112289305.718    21367949.898    87498187.6304   21367949.949  
                
  23030342.906   122764684.068                                                  
  23030341.895  
  20497694.570   109418092.696                    85102958.454    20497697.551  
  20497693.164  
  24071175.711   126494904.299    24071182.922    98567472.7944   24071183.004  
                
  19756947.594   105500991.886                    82056330.086    19756950.184  
  19756947.168  
  23015081.336   123071987.925                    95722678.262    23015087.902  
  23015079.820  
  22946002.000   120582059.883    22946009.406    93960085.5774   22946009.332  
                
  23051858.359   121138330.196    23051864.465    94393519.9894   23051864.602  
                
  22845610.758   120054501.973    22845614.719    93548982.2674                 
                
  20089477.328   105570939.504    20089486.520    82263099.5894   20089486.750  
                
 21  8 16  3 57 40.0000000  0 15R 2G20R16R19G29G12R10R18G18R 9R20G 5
                                G31G 2G25
  23369935.984   124706462.551                    96993903.410    23369939.984  
  23369933.965  
  22222319.180   116779062.417    22222325.594    90996716.8174                 
                
  20183489.523   107816581.597                    83857326.879    20183491.387  
  20183489.238  
  19498716.891   104305028.075                    81126119.831    19498719.602  
  19498714.785  
  20995617.930   110332730.712    20995623.867    85973585.2304   20995624.074  
                
  21372623.344   112313899.335    21372629.949    87517351.4654   21372629.984  
                
  23022866.656   122724831.261                                                  
  23022865.680  
  20502618.875   109444378.933                    85123403.307    20502621.848  
  20502617.473  
  24064277.719   126458654.979    24064284.859    98539226.5724   24064284.977  
                
  19754470.281   105487763.127                    82046041.045    19754472.859  
  19754469.855  
  23008736.672   123038060.856                    95696290.548    23008743.387  
  23008735.227  
  22940503.922   120553167.392    22940511.352    93937571.9654   22940511.293  
                
  23050267.836   121129971.950    23050273.938    94387007.0684   23050274.074  
                
  22850499.094   120080190.277    22850503.031    93568999.1294                 
                
  20090547.516   105576563.342    20090556.711    82267481.8004   20090556.945  
                
 21  8 16  3 57 50.0000000  0 15R 2G20R16R19G29G12R10R18G18R 9R20G 5
                                G31G 2G25
  23368306.047   124697764.832                    96987138.494    23368310.039  
  23368303.996  
  22220710.062   116770606.456    22220716.480    90990127.7684                 
                
  20188765.914   107844767.146                    83879248.975    20188767.773  
  20188765.637  
  19497965.734   104301009.882                    81122994.565    19497968.453  
  19497963.609  
  20993068.750   110319334.651    20993074.703    85963146.7394   20993074.895  
                
  21377311.336   112338534.862    21377317.949    87536547.9774   21377317.980  
                
  23015395.773   122685006.923                                                  
  23015394.801  
  20507548.648   109470694.391                    85143870.872    20507551.605  
  20507547.238  
  24057382.648   126422420.841    24057389.727    98510992.1924   24057389.844  
                
  19752008.359   105474616.563                    82035815.930    19752010.930  
  19752007.938  
  23002397.242   123004161.098                    95669924.041    23002403.945  
  23002395.762  
  22935012.258   120524308.479    22935019.707    93915084.5094   22935019.637  
                
  23048689.258   121121676.402    23048695.312    94380542.9904   23048695.465  
                
  22855391.930   120105902.246    22855395.875    93589034.4294                 
                
  20091628.664   105582244.805    20091637.867    82271908.9104   20091638.094  
                
 21  8 16  3 58  0.0000000  0 15R 2G20R16R19G29G12R10R18G18R 9R20G 5
                                G31G 2G25
  23366690.609   124689144.563                    96980433.865    23366694.578  
  23366688.570  
  22219112.383   116762210.585    22219118.789    90983585.5474                 
                
  20194054.875   107873019.793                    83901223.232    20194056.723  
  20194054.586  
  19497225.398   104297049.566                    81119914.324    19497228.148  
  19497223.262  
  20990525.414   110305969.342    20990531.387    85952732.2194   20990531.570  
                
  21382007.359   112363212.566    21382013.977    87555777.3464   21382014.004  
                
  23007930.305   122645211.531                                                  
  23007929.324  
  20512483.945   109497039.267                    85164361.320    20512486.883  
  20512482.520  
  24050490.531   126386202.238    24050497.570    98482769.9024   24050497.672  
                
  19749561.883   105461552.488                    82025654.995    19749564.461  
  19749561.453  
  22996063.219   122970289.104                    95643579.162    22996069.727  
  22996061.617  
  22929527.070   120495483.601    22929534.531    93892623.5734   22929534.469  
                
  23047122.656   121113443.832    23047128.668    94374128.0014   23047128.871  
                
  22860289.336   120131638.184    22860293.281    93609088.3934                 
                
  20092720.852   105587984.237    20092730.070    82276381.1924   20092730.285  
                
 21  8 16  3 58 10.0000000  0 15R 2G20R16R19G29G12R10R18G18R 9R20G 5
                                G31G 2G25
  23365089.734   124680601.959                    96973789.569    23365093.660  
  23365087.688  
  22217526.133   116753874.817    22217532.520    90977090.1344                 
                
  20199356.375   107901339.449                    83923249.627    20199358.246  
  20199356.059  
  19496495.766   104293146.562                    81116878.635    19496498.512  
  19496493.633  
  20987987.891   110292634.629    20987993.875    85942341.5294   20987994.059  
                
  21386711.352   112387932.197    21386717.992    87575039.3824   21386718.008  
                
  23000470.188   122605444.797                                                  
  23000469.199  
  20517424.695   109523413.249                    85184874.427    20517427.633  
  20517423.289  
  24043601.336   126349999.127    24043608.391    98454559.6894   24043608.473  
                
  19747130.852   105448570.932                    82015558.234    19747133.434  
  19747130.422  
  22989734.180   122936444.806                    95617255.856    22989740.684  
  22989732.605  
  22924048.320   120466692.621    22924055.809    93870189.0424   22924055.750  
                
  23045568.016   121105274.136    23045574.012    94367762.0104   23045574.254  
                
  22865191.219   120157397.731    22865195.141    93629160.7634                 
                
  20093824.031   105593781.488    20093833.258    82280898.5224   20093833.465  
                
 21  8 16  3 58 20.0000000  0 15R 2G20R16R19G29G12R10R18G18R 9R20G 5
                                G31G 2G25
  23363503.508   124672137.523                    96967206.135    23363507.422  
  23363501.465  
  22215951.289   116745598.969    22215957.668    90970641.4274                 
                
  20204670.312   107929725.542                    83945327.700    20204672.195  
  20204669.980  
  19495776.844   104289300.809                    81113887.506    19495779.594  
  19495774.723  
  20985456.172   110279330.369    20985462.168    85931974.5764   20985462.355  
                
  21391423.312   112412693.649    21391429.973    87594334.0094   21391429.980  
                
  22993015.484   122565706.996                                                  
  22993014.492  
  20522370.875   109549816.267                    85205410.098    20522373.809  
  20522369.484  
  24036715.008   126313811.467    24036722.160    98426361.5284   24036722.199  
                
  19744715.281   105435671.935                    82005525.668    19744717.863  
  19744714.852  
  22983410.414   122902628.142                    95590953.994    22983416.789  
  22983408.707  
  22918576.031   120437935.623    22918583.539    93847781.0074   22918583.488  
                
  23044025.328   121097167.255    23044031.344    94361444.9704   23044031.598  
                
  22870097.562   120183180.660    22870101.465    93649251.3564                 
                
  20094938.211   105599636.516    20094947.449    82285460.8714   20094947.648  
                
 21  8 16  3 58 30.0000000  0 15R 2G20R16R19G29G12R10R18G18R 9R20G 5
                                G31G 2G25
  23361931.797   124663750.458                    96960682.902    23361935.664  
  23361929.797  
  22214387.891   116737383.263    22214394.270    90964239.5854                 
                
  20209996.719   107958178.221                    83967457.549    20209998.578  
  20209996.391  
  19495068.695   104285512.664                    81110941.174    19495071.418  
  19495066.570  
  20982930.289   110266056.800    20982936.293    85921631.5334   20982936.484  
                
  21396143.242   112437497.041    21396149.898    87613661.3164   21396149.922  
                
  22985566.273   122525998.362                                                  
  22985565.270  
  20527322.508   109576248.417                    85225968.434    20527325.434  
  20527321.117  
  24029831.703   126277639.505    24029838.863    98398175.5844   24029838.902  
                
  19742315.234   105422855.785                    81995557.545    19742317.828  
  19742314.789  
  22977091.641   122868839.147                    95564673.679    22977098.074  
  22977090.012  
  22913110.258   120409212.886    22913117.738    93825399.6594   22913117.695  
                
  23042494.617   121089123.349    23042500.688    94355176.9874   23042500.945  
                
  22875008.359   120208987.093    22875012.270    93669360.2634                 
                
  20096063.398   105605549.424    20096072.645    82290068.3244   20096072.844  
                
 21  8 16  3 58 40.0000000  0 15R 2G20R16R19G29G12R10R18G18R 9R20G 5
                                G31G 2G25
  23360374.664   124655441.219                    96954220.127    23360378.480  
  23360372.707  
  22212835.922   116729227.586    22212842.305    90957884.5014                 
                
  20215335.594   107986697.472                    83989639.170    20215337.477  
  20215335.254  
  19494371.250   104281781.834                    81108039.423    19494373.969  
  19494369.133  
  20980410.250   110252813.893    20980416.262    85911312.3854   20980416.461  
                
  21400871.125   112462342.172    21400877.766    87633021.1514   21400877.812  
                
  22978122.461   122486318.798                                                  
  22978121.496  
  20532279.562   109602709.489                    85246549.259    20532282.480  
  20532278.160  
  24022951.445   126241483.129    24022958.578    98370001.7854   24022958.582  
                
  19739930.633   105410122.125                    81985653.585    19739933.230  
  19739930.191  
  22970778.242   122835077.866                    95538414.901    22970784.523  
  22970776.516  
  22907651.039   120380524.471    22907658.457    93803045.0384   22907658.438  
                
  23040975.883   121081142.306    23040982.016    94348957.9874   23040982.215  
                
  22879923.602   120234816.826    22879927.508    93689487.3194                 
                
  20097199.586   105611520.088    20097208.836    82294720.7824   20097209.027  
                
 21  8 16  3 58 50.0000000  0 15R 2G20R16R19G29G12R10R18G18R 9R20G 5
                                G31G 2G25
  23358832.180   124647210.189                    96947818.202    23358835.941  
  23358830.203  
  22211295.375   116721132.001    22211301.777    90951576.2654                 
                
  20220686.859   108015283.050                    84011872.392    20220688.777  
  20220686.500  
  19493684.531   104278108.357                    81105182.277    19493687.234  
  19493682.414  
  20977896.008   110239601.519    20977902.031    85901017.0294   20977902.234  
                
  21405606.938   112487229.047    21405613.574    87652413.4984   21405613.637  
                
  22970684.164   122446668.530                                                  
  22970683.227  
  20537242.000   109629199.292                    85267152.438    20537244.926  
  20537240.578  
  24016074.148   126205342.432    24016081.289    98341840.2054   24016081.270  
                
  19737561.547   105397471.353                    81975814.090    19737564.141  
  19737561.090  
  22964469.953   122801344.395                    95512177.768    22964476.207  
  22964468.242  
  22902198.320   120351870.295    22902205.707    93780717.1174   22902205.699  
                
  23039469.117   121073224.244    23039475.266    94342788.0544   23039475.445  
                
  22884843.258   120260669.792    22884847.172    93709632.4944                 
                
  20098346.758   105617548.543    20098356.004    82299418.2704   20098356.188  
                
 21  8 16  3 59  0.0000000  0 15R 2G20R16R19G29G12R10R18G18R 9R20G 5
                                G31G 2G25
  23357304.242   124639056.708                    96941476.620    23357307.941  
  23357302.281  
  22209766.258   116713096.469    22209772.648    90945314.8274                 
                
  20226050.508   108043934.695                    84034156.994    20226052.434  
  20226050.145  
  19493008.445   104274491.809                    81102369.403    19493011.141  
  19493006.340  
  20975387.555   110226419.572    20975393.598    85890745.3894   20975393.801  
                
  21410350.656   112512157.413    21410357.293    87671838.1944   21410357.355  
                
  22963251.352   122407047.491                                                  
  22963250.402  
  20542209.781   109655717.659                    85287777.827    20542212.715  
  20542208.363  
  24009199.766   126169217.334    24009206.988    98313690.7804   24009206.938  
                
  19735207.953   105384903.273                    81966038.923    19735210.543  
  19735207.504  
  22958166.664   122767638.538                    95485962.119    22958173.055  
  22958165.039  
  22896752.141   120323250.449    22896759.555    93758415.9514   22896759.539  
                
  23037974.305   121065368.953    23037980.410    94336667.0664   23037980.633  
                
  22889767.297   120286545.781    22889771.227    93729795.5894                 
                
  20099504.898   105623634.611    20099514.133    82304160.6534   20099514.320  
                
 21  8 16  3 59 10.0000000  0 15R 2G20R16R19G29G12R10R18G18R 9R20G 5
                                G31G 2G25
  23355791.000   124630981.711                    96935196.023    23355794.645  
  23355789.031  
  22208248.688   116705121.507    22208255.016    90939100.5684                 
                
  20231426.602   108072652.762                    84056493.244    20231428.543  
  20231426.246  
  19492343.156   104270932.913                    81099601.368    19492345.848  
  19492341.039  
  20972885.008   110213268.597    20972891.070    85880497.8764   20972891.258  
                
  21415102.367   112537127.749    21415109.008    87691295.5994   21415109.066  
                
  22955824.125   122367456.423                                                  
  22955823.168  
  20547182.961   109682264.800                    85308425.596    20547185.910  
  20547181.527  
  24002328.414   126133108.378    24002335.773    98285553.9434   24002335.664  
                
  19732869.930   105372418.352                    81956328.423    19732872.512  
  19732869.477  
  22951868.609   122733960.832                    95459768.351    22951875.152  
  22951867.098  
  22891312.609   120294665.591    22891320.055    93736142.0514   22891320.051  
                
  23036491.531   121057576.944    23036497.555    94330595.3674   23036497.844  
                
  22894695.781   120312445.178    22894699.723    93749976.9314                 
                
  20100674.109   105629778.814    20100683.336    82308948.3344   20100683.531  
                
 21  8 16  3 59 20.0000000  0 15R 2G20R16R19G29G12R10R18G18R 9R20G 5
                                G31G 2G25
  23354292.375   124622984.676                    96928976.121    23354296.000  
  23354290.387  
  22206742.562   116697206.787    22206748.816    90932933.2584                 
                
  20236815.055   108101436.854                    84078880.875    20236817.000  
  20236814.719  
  19491688.531   104267431.124                    81096877.760    19491691.223  
  19491686.398  
  20970388.281   110200148.215    20970394.375    85870274.2034   20970394.555  
                
  21419861.969   112562139.643    21419868.613    87710785.3634   21419868.676  
                
  22948402.500   122327895.260                                                  
  22948401.480  
  20552161.469   109708840.384                    85329095.487    20552164.414  
  20552160.020  
  23995460.141   126097015.277    23995467.543    98257429.4554   23995467.402  
                
  19730547.461   105360016.476                    81946682.515    19730550.039  
  19730547.000  
  22945576.047   122700310.914                    95433596.166    22945582.461  
  22945574.414  
  22885879.664   120266115.400    22885887.141    93713895.1664   22885887.160  
                
  23035020.742   121049847.889    23035026.691    94324572.7254   23035027.055  
                
  22899628.656   120338367.629    22899632.590    93770176.2404                 
                
  20101854.305   105635980.763    20101863.523    82313781.0204   20101863.734  
                
 21  8 16  3 59 30.0000000  0 15R 2G20R16R19G29G12R10R18G18R 9R20G 5
                                G31G 2G25
  23352808.336   124615065.555                    96922816.794    23352811.953  
  23352806.340  
  22205247.930   116689352.418    22205254.102    90926812.9614                 
                
  20242215.883   108130287.045                    84101319.912    20242217.820  
  20242215.559  
  19491044.594   104263986.505                    81094198.609    19491047.262  
  19491042.457  
  20967897.391   110187058.522    20967903.512    85860074.4434   20967903.664  
                
  21424629.492   112587193.120    21424636.121    87730307.5394   21424636.188  
                
  22940986.469   122288363.779                                                  
  22940985.387  
  20557145.297   109735444.392                    85349787.482    20557148.250  
  20557143.832  
  23988594.828   126060938.175    23988602.281    98229317.4324   23988602.156  
                
  19728240.562   105347697.808                    81937101.328    19728243.141  
  19728240.102  
  22939288.617   122666689.049                    95407445.820    22939294.957  
  22939287.012  
  22880453.406   120237600.301    22880460.898    93691675.6084   22880460.941  
                
  23033561.938   121042181.849    23033567.848    94318599.1784   23033568.246  
                
  22904565.922   120364313.116    22904569.859    93790393.4854                 
                
  20103045.500   105642240.555    20103054.715    82318658.7704   20103054.938  
                
 21  8 16  3 59 40.0000000  0 15R 2G20R16R19G29G12R10R18G18R 9R20G 5
                                G31G 2G25
  23351339.016   124607224.896                    96916718.523    23351342.613  
  23351337.016  
  22203764.789   116681558.392    22203770.906    90920739.6984                 
                
  20247629.016   108159202.992                    84123810.081    20247630.938  
  20247628.711  
  19490411.336   104260598.975                    81091563.854    19490413.980  
  19490409.199  
  20965412.344   110173999.512    20965418.473    85849898.5874   20965418.617  
                
  21429404.930   112612288.162    21429411.539    87749862.1224   21429411.625  
                
  22933576.156   122248862.593                                                  
  22933575.031  
  20562134.438   109762076.751                    85370501.540    20562137.398  
  20562132.965  
  23981732.648   126024877.155    23981740.043    98201217.9284   23981739.922  
                
  19725949.281   105335462.430                    81927584.925    19725951.852  
  19725948.812  
  22933006.438   122633095.099                    95381317.227    22933012.719  
  22933004.828  
  22875033.812   120209120.189    22875041.316    93669483.3224   22875041.395  
                
  23032115.148   121034578.880    23032121.055    94312674.7854   23032121.477  
                
  22909507.555   120390281.553    22909511.512    93810628.6284                 
                
  20104247.719   105648558.225    20104256.934    82323581.6304   20104257.164  
                
 21  8 16  3 59 50.0000000  0 15R 2G20R16R19G29G12R10R18G18R 9R20G 5
                                G31G 2G25
  23349884.336   124599462.415                    96910681.020    23349887.883  
  23349882.340  
  22202293.117   116673824.764    22202299.207    90914713.5014                 
                
  20253054.461   108188184.719                    84146351.412    20253056.410  
  20253054.160  
  19489788.703   104257268.341                    81088973.362    19489791.348  
  19489786.559  
  20962933.117   110160971.124    20962939.250    85839746.5964   20962939.383  
                
  21434188.250   112637424.710    21434194.867    87769449.0254   21434194.945  
                
  22926171.500   122209391.551                                                  
  22926170.359  
  20567128.867   109788737.348                    85391237.561    20567131.828  
  20567127.367  
  23974873.555   125988832.226    23974880.879    98173130.9784   23974880.762  
                
  19723673.562   105323310.285                    81918133.240    19723676.117  
  19723673.098  
  22926729.414   122599529.170                    95355210.395    22926735.711  
  22926727.859  
  22869620.852   120180675.112    22869628.352    93647318.3434   22869628.457  
                
  23030680.336   121027038.915    23030686.223    94306799.4924   23030686.637  
                
  22914453.516   120416272.782    22914457.516    93830881.5334                 
                
  20105460.938   105654933.693    20105470.152    82328549.5284   20105470.391  
                
 21  8 16  4  0  0.0000000  0 15R 2G20R16R19G29G12R10R18G18R 9R20G 5
                                G31G 2G25
  23348444.383   124591778.481                    96904704.632    23348447.953  
  23348442.375  
  22200832.938   116666151.478    22200839.004    90908734.3264                 
                
  20258492.148   108217231.852                    84168943.606    20258494.117  
  20258491.809  
  19489176.742   104253994.728                    81086427.224    19489179.371  
  19489174.586  
  20960459.711   110147973.273    20960465.844    85829618.4014   20960465.980  
                
  21438979.453   112662602.636    21438986.062    87789068.1644   21438986.148  
                
  22918772.539   122169950.802                                                  
  22918771.367  
  20572128.555   109815425.996                    85411995.395    20572131.527  
  20572127.051  
  23968017.555   125952803.409    23968024.785    98145056.5724   23968024.668  
                
  19721413.453   105311241.390                    81908746.335    19721416.004  
  19721412.988  
  22920457.750   122565991.196                    95329125.291    22920463.926  
  22920456.105  
  22864214.586   120152265.134    22864222.070    93625180.7054   22864222.188  
                
  23029257.523   121019561.972    23029263.379    94300973.2994   23029263.777  
                
  22919403.797   120442286.659    22919407.871    93851152.0794                 
                
  20106685.141   105661366.920    20106694.355    82333562.4264   20106694.594  
                
 21  8 16  4  0 10.0000000  0 15R 2G20R16R19G29G12R10R18G18R 9R20G 5
                                G31G 2G25
  23347019.062   124584172.665                    96898789.017    23347022.609  
  23347017.070  
  22199384.297   116658538.804    22199390.348    90902802.3754                 
                
  20263942.102   108246344.555                    84191586.811    20263944.102  
  20263941.750  
  19488575.445   104250778.236                    81083925.509    19488578.086  
  19488573.281  
  20957992.148   110135006.189    20957998.289    85819514.1844   20957998.441  
                
  21443778.547   112687822.022    21443785.125    87808719.6294   21443785.230  
                
  22911379.312   122130540.584                                                  
  22911378.145  
  20577133.484   109842142.673                    85432775.020    20577136.441  
  20577131.961  
  23961164.617   125916790.893    23961171.812    98116994.8634   23961171.707  
                
  19719168.992   105299256.125                    81899424.459    19719171.535  
  19719168.531  
  22914191.148   122532481.364                    95303062.068    22914197.406  
  22914189.613  
  22858815.031   120123890.452    22858822.496    93603070.5704   22858822.652  
                
  23027846.719   121012148.146    23027852.547    94295196.3064   23027852.973  
                
  22924358.422   120468323.330    22924362.582    93871440.3804                 
                
  20107920.367   105667858.059    20107929.586    82338620.4614   20107929.820  
                
 21  8 16  4  0 20.0000000  0 15R 2G20R16R19G29G12R10R18G18R 9R20G 5
                                G31G 2G25
  23345608.453   124576645.283                    96892934.378    23345611.973  
  23345606.469  
  22197947.148   116650986.553    22197953.203    90896917.5074                 
                
  20269404.305   108275522.607                    84214280.859    20269406.297  
  20269403.957  
  19487984.742   104247618.361                    81081467.821    19487987.367  
  19487982.578  
  20955530.422   110122069.706    20955536.586    85809433.8064   20955536.734  
                
  21448585.484   112713082.619    21448592.039    87828403.2104   21448592.148  
                
  22903991.812   122091160.724                                                  
  22903990.652  
  20582143.641   109868887.197                    85453576.319    20582146.594  
  20582142.098  
  23954314.805   125880794.565    23954321.922    98088945.7674   23954321.809  
                
  19716940.172   105287354.308                    81890167.488    19716942.707  
  19716939.715  
  22907929.789   122498999.462                    95277020.623    22907936.133  
  22907928.359  
  22853422.219   120095551.076    22853429.680    93580987.9514   22853429.852  
                
  23026447.898   121004797.321    23026453.691    94289468.3764   23026454.156  
                
  22929317.312   120494382.450    22929321.539    93891746.1804                 
                
  20109166.578   105674406.896    20109175.805    82343723.4464   20109176.039  
                
 21  8 16  4  0 30.0000000  0 15R 2G20R16R19G29G12R10R18G18R 9R20G 5
                                G31G 2G25
  23344212.484   124569196.090                    96887140.576    23344215.957  
  23344210.512  
  22196521.445   116643494.462    22196527.508    90891079.5394                 
                
  20274878.633   108304765.471                    84237025.292    20274880.613  
  20274878.297  
  19487404.594   104244514.971                    81079054.075    19487407.215  
  19487402.441  
  20953074.438   110109163.451    20953080.637    85799376.9904   20953080.789  
                
  21453400.195   112738384.112    21453406.742    87848118.6294   21453406.836  
                
  22896609.945   122051811.011                                                  
  22896608.836  
  20587158.914   109895659.093                    85474398.894    20587161.887  
  20587157.359  
  23947467.938   125844814.206    23947475.086    98060909.1404   23947474.961  
                
  19714726.914   105275535.667                    81880975.201    19714729.441  
  19714726.445  
  22901673.648   122465545.470                    95251000.862    22901680.070  
  22901672.312  
  22848036.102   120067246.919    22848043.555    93558932.7544   22848043.734  
                
  23025061.023   120997509.204    23025066.801    94283789.3274   23025067.254  
                
  22934280.398   120520463.677    22934284.648    93912069.2044                 
                
  20110423.711   105681013.182    20110432.953    82348871.1914   20110433.164  
                
 21  8 16  4  0 40.0000000  0 15R 2G20R16R19G29G12R10R18G18R 9R20G 5
                                G31G 2G25
  23342831.328   124561825.966                    96881408.250    23342834.801  
  23342829.340  
  22195107.391   116636063.605    22195113.445    90885289.2664                 
                
  20280365.266   108334074.092                    84259820.871    20280367.258  
  20280364.934  
  19486835.180   104241469.036                    81076685.021    19486837.812  
  19486833.035  
  20950624.414   110096288.506    20950630.637    85789344.5584   20950630.770  
                
  21458222.883   112763727.465    21458229.426    87867866.6914   21458229.504  
                
  22889234.000   122012492.920                                                  
  22889232.938  
  20592179.492   109922459.299                    85495243.486    20592182.477  
  20592177.934  
  23940624.352   125808850.912    23940631.488    98032885.7924   23940631.352  
                
  19712529.445   105263801.329                    81871848.489    19712531.965  
  19712528.973  
  22895422.938   122432120.242                    95225003.456    22895429.359  
  22895421.629  
  22842656.867   120038979.017    22842664.324    93536905.8294   22842664.523  
                
  23023686.289   120990284.921    23023692.074    94278160.0054   23023692.488  
                
  22939247.883   120546568.008    22939252.148    93932410.2364                 
                
  20111691.961   105687677.895    20111701.215    82354064.4674   20111701.402  
                
 21  8 16  4  0 50.0000000  0 15R 2G20R16R19G29G12R10R18G18R 9R20G 5
                                G31G 2G25
  23341464.930   124554534.581                    96875737.204    23341468.414  
  23341462.945  
  22193704.945   116628693.664    22193711.000    90879546.4474                 
                
  20285864.156   108363448.117                    84282667.333    20285866.152  
  20285863.824  
  19486276.461   104238480.285                    81074360.448    19486279.098  
  19486274.316  
  20948180.273   110083444.494    20948186.504    85779336.2444   20948186.629  
                
  21463053.461   112789112.293    21463059.961    87887647.0754   21463060.062  
                
  22881863.953   121973206.302                                                  
  22881862.891  
  20597205.328   109949287.522                    85516109.891    20597208.344  
  20597203.770  
  23933783.977   125772904.426    23933791.035    98004875.5334   23933790.926  
                
  19710347.742   105252151.160                    81862787.264    19710350.270  
  19710347.281  
  22889177.406   122398723.514                    95199028.218    22889183.977  
  22889176.246  
  22837284.492   120010747.204    22837291.996    93514907.0364   22837292.199  
                
  23022323.625   120983124.051    23022329.449    94272580.1114   23022329.836  
                
  22944219.688   120572694.992    22944223.957    93952768.9204                 
                
  20112971.289   105694400.774    20112980.555    82359303.0714   20112980.742  
                
 21  8 16  4  1  0.0000000  0 15R 2G20R16R19G29G12R10R18G18R 9R20G 5
                                G31G 2G25
  23340113.266   124547321.884                    96870127.319    23340116.789  
  23340111.234  
  22192314.000   116621384.195    22192320.078    90873850.7594                 
                
  20291375.125   108392886.744                    84305564.022    20291377.121  
  20291374.785  
  19485728.312   104235548.083                    81072079.827    19485730.961  
  19485726.156  
  20945741.961   110070631.052    20945748.180    85769351.7394   20945748.305  
                
  21467891.844   112814538.100    21467898.301    87907459.3844   21467898.438  
                
  22874499.680   121933950.673                                                  
  22874498.617  
  20602236.289   109976143.105                    85536997.563    20602239.320  
  20602234.738  
  23926946.703   125736974.300    23926953.715    97976878.0334   23926953.648  
                
  19708181.703   105240584.611                    81853791.044    19708184.238  
  19708181.219  
  22882937.227   122365354.895                    95173074.861    22882943.855  
  22882936.113  
  22831918.922   119982551.119    22831926.480    93492936.0724   22831926.676  
                
  23020972.953   120976026.209    23020978.758    94267049.3264   23020979.141  
                
  22949195.695   120598844.024    22949199.996    93973144.7904                 
                
  20114261.570   105701181.259    20114270.840    82364586.5584   20114271.020  
                
 21  8 16  4  1 10.0000000  0 15R 2G20R16R19G29G12R10R18G18R 9R20G 5
                                G31G 2G25
  23338776.367   124540187.976                    96864578.758    23338779.926  
  23338774.312  
  22190934.641   116614135.597    22190940.773    90868202.5034                 
                
  20296898.266   108422390.324                    84328511.249    20296900.277  
  20296897.934  
  19485190.758   104232672.529                    81069843.296    19485193.402  
  19485188.586  
  20943309.492   110057848.368    20943315.703    85759391.2064   20943315.832  
                
  21472738.070   112840005.134    21472744.520    87927303.8234   21472744.645  
                
  22867141.352   121894726.484                                                  
  22867140.266  
  20607272.383   110003026.094                    85557906.542    20607275.430  
  20607270.836  
  23920112.641   125701060.911    23920119.605    97948893.5714   23920119.574  
                
  19706031.391   105229102.110                    81844860.218    19706033.945  
  19706030.887  
  22876702.594   122332014.729                    95147143.631    22876709.074  
  22876701.387  
  22826560.234   119954391.164    22826567.816    93470993.2564   22826568.000  
                
  23019634.320   120968991.666    23019640.035    94261567.8654   23019640.469  
                
  22954175.938   120625015.355    22954180.266    93993538.0284                 
                
  20115562.883   105708019.697    20115572.148    82369915.2044   20115572.328  
                
 21  8 16  4  1 20.0000000  0 15R 2G20R16R19G29G12R10R18G18R 9R20G 5
                                G31G 2G25
  23337454.188   124533132.624                    96859091.279    23337457.758  
  23337452.152  
  22189566.828   116606947.722    22189572.977    90862601.5664                 
                
  20302433.508   108451958.557                    84351508.745    20302435.520  
  20302433.180  
  19484663.773   104229853.573                    81067650.770    19484666.441  
  19484661.598  
  20940882.859   110045096.323    20940889.078    85749454.5514   20940889.219  
                
  21477592.094   112865513.153    21477598.559    87947180.1904   21477598.672  
                
  22859788.812   121855533.410                                                  
  22859787.695  
  20612313.570   110029936.320                    85578836.710    20612316.617  
  20612312.000  
  23913281.719   125665164.173    23913288.629    97920922.0894   23913288.645  
                
  19703896.805   105217703.537                    81835994.648    19703899.359  
  19703896.273  
  22870473.211   122298702.761                    95121234.326    22870479.566  
  22870471.867  
  22821208.398   119926267.270    22821215.992    93449078.5474   22821216.188  
                
  23018307.719   120962020.299    23018313.355    94256135.6314   23018313.840  
                
  22959160.375   120651208.763    22959164.719    94013948.4704                 
                
  20116875.188   105714915.911    20116884.438    82375288.8754   20116884.621  
                
 21  8 16  4  1 30.0000000  0 15R 2G20R16R19G29G12R10R18G18R 9R20G 5
                                G31G 2G25
  23336146.812   124526156.250                    96853665.228    23336150.383  
  23336144.773  
  22188210.656   116599820.944    22188216.805    90857048.2314                 
                
  20307980.883   108481591.592                    84374556.653    20307982.879  
  20307980.555  
  19484147.461   104227091.649                    81065502.604    19484150.156  
  19484145.270  
  20938462.117   110032375.241    20938468.352    85739542.0114   20938468.480  
                
  21482453.984   112891062.440    21482460.449    87967088.7084   21482460.555  
                
  22852442.258   121816372.233                                                  
  22852441.102  
  20617359.922   110056874.058                    85599788.276    20617362.980  
  20617358.352  
  23906453.961   125629284.416    23906460.922    97892963.8384   23906460.965  
                
  19701778.016   105206389.320                    81827194.715    19701780.586  
  19701777.477  
  22864248.805   122265419.333                    95095347.199    22864255.383  
  22864247.652  
  22815863.539   119898179.928    22815871.113    93427192.3174   22815871.328  
                
  23016993.180   120955112.292    23016998.770    94250752.7824   23016999.270  
                
  22964149.062   120677424.454    22964153.414    94034376.2924                 
                
  20118198.547   105721870.178    20118207.773    82380707.7754   20118207.977  
                
 21  8 16  4  1 40.0000000  0 15R 2G20R16R19G29G12R10R18G18R 9R20G 5
                                G31G 2G25
  23334854.281   124519259.034                    96848300.729    23334857.855  
  23334852.199  
  22186866.086   116592755.223    22186872.246    90851542.4774                 
                
  20313540.375   108511289.408                    84397654.964    20313542.387  
  20313540.062  
  19483641.719   104224386.300                    81063398.441    19483644.418  
  19483639.527  
  20936047.266   110019685.127    20936053.531    85729653.6094   20936053.641  
                
  21487323.680   112916652.830    21487330.133    87987029.2654   21487330.246  
                
  22845101.711   121777243.013                                                  
  22845100.551  
  20622411.383   110083839.150                    85620761.119    20622414.461  
  20622409.805  
  23899629.375   125593421.671    23899636.414    97865018.8534   23899636.480  
                
  19699675.047   105195159.579                    81818460.458    19699677.625  
  19699674.492  
  22858029.977   122232164.723                    95069482.502    22858036.562  
  22858028.832  
  22810525.633   119870129.085    22810533.191    93405334.5074   22810533.402  
                
  23015690.703   120948267.725    23015696.262    94245419.3494   23015696.777  
                
  22969141.969   120703662.391    22969146.352    94054821.4124                 
                
  20119532.945   105728882.482    20119542.148    82386171.9004   20119542.363  
                
 21  8 16  4  1 50.0000000  0 15R 2G20R16R19G29G12R10R18G18R 9R20G 5
                                G31G 2G25
  23333576.547   124512440.807                    96842997.671    23333580.102  
  23333574.461  
  22185533.094   116585750.323    22185539.285    90846084.1054                 
                
  20319111.867   108541051.323                    84420803.117    20319113.883  
  20319111.547  
  19483146.547   104221737.513                    81061338.271    19483149.266  
  19483144.375  
  20933638.242   110007025.643    20933644.535    85719789.0834   20933644.629  
                
  21492201.156   112942284.055    21492207.617    88007001.6404   21492207.758  
                
  22837767.148   121738145.835                                                  
  22837766.008  
  20627467.914   110110831.234                    85641754.966    20627471.000  
  20627466.344  
  23892808.141   125557575.760    23892815.098    97837086.9644   23892815.188  
                
  19697587.836   105184014.002                    81809791.671    19697590.418  
  19697587.277  
  22851816.375   122198938.282                    95043639.717    22851823.016  
  22851815.309  
  22805194.617   119842114.572    22805202.188    93383505.0164   22805202.383  
                
  23014400.242   120941486.354    23014405.785    94240135.1694   23014406.293  
                
  22974139.031   120729922.131    22974143.449    94075283.5434                 
                
  20120878.336   105735952.541    20120887.516    82391681.0394   20120887.738  
                
 21  8 16  4  2  0.0000000  0 15R 2G20R16R19G29G12R10R18G18R 9R20G 5
                                G31G 2G25
  23332313.617   124505701.642                    96837756.121    23332317.188  
  23332311.500  
  22184211.711   116578806.451    22184217.926    90840673.2944                 
                
  20324695.430   108570877.717                    84444001.393    20324697.457  
  20324695.086  
  19482661.906   104219145.048                    81059321.918    19482664.637  
  19482659.750  
  20931235.086   109994396.953    20931241.391    85709948.5494   20931241.473  
                
  21497086.445   112967956.362    21497092.934    88027006.0224   21497093.066  
                
  22830438.633   121699080.806                                                  
  22830437.496  
  20632529.500   110137850.327                    85662769.818    20632532.598  
  20632527.934  
  23885990.133   125521746.909    23885997.066    97809168.3964   23885997.168  
                
  19695516.422   105172952.739                    81801188.463    19695518.996  
  19695515.867  
  22845608.016   122165740.638                    95017819.351    22845614.844  
  22845607.156  
  22799870.602   119814136.846    22799878.219    93361704.2164   22799878.398  
                
  23013121.867   120934768.409    23013127.410    94234900.4134   23013127.895  
                
  22979140.250   120756203.783    22979144.715    94095762.7394                 
                
  20122234.750   105743080.528    20122243.910    82397235.3134   20122244.141  
                
 21  8 16  4  2 10.0000000  0 15R 2G20R16R19G29G12R10R18G18R 9R20G 5
                                G31G 2G25
  23331065.477   124499041.348                    96832575.922    23331069.035  
  23331063.328  
  22182901.953   116571923.615    22182908.203    90835310.0524                 
                
  20330291.000   108600768.239                    84467249.571    20330293.059  
  20330290.676  
  19482187.836   104216609.037                    81057349.463    19482190.586  
  19482185.680  
  20928837.781   109981799.046    20928844.078    85700132.0004   20928844.176  
                
  21501979.508   112993669.484    21501985.996    88047042.2154   21501986.133  
                
  22823116.141   121660047.864                                                  
  22823115.000  
  20637596.141   110164896.383                    85683805.630    20637599.250  
  20637594.586  
  23879175.414   125485935.112    23879182.309    97781263.1094   23879182.402  
                
  19693460.820   105161975.934                    81792650.952    19693463.398  
  19693460.246  
  22839405.297   122132571.510                    94992021.123    22839412.020  
  22839404.379  
  22794553.570   119786195.870    22794561.273    93339932.0424   22794561.426  
                
  23011855.547   120928113.834    23011861.082    94229715.0074   23011861.562  
                
  22984145.625   120782507.172    22984150.141    94116258.8784                 
                
  20123602.180   105750266.394    20123611.320    82402834.6814   20123611.562  
                
 21  8 16  4  2 20.0000000  0 15R 2G20R16R19G29G12R10R18G18R 9R20G 5
                                G31G 2G25
  23329832.164   124492460.167                    96827457.256    23329835.668  
  23329829.961  
  22181603.805   116565101.833    22181610.105    90829994.3584                 
                
  20335898.562   108630722.799                    84490547.562    20335900.633  
  20335898.254  
  19481724.289   104214129.398                    81055420.851    19481727.031  
  19481722.133  
  20926446.328   109969231.891    20926452.617    85690339.4114   20926452.727  
                
  21506880.336   113019423.459    21506886.828    88067110.2384   21506886.961  
                
  22815799.672   121621047.141                                                  
  22815798.555  
  20642667.781   110191969.128                    85704862.193    20642670.891  
  20642666.223  
  23872363.930   125450140.419    23872370.781    97753371.1344   23872370.895  
                
  19691421.039   105151083.631                    81784179.164    19691423.617  
  19691420.473  
  22833207.859   122099430.955                    94966245.130    22833214.535  
  22833206.910  
  22789243.562   119758291.691    22789251.359    93318188.5404   22789251.469  
                
  23010601.273   120921522.584    23010606.809    94224578.9764   23010607.273  
                
  22989155.117   120808832.243    22989159.711    94136771.9174                 
                
  20124980.609   105757510.090    20124989.734    82408479.1164   20124989.992  
                
 21  8 16  4  2 30.0000000  0 15R 2G20R16R19G29G12R10R18G18R 9R20G 5
                                G31G 2G25
  23328613.766   124485958.652                    96822400.561    23328617.219  
  23328611.555  
  22180317.273   116558341.100    22180323.660    90824726.2694                 
                
  20341518.117   108660741.441                    84513895.371    20341520.188  
  20341517.809  
  19481271.297   104211706.128                    81053536.085    19481274.031  
  19481269.125  
  20924060.742   109956695.536    20924067.016    85680570.8134   20924067.145  
                
  21511788.930   113045218.207    21511795.449    88087210.0274   21511795.566  
                
  22808489.344   121582079.047                                                  
  22808488.250  
  20647744.438   110219068.605                    85725939.571    20647747.555  
  20647742.875  
  23865555.742   125414362.932    23865562.531    97725492.5614   23865562.676  
                
  19689397.086   105140275.856                    81775773.110    19689399.660  
  19689396.527  
  22827015.930   122066319.145                    94940491.483    22827022.457  
  22827014.828  
  22783940.594   119730424.480    22783948.461    93296473.8524   22783948.551  
                
  23009359.078   120914994.765    23009364.617    94219492.3884   23009365.059  
                
  22994168.742   120835178.994    22994173.402    94157301.8384                 
                
  20126370.055   105764811.684    20126379.164    82414168.6604   20126379.434  
                
 21  8 16  4  2 40.0000000  0 15R 2G20R16R19G29G12R10R18G18R 9R20G 5
                                G31G 2G25
  23327410.195   124479536.174                    96817405.267    23327413.578  
  23327408.008  
  22179042.414   116551641.672    22179048.852    90819505.9494                 
                
  20347149.609   108690823.862                    84537292.806    20347151.680  
  20347149.297  
  19480828.781   104209339.012                    81051695.000    19480831.527  
  19480826.602  
  20921681.031   109944190.067    20921687.309    85670826.2954   20921687.457  
                
  21516705.281   113071053.763    21516711.828    88107341.6144   21516711.918  
                
  22801185.141   121543143.678                                                  
  22801184.074  
  20652826.086   110246194.808                    85747037.716    20652829.219  
  20652824.543  
  23858750.789   125378602.802    23858757.559    97697627.5364   23858757.723  
                
  19687389.039   105129553.000                    81767433.119    19687391.605  
  19687388.477  
  22820829.305   122033236.130                    94914760.270    22820835.797  
  22820828.160  
  22778644.688   119702594.433    22778652.602    93274788.1164   22778652.691  
                
  23008128.969   120908530.454    23008134.477    94214455.2664   23008134.953  
                
  22999186.477   120861547.386    22999191.191    94177848.6254                 
                
  20127770.531   105772171.237    20127779.625    82419903.3774   20127779.910  
                
 21  8 16  4  2 50.0000000  0 15R 2G20R16R19G29G12R10R18G18R 9R20G 5
                                G31G 2G25
  23326221.500   124473193.135                    96812471.819    23326224.824  
  23326219.270  
  22177779.195   116545003.406    22177785.656    90814333.2714                 
                
  20352793.039   108720970.073                    84560739.852    20352795.109  
  20352792.730  
  19480396.828   104207028.343                    81049897.807    19480399.586  
  19480394.660  
  20919307.164   109931715.365    20919313.441    85661105.7454   20919313.574  
                
  21521629.367   113096929.947    21521635.926    88127504.8694   21521636.012  
                
  22793887.086   121504240.933                                                  
  22793886.051  
  20657912.672   110273347.363                    85768156.368    20657915.816  
  20657911.113  
  23851949.086   125342859.993    23851955.855    97669775.9974   23851956.055  
                
  19685396.852   105118914.815                    81759158.970    19685399.422  
  19685396.316  
  22814648.086   122000181.864                    94889051.406    22814654.508  
  22814646.805  
  22773355.867   119674801.654    22773363.789    93253131.4034   22773363.887  
                
  23006910.914   120902129.569    23006916.430    94209467.5504   23006916.922  
                
  23004208.305   120887937.253    23004213.039    94198412.1474                 
                
  20129182.016   105779588.667    20129191.102    82425683.1854   20129191.398  
                
 21  8 16  4  3  0.0000000  0 15R 2G20R16R19G29G12R10R18G18R 9R20G 5
                                G31G 2G25
  23325047.680   124466929.438                    96807600.056    23325050.953  
  23325045.457  
  22176527.648   116538426.487    22176534.129    90809208.3954                 
                
  20358448.422   108751180.064                    84584236.501    20358450.469  
  20358448.102  
  19479975.391   104204773.936                    81048144.376    19479978.152  
  19479973.234  
  20916939.195   109919271.606    20916945.480    85651409.3184   20916945.621  
                
  21526561.219   113122846.922    21526567.789    88147699.8984   21526567.871  
                
  22786595.258   121465371.393                                                  
  22786594.246  
  20663004.289   110300526.708                    85789295.850    20663007.438  
  20663002.742  
  23845150.734   125307134.717    23845157.523    97641938.1294   23845157.734  
                
  19683420.586   105108361.671                    81750950.963    19683423.141  
  19683420.066  
  22808472.211   121967156.283                    94863364.855    22808478.555  
  22808470.859  
  22768074.195   119647046.360    22768082.117    93231503.9104   22768082.219  
                
  23005704.953   120895792.215    23005710.523    94204529.3414   23005711.000  
                
  23009234.234   120914348.682    23009238.977    94218992.4844                 
                
  20130604.547   105787064.114    20130613.621    82431508.2074   20130613.926  
                
 21  8 16  4  3 10.0000000  0 15R 2G20R16R19G29G12R10R18G18R 9R20G 5
                                G31G 2G25
  23323888.719   124460744.942                    96802789.919    23323891.957  
  23323886.484  
  22175287.750   116531910.811    22175294.262    90804131.2554                 
                
  20364115.703   108781453.676                    84607782.641    20364117.758  
  20364115.371  
  19479564.477   104202575.835                    81046434.748    19479567.234  
  19479562.316  
  20914577.102   109906858.709    20914583.391    85641736.9364   20914583.527  
                
  21531500.789   113148804.545    21531507.379    88167926.6064   21531507.453  
                
  22779309.672   121426535.060                                                  
  22779308.680  
  20668100.812   110327732.295                    85810455.754    20668103.988  
  20668099.266  
  23838355.742   125271426.972    23838362.543    97614113.9224   23838362.750  
                
  19681460.234   105097893.459                    81742809.023    19681462.777  
  19681459.727  
  22802301.797   121934159.721                    94837700.859    22802307.996  
  22802300.324  
  22762799.672   119619328.691    22762807.574    93209905.7314   22762807.660  
                
  23004511.062   120889518.221    23004516.703    94199640.5224   23004517.105  
                
  23014264.234   120940781.522    23014269.000    94239589.4974                 
                
  20132038.102   105794597.468    20132047.168    82437378.3464   20132047.477  
                
