     2.11           OBSERVATION DATA    M (MIXED)           RINEX VERSION / TYPE
EFT-CORS.RU                             20210817 150559 UTC PGM / RUN BY / DATE 
MDNG                                                        MARKER NAME         
                                                            MARKER NUMBER       
MDNG                EFT-CORS.RU                             OBSERVER / AGENCY   
0                   TRIMBLE BD970       2.0                 REC # / TYPE / VERS 
0                   UNKNOWN EXT NONE                        ANT # / TYPE        
  3463911.2830  3030468.2400  4402179.3760                  APPROX POSITION XYZ 
        0.0000        0.0000        0.0000                  ANTENNA: DELTA H/E/N
     1     1                                                WAVELENGTH FACT L1/2
     6    C1    L1    P2    L2    C2    P1                  # / TYPES OF OBSERV 
    10.000                                                  INTERVAL            
  2021     8    14     6    30    0.0000000     GPS         TIME OF FIRST OBS   
  2021     8    14     7    30    0.0000000     GPS         TIME OF LAST OBS    
     0                                                      RCV CLOCK OFFS APPL 
                                                            END OF HEADER       
 21  8 14  6 30  0.0000000  0 16G15G26R16R 2G29G18R15G 5R 3R 9G23G16
                                R18R17G25R19
  24043587.664   126349914.698    24043596.172    98454514.6894   24043596.086  
                
  21462680.570   112787147.404    21462690.152    87886144.1854   21462689.996  
                
  21044592.406   112416439.399                    87435032.124    21044594.824  
  21044592.133  
  20972280.117   111912114.384                    87042793.147    20972283.199  
  20972277.914  
  21149851.898   111143216.034    21149858.691    86605131.2484   21149858.984  
                
  20275866.672   106550403.968    20275873.418    83026330.3994   20275873.391  
                
  23204378.703   123997114.115                    96442186.531    23204384.980  
  23204378.691  
  22240866.398   116876544.026    22240873.422    91072671.0834   22240873.398  
                
  22079631.117   118194008.048                    91928679.306    22079635.562  
  22079629.773  
  22124295.359   118142522.636                    91888615.182    22124298.406  
  22124294.777  
  22237356.555   116858102.092    22237364.570    91058309.0164   22237364.406  
                
  23008603.070   120911040.197    23008609.219    94216422.2194                 
                
  19799173.445   105689333.921                    82202818.447    19799176.559  
  19799171.891  
  20890361.375   111788524.750                    86946624.337    20890364.699  
  20890359.625  
  24410303.938   128276963.479    24410315.547    99956107.0084   24410315.875  
                
  22115520.695   118303143.397                    92013582.203    22115524.277  
  22115518.277  
 21  8 14  6 30 10.0000000  0 16G15G26R16R 2G29G18R15G 5R 3R 9G23G16
                                R18R17G25R19
  24038519.047   126323278.337    24038527.426    98433759.1024   24038527.336  
                
  21461741.531   112782212.712    21461751.109    87882298.9624   21461750.965  
                
  21048185.492   112435632.947                    87449960.448    21048187.898  
  21048185.211  
  20971151.523   111906091.982                    87038109.052    20971154.605  
  20971149.324  
  21152976.656   111159636.638    21152983.445    86617926.5234   21152983.738  
                
  20274754.047   106544557.058    20274760.789    83021774.3744   20274760.777  
                
  23212558.820   124040825.712                    96476184.425    23212565.082  
  23212558.777  
  22245307.953   116899884.499    22245315.039    91090858.4624   22245314.992  
                
  22072548.766   118156094.991                    91899191.377    22072553.121  
  22072547.332  
  22120841.992   118124081.855                    91874272.352    22120845.070  
  22120841.359  
  22231249.422   116826008.838    22231257.496    91033301.3084   22231257.309  
                
  23003610.820   120884805.841    23003616.957    94195979.8804                 
                
  19798256.328   105684438.236                    82199010.702    19798259.453  
  19798254.773  
  20894356.344   111809902.619                    86963251.534    20894359.695  
  20894354.578  
  24417654.094   128315588.595    24417665.656    99986204.4774   24417665.980  
                
  22110659.461   118277138.667                    91993356.298    22110662.945  
  22110657.031  
 21  8 14  6 30 20.0000000  0 16G15G26R16R 2G29G18R15G 5R 3R 9G23G16
                                R18R17G25R19
  24033455.578   126296669.575    24033463.945    98413025.0514   24033463.855  
                
  21460814.656   112777342.180    21460824.270    87878503.7374   21460824.141  
                
  21051793.055   112454903.836                    87464948.913    21051795.445  
  21051792.770  
  20970039.570   111900158.410                    87033494.062    20970042.648  
  20970037.379  
  21156108.438   111176094.223    21156115.250    86630750.6044   21156115.516  
                
  20273649.344   106538751.838    20273656.094    83017250.8324   20273656.078  
                
  23220740.406   124084545.579                    96510188.722    23220746.680  
  23220740.371  
  22249759.414   116923277.111    22249766.520    91109086.4554   22249766.473  
                
  22065473.250   118118218.802                    91869732.117    22065477.578  
  22065471.777  
  22117403.445   118105720.354                    91859991.197    22117406.566  
  22117402.754  
  22225148.797   116793949.778    22225156.895    91008320.2194   22225156.715  
                
  22998627.266   120858617.151    22998633.383    94175573.1214                 
                
  19797345.242   105679574.830                    82195228.059    19797348.375  
  19797343.680  
  20898355.281   111831301.806                    86979895.338    20898358.641  
  20898353.480  
  24425004.945   128354217.707    24425016.488   100016305.0664   24425016.828  
                
  22105801.062   118251149.795                    91973142.738    22105804.559  
  22105798.699  
 21  8 14  6 30 30.0000000  0 16G15G26R16R 2G29G18R15G 5R 3R 9G23G16
                                R18R17G25R19
  24028397.523   126270089.335    24028405.875    98392313.2104   24028405.801  
                
  21459900.172   112772536.663    21459909.824    87874759.1834   21459909.707  
                
  21055415.195   112474252.650                    87479997.975    21055417.578  
  21055414.906  
  20968944.375   111894314.275                    87028948.625    20968947.449  
  20968942.172  
  21159247.422   111192589.636    21159254.277    86643604.1714   21159254.516  
                
  20272552.734   106532989.106    20272559.500    83012760.3944   20272559.480  
                
  23228923.727   124128274.232                    96544199.848    23228929.945  
  23228923.637  
  22254220.953   116946722.627    22254228.062    91127355.6824   22254228.035  
                
  22058404.773   118080380.595                    91840302.410    22058409.125  
  22058403.297  
  22113979.922   118087439.004                    91845772.376    22113983.055  
  22113979.191  
  22219054.836   116761925.804    22219062.941    90983366.4764   22219062.734  
                
  22993652.570   120832474.996    22993658.691    94155202.6194                 
                
  19796440.359   105674744.515                    82191471.142    19796443.484  
  19796438.801  
  20902358.344   111852722.995                    86996556.255    20902361.719  
  20902356.512  
  24432356.727   128392851.493    24432368.238   100046409.2934   24432368.613  
                
  22100945.734   118225177.412                    91952942.009    22100949.262  
  22100943.422  
 21  8 14  6 30 40.0000000  0 16G15G26R16R 2G29G18R15G 5R 3R 9G23G16
                                R18R17G25R19
  24023344.859   126243537.673    24023353.254    98371623.6394   24023353.180  
                
  21458998.062   112767796.102    21459007.758    87871065.2494   21459007.629  
                
  21059051.891   112493679.225                    87495107.532    21059054.277  
  21059051.609  
  20967865.953   111888559.628                    87024472.797    20967869.027  
  20967863.738  
  21162393.578   111209122.744    21162400.480    86656487.1004   21162400.688  
                
  20271464.188   106527268.766    20271470.973    83008302.9844   20271470.941  
                
  23237108.602   124172011.655                    96578217.802    23237114.832  
  23237108.512  
  22258692.500   116970220.833    22258699.625    91145665.9694   22258699.594  
                
  22051343.203   118042580.306                    91810902.229    22051347.730  
  22051341.836  
  22110571.391   118069237.761                    91831615.838    22110574.527  
  22110570.676  
  22212967.547   116729936.908    22212975.656    90958440.0664   22212975.426  
                
  22988686.734   120806379.372    22988692.828    94134868.3864                 
                
  19795541.648   105669947.158                    82187739.868    19795544.781  
  19795540.082  
  20906365.508   111874166.145                    87013234.228    20906368.879  
  20906363.664  
  24439709.375   128431489.816    24439720.867   100076517.0574   24439721.258  
                
  22096093.555   118199221.415                    91932754.023    22096097.043  
  22096091.180  
 21  8 14  6 30 50.0000000  0 16G15G26R16R 2G29G18R15G 5R 3R 9G23G16
                                R18R17G25R19
  24018297.344   126217013.558    24018305.855    98350955.5284   24018305.797  
                
  21458108.094   112763119.291    21458117.812    87867420.9744   21458117.668  
                
  21062702.922   112513182.370                    87510276.631    21062705.301  
  21062702.645  
  20966804.047   111882893.077                    87020065.483    20966807.125  
  20966801.832  
  21165546.672   111225692.277    21165553.633    86669398.4214   21165553.805  
                
  20270383.469   106521589.562    20270390.277    83003877.6384   20270390.230  
                
  23245294.789   124215756.250                    96612241.341    23245301.105  
  23245294.734  
  22263173.812   116993770.353    22263180.965    91164016.2364   22263180.918  
                
  22044288.430   118004816.825                    91781530.636    22044293.180  
  22044287.211  
  22107177.680   118051115.526                    91817520.759    22107180.816  
  22107177.008  
  22206886.711   116697981.962    22206894.820    90933540.1194   22206894.594  
                
  22983729.523   120780329.090    22983735.586    94114569.4644                 
                
  19794648.891   105665181.592                    82184033.315    19794652.027  
  19794647.324  
  20910376.555   111895630.053                    87029928.366    20910379.934  
  20910374.719  
  24447062.664   128470131.330    24447074.105   100106627.3004   24447074.504  
                
  22091244.141   118173280.438                    91912577.711    22091247.637  
  22091241.742  
 21  8 14  6 31  0.0000000  0 16G15G26R16R 2G29G18R15G 5R 3R 9G23G16
                                R18R17G25R19
  24013255.320   126190517.589    24013263.770    98330309.3414   24013263.730  
                
  21457230.359   112758506.776    21457240.090    87863826.8064   21457239.930  
                
  21066368.352   112532762.359                    87525505.495    21066370.734  
  21066368.062  
  20965758.875   111877315.887                    87015727.687    20965761.961  
  20965756.652  
  21168706.797   111242298.772    21168713.828    86682338.5394   21168713.973  
                
  20269310.680   106515952.014    20269317.500    82999484.7454   20269317.445  
                
  23253482.352   124259508.554                    96646270.872    23253488.828  
  23253482.445  
  22267664.977   117017371.549    22267672.160    91182406.7634   22267672.102  
                
  22037240.766   117967090.959                    91752188.303    22037245.656  
  22037239.625  
  22103798.875   118033072.847                    91803487.588    22103802.016  
  22103798.230  
  22200812.461   116666061.606    22200820.574    90908667.1164   22200820.359  
                
  22978781.078   120754324.836    22978787.082    94094306.4024                 
                
  19793762.164   105660448.192                    82180351.787    19793765.309  
  19793760.594  
  20914391.578   111917115.175                    87046639.014    20914394.930  
  20914389.758  
  24454416.562   128508776.494    24454428.035   100136740.3964   24454428.441  
                
  22086397.609   118147355.037                    91892413.508    22086401.156  
  22086395.242  
 21  8 14  6 31 10.0000000  0 16G15G26R16R 2G29G18R15G 5R 3R 9G23G16
                                R18R17G25R19
  24008218.680   126164049.921    24008227.109    98309685.2004   24008227.066  
                
  21456364.852   112753958.584    21456374.586    87860282.7514   21456374.441  
                
  21070048.109   112552418.996                    87540793.976    21070050.504  
  21070047.797  
  20964730.297   111871827.223                    87011458.737    20964733.352  
  20964728.078  
  21171873.945   111258942.213    21171881.043    86695307.4504   21171881.156  
                
  20268245.812   106510356.114    20268252.641    82995124.3084   20268252.582  
                
  23261671.367   124303268.259                    96680306.155    23261677.914  
  23261671.520  
  22272165.961   117041024.455    22272173.168    91200837.5874   22272173.121  
                
  22030200.258   117929402.945                    91722875.392    22030205.246  
  22030199.180  
  22100435.016   118015109.953                    91789516.447    22100438.160  
  22100434.367  
  22194744.805   116634175.919    22194752.941    90883821.1314   22194752.723  
                
  22973841.414   120728366.693    22973847.352    94074079.2934                 
                
  19792881.516   105655747.248                    82176695.509    19792884.656  
  19792879.949  
  20918410.547   111938621.444                    87063366.100    20918413.875  
  20918408.746  
  24461771.172   128547425.214    24461782.637   100166856.2594   24461783.059  
                
  22081554.031   118121445.174                    91872261.398    22081557.594  
  22081551.625  
 21  8 14  6 31 20.0000000  0 16G15G26R16R 2G29G18R15G 5R 3R 9G23G16
                                R18R17G25R19
  24003187.492   126137610.791    24003195.938    98289083.3304   24003195.883  
                
  21455511.625   112749474.882    21455521.359    87856788.9594   21455521.223  
                
  21073742.266   112572152.493                    87556142.251    21073744.664  
  21073741.949  
  20963718.438   111866427.730                    87007259.127    20963721.488  
  20963716.215  
  21175048.156   111275622.775    21175055.320    86708305.2794   21175055.406  
                
  20267188.898   106504802.011    20267195.719    82990796.4364   20267195.664  
                
  23269861.797   124347035.526                    96714347.312    23269868.426  
  23269862.020  
  22276676.797   117064729.089    22276684.047    91219308.7284   22276684.027  
                
  22023166.891   117891753.014                    91693592.136    22023171.969  
  22023165.840  
  22097086.086   117997226.848                    91775607.387    22097089.238  
  22097085.445  
  22188683.805   116602325.150    22188692.000    90859002.3594   22188691.750  
                
  22968910.570   120702454.944    22968916.469    94053888.3064                 
                
  19792006.945   105651078.702                    82173064.414    19792010.074  
  19792005.387  
  20922433.531   111960149.070                    87080109.799    20922436.824  
  20922431.750  
  24469126.484   128586077.587    24469137.949   100196974.9594   24469138.398  
                
  22076713.312   118095551.082                    91852121.574    22076716.965  
  22076710.941  
 21  8 14  6 31 30.0000000  0 16G15G26R16R 2G29G18R15G 5R 3R 9G23G16
                                R18R17G25R19
  23998161.750   126111200.376    23998170.223    98268503.8004   23998170.160  
                
  21454670.680   112745055.735    21454680.406    87853345.4604   21454680.285  
                
  21077450.766   112591962.596                    87571550.089    21077453.180  
  21077450.449  
  20962723.250   111861117.287                    87003128.796    20962726.293  
  20962721.012  
  21178229.438   111292340.493    21178236.664    86721332.0614   21178236.723  
                
  20266139.945   106499289.726    20266146.758    82986501.1514   20266146.707  
                
  23278053.562   124390810.144                    96748394.183    23278060.293  
  23278053.859  
  22281197.445   117088485.306    22281204.723    91237820.0594   22281204.707  
                
  22016140.562   117854141.250                    91664338.586    22016145.812  
  22016139.535  
  22093752.156   117979423.858                    91761760.629    22093755.273  
  22093751.547  
  22182629.461   116570509.433    22182637.719    90834210.9084   22182637.445  
                
  22963988.555   120676589.603    22963994.438    94033733.5204                 
                
  19791138.453   105646442.630                    82169458.580    19791141.578  
  19791136.891  
  20926460.492   111981698.099                    87096870.154    20926463.762  
  20926458.734  
  24476482.438   128624733.529    24476493.969   100227096.4494   24476494.410  
                
  22071875.688   118069672.859                    91831994.092    22071879.328  
  22071873.277  
 21  8 14  6 31 40.0000000  0 16G15G26R16R 2G29G18R15G 5R 3R 9G23G16
                                R18R17G25R19
  23993141.438   126084818.775    23993149.953    98247946.7414   23993149.891  
                
  21453842.031   112740701.141    21453851.754    87849952.2784   21453851.652  
                
  21081173.648   112611849.461                    87587017.653    21081176.102  
  21081173.312  
  20961744.812   111855896.204                    86999067.938    20961747.855  
  20961742.555  
  21181417.805   111309095.422    21181425.094    86734387.8464   21181425.125  
                
  20265098.938   106493819.225    20265105.746    82982238.4284   20265105.703  
                
  23286246.727   124434591.943                    96782446.663    23286253.508  
  23286247.047  
  22285727.930   117112293.151    22285735.211    91256371.6144   22285735.184  
                
  22009121.484   117816568.018                    91635114.970    22009126.832  
  22009120.445  
  22090433.234   117961700.949                    91747976.157    22090436.332  
  22090432.637  
  22176581.820   116538728.860    22176590.125    90809446.8364   22176589.832  
                
  22959075.422   120650770.912    22959081.277    94013615.0514                 
                
  19790276.062   105641839.116                    82165878.070    19790279.176  
  19790274.512  
  20930491.461   112003268.482                    87113647.102    20930494.688  
  20930489.727  
  24483839.086   128663392.953    24483850.652   100257220.6434   24483851.105  
                
  22067041.039   118043810.597                    91811879.015    22067044.648  
  22067038.566  
 21  8 14  6 31 50.0000000  0 16G15G26R16R 2G29G18R15G 5R 3R 9G23G16
                                R18R17G25R19
  23988126.734   126058465.977    23988135.172    98227412.1154   23988135.086  
                
  21453025.641   112736411.005    21453035.359    87846609.3154   21453035.258  
                
  21084910.781   112631812.515                    87602544.480    21084913.258  
  21084910.430  
  20960783.031   111850764.018                    86995076.228    20960786.102  
  20960780.750  
  21184613.203   111325887.351    21184620.559    86747472.4514   21184620.559  
                
  20264065.859   106488390.358    20264072.668    82978008.1444   20264072.629  
                
  23294441.242   124478380.649                    96816504.532    23294447.973  
  23294441.547  
  22290268.172   117136152.377    22290275.441    91274963.2064   22290275.438  
                
  22002109.625   117779033.323                    91605921.315    22002115.020  
  22002108.613  
  22087129.305   117944058.115                    91734253.926    22087132.371  
  22087128.746  
  22170540.859   116506983.398    22170549.152    90784710.1044   22170548.844  
                
  22954171.133   120624998.823    22954176.988    93993532.9324                 
                
  19789419.719   105637267.903                    82162322.685    19789422.820  
  19789418.168  
  20934526.359   112024859.986                    87130440.497    20934529.578  
  20934524.633  
  24491196.359   128702055.640    24491207.988   100287347.3754   24491208.438  
                
  22062209.328   118017964.110                    91791776.199    22062212.922  
  22062206.848  
 21  8 14  6 32  0.0000000  0 16G15G26R16R 2G29G18R15G 5R 3R 9G23G16
                                R18R17G25R19
  23983117.477   126032142.074    23983125.930    98206900.0084   23983125.801  
                
  21452221.523   112732185.339    21452231.234    87843316.5864   21452231.125  
                
  21088662.195   112651851.875                    87618130.639    21088664.727  
  21088661.848  
  20959837.984   111845721.130                    86991153.986    20959841.059  
  20959835.703  
  21187815.641   111342716.269    21187823.070    86760585.8874   21187823.066  
                
  20263040.695   106483003.108    20263047.496    82973810.2934   20263047.473  
                
  23302636.883   124522176.115                    96850567.646    23302643.738  
  23302637.266  
  22294818.180   117160062.823    22294825.449    91293594.7254   22294825.441  
                
  21995104.977   117741537.200                    91576757.681    21995110.402  
  21995104.008  
  22083840.398   117926495.538                    91720594.148    22083843.477  
  22083839.895  
  22164506.586   116475273.102    22164514.832    90760000.7894   22164514.551  
                
  22949275.734   120599273.390    22949281.648    93973487.1464                 
                
  19788569.438   105632729.014                    82158792.446    19788572.531  
  19788567.883  
  20938565.227   112046472.652                    87147250.359    20938568.414  
  20938563.512  
  24498554.219   128740721.475    24498565.914   100317476.5684   24498566.379  
                
  22057380.547   117992133.171                    91771685.500    22057384.137  
  22057377.996  
 21  8 14  6 32 10.0000000  0 16G15G26R16R 2G29G18R15G 5R 3R 9G23G16
                                R18R17G25R19
  23978113.773   126005847.329    23978122.211    98186410.6284   23978122.027  
                
  21451429.703   112728024.254    21451439.402    87840074.1834   21451439.297  
                
  21092427.859   112671967.382                    87633776.003    21092430.434  
  21092427.512  
  20958909.711   111840767.688                    86987301.321    20958912.805  
  20958907.426  
  21191025.148   111359582.306    21191032.656    86773728.2464   21191032.621  
                
  20262023.477   106477657.567    20262030.266    82969644.9434   20262030.250  
                
  23310833.867   124565978.452                    96884636.085    23310840.777  
  23310834.207  
  22299377.938   117184024.571    22299385.215    91312266.2144   22299385.199  
                
  21988107.773   117704080.136                    91547624.423    21988113.102  
  21988106.727  
  22080566.539   117909013.262                    91706996.838    22080569.629  
  22080566.043  
  22158479.039   116443598.176    22158487.305    90735319.0324   22158487.020  
                
  22944389.258   120573594.794    22944395.238    93953477.8724                 
                
  19787725.234   105628222.608                    82155287.474    19787728.324  
  19787723.688  
  20942608.055   112068106.685                    87164076.809    20942611.254  
  20942606.328  
  24505912.766   128779390.475    24505924.465   100347608.2214   24505924.922  
                
  22052554.703   117966318.344                    91751607.296    22052558.289  
  22052552.172  
 21  8 14  6 32 20.0000000  0 16G15G26R16R 2G29G18R15G 5R 3R 9G23G16
                                R18R17G25R19
  23973115.648   125979581.931    23973124.102    98165944.1174   23973123.895  
                
  21450650.180   112723927.813    21450659.863    87836882.1534   21450659.762  
                
  21096207.797   112692159.084                    87649480.655    21096210.375  
  21096207.438  
  20957998.148   111835903.446                    86983518.045    20958001.258  
  20957995.848  
  21194241.703   111376485.437    21194249.273    86786899.5024   21194249.223  
                
  20261014.195   106472353.767    20261020.973    82965512.1124   20261020.969  
                
  23319032.055   124609787.221                    96918709.530    23319039.023  
  23319032.355  
  22303947.453   117208037.533    22303954.746    91330977.6104   22303954.727  
                
  21981117.703   117666662.138                    91518521.556    21981123.098  
  21981116.707  
  22077307.742   117891611.501                    91693462.123    22077310.867  
  22077307.242  
  22152458.258   116411958.778    22152466.590    90710664.9774   22152466.293  
                
  22939511.719   120547963.186    22939517.734    93933505.1904                 
                
  19786887.125   105623748.739                    82151807.798    19786890.211  
  19786885.582  
  20946654.867   112089761.936                    87180919.776    20946658.086  
  20946653.145  
  24513271.852   128818062.639    24513283.594   100377742.3424   24513284.059  
                
  22047731.898   117940519.307                    91731541.374    22047735.418  
  22047729.348  
 21  8 14  6 32 30.0000000  0 16G15G26R16R 2G29G18R15G 5R 3R 9G23G16
                                R18R17G25R19
  23968123.008   125953345.909    23968131.512    98145500.5144   23968131.363  
                
  21449882.953   112719896.011    21449892.613    87833740.4874   21449892.516  
                
  21100001.945   112712426.752                    87665244.402    21100004.531  
  21100001.594  
  20957103.352   111831128.714                    86979804.345    20957106.457  
  20957101.047  
  21197465.305   111393425.601    21197472.934    86800099.6174   21197472.871  
                
  20260012.836   106467091.648    20260019.605    82961411.7674   20260019.613  
                
  23327231.531   124653602.559                    96952788.092    23327238.508  
  23327231.770  
  22308526.680   117232101.602    22308534.004    91349728.8194   22308533.969  
                
  21974134.906   117629283.317                    91489449.160    21974140.379  
  21974133.980  
  22074064.039   117874290.310                    91679990.098    22074067.207  
  22074063.520  
  22146444.242   116380354.945    22146452.637    90686038.6344   22146452.316  
                
  22934643.133   120522378.616    22934649.141    93913569.1654                 
                
  19786055.078   105619307.219                    82148353.281    19786058.156  
  19786053.539  
  20950705.648   112111438.438                    87197779.261    20950708.879  
  20950703.930  
  24520631.547   128856737.803    24520643.289   100407878.8034   24520643.746  
                
  22042912.000   117914736.205                    91711487.859    22042915.520  
  22042909.484  
 21  8 14  6 32 40.0000000  0 16G15G26R16R 2G29G18R15G 5R 3R 9G23G16
                                R18R17G25R19
  23963136.070   125927139.401    23963144.512    98125079.8664   23963144.398  
                
  21449128.031   112715928.827    21449137.688    87830649.1744   21449137.598  
                
  21103810.281   112732770.116                    87681067.021    21103812.840  
  21103809.934  
  20956225.289   111826443.213                    86976160.078    20956228.434  
  20956222.965  
  21200695.953   111410402.773    21200703.625    86813328.5734   21200703.559  
                
  20259019.414   106461871.186    20259026.172    82957343.8724   20259026.188  
                
  23335432.195   124697424.109                    96986871.497    23335439.156  
  23335432.414  
  22313115.625   117256216.671    22313122.953    91368519.7694   22313122.910  
                
  21967159.664   117591943.972                    91460407.454    21967165.035  
  21967158.695  
  22070835.406   117857049.598                    91666580.657    22070838.609  
  22070834.879  
  22140437.023   116348786.764    22140445.453    90661440.0574   22140445.117  
                
  22929783.508   120496841.136    22929789.539    93893669.8394                 
                
  19785229.117   105614898.209                    82144924.045    19785232.191  
  19785227.578  
  20954760.406   112133136.205                    87214655.312    20954763.645  
  20954758.688  
  24527991.750   128895415.869    24528003.543   100438017.5234   24528004.004  
                
  22038095.031   117888969.068                    91691446.748    22038098.621  
  22038092.582  
 21  8 14  6 32 50.0000000  0 16G15G26R16R 2G29G18R15G 5R 3R 9G23G16
                                R18R17G25R19
  23958154.664   125900962.450    23958163.156    98104682.2944   23958163.047  
                
  21448385.406   112712026.280    21448395.059    87827608.2224   21448394.973  
                
  21107632.797   112753189.332                    87696948.615    21107635.336  
  21107632.434  
  20955364.008   111821847.324                    86972585.494    20955367.160  
  20955361.672  
  21203933.664   111427417.022    21203941.367    86826586.4214   21203941.285  
                
  20258033.906   106456692.320    20258040.656    82953308.3944   20258040.680  
                
  23343634.023   124741251.750                    97020959.630    23343640.926  
  23343634.211  
  22317714.227   117280382.543    22317721.535    91387350.3134   22317721.492  
                
  21960191.758   117554644.245                    91431396.579    21960197.164  
  21960190.793  
  22067621.883   117839889.622                    91653234.006    22067625.129  
  22067621.332  
  22134436.594   116317254.283    22134445.020    90636869.3054   22134444.684  
                
  22924932.852   120471350.711    22924938.922    93873807.1834                 
                
  19784409.250   105610521.686                    82141520.093    19784412.312  
  19784407.703  
  20958819.117   112154855.074                    87231547.747    20958822.355  
  20958817.406  
  24535352.492   128934096.725    24535364.320   100468158.4054   24535364.758  
                
  22033281.078   117863217.706                    91671417.915    22033284.660  
  22033278.629  
 21  8 14  6 33  0.0000000  0 16G15G26R16R 2G29G18R15G 5R 3R 9G23G16
                                R18R17G25R19
  23953179.047   125874815.182    23953187.480    98084307.8374   23953187.363  
                
  21447655.047   112708188.201    21447664.699    87824617.5124   21447664.609  
                
  21111469.461   112773684.055                    87712888.951    21111472.000  
  21111469.086  
  20954519.477   111817340.809                    86969080.435    20954522.637  
  20954517.141  
  21207178.422   111444468.358    21207186.156    86839873.1614   21207186.066  
                
  20257056.289   106451554.912    20257063.031    82949305.2184   20257063.051  
                
  23351836.938   124785085.236                    97055052.328    23351843.777  
  23351837.078  
  22322322.469   117304599.063    22322329.730    91406220.3204   22322329.695  
                
  21953231.172   117517384.038                    91402416.436    21953236.680  
  21953230.238  
  22064423.445   117822810.192                    91639950.006    22064426.715  
  22064422.902  
  22128442.953   116285757.468    22128451.344    90612326.3244   22128451.016  
                
  22920091.156   120445907.421    22920097.250    93853981.2544                 
                
  19783595.391   105606177.304                    82138141.132    19783598.457  
  19783593.836  
  20962881.750   112176594.968                    87248456.546    20962884.984  
  20962880.035  
  24542713.734   128972780.141    24542725.570   100498301.2934   24542725.992  
                
  22028470.055   117837482.163                    91651401.401    22028473.688  
  22028467.613  
 21  8 14  6 33 10.0000000  0 16G15G26R16R 2G29G18R15G 5R 3R 9G23G16
                                R18R17G25R19
  23948209.133   125848697.810    23948217.488    98063956.6504   23948217.383  
                
  21446936.992   112704414.815    21446946.645    87821677.2084   21446946.551  
                
  21115320.242   112794254.218                    87728887.963    21115322.770  
  21115319.852  
  20953691.680   111812923.526                    86965644.760    20953694.840  
  20953689.336  
  21210430.211   111461556.605    21210437.973    86853188.6704   21210437.879  
                
  20256086.586   106446459.087    20256093.316    82945334.4504   20256093.344  
                
  23360040.828   124828924.586                    97089149.559    23360047.742  
  23360041.027  
  22326940.383   117328866.339    22326947.586    91425129.8824   22326947.578  
                
  21946278.039   117480163.743                    91373467.358    21946283.621  
  21946277.129  
  22061240.164   117805811.579                    91626728.863    22061243.453  
  22061239.621  
  22122456.141   116254296.568    22122464.512    90587811.3444   22122464.188  
                
  22915258.469   120420511.554    22915264.590    93834192.2924                 
                
  19782787.672   105601865.614                    82134787.593    19782790.738  
  19782786.102  
  20966948.328   112198355.995                    87265381.761    20966951.555  
  20966946.613  
  24550075.516   129011466.200    24550087.332   100528446.2464   24550087.746  
                
  22023661.883   117811762.270                    91631397.065    22023665.664  
  22023659.516  
 21  8 14  6 33 20.0000000  0 16G15G26R16R 2G29G18R15G 5R 3R 9G23G16
                                R18R17G25R19
  23943244.906   125822610.454    23943253.172    98043628.8474   23943253.070  
                
  21446231.258   112700706.129    21446240.914    87818787.3254   21446240.824  
                
  21119185.148   112814899.786                    87744945.609    21119187.656  
  21119184.758  
  20952880.688   111808595.991                    86962278.921    20952883.855  
  20952878.352  
  21213689.031   111478681.837    21213696.805    86866532.9984   21213696.715  
                
  20255124.789   106441404.858    20255131.508    82941396.0914   20255131.543  
                
  23368245.984   124872769.515                    97123251.129    23368252.758  
  23368246.059  
  22331567.922   117353184.199    22331575.070    91444078.8634   22331575.094  
                
  21939332.508   117442983.623                    91344549.491    21939338.031  
  21939331.562  
  22058072.047   117788893.974                    91613570.740    22058075.355  
  22058071.508  
  22116476.164   116222871.677    22116484.508    90563324.4274   22116484.191  
                
  22910434.836   120395163.227    22910440.992    93814440.3604                 
                
  19781986.008   105597586.300                    82131459.232    19781989.062  
  19781984.434  
  20971018.859   112220138.181                    87282323.479    20971022.090  
  20971017.145  
  24557437.773   129050154.810    24557449.547   100558593.1814   24557449.965  
                
  22018856.789   117786058.432                    91611405.202    22018860.598  
  22018854.367  
 21  8 14  6 33 30.0000000  0 16G15G26R16R 2G29G18R15G 5R 3R 9G23G16
                                R18R17G25R19
  23938286.391   125796553.073    23938294.613    98023324.4174   23938294.469  
                
  21445537.812   112697062.020    21445547.488    87815947.7594   21445547.383  
                
  21123064.070   112835620.260                    87761061.532    21123066.562  
  21123063.688  
  20952086.453   111804357.786                    86958982.530    20952089.609  
  20952084.129  
  21216954.875   111495843.976    21216962.637    86879906.0864   21216962.543  
                
  20254170.883   106436392.085    20254177.594    82937490.0344   20254177.637  
                
  23376452.102   124916619.759                    97157356.839    23376458.777  
  23376452.094  
  22336205.031   117377552.338    22336212.137    91463067.0194   22336212.184  
                
  21932394.562   117405843.644                    91315662.838    21932399.934  
  21932393.523  
  22054919.062   117772057.213                    91600475.495    22054922.375  
  22054918.535  
  22110503.039   116191482.776    22110511.340    90538865.5444   22110511.047  
                
  22905620.211   120369862.247    22905626.418    93794725.3084                 
                
  19781190.406   105593339.301                    82128156.013    19781193.445  
  19781188.824  
  20975093.305   112241941.387                    87299281.512    20975096.559  
  20975091.555  
  24564800.516   129088845.773    24564812.199   100588741.9724   24564812.652  
                
  22014054.664   117760370.571                    91591425.763    22014058.484  
  22014052.211  
 21  8 14  6 33 40.0000000  0 16G15G26R16R 2G29G18R15G 5R 3R 9G23G16
                                R18R17G25R19
  23933333.586   125770525.641    23933341.715    98003043.3214   23933341.570  
                
  21444856.641   112693482.461    21444866.340    87813158.4924   21444866.211  
                
  21126957.078   112856415.939                    87777235.947    21126959.547  
  21126956.719  
  20951308.953   111800208.975                    86955755.672    20951312.094  
  20951306.621  
  21220227.734   111513042.932    21220235.473    86893307.8634   21220235.402  
                
  20253224.852   106431420.671    20253231.566    82933616.2074   20253231.598  
                
  23384659.297   124960475.169                    97191466.568    23384665.762  
  23384659.078  
  22340851.703   117401970.748    22340858.781    91482094.3434   22340858.828  
                
  21925464.031   117368743.658                    91286807.315    21925469.340  
  21925462.926  
  22051781.211   117755301.261                    91587443.094    22051784.527  
  22051780.668  
  22104536.766   116160129.873    22104545.047    90514434.7214   22104544.750  
                
  22900814.633   120344608.766    22900820.879    93775047.2914                 
                
  19780400.836   105589124.504                    82124877.841    19780403.867  
  19780399.258  
  20979171.633   112263765.424                    87316255.738    20979174.902  
  20979169.832  
  24572163.633   129127538.892    24572175.266   100618892.4344   24572175.730  
                
  22009255.523   117734698.487                    91571458.569    22009259.301  
  22009253.086  
 21  8 14  6 33 50.0000000  0 17G15G26R16R 2G29G18R15G 5R 3R 9G10G23
                                G16R18R17G25R19
  23928386.578   125744528.632    23928394.594    97982785.9214   23928394.434  
                
  21444187.812   112689967.705    21444197.531    87810419.7144   21444197.391  
                
  21130864.117   112877286.558                    87793468.652    21130866.559  
  21130863.781  
  20950548.328   111796150.140                    86952598.809    20950551.473  
  20950546.004  
  21223507.641   111530278.945    21223515.340    86906738.5144   21223515.289  
                
  20252286.742   106426490.856    20252293.461    82929774.7944   20252293.480  
                
  23392867.203   125004335.852                    97225580.406    23392873.754  
  23392867.027  
  22345507.977   117426439.489    22345515.043    91501160.8974   22345515.078  
                
  21918541.078   117331684.504                    91257983.547    21918546.391  
  21918539.938  
  22048658.586   117738626.595                    91574473.913    22048661.875  
  22048658.066  
  24805661.461   130354625.548    24805673.277   101575085.3414   24805672.820  
                
  22098577.438   116128813.334    22098585.691    90490032.2234   22098585.395  
                
  22896018.172   120319403.199    22896024.445    93755406.6014                 
                
  19779617.359   105584942.240                    82121624.969    19779620.398  
  19779615.801  
  20983253.930   112285610.609                    87333246.420    20983257.195  
  20983252.098  
  24579527.180   129166234.375    24579538.797   100649044.7264   24579539.266  
                
  22004459.398   117709042.289                    91551503.777    22004463.141  
  22004456.922  
 21  8 14  6 34  0.0000000  0 17G15G26R16R 2G29G18R15G 5R 3R 9G10G23
                                G16R18R17G25R19
  23923445.359   125718562.306    23923453.238    97962552.4504   23923453.129  
                
  21443531.352   112686517.983    21443541.086    87807731.6154   21443540.945  
                
  21134785.219   112898232.410                    87809759.869    21134787.656  
  21134784.887  
  20949804.523   111792181.116                    86949511.796    20949807.656  
  20949802.207  
  21226794.648   111547552.251    21226802.301    86920198.2364   21226802.270  
                
  20251356.570   106421602.844    20251363.301    82925965.9564   20251363.309  
                
  23401076.031   125048201.862                    97259698.380    23401082.719  
  23401075.945  
  22350173.852   117450958.793    22350180.914    91520266.8444   22350180.941  
                
  21911625.719   117294666.315                    91229191.664    21911631.102  
  21911624.566  
  22045551.219   117722033.477                    91561568.160    22045554.512  
  22045550.691  
  24798565.883   130317338.196    24798577.793   101546030.2744   24798577.199  
                
  22092625.062   116097533.433    22092633.250    90465658.2744   22092632.992  
                
  22891230.875   120294245.774    22891237.168    93735803.4154                 
                
  19778840.023   105580792.770                    82118397.610    19778843.078  
  19778838.484  
  20987340.211   112307477.205                    87350253.773    20987343.484  
  20987338.340  
  24586891.211   129204932.323    24586902.820   100679198.9584   24586903.270  
                
  21999666.297   117683402.422                    91531561.659    21999670.016  
  21999663.801  
 21  8 14  6 34 10.0000000  0 17G15G26R16R 2G29G18R15G 5R 3R 9G10G23
                                G16R18R17G25R19
  23918510.031   125692626.513    23918517.664    97942342.7544   23918517.621  
                
  21442887.195   112683132.911    21442896.930    87805093.8984   21442896.801  
                
  21138720.312   112919252.936                    87826109.149    21138722.730  
  21138719.977  
  20949077.547   111788301.809                    86946494.563    20949080.676  
  20949075.258  
  21230088.672   111564862.399    21230096.270    86933686.6624   21230096.262  
                
  20250434.289   106416756.225    20250441.035    82922189.3704   20250441.039  
                
  23409285.648   125092072.705                    97293820.110    23409292.605  
  23409285.762  
  22354849.234   117475528.055    22354856.309    91539411.7174   22354856.355  
                
  21904717.961   117257688.951                    91200431.527    21904723.410  
  21904716.793  
  22042459.062   117705521.552                    91548725.553    22042462.363  
  22042458.539  
  24791471.180   130280055.265    24791483.098   101516978.6494   24791482.473  
                
  22086679.602   116066289.880    22086687.715    90441312.6654   22086687.500  
                
  22886452.695   120269136.205    22886458.984    93716237.5274                 
                
  19778068.758   105576675.666                    82115195.414    19778071.809  
  19778067.223  
  20991430.422   112329364.784                    87367277.416    20991433.703  
  20991428.516  
  24594255.648   129243632.277    24594267.230   100709354.7284   24594267.680  
                
  21994876.172   117657778.321                    91511631.793    21994879.840  
  21994873.637  
 21  8 14  6 34 20.0000000  0 17G15G26R16R 2G29G18R15G 5R 3R 9G10G23
                                G16R18R17G25R19
  23913580.477   125666721.399    23913587.965    97922156.9574   23913587.961  
                
  21442255.352   112679812.542    21442265.066    87802506.6014   21442264.969  
                
  21142669.344   112940347.963                    87842516.376    21142671.738  
  21142668.992  
  20948367.344   111784512.061                    86943546.961    20948370.469  
  20948365.059  
  21233389.727   111582209.499    21233397.250    86947203.8784   21233397.266  
                
  20249519.883   106411950.992    20249526.637    82918445.0414   20249526.641  
                
  23417496.297   125135948.084                    97327945.353    23417503.293  
  23417496.426  
  22359534.133   117500147.266    22359541.227    91558595.5084   22359541.281  
                
  21897817.914   117220752.609                    91171703.256    21897823.328  
  21897816.727  
  22039382.164   117689091.130                    91535946.334    22039385.477  
  22039381.648  
  24784377.367   130242776.858    24784389.277   101487930.5494   24784388.613  
                
  22080741.078   116035082.798    22080749.148    90416995.4654   22080748.941  
                
  22881683.625   120244074.599    22881689.906    93696709.0074                 
                
  19777303.547   105572590.900                    82112018.371    19777306.609  
  19777302.016  
  20995524.531   112351273.242                    87384317.327    20995527.832  
  20995522.594  
  24601620.391   129282334.155    24601632.027   100739512.0024   24601632.449  
                
  21990089.023   117632170.214                    91491714.408    21990092.664  
  21990086.414  
 21  8 14  6 34 30.0000000  0 17G15G26R16R 2G29G18R15G 5R 3R 9G10G23
                                G16R18R17G25R19
  23908656.797   125640847.070    23908664.234    97901995.1754   23908664.207  
                
  21441635.844   112676556.958    21441645.555    87799969.7824   21441645.461  
                
  21146632.320   112961517.433                    87858981.510    21146634.715  
  21146631.977  
  20947673.977   111780812.084                    86940669.206    20947677.090  
  20947671.699  
  21236697.805   111599593.571    21236705.250    86960749.8974   21236705.289  
                
  20248613.359   106407187.211    20248620.133    82914733.0034   20248620.137  
                
  23425707.938   125179828.127                    97362074.241    23425714.840  
  23425708.000  
  22364228.523   117524816.392    22364235.609    91577818.1954   22364235.668  
                
  21890925.617   117183857.548                    91143007.092    21890930.977  
  21890924.441  
  22036320.516   117672742.094                    91523230.417    22036323.816  
  22036320.000  
  24777284.500   130205503.132    24777296.328   101458886.0914   24777295.648  
                
  22074809.531   116003912.355    22074817.590    90392706.8184   22074817.383  
                
  22876923.711   120219061.111    22876930.000    93677217.9804                 
                
  19776544.414   105568538.592                    82108866.577    19776547.480  
  19776542.883  
  20999622.570   112373202.795                    87401373.625    20999625.883  
  20999620.609  
  24608985.461   129321037.933    24608997.164   100769670.7504   24608997.574  
                
  21985304.773   117606578.020                    91471809.389    21985308.492  
  21985302.230  
 21  8 14  6 34 40.0000000  0 17G15G26R16R 2G29G18R15G 5R 3R 9G10G23
                                G16R18R17G25R19
  23903738.945   125615003.559    23903746.352    97881857.3774   23903746.277  
                
  21441028.641   112673366.088    21441038.352    87797483.3804   21441038.250  
                
  21150609.203   112982761.267                    87875504.479    21150611.602  
  21150608.863  
  20946997.375   111777201.670                    86937861.109    20947000.484  
  20946995.129  
  21240012.898   111617014.490    21240020.262    86974324.6394   21240020.344  
                
  20247714.703   106402464.772    20247721.492    82911053.1874   20247721.492  
                
  23433920.461   125223712.419                    97396206.442    23433927.207  
  23433920.406  
  22368932.375   117549535.263    22368939.445    91597079.6564   22368939.500  
                
  21884040.977   117147003.639                    91114342.970    21884046.375  
  21884039.809  
  22033274.094   117656474.411                    91510577.784    22033277.398  
  22033273.594  
  24770192.469   130168234.077    24770204.215   101429845.2724   24770203.578  
                
  22068884.945   115972778.536    22068893.000    90368446.7154   22068892.781  
                
  22872172.938   120194095.704    22872179.199    93657764.4364                 
                
  19775791.297   105564518.456                    82105739.815    19775794.371  
  19775789.758  
  21003724.508   112395153.191                    87418446.151    21003727.812  
  21003722.492  
  24616350.922   129359743.452    24616362.621   100799830.8614   24616363.035  
                
  21980523.516   117581001.775                    91451916.746    21980527.258  
  21980521.062  
 21  8 14  6 34 50.0000000  0 17G15G26R16R 2G29G18R15G 5R 3R 9G10G23
                                G16R18R17G25R19
  23898827.000   125589191.255    23898834.379    97861743.9104   23898834.289  
                
  21440433.812   112670240.189    21440443.531    87795047.6134   21440443.414  
                
  21154600.078   113004079.715                    87892085.488    21154602.469  
  21154599.746  
  20946337.648   111773681.193                    86935122.956    20946340.762  
  20946335.426  
  21243335.055   111634472.504    21243342.340    86987928.2844   21243342.461  
                
  20246823.969   106397783.931    20246830.777    82907405.7784   20246830.773  
                
  23442133.734   125267601.154                    97430342.097    23442140.410  
  23442133.645  
  22373645.742   117574304.140    22373652.840    91616380.0744   22373652.859  
                
  21877164.117   117110191.544                    91085711.391    21877169.590  
  21877162.949  
  22030242.992   117640288.484                    91497988.726    22030246.293  
  22030242.469  
  24763101.406   130130970.028    24763113.023   101400808.3554   24763112.441  
                
  22062967.406   115941681.698    22062975.453    90344215.4134   22062975.230  
                
  22867431.414   120169178.814    22867437.605    93638348.6644                 
                
  19775044.336   105560531.131                    82102638.559    19775047.414  
  19775042.793  
  21007830.406   112417124.766                    87435535.139    21007833.734  
  21007828.352  
  24623716.680   129398450.870    24623728.441   100829992.4594   24623728.840  
                
  21975745.359   117555441.684                    91432036.699    21975749.047  
  21975742.910  
 21  8 14  6 35  0.0000000  0 17G15G26R16R 2G29G18R15G 5R 3R 9G10G23
                                G16R18R17G25R19
  23893920.961   125563410.038    23893928.301    97841654.6644   23893928.219  
                
  21439851.305   112667179.065    21439861.031    87792662.3254   21439860.914  
                
  21158604.781   113025472.047                    87908723.965    21158607.148  
  21158604.410  
  20945694.773   111770250.683                    86932454.777    20945697.898  
  20945692.566  
  21246664.242   111651967.454    21246671.453    87001560.7064   21246671.605  
                
  20245941.102   106393144.452    20245947.938    82903790.5954   20245947.918  
                
  23450347.766   125311493.935                    97464480.884    23450354.387  
  23450347.637  
  22378368.539   117599122.562    22378375.652    91635719.1064   22378375.656  
                
  21870295.023   117073421.031                    91057112.133    21870300.539  
  21870293.848  
  22027227.180   117624184.274                    91485463.225    22027230.496  
  22027226.633  
  24756011.328   130093710.871    24756022.742   101371775.2434   24756022.207  
                
  22057056.891   115910621.716    22057064.934    90320012.8434   22057064.707  
                
  22862699.070   120144310.211    22862705.238    93618970.5324                 
                
  19774303.414   105556576.076                    82099562.403    19774306.492  
  19774301.855  
  21011940.211   112439117.234                    87452640.384    21011943.551  
  21011938.152  
  24631082.805   129437159.878    24631094.566   100860155.3064   24631094.941  
                
  21970970.242   117529897.478                    91412168.973    21970973.793  
  21970967.746  
 21  8 14  6 35 10.0000000  0 17G15G26R16R 2G29G18R15G 5R 3R 9G10G23
                                G16R18R17G25R19
  23889020.852   125537660.250    23889028.281    97821589.9324   23889028.219  
                
  21439281.156   112664182.864    21439290.887    87790327.6214   21439290.762  
                
  21162623.359   113046938.497                    87925420.081    21162625.719  
  21162622.980  
  20945068.766   111766910.147                    86929856.573    20945071.895  
  20945066.559  
  21250000.469   111669499.361    21250007.609    87015221.9404   21250007.785  
                
  20245066.125   106388546.432    20245072.988    82900207.7284   20245072.961  
                
  23458562.477   125355390.723                    97498622.788    23458569.117  
  23458562.359  
  22383100.773   117623990.602    22383107.879    91655096.7894   22383107.887  
                
  21863433.828   117036692.571                    91028545.572    21863439.320  
  21863432.637  
  22024226.695   117608161.897                    91473001.390    22024230.016  
  22024226.137  
  24748922.180   130056456.804    24748933.441   101342746.0964   24748932.949  
                
  22051153.422   115879598.811    22051161.449    90295839.1594   22051161.227  
                
  22857975.977   120119490.207    22857982.137    93599630.2844                 
                
  19773568.617   105552653.672                    82096511.645    19773571.699  
  19773567.047  
  21016053.977   112461130.821                    87469762.056    21016057.336  
  21016051.883  
  24638449.266   129475870.546    24638461.008   100890319.4404   24638461.371  
                
  21966198.000   117504369.408                    91392313.833    21966201.566  
  21966195.500  
 21  8 14  6 35 20.0000000  0 17G15G26R16R 2G29G18R15G 5R 3R 9G10G23
                                G16R18R17G25R19
  23884126.758   125511941.920    23884134.277    97801549.6844   23884134.211  
                
  21438723.359   112661251.619    21438733.094    87788043.5334   21438732.961  
                
  21166655.797   113068479.036                    87942173.825    21166658.156  
  21166655.410  
  20944459.633   111763659.739                    86927328.473    20944462.750  
  20944457.418  
  21253343.719   111687068.253    21253350.809    87028911.9814   21253351.016  
                
  20244199.016   106383989.809    20244205.906    82896657.1174   20244205.867  
                
  23466777.859   125399291.312                    97532767.659    23466784.516  
  23466777.812  
  22387842.406   117648908.026    22387849.480    91674512.9594   22387849.520  
                
  21856580.500   117000006.260                    91000011.767    21856585.953  
  21856579.301  
  22021241.547   117592221.382                    91460603.219    22021244.863  
  22021240.996  
  24741833.906   130019207.855    24741845.094   101313720.9444   24741844.645  
                
  22045256.992   115848612.996    22045264.969    90271694.3824   22045264.781  
                
  22853262.125   120094718.802    22853268.312    93580327.8944                 
                
  19772839.883   105548763.670                    82093486.095    19772842.969  
  19772838.293  
  21020171.617   112483165.216                    87486899.910    21020175.004  
  21020169.508  
  24645815.938   129514582.716    24645827.703   100920484.7344   24645828.051  
                
  21961428.758   117478857.330                    91372471.114    21961432.285  
  21961426.254  
 21  8 14  6 35 30.0000000  0 17G15G26R16R 2G29G18R15G 5R 3R 9G10G23
                                G16R18R17G25R19
  23879238.633   125486255.194    23879246.309    97781534.0734   23879246.215  
                
  21438177.898   112658385.209    21438187.637    87785809.9614   21438187.512  
                
  21170702.055   113090093.358                    87958984.968    21170704.402  
  21170701.656  
  20943867.367   111760499.360                    86924870.403    20943870.492  
  20943865.152  
  21256694.008   111704674.109    21256701.070    87042630.8204   21256701.285  
                
  20243339.789   106379474.580    20243346.707    82893138.7634   20243346.641  
                
  23474994.031   125443195.661                    97566915.443    23475000.617  
  23474993.961  
  22392593.422   117673874.760    22392600.445    91693967.5564   22392600.504  
                
  21849735.070   116963362.249                    90971510.887    21849740.469  
  21849733.883  
  22018271.742   117576362.831                    91448268.791    22018275.059  
  22018271.215  
  24734746.617   129981964.128    24734757.723   101284699.8784   24734757.324  
                
  22039367.664   115817664.417    22039375.574    90247578.6104   22039375.441  
                
  22848557.539   120069996.072    22848563.730    93561063.4204                 
                
  19772117.250   105544906.243                    82090485.865    19772120.344  
  19772115.668  
  21024293.195   112505220.705                    87504054.169    21024296.609  
  21024291.074  
  24653182.891   129553296.316    24653194.672   100950651.1384   24653195.008  
                
  21956662.562   117453361.504                    91352641.020    21956666.078  
  21956660.105  
 21  8 14  6 35 40.0000000  0 17G15G26R16R 2G29G18R15G 5R 3R 9G10G23
                                G16R18R17G25R19
  23874356.508   125460600.274    23874364.355    97761543.2464   23874364.266  
                
  21437644.828   112655583.880    21437654.566    87783627.1094   21437654.434  
                
  21174762.141   113111781.513                    87975853.531    21174764.465  
  21174761.750  
  20943291.984   111757428.974                    86922482.338    20943295.109  
  20943289.773  
  21260051.391   111722317.168    21260058.457    87056378.6574   21260058.652  
                
  20242488.484   106375000.893    20242495.418    82889652.7734   20242495.340  
                
  23483210.945   125487103.710                    97601066.134    23483217.426  
  23483210.836  
  22397353.859   117698890.944    22397360.820    91713460.6844   22397360.914  
                
  21842897.664   116926760.703                    90943043.033    21842902.961  
  21842896.477  
  22015317.359   117560586.543                    91435998.355    22015320.656  
  22015316.828  
  24727660.484   129944725.878    24727671.418   101255683.0724   24727671.074  
                
  22033485.477   115786753.302    22033493.363    90223492.0324   22033493.250  
                
  22843862.266   120045322.311    22843868.453    93541837.1354                 
                
  19771400.742   105541081.426                    82087511.016    19771403.832  
  19771399.164  
  21028418.727   112527297.248                    87521224.808    21028422.168  
  21028416.598  
  24660550.078   129592011.429    24660561.914   100980818.7384   24660562.270  
                
  21951899.375   117427881.957                    91332823.622    21951902.938  
  21951897.008  
 21  8 14  6 35 50.0000000  0 17G15G26R16R 2G29G18R15G 5R 3R 9G10G23
                                G16R18R17G25R19
  23869480.414   125434977.140    23869488.418    97741577.2064   23869488.332  
                
  21437124.109   112652847.481    21437133.852    87781494.8484   21437133.730  
                
  21178835.977   113133543.206                    87992779.264    21178838.281  
  21178835.594  
  20942733.445   111754448.485                    86920164.174    20942736.570  
  20942731.246  
  21263415.789   111739997.175    21263422.871    87070155.2834   21263423.047  
                
  20241645.031   106370568.582    20241651.969    82886199.0234   20241651.891  
                
  23491428.383   125531015.129                    97635219.424    23491434.875  
  23491428.332  
  22402123.648   117723956.375    22402130.578    91732992.1884   22402130.691  
                
  21836068.258   116890201.767                    90914608.318    21836073.438  
  21836067.086  
  22012378.336   117544892.293                    91423791.746    22012381.617  
  22012377.781  
  24720575.297   129907493.029    24720586.148   101226670.4604   24720585.863  
                
  22027610.391   115755879.583    22027618.293    90199434.6004   22027618.168  
                
  22839176.289   120020697.449    22839182.449    93522648.9234                 
                
  19770690.312   105537289.122                    82084561.442    19770693.398  
  19770688.750  
  21032548.172   112549394.765                    87538411.766    21032551.641  
  21032546.059  
  24667917.516   129630727.777    24667929.363   101010987.2934   24667929.723  
                
  21947139.281   117402418.638                    91313018.799    21947142.805  
  21947136.949  
 21  8 14  6 36  0.0000000  0 17G15G26R16R 2G29G18R15G 5R 3R 9G10G23
                                G16R18R17G25R19
  23864610.438   125409386.077    23864618.617    97721636.1284   23864618.535  
                
  21436615.773   112650176.118    21436625.523    87779413.2684   21436625.391  
                
  21182923.609   113155378.512                    88009762.284    21182925.887  
  21182923.238  
  20942191.883   111751558.573                    86917916.463    20942194.996  
  20942189.715  
  21266787.250   111757714.236    21266794.352    87083960.7774   21266794.512  
                
  20240809.477   106366177.707    20240816.422    82882777.5664   20240816.336  
                
  23499646.438   125574929.915                    97669375.329    23499652.934  
  23499646.430  
  22406902.820   117749071.056    22406909.766    91752562.0624   22406909.867  
                
  21829246.797   116853685.709                    90886206.959    21829251.906  
  21829245.672  
  22009454.727   117529280.385                    91411649.141    22009457.996  
  22009454.141  
  24713491.086   129870265.727    24713501.953   101197662.1974   24713501.707  
                
  22021742.445   115725043.439    22021750.383    90175406.4504   22021750.242  
                
  22834499.672   119996121.694    22834505.820    93503499.0084                 
                
  19769986.008   105533529.472                    82081637.264    19769989.090  
  19769984.445  
  21036681.555   112571513.344                    87555615.098    21036685.051  
  21036679.469  
  24675285.125   129669445.423    24675297.066   101041156.8564   24675297.430  
                
  21942382.172   117376971.326                    91293226.460    21942385.688  
  21942379.832  
 21  8 14  6 36 10.0000000  0 17G15G26R16R 2G29G18R15G 5R 3R 9G10G23
                                G16R18R17G25R19
  23859746.586   125383826.968    23859754.922    97701719.9904   23859754.855  
                
  21436119.773   112647569.652    21436129.543    87777382.2584   21436129.383  
                
  21187024.977   113177287.246                    88026802.406    21187027.227  
  21187024.621  
  20941667.141   111748758.443                    86915738.601    20941670.230  
  20941664.988  
  21270165.711   111775468.139    21270172.828    87097794.9784   21270172.973  
                
  20239981.766   106361828.106    20239988.719    82879388.2744   20239988.637  
                
  23507865.023   125618847.810                    97703533.626    23507871.605  
  23507865.094  
  22411691.312   117774234.779    22411698.297    91772170.1534   22411698.387  
                
  21822433.266   116817212.557                    90857838.975    21822438.383  
  21822432.137  
  22006546.523   117513750.735                    91399570.530    22006549.785  
  22006545.922  
  24706407.906   129833043.948    24706418.812   101168658.2324   24706418.602  
                
  22015881.648   115694244.824    22015889.625    90151407.5504   22015889.461  
                
  22829832.375   119971594.973    22829838.523    93484387.2874                 
                
  19769287.781   105529802.320                    82078738.380    19769290.871  
  19769286.215  
  21040818.844   112593652.815                    87572834.652    21040822.348  
  21040816.773  
  24682652.961   129708164.085    24682664.949   101071327.2134   24682665.328  
                
  21937628.156   117351540.217                    91273446.700    21937631.629  
  21937625.773  
 21  8 14  6 36 20.0000000  0 17G15G26R16R 2G29G18R15G 5R 3R 9G10G23
                                G16R18R17G25R19
  23854888.914   125358299.791    23854897.348    97681828.7254   23854897.262  
                
  21435636.109   112645027.928    21435645.898    87775401.6934   21435645.715  
                
  21191139.961   113199268.747                    88043899.122    21191142.211  
  21191139.617  
  20941159.258   111746048.239                    86913630.644    20941162.340  
  20941157.117  
  21273551.148   111793258.693    21273558.270    87111657.7474   21273558.410  
                
  20239161.883   106357519.597    20239168.844    82876030.9894   20239168.762  
                
  23516084.234   125662768.370                    97737694.019    23516090.754  
  23516084.270  
  22416489.055   117799447.130    22416496.039    91791816.1364   22416496.148  
                
  21815627.727   116780782.254                    90829504.319    21815632.852  
  21815626.574  
  22003653.695   117498303.239                    91387555.802    22003656.949  
  22003653.121  
  24699325.758   129795827.535    24699336.699   101139658.4724   24699336.535  
                
  22010027.992   115663483.657    22010035.992    90127437.8134   22010035.816  
                
  22825174.422   119947117.217    22825180.602    93465313.7224                 
                
  19768595.594   105526107.395                    82075864.542    19768598.688  
  19768594.020  
  21044959.969   112615812.798                    87590070.195    21044963.477  
  21044957.922  
  24690021.023   129746883.502    24690033.008   101101498.1544   24690033.402  
                
  21932877.023   117326124.844                    91253679.217    21932880.523  
  21932874.684  
 21  8 14  6 36 30.0000000  0 17G15G26R16R 2G29G18R15G 5R 3R 9G10G23
                                G16R18R17G25R19
  23850037.391   125332804.950    23850045.906    97661962.6254   23850045.812  
                
  21435164.797   112642551.178    21435174.602    87773471.7534   21435174.402  
                
  21195268.633   113221323.333                    88061052.669    21195270.883  
  21195268.289  
  20940668.266   111743428.249                    86911592.875    20940671.359  
  20940666.102  
  21276943.625   111811086.223    21276950.750    87125549.3184   21276950.875  
                
  20238349.852   106353252.357    20238356.820    82872705.8674   20238356.734  
                
  23524303.969   125706691.755                    97771856.620    23524310.473  
  23524303.980  
  22421296.078   117824708.217    22421303.059    91811500.0804   22421303.172  
                
  21808830.312   116744395.254                    90801203.309    21808835.395  
  21808829.195  
  22000776.273   117482937.968                    91375605.052    22000779.504  
  22000775.754  
  24692244.773   129758616.861    24692255.691   101110663.1684   24692255.570  
                
  22004181.508   115632760.227    22004189.512    90103497.4874   22004189.344  
                
  22820525.828   119922688.677    22820532.020    93446278.5044                 
                
  19767909.492   105522444.929                    82073015.957    19767912.602  
  19767907.906  
  21049105.000   112637993.701                    87607322.016    21049108.535  
  21049102.965  
  24697389.266   129785603.815    24697401.227   101131669.7994   24697401.633  
                
  21928128.922   117300725.863                    91233924.467    21928132.422  
  21928126.590  
 21  8 14  6 36 40.0000000  0 17G15G26R16R 2G29G18R15G 5R 3R 9G10G23
                                G16R18R17G25R19
  23845191.883   125307342.234    23845200.539    97642121.5804   23845200.449  
                
  21434705.805   112640139.170    21434715.613    87771592.2564   21434715.406  
                
  21199410.938   113243450.764                    88078262.877    21199413.180  
  21199410.602  
  20940194.133   111740898.188                    86909625.050    20940197.227  
  20940191.973  
  21280343.078   111828950.422    21280350.199    87139469.4664   21280350.328  
                
  20237545.625   106349026.139    20237552.605    82869412.7144   20237552.516  
                
  23532524.148   125750617.403                    97806020.991    23532530.598  
  23532524.098  
  22426112.336   117850017.812    22426119.332    91831221.8384   22426119.438  
                
  21802040.992   116708051.416                    90772935.885    21802046.023  
  21802039.859  
  21997914.258   117467655.022                    91363718.333    21997917.473  
  21997913.723  
  24685164.852   129721411.740    24685175.750   101081672.2004   24685175.660  
                
  21998342.172   115602074.395    21998350.184    90079586.4644   21998350.020  
                
  22815886.578   119898309.252    22815892.781    93427281.5504                 
                
  19767229.422   105518814.691                    82070192.437    19767232.543  
  19767227.844  
  21053253.914   112660195.299                    87624589.890    21053257.461  
  21053251.906  
  24704757.602   129824324.678    24704769.547   101161841.8744   24704769.969  
                
  21923383.758   117275342.861                    91214182.134    21923387.336  
  21923381.461  
 21  8 14  6 36 50.0000000  0 17G15G26R16R 2G29G18R15G 5R 3R 9G10G23
                                G16R18R17G25R19
  23840352.625   125281912.103    23840361.363    97622305.9324   23840361.270  
                
  21434259.188   112637792.163    21434268.992    87769763.4214   21434268.781  
                
  21203566.859   113265650.936                    88095529.684    21203569.121  
  21203566.547  
  20939736.891   111738458.267                    86907727.339    20939739.988  
  20939734.746  
  21283749.547   111846851.535    21283756.680    87153418.3804   21283756.801  
                
  20236749.258   106344841.207    20236756.234    82866151.7304   20236756.148  
                
  23540744.680   125794545.618                    97840187.379    23540751.176  
  23540744.688  
  22430937.836   117875376.015    22430944.836    91850981.4774   22430944.930  
                
  21795259.820   116671751.253                    90744702.448    21795264.812  
  21795258.680  
  21995067.695   117452454.610                    91351895.805    21995070.898  
  21995067.145  
  24678086.117   129684212.539    24678096.953   101052685.8584   24678096.875  
                
  21992510.070   115571426.533    21992518.074    90055705.0234   21992517.914  
                
  22811256.750   119873979.307    22811262.969    93408323.1644                 
                
  19766555.453   105515217.064                    82067394.286    19766558.570  
  19766553.891  
  21057406.711   112682417.702                    87641873.987    21057410.258  
  21057404.746  
  24712126.156   129863046.309    24712138.020   101192014.5514   24712138.449  
                
  21918641.664   117249975.891                    91194452.281    21918645.262  
  21918639.355  
 21  8 14  6 37  0.0000000  0 17G15G26R16R 2G29G18R15G 5R 3R 9G10G23
                                G16R18R17G25R19
  23835519.594   125256514.573    23835528.270    97602515.6614   23835528.230  
                
  21433824.930   112635510.138    21433834.734    87767985.2214   21433834.539  
                
  21207736.383   113287923.750                    88112852.967    21207738.676  
  21207736.027  
  20939296.500   111736108.264                    86905899.564    20939299.605  
  20939294.363  
  21287163.039   111864789.533    21287170.188    87167396.0314   21287170.293  
                
  20235960.734   106340697.487    20235967.703    82862922.8624   20235967.621  
                
  23548965.555   125838476.250                    97874355.624    23548972.254  
  23548965.715  
  22435772.586   117900782.745    22435779.566    91870778.9134   22435779.684  
                
  21788486.820   116635494.810                    90716503.006    21788491.789  
  21788485.676  
  21992236.617   117437336.874                    91340137.567    21992239.809  
  21992236.047  
  24671008.500   129647019.257    24671019.277   101023704.1034   24671019.199  
                
  21986685.195   115540816.648    21986693.180    90031853.1704   21986693.035  
                
  22806636.344   119849698.832    22806642.582    93389403.3184                 
                
  19765887.602   105511652.008                    82064621.463    19765890.711  
  19765886.047  
  21061563.406   112704660.934                    87659174.266    21061566.953  
  21061561.457  
  24719494.836   129901768.529    24719506.605   101222187.6824   24719507.059  
                
  21913902.656   117224625.028                    91174734.941    21913906.203  
  21913900.289  
 21  8 14  6 37 10.0000000  0 17G15G26R16R 2G29G18R15G 5R 3R 9G10G23
                                G16R18R17G25R19
  23830692.945   125231149.981    23830701.465    97582751.0404   23830701.434  
                
  21433403.070   112633293.235    21433412.871    87766257.7594   21433412.676  
                
  21211919.508   113310269.252                    88130232.802    21211921.816  
  21211919.176  
  20938873.086   111733848.806                    86904142.209    20938876.199  
  20938870.957  
  21290583.578   111882764.541    21290590.727    87181402.5234   21290590.832  
                
  20235180.070   106336595.098    20235187.031    82859726.1964   20235186.953  
                
  23557186.852   125882409.163                    97908525.604    23557193.746  
  23557187.086  
  22440616.562   117926238.042    22440623.531    91890614.2144   22440623.656  
                
  21781722.047   116599282.332                    90688337.759    21781726.973  
  21781720.906  
  21989421.047   117422301.968                    91328443.757    21989424.238  
  21989420.461  
  24663932.047   129609832.168    24663942.805   100994727.1894   24663942.734  
                
  21980867.586   115510244.978    21980875.562    90008031.0994   21980875.410  
                
  22802025.375   119825468.059    22802031.621    93370522.2094                 
                
  19765225.844   105508119.517                    82061873.969    19765228.961  
  19765224.293  
  21065724.016   112726925.107                    87676490.841    21065727.559  
  21065722.098  
  24726863.641   129940491.385    24726875.332   101252361.3174   24726875.809  
                
  21909166.617   117199290.490                    91155030.324    21909170.203  
  21909164.262  
 21  8 14  6 37 20.0000000  0 16G15G26R16R 2G29G18G 5R 3R 9G10G23G16
                                R18R17G25R19
  23825872.461   125205817.879    23825880.828    97563011.7324   23825880.781  
                
  21432993.508   112631140.982    21433003.320    87764580.6744   21433003.117  
                
  21216116.117   113332686.761                    88147668.627    21216118.426  
  21216115.777  
  20938466.508   111731679.256                    86902454.790    20938469.625  
  20938464.395  
  21294011.070   111900776.133    21294018.223    87195437.5214   21294018.332  
                
  20234407.180   106332533.526    20234414.125    82856561.3354   20234414.062  
                
  22445469.656   117951741.240    22445476.605    91910486.8274   22445476.723  
                
  21774965.406   116563113.548                    90660206.505    21774970.305  
  21774964.242  
  21986620.898   117407349.400                    91316814.006    21986624.117  
  21986620.293  
  24656856.695   129572650.822    24656867.434   100965754.7494   24656867.363  
                
  21975057.164   115479711.131    21975065.148    89984238.5034   21975064.984  
                
  22797423.797   119801286.607    22797430.023    93351679.5364                 
                
  19764570.117   105504619.221                    82059151.509    19764573.234  
  19764568.570  
  21069888.438   112749209.724                    87693823.299    21069891.980  
  21069886.500  
  24734232.453   129979214.359    24734244.098   101282535.0324   24734244.590  
                
  21904433.477   117173971.922                    91135338.114    21904437.191  
  21904431.141  
 21  8 14  6 37 30.0000000  0 16G15G26R16R 2G29G18G 5R 3R 9G10G23G16
                                R18R17G25R19
  23821057.977   125180517.615    23821066.301    97543297.2634   23821066.223  
                
  21432596.094   112629052.530    21432605.930    87762953.3084   21432605.719  
                
  21220326.055   113355175.441                    88165159.819    21220328.340  
  21220325.703  
  20938076.617   111729598.736                    86900836.597    20938079.738  
  20938074.504  
  21297445.344   111918823.341    21297452.508    87209500.2774   21297452.629  
                
  20233641.891   106328511.915    20233648.820    82853427.6174   20233648.773  
                
  22450331.680   117977291.398    22450338.625    91930396.0244   22450338.734  
                
  21768216.781   116526987.809                    90632108.728    21768221.676  
  21768215.605  
  21983836.039   117392478.465                    91305247.710    21983839.270  
  21983835.406  
  24649782.273   129535474.488    24649793.027   100936786.2174   24649792.945  
                
  21969253.820   115449214.350    21969261.816    89960474.7964   21969261.633  
                
  22792831.477   119777153.803    22792837.680    93332874.7384                 
                
  19763920.242   105501150.187                    82056453.381    19763923.367  
  19763918.695  
  21074056.516   112771513.893                    87711170.970    21074060.059  
  21074054.594  
  24741601.055   130017936.445    24741612.703   101312708.0564   24741613.184  
                
  21899703.188   117148668.154                    91115657.390    21899706.910  
  21899700.871  
 21  8 14  6 37 40.0000000  0 16G15G26R16R 2G29G18G 5R 3R 9G10G23G16
                                R18R17G25R19
  23816250.008   125155251.392    23816258.281    97523609.3094   23816258.188  
                
  21432211.227   112627030.047    21432221.090    87761377.3514   21432220.863  
                
  21224549.664   113377737.211                    88182707.876    21224551.949  
  21224549.301  
  20937703.797   111727609.289                    86899289.244    20937706.902  
  20937701.672  
  21300886.797   111936908.275    21300893.969    87223592.4274   21300894.078  
                
  20232884.609   106324532.397    20232891.523    82850326.6924   20232891.484  
                
  22455203.047   118002890.642    22455209.988    91950343.4814   22455210.094  
                
  21761476.664   116490907.357                    90604046.169    21761481.535  
  21761475.477  
  21981066.883   117377691.389                    91293746.680    21981070.121  
  21981066.227  
  24642709.258   129498305.387    24642719.996   100907823.3194   24642719.914  
                
  21963457.945   115418756.879    21963465.906    89936741.7104   21963465.742  
                
  22788248.828   119753071.805    22788255.027    93314109.5604                 
                
  19763276.648   105497714.631                    82053781.271    19763279.773  
  19763275.102  
  21078228.641   112793839.706                    87728535.490    21078232.152  
  21078226.746  
  24748969.938   130056659.759    24748981.555   101342882.0414   24748982.016  
                
  21894976.102   117123381.561                    91095990.061    21894979.836  
  21894973.797  
 21  8 14  6 37 50.0000000  0 16G15G26R16R 2G29G18G 5R 3R 9G10G23G16
                                R18R17G25R19
  23811448.414   125130018.484    23811456.523    97503947.2884   23811456.430  
                
  21431838.750   112625072.707    21431848.621    87759852.1434   21431848.406  
                
  21228786.766   113400371.031                    88200311.942    21228789.027  
  21228786.395  
  20937347.938   111725710.399                    86897812.333    20937351.027  
  20937345.797  
  21304335.266   111955030.106    21304342.434    87237713.3294   21304342.559  
                
  20232135.172   106320594.108    20232142.066    82847257.8994   20232142.047  
                
  22460083.586   118028538.023    22460090.555    91970328.4464   22460090.648  
                
  21754744.891   116454871.650                    90576018.424    21754749.746  
  21754743.715  
  21978313.281   117362987.390                    91282310.233    21978316.531  
  21978312.625  
  24635637.484   129461142.749    24635648.168   100878865.4434   24635648.094  
                
  21957669.406   115388337.956    21957677.316    89913038.6644   21957677.188  
                
  22783675.703   119729039.913    22783681.945    93295383.4334                 
                
  19762639.172   105494311.742                    82051134.596    19762642.305  
  19762637.621  
  21082404.656   112816186.404                    87745916.249    21082408.168  
  21082402.758  
  24756338.875   130095383.367    24756350.465   101373056.2544   24756350.906  
                
  21890252.188   117098111.150                    91076335.304    21890255.785  
  21890249.793  
 21  8 14  6 38  0.0000000  0 16G15G26R16R 2G29G18G 5R 3R 9G10G23G16
                                R18R17G25R19
  23806653.172   125104819.095    23806661.172    97484311.3974   23806661.043  
                
  21431478.672   112623180.477    21431488.539    87758377.6754   21431488.328  
                
  21233037.359   113423076.922                    88217972.063    21233039.586  
  21233037.008  
  20937009.062   111723902.069                    86896405.848    20937012.125  
  20937006.934  
  21307790.773   111973188.904    21307797.957    87251863.0334   21307798.070  
                
  20231393.578   106316697.022    20231400.457    82844221.2104   20231400.449  
                
  22464973.273   118054233.477    22464980.250    91990350.8814   22464980.316  
                
  21748021.516   116418880.811                    90548025.561    21748026.336  
  21748020.352  
  21975575.250   117348366.471                    91270938.424    21975578.516  
  21975574.625  
  24628566.930   129423986.670    24628577.613   100849912.6794   24628577.531  
                
  21951888.219   115357957.654    21951896.098    89889365.7124   21951895.984  
                
  22779112.133   119705058.158    22779118.395    93276696.3524                 
                
  19762007.797   105490941.389                    82048513.205    19762010.922  
  19762006.250  
  21086584.562   112838553.938                    87763313.209    21086588.094  
  21086582.668  
  24763707.797   130134107.151    24763719.410   101403230.6154   24763719.824  
                
  21885531.336   117072857.281                    91056693.417    21885534.824  
  21885528.863  
 21  8 14  6 38 10.0000000  0 16G15G26R16R 2G29G18G 5R 3R 9G10G23G16
                                R18R17G25R19
  23801864.234   125079653.169    23801872.195    97464701.5704   23801872.023  
                
  21431130.953   112621353.196    21431140.820    87756953.8134   21431140.613  
                
  21237301.328   113445854.288                    88235687.792    21237303.559  
  21237301.012  
  20936687.039   111722183.709                    86895069.348    20936690.078  
  20936684.902  
  21311253.250   111991384.362    21311260.465    87266041.3134   21311260.555  
                
  20230659.781   106312840.898    20230666.660    82841216.4454   20230666.664  
                
  22469872.078   118079976.820    22469879.027    92010410.6204   22469879.102  
                
  21741306.539   116382934.759                    90520067.515    21741311.277  
  21741305.391  
  21972852.773   117333828.628                    91259631.207    21972856.051  
  21972852.195  
  24621497.594   129386837.022    24621508.281   100820964.9274   24621508.152  
                
  21946114.352   115327615.861    21946122.207    89865722.7674   21946122.090  
                
  22774558.078   119681126.448    22774564.355    93258048.2784                 
                
  19761382.492   105487603.475                    82045917.053    19761385.594  
  19761380.957  
  21090768.320   112860942.082                    87780726.190    21090771.852  
  21090766.434  
  24771076.766   130172830.841    24771088.328   101433404.9024   24771088.746  
                
  21880813.375   117047619.457                    91037064.014    21880816.867  
  21880810.926  
 21  8 14  6 38 20.0000000  0 16G15G26R16R 2G29G18G 5R 3R 9G10G23G16
                                R18R17G25R19
  23797081.727   125054520.956    23797089.707    97445118.0184   23797089.504  
                
  21430795.648   112619591.164    21430805.504    87755580.8014   21430805.312  
                
  21241578.820   113468703.885                    88253459.687    21241581.066  
  21241578.512  
  20936382.023   111720556.099                    86893803.444    20936385.059  
  20936379.898  
  21314722.773   112009616.807    21314730.012    87280248.4114   21314730.086  
                
  20229933.844   106309026.062    20229940.730    82838243.8494   20229940.723  
                
  22474779.977   118105767.970    22474786.891    92030507.6204   22474786.973  
                
  21734599.977   116347033.899                    90492144.636    21734604.695  
  21734598.828  
  21970145.883   117319373.995                    91248388.725    21970149.152  
  21970145.305  
  24614429.555   129349694.176    24614440.270   100792022.4854   24614440.113  
                
  21940347.906   115297312.983    21940355.738    89842110.1384   21940355.637  
                
  22770013.602   119657245.114    22770019.895    93239439.4484                 
                
  19760763.305   105484298.200                    82043346.277    19760766.402  
  19760761.773  
  21094955.969   112883351.011                    87798155.377    21094959.516  
  21094954.055  
  24778445.742   130211554.618    24778457.254   101463579.2434   24778457.676  
                
  21876098.484   117022398.222                    91017447.508    21876102.031  
  21876096.070  
 21  8 14  6 38 30.0000000  0 16G15G26R16R 2G29G18G 5R 3R 9G10G23G16
                                R18R17G25R19
  23792305.617   125029422.313    23792313.668    97425560.6454   23792313.438  
                
  21430472.711   112617894.122    21430482.566    87754258.4324   21430482.379  
                
  21245869.664   113491624.716                    88271286.992    21245871.910  
  21245869.355  
  20936093.922   111719018.702                    86892607.678    20936096.938  
  20936091.816  
  21318199.305   112027886.045    21318206.562    87294484.1654   21318206.629  
                
  20229215.711   106305252.231    20229222.598    82835303.2004   20229222.586  
                
  22479696.930   118131606.644    22479703.820    92050641.6564   22479703.895  
                
  21727901.867   116311178.334                    90464257.006    21727906.609  
  21727900.719  
  21967454.594   117305002.658                    91237211.027    21967457.859  
  21967454.012  
  24607362.781   129312557.980    24607373.512   100763085.2094   24607373.312  
                
  21934588.828   115267048.847    21934596.668    89818527.7044   21934596.570  
                
  22765478.688   119633413.998    22765484.980    93220869.7594                 
                
  19760150.219   105481025.439                    82040800.788    19760153.320  
  19760148.676  
  21099147.477   112905780.680                    87815600.654    21099151.055  
  21099145.539  
  24785814.562   130250278.176    24785826.152   101493753.4244   24785826.582  
                
  21871386.648   116997193.034                    90997843.477    21871390.203  
  21871384.254  
 21  8 14  6 38 40.0000000  0 16G15G26R16R 2G29G18G 5R 3R 9G10G23G16
                                R18R17G25R19
  23787535.938   125004357.559    23787544.062    97406029.6874   23787543.793  
                
  21430162.164   112616262.229    21430172.016    87752986.8284   21430171.848  
                
  21250173.852   113514616.890                    88289169.792    21250176.117  
  21250173.547  
  20935822.742   111717571.682                    86891482.220    20935825.734  
  20935820.629  
  21321682.828   112046192.104    21321690.121    87308748.6294   21321690.180  
                
  20228505.391   106301519.506    20228512.281    82832394.5864   20228512.266  
                
  22484622.938   118157492.969    22484629.848    92070812.8144   22484629.895  
                
  21721212.195   116275368.102                    90436404.622    21721216.965  
  21721211.043  
  21964778.906   117290714.664                    91226098.139    21964782.184  
  21964778.320  
  24600297.258   129275428.621    24600308.043   100734153.2594   24600307.820  
                
  21928837.156   115236823.669    21928845.004    89794975.6304   21928844.906  
                
  22760953.383   119609633.353    22760959.656    93202339.3884                 
                
  19759543.234   105477785.330                    82038280.698    19759546.344  
  19759541.707  
  21103342.852   112928231.088                    87833062.071    21103346.438  
  21103340.906  
  24793183.352   130289001.539    24793194.992   101523927.4464   24793195.430  
                
  21866677.875   116972004.309                    90978252.249    21866681.461  
  21866675.484  
 21  8 14  6 38 50.0000000  0 16G15G26R16R 2G29G18G 5R 3R 9G10G23G16
                                R18R17G25R19
  23782772.688   124979326.766    23782780.926    97386525.1814   23782780.625  
                
  21429864.000   112614695.384    21429873.840    87751765.9074   21429873.676  
                
  21254491.414   113537680.489                    88307108.128    21254493.719  
  21254491.141  
  20935568.500   111716215.024                    86890427.028    20935571.496  
  20935566.383  
  21325173.344   112064534.894    21325180.672    87323041.7084   21325180.711  
                
  20227802.867   106297827.753    20227809.762    82829517.9004   20227809.742  
                
  22489557.953   118183426.651    22489564.918    92091020.8694   22489564.945  
                
  21714531.062   116239603.527                    90408587.748    21714535.836  
  21714529.938  
  21962118.820   117276510.018                    91215050.072    21962122.094  
  21962118.234  
  24593233.016   129238306.077    24593243.879   100705226.6324   24593243.621  
                
  21923092.906   115206637.446    21923100.734    89771453.9104   21923100.648  
                
  22756437.672   119585903.185    22756443.938    93183848.3624                 
                
  19758942.344   105474577.708                    82035785.890    19758945.457  
  19758940.824  
  21107542.062   112950702.049                    87850539.468    21107545.672  
  21107540.102  
  24800552.094   130327724.531    24800563.750   101554101.1824   24800564.191  
                
  21861972.141   116946831.822                    90958673.685    21861975.734  
  21861969.758  
 21  8 14  6 39  0.0000000  0 16G15G26R16R 2G29G18G 5R 3R 9G10G23G16
                                R18R17G25R19
  23778015.953   124954329.958    23778024.266    97367047.1654   23778023.961  
                
  21429578.203   112613193.586    21429588.035    87750595.6664   21429587.871  
                
  21258822.297   113560815.185                    88325101.769    21258824.629  
  21258822.027  
  20935331.242   111714948.969                    86889442.308    20935334.234  
  20935329.109  
  21328670.859   112082914.442    21328678.215    87337363.4264   21328678.238  
                
  20227108.141   106294176.973    20227115.039    82826673.1414   20227114.996  
                
  22494501.969   118209407.579    22494508.980    92111265.7434   22494508.980  
                
  21707858.469   116203884.585                    90380806.361    21707863.223  
  21707857.367  
  21959474.352   117262388.679                    91204066.818    21959477.613  
  21959473.711  
  24586170.117   129201190.477    24586181.023   100676305.4124   24586180.723  
                
  21917356.086   115176490.252    21917363.914    89747962.5974   21917363.832  
                
  22751931.586   119562223.644    22751937.867    93165396.7884                 
                
  19758347.539   105471402.593                    82033316.358    19758350.652  
  19758346.027  
  21111745.172   112973193.705                    87868032.984    21111748.777  
  21111743.211  
  24807920.703   130366447.042    24807932.418   101584274.5414   24807932.867  
                
  21857269.461   116921675.587                    90939107.714    21857273.031  
  21857267.070  
 21  8 14  6 39 10.0000000  0 16G15G26R16R 2G29G18G 5R 3R 9G10G23G16
                                R18R17G25R19
  23773265.727   124929367.364    23773274.109    97347595.8314   23773273.797  
                
  21429304.820   112611756.915    21429314.648    87749476.1754   21429314.492  
                
  21263166.438   113584020.792                    88343150.557    21263168.781  
  21263166.156  
  20935110.906   111713773.222                    86888527.848    20935113.906  
  20935108.785  
  21332175.359   112101330.707    21332182.754    87351713.7594   21332182.758  
                
  20226421.234   106290567.218    20226428.133    82823860.3474   20226428.082  
                
  22499454.992   118235435.791    22499462.055    92131547.4604   22499462.027  
                
  21701194.477   116168211.636                    90353060.741    21701199.191  
  21701193.395  
  21956845.523   117248350.925                    91193148.580    21956848.770  
  21956844.844  
  24579108.586   129164081.980    24579119.508   100647389.7504   24579119.180  
                
  21911626.727   115146382.251    21911634.570    89724501.8274   21911634.465  
                
  22747435.156   119538594.828    22747441.449    93146984.7224                 
                
  19757758.844   105468260.040                    82030872.146    19757761.953  
  19757757.344  
  21115952.141   112995706.095                    87885542.594    21115955.777  
  21115950.172  
  24815289.289   130405169.079    24815301.020   101614447.5304   24815301.453  
                
  21852569.867   116896535.732                    90919554.501    21852573.387  
  21852567.473  
 21  8 14  6 39 20.0000000  0 16G15G26R16R 2G29G18G 5R 3R 9G10G23G16
                                R18R17G25R19
  23768521.992   124904439.166    23768530.441    97328171.2874   23768530.137  
                
  21429043.820   112610385.391    21429053.660    87748407.4614   21429053.516  
                
  21267523.875   113607297.446                    88361254.626    21267526.246  
  21267523.559  
  20934907.594   111712688.299                    86887684.029    20934910.586  
  20934905.461  
  21335686.867   112119783.803    21335694.301    87366092.7874   21335694.297  
                
  20225742.117   106286998.494    20225749.012    82821079.5264   20225748.961  
                
  22504416.984   118261511.204    22504424.078    92151865.9564   22504424.039  
                
  21694539.094   116132584.794                    90325350.991    21694543.781  
  21694537.980  
  21954232.359   117234396.804                    91182295.372    21954235.609  
  21954231.652  
  24572048.406   129126980.705    24572059.340   100618479.7224   24572058.996  
                
  21905904.828   115116313.562    21905912.691    89701071.6894   21905912.574  
                
  22742948.383   119515016.799    22742954.660    93128612.2374                 
                
  19757176.250   105465150.117                    82028453.319    19757179.379  
  19757174.754  
  21120162.961   113018239.065                    87903068.226    21120166.602  
  21120161.000  
  24822657.742   130443890.577    24822669.535   101644620.0954   24822669.934  
                
  21847873.219   116871412.230                    90900014.002    21847876.762  
  21847870.805  
 21  8 14  6 39 30.0000000  0 16G15G26R16R 2G29G18G 5R 3R 9G10G23G16
                                R18R17G25R19
  23763784.844   124879545.473    23763793.348    97308773.6244   23763793.012  
                
  21428795.227   112609079.029    21428805.086    87747389.5214   21428804.930  
                
  21271894.594   113630644.997                    88379413.812    21271896.934  
  21271894.254  
  20934721.234   111711693.858                    86886910.566    20934724.211  
  20934719.109  
  21339205.398   112138273.792    21339212.840    87380500.5714   21339212.824  
                
  20225070.812   106283470.778    20225077.703    82818330.6594   20225077.648  
                
  22509387.930   118287633.680    22509395.055    92172221.1234   22509395.027  
                
  21687892.336   116097004.212                    90297677.228    21687897.012  
  21687891.191  
  21951634.883   117220526.429                    91171507.313    21951638.129  
  21951634.184  
  24564989.586   129089886.673    24565000.535   100589575.3374   24565000.188  
                
  21900190.430   115086284.259    21900198.270    89677672.2444   21900198.176  
                
  22738471.320   119491489.738    22738477.586    93110279.4864                 
                
  19756599.773   105462072.853                    82026059.894    19756602.906  
  19756598.273  
  21124377.672   113040792.822                    87920610.028    21124381.312  
  21124375.746  
  24830026.094   130482611.437    24830037.930   101674792.1564   24830038.297  
                
  21843179.578   116846305.127                    90880486.274    21843183.227  
  21843177.203  
 21  8 14  6 39 40.0000000  0 16G15G26R16R 2G29G18G 5R 3R 9G10G23G16
                                R18R17G25R19
  23759054.211   124854686.363    23759062.820    97289402.9064   23759062.512  
                
  21428559.047   112607837.870    21428568.926    87746422.3844   21428568.754  
                
  21276278.508   113654063.060                    88397627.863    21276280.840  
  21276278.125  
  20934551.820   111710789.841                    86886207.458    20934554.797  
  20934549.688  
  21342730.930   112156800.576    21342738.375    87394937.0184   21342738.367  
                
  20224407.312   106279984.067    20224414.191    82815613.7424   20224414.145  
                
  22514367.844   118313803.242    22514375.012    92192612.9724   22514374.973  
                
  21681254.258   116061470.072                    90270039.574    21681258.902  
  21681253.113  
  21949053.102   117206739.888                    91160784.459    21949056.328  
  21949052.426  
  24557932.125   129052799.966    24557943.133   100560676.6474   24557942.793  
                
  21894483.547   115056294.449    21894491.344    89654303.5764   21894491.289  
                
  22734003.977   119468013.742    22734010.230    93091986.5004                 
                
  19756029.406   105459028.144                    82023691.779    19756032.531  
  19756027.895  
  21128596.250   113063367.198                    87938167.875    21128599.922  
  21128594.332  
  24837394.273   130521331.609    24837406.203   101704963.6964   24837406.531  
                
  21838489.117   116821214.600                    90860971.414    21838492.797  
  21838486.777  
 21  8 14  6 39 50.0000000  0 16G15G26R16R 2G29G18G 5R 3R 9G10G23G16
                                R18R17G25R19
  23754330.211   124829861.960    23754338.930    97270059.2434   23754338.617  
                
  21428335.258   112606661.876    21428345.164    87745506.0204   21428345.004  
                
  21280675.609   113677551.676                    88415896.771    21280677.934  
  21280675.199  
  20934399.336   111709976.185                    86885574.598    20934402.309  
  20934397.199  
  21346263.461   112175364.160    21346270.926    87409402.1454   21346270.914  
                
  20223751.609   106276538.346    20223758.469    82812928.7654   20223758.430  
                
  22519356.680   118340019.722    22519363.910    92213041.3874   22519363.832  
                
  21674624.883   116025982.506                    90242438.161    21674629.551  
  21674623.734  
  21946487.031   117193037.205                    91150126.822    21946490.258  
  21946486.348  
  24550876.117   129015720.715    24550887.148   100531783.7604   24550886.805  
                
  21888784.195   115026344.223    21888791.988    89630965.7474   21888791.941  
                
  22729546.359   119444588.848    22729552.625    93073733.3514                 
                
  19755465.133   105456016.017                    82021349.011    19755468.266  
  19755463.613  
  21132818.672   113085962.143                    87955741.698    21132822.340  
  21132816.770  
  24844762.367   130560051.004    24844774.316   101735134.6314   24844774.617  
                
  21833801.828   116796140.572                    90841469.383    21833805.453  
  21833799.477  
 21  8 14  6 40  0.0000000  0 16G15G26R16R 2G29G18G 5R 3R 9G10G23G16
                                R18R17G25R19
  23749612.867   124805072.235    23749621.629    97250742.5994   23749621.320  
                
  21428123.852   112605550.878    21428133.789    87744640.2974   21428133.621  
                
  21285085.875   113701110.503                    88434220.292    21285088.176  
  21285085.461  
  20934263.844   111709253.130                    86885012.220    20934266.840  
  20934261.707  
  21349802.938   112193964.285    21349810.406    87423895.7424   21349810.398  
                
  20223103.672   106273133.392    20223110.512    82810275.5584   20223110.488  
                
  22524354.383   118366282.781    22524361.668    92233506.1054   22524361.578  
                
  21668004.180   115990541.519                    90214872.980    21668008.879  
  21668003.016  
  21943936.617   117179418.156                    91139534.239    21943939.848  
  21943935.934  
  24543821.500   128978648.769    24543832.570   100502896.5664   24543832.188  
                
  21883092.367   114996433.468    21883100.160    89607658.6674   21883100.090  
                
  22725098.438   119421214.937    22725104.707    93055519.9194                 
                
  19754906.945   105453036.348                    82019031.501    19754910.090  
  19754905.434  
  21137044.938   113108577.620                    87973331.499    21137048.598  
  21137043.062  
  24852130.211   130598769.289    24852142.199   101765304.7024   24852142.473  
                
  21829117.508   116771082.678                    90821979.931    21829121.160  
  21829115.145  
 21  8 14  6 40 10.0000000  0 16G15G26R16R 2G29G18G 5R 3R 9G10G23G16
                                R18R17G25R19
  23744902.227   124780317.489    23744910.984    97231453.2124   23744910.684  
                
  21427924.820   112604504.972    21427934.809    87743825.3134   21427934.621  
                
  21289509.297   113724739.588                    88452598.471    21289511.570  
  21289508.883  
  20934145.305   111708620.591                    86884520.255    20934148.312  
  20934143.160  
  21353349.391   112212601.038    21353356.859    87438417.8874   21353356.852  
                
  20222463.500   106269769.293    20222470.320    82807654.1824   20222470.309  
                
  22529360.961   118392592.499    22529368.297    92254007.1814   22529368.215  
                
  21661392.227   115955147.418                    90187344.258    21661396.941  
  21661391.035  
  21941401.898   117165882.958                    91129006.854    21941405.109  
  21941401.215  
  24536768.266   128941584.362    24536779.438   100474015.2374   24536779.008  
                
  21877408.078   114966562.367    21877415.844    89584382.4984   21877415.777  
                
  22720660.273   119397892.248    22720666.535    93037346.4034                 
                
  19754354.859   105450089.272                    82016739.325    19754357.996  
  19754353.371  
  21141275.016   113131213.632                    87990937.288    21141278.695  
  21141273.125  
  24859497.852   130637486.521    24859509.871   101795473.9554   24859510.148  
                
  21824436.289   116746041.121                    90802503.176    21824439.918  
  21824433.891  
 21  8 14  6 40 20.0000000  0 15G15G26R16R 2G29G18G 5R 3R 9G10G23G16
                                R18R17R19
  23740198.258   124755597.739    23740207.027    97212191.0944   23740206.719  
                
  21427738.172   112603524.130    21427748.211    87743061.0174   21427748.004  
                
  21293945.820   113748438.686                    88471031.100    21293948.043  
  21293945.426  
  20934043.695   111708078.428                    86884098.569    20934046.719  
  20934041.543  
  21356902.820   112231274.438    21356910.305    87452968.5794   21356910.289  
                
  20221831.086   106266445.977    20221837.902    82805064.5894   20221837.898  
                
  22534376.406   118418948.751    22534383.824    92274544.5094   22534383.723  
                
  21654789.078   115919800.289                    90159852.059    21654793.773  
  21654787.844  
  21938882.906   117152431.653                    91118544.718    21938886.078  
  21938882.234  
  24529716.539   128904527.507    24529727.715   100445139.7924   24529727.250  
                
  21871731.344   114936730.967    21871739.078    89561137.2594   21871739.020  
                
  22716231.859   119374620.805    22716238.117    93019212.8104                 
                
  19753808.828   105447174.530                    82014472.304    19753811.961  
  19753807.344  
  21145508.938   113153870.115                    88008558.990    21145512.594  
  21145507.051  
  21819758.133   116721016.017                    90783039.220    21819761.734  
  21819755.754  
 21  8 14  6 40 30.0000000  0 15G15G26R16R 2G29G18G 5R 3R 9G10G23G16
                                R18R17R19
  23735501.000   124730913.172    23735509.734    97192956.3814   23735509.414  
                
  21427563.945   112602608.516    21427574.027    87742347.5504   21427573.805  
                
  21298395.477   113772207.880                    88489518.242    21298397.656  
  21298395.102  
  20933959.094   111707627.010                    86883747.461    20933962.145  
  20933956.941  
  21360463.250   112249984.651    21360470.742    87467547.9574   21360470.719  
                
  20221206.469   106263163.597    20221213.273    82802506.8914   20221213.289  
                
  22539400.695   118445351.504    22539408.176    92295118.0634   22539408.059  
                
  21648194.766   115884500.486                    90132396.678    21648199.445  
  21648193.527  
  21936379.672   117139064.535                    91108148.083    21936382.828  
  21936379.035  
  24522666.234   128867478.453    24522677.480   100416270.4394   24522677.000  
                
  21866062.203   114906939.522    21866069.906    89537923.1524   21866069.855  
                
  22711813.227   119351400.796    22711819.473    93001119.3024                 
                
  19753268.945   105444292.540                    82012230.759    19753272.074  
  19753267.465  
  21149746.711   113176547.227                    88026196.743    21149750.383  
  21149744.855  
  21815082.977   116696007.386                    90763588.065    21815086.613  
  21815080.605  
 21  8 14  6 40 40.0000000  0 15G15G26R16R 2G29G18G 5R 3R 9G10G23G16
                                R18R17R19
  23730810.383   124706263.810    23730819.109    97173749.0964   23730818.809  
                
  21427402.094   112601757.992    21427412.211    87741684.8004   21427411.977  
                
  21302858.203   113796046.831                    88508059.658    21302860.367  
  21302857.840  
  20933891.477   111707266.148                    86883466.781    20933894.520  
  20933889.312  
  21364030.641   112268731.393    21364038.141    87482155.8064   21364038.129  
                
  20220589.602   106259921.965    20220596.402    82799980.9514   20220596.414  
                
  22544433.789   118471800.579    22544441.301    92315727.7164   22544441.191  
                
  21641609.320   115849248.013                    90104978.090    21641613.973  
  21641608.074  
  21933892.180   117125781.463                    91097816.803    21933895.293  
  21933891.539  
  24515617.352   128830437.104    24515628.684   100387407.1014   24515628.215  
                
  21860400.656   114877187.958    21860408.332    89514740.1224   21860408.281  
                
  22707404.406   119328232.313    22707410.617    92983065.9574                 
                
  19752735.148   105441443.052                    82010014.497    19752738.277  
  19752733.664  
  21153988.305   113199244.767                    88043850.378    21153991.969  
  21153986.441  
  21810410.930   116671015.159                    90744149.674    21810414.578  
  21810408.516  
 21  8 14  6 40 50.0000000  0 15G15G26R16R 2G29G18G 5R 3R 9G10G23G16
                                R18R17R19
  23726126.508   124681649.764    23726135.188    97154569.3304   23726134.898  
                
  21427252.633   112600972.552    21427262.773    87741072.7574   21427262.520  
                
  21307333.938   113819955.317                    88526655.133    21307336.117  
  21307333.562  
  20933840.812   111706995.807                    86883256.524    20933843.848  
  20933838.652  
  21367604.992   112287514.776    21367612.492    87496792.2004   21367612.480  
                
  20219980.492   106256721.086    20219987.293    82797486.7614   20219987.301  
                
  22549475.688   118498295.905    22549483.203    92336373.4114   22549483.105  
                
  21635032.750   115814043.024                    90077596.452    21635037.395  
  21635031.492  
  21931420.422   117112582.476                    91087550.927    21931423.520  
  21931419.762  
  24508569.977   128793403.591    24508581.398   100358549.8564   24508580.922  
                
  21854746.727   114847476.384    21854754.395    89491588.2534   21854754.348  
                
  22703005.398   119305115.368    22703011.559    92965052.7534                 
                
  19752207.430   105438626.056                    82007823.492    19752210.555  
  19752205.938  
  21158233.711   113221962.770                    88061519.920    21158237.402  
  21158231.832  
  21805741.898   116646039.212                    90724723.935    21805745.570  
  21805739.531  
 21  8 14  6 41  0.0000000  0 15G15G26R16R 2G29G18G 5R 3R 9G10G23G16
                                R18R17R19
  23721449.406   124657071.138    23721457.977    97135417.1734   23721457.707  
                
  21427115.555   112600252.216    21427125.699    87740511.4634   21427125.453  
                
  21311822.695   113843933.358                    88545304.703    21311824.895  
  21311822.297  
  20933807.125   111706816.072                    86883116.734    20933810.160  
  20933804.945  
  21371186.328   112306334.836    21371193.840    87511457.1754   21371193.828  
                
  20219379.141   106253560.963    20219385.945    82795024.3354   20219385.949  
                
  22554526.375   118524837.412    22554533.887    92357055.1034   22554533.793  
                
  21628465.055   115778885.677                    90050251.872    21628469.711  
  21628463.809  
  21928964.438   117099467.685                    91077350.541    21928967.500  
  21928963.773  
  24501524.211   128756378.031    24501535.629   100329698.8084   24501535.152  
                
  21849100.414   114817804.903    21849108.125    89468467.6394   21849108.043  
                
  22698616.195   119282050.037    22698622.344    92947079.7774                 
                
  19751685.836   105435841.748                    82005657.939    19751688.969  
  19751684.352  
  21162482.961   113244701.278                    88079205.403    21162486.676  
  21162481.102  
  21801075.992   116621079.651                    90705310.940    21801079.637  
  21801073.648  
 21  8 14  6 41 10.0000000  0 15G15G26R16R 2G29G18G 5R 3R 9G10G23G16
                                R18R17R19
  23716779.031   124632527.910    23716787.484    97116292.5804   23716787.234  
                
  21426990.828   112599596.806    21427000.953    87740000.7444   21427000.684  
                
  21316324.359   113867980.430                    88564007.971    21316326.578  
  21316323.930  
  20933790.375   111706726.721                    86883047.250    20933793.402  
  20933788.176  
  21374774.586   112325191.287    21374782.098    87526150.5144   21374782.098  
                
  20218785.492   106250441.367    20218792.301    82792593.4854   20218792.312  
                
  22559585.781   118551424.757    22559593.289    92377772.5094   22559593.199  
                
  21621906.242   115743775.931                    90022944.319    21621910.941  
  21621904.984  
  21926524.188   117086436.927                    91067215.509    21926527.215  
  21926523.551  
  24494480.000   128719360.286    24494491.367   100300853.8474   24494490.902  
                
  21843461.719   114788173.389    21843469.434    89445378.1534   21843469.336  
                
  22694236.820   119259036.226    22694242.957    92929146.9284                 
                
  19751170.297   105433089.756                    82003517.481    19751173.422  
  19751168.824  
  21166735.977   113267459.977                    88096906.610    21166739.703  
  21166734.148  
  21796413.133   116596136.401                    90685910.661    21796416.762  
  21796410.816  
 21  8 14  6 41 20.0000000  0 15G15G26R16R 2G29G18G 5R 3R 9G10G23G16
                                R18R17R19
  23712115.453   124608020.383    23712123.809    97097195.8024   23712123.562  
                
  21426878.500   112599006.502    21426888.570    87739540.7644   21426888.320  
                
  21320838.992   113892096.827                    88582765.164    21320841.250  
  21320838.555  
  20933790.531   111706727.595                    86883047.924    20933793.559  
  20933788.320  
  21378369.820   112344084.336    21378377.316    87540872.3574   21378377.344  
                
  20218199.594   106247362.479    20218206.406    82790194.3504   20218206.414  
                
  22564653.930   118578058.019    22564661.426    92398525.6924   22564661.355  
                
  21615356.383   115708714.163                    89995674.094    21615361.160  
  21615355.113  
  21924099.734   117073490.466                    91057146.054    21924102.754  
  21924099.117  
  24487437.352   128682350.634    24487448.609   100272015.1804   24487448.176  
                
  21837830.695   114758582.147    21837838.426    89422320.0474   21837838.332  
                
  22689867.297   119236074.208    22689873.430    92911254.4574                 
                
  19750660.867   105430370.386                    82001402.420    19750663.980  
  19750659.387  
  21170992.828   113290239.161                    88114623.729    21170996.559  
  21170991.016  
  21791753.352   116571209.554                    90666523.119    21791756.938  
  21791751.004  
 21  8 14  6 41 30.0000000  0 15G15G26R16R 2G29G18G 5R 3R 9G10G23G16
                                R18R17R19
  23707458.688   124583548.564    23707466.977    97078126.8704   23707466.723  
                
  21426778.539   112598481.209    21426788.547    87739131.4394   21426788.328  
                
  21325366.539   113916282.111                    88601575.945    21325368.797  
  21325366.082  
  20933807.656   111706818.987                    86883119.012    20933810.668  
  20933805.438  
  21381971.992   112363013.863    21381979.484    87555622.6374   21381979.523  
                
  20217621.422   106244324.175    20217628.238    82787826.8454   20217628.246  
                
  22569730.781   118604736.990    22569738.254    92419314.4964   22569738.211  
                
  21608815.508   115673700.456                    89968441.245    21608820.359  
  21608814.223  
  21921691.078   117060628.295                    91047142.149    21921694.074  
  21921690.496  
  24480396.281   128645349.062    24480407.402   100243182.8094   24480406.984  
                
  21832207.320   114729031.145    21832215.133    89399293.3074   21832215.012  
                
  22685507.617   119213163.957    22685513.723    92893402.3234                 
                
  19750157.500   105427683.372                    81999312.528    19750160.602  
  19750156.016  
  21175253.461   113313038.576                    88132356.601    21175257.180  
  21175251.695  
  21787096.547   116546298.937                    90647148.232    21787100.195  
  21787094.176  
 21  8 14  6 41 40.0000000  0 15G15G26R16R 2G29G18G 5R 3R 9G10G23G16
                                R18R17R19
  23702808.688   124559112.547    23702816.918    97059085.8414   23702816.684  
                
  21426690.938   112598020.902    21426700.875    87738772.7594   21426700.688  
                
  21329906.992   113940536.470                    88620440.424    21329909.270  
  21329906.516  
  20933841.781   111707001.103                    86883260.636    20933844.801  
  20933839.547  
  21385581.094   112381979.872    21385588.590    87570401.3434   21385588.621  
                
  20217050.961   106241326.409    20217057.785    82785490.9224   20217057.785  
                
  22574816.312   118631461.641    22574823.773    92440138.9074   22574823.734  
                
  21602283.641   115638734.993                    89941245.898    21602288.500  
  21602282.344  
  21919298.195   117047850.414                    91037203.792    21919301.191  
  21919297.645  
  24473356.750   128608355.638    24473367.770   100214356.7894   24473367.344  
                
  21826591.609   114699520.443    21826599.484    89376297.9674   21826599.328  
                
  22681157.812   119190305.602    22681163.863    92875590.6084                 
                
  19749660.211   105425028.828                    81997247.878    19749663.312  
  19749658.715  
  21179517.891   113335858.357                    88150105.317    21179521.598  
  21179516.148  
  21782442.914   116521404.974                    90627786.261    21782446.531  
  21782440.484  
 21  8 14  6 41 50.0000000  0 15G15G26R16R 2G29G18G 5R 3R 9G10G23G16
                                R18R17R19
  23698165.617   124534712.921    23698173.770    97040073.1554   23698173.574  
                
  21426615.789   112597625.963    21426625.672    87738465.0114   21426625.516  
                
  21334460.398   113964859.884                    88639358.626    21334462.672  
  21334459.930  
  20933892.914   111707273.969                    86883472.856    20933895.953  
  20933890.695  
  21389197.234   112400982.785    21389204.715    87585208.7874   21389204.746  
                
  20216488.289   106238369.553    20216495.125    82783186.8814   20216495.117  
                
  22579910.594   118658232.214    22579918.055    92460999.0914   22579918.000  
                
  21595760.891   115603818.254                    89914088.458    21595765.734  
  21595759.598  
  21916921.172   117035157.228                    91027331.297    21916924.141  
  21916920.652  
  24466318.820   128571370.796    24466329.785   100185537.4624   24466329.352  
                
  21820983.672   114670050.527    21820991.551    89353334.4004   21820991.391  
                
  22676817.945   119167499.479    22676823.949    92857819.6034                 
                
  19749169.062   105422407.052                    81995208.723    19749172.164  
  19749167.566  
  21183786.188   113358698.744                    88167870.071    21183789.883  
  21183784.457  
  21777792.406   116496527.703                    90608437.298    21777796.023  
  21777789.961  
 21  8 14  6 42  0.0000000  0 15G15G26R16R 2G29G18G 5R 3R 9G10G23G16
                                R18R17R19
  23693529.398   124510349.436    23693537.527    97021088.6324   23693537.320  
                
  21426553.023   112597296.119    21426562.871    87738207.9984   21426562.734  
                
  21339026.648   113989251.932                    88658330.219    21339028.934  
  21339026.164  
  20933961.055   111707637.609                    86883755.707    20933964.109  
  20933958.836  
  21392820.312   112420022.184    21392827.785    87600044.6844   21392827.824  
                
  20215933.336   106235453.303    20215940.180    82780914.4844   20215940.176  
                
  22585013.523   118685048.253    22585020.973    92481894.6994   22585020.938  
                
  21589247.219   115568950.168                    89886968.849    21589252.055  
  21589245.910  
  21914559.984   117022548.656                    91017524.621    21914562.926  
  21914559.477  
  24459282.516   128534394.358    24459293.398   100156724.6844   24459292.934  
                
  21815383.438   114640621.181    21815391.324    89330402.4584   21815391.160  
                
  22672488.000   119144745.452    22672493.969    92840089.1884                 
                
  19748684.031   105419817.939                    81993194.964    19748687.141  
  19748682.527  
  21188058.289   113381559.557                    88185650.690    21188061.988  
  21188056.555  
  21773144.898   116471666.782                    90589101.011    21773148.488  
  21773142.445  
 21  8 14  6 42 10.0000000  0 15G15G26R16R 2G29G18G 5R 3R 9G10G23G16
                                R18R17R19
  23688900.148   124486022.465    23688908.262    97002132.5694   23688908.031  
                
  21426502.695   112597031.590    21426512.527    87738001.8714   21426512.402  
                
  21343605.797   114013712.896                    88677355.409    21343608.070  
  21343605.332  
  20934046.180   111708091.893                    86884109.025    20934049.227  
  20934043.953  
  21396450.383   112439098.321    21396457.844    87614909.2064   21396457.906  
                
  20215386.148   106232577.849    20215393.008    82778673.8754   20215393.004  
                
  22590125.117   118711909.883    22590132.551    92502825.8404   22590132.535  
                
  21582742.703   115534131.123                    89859887.412    21582747.574  
  21582741.363  
  21912214.664   117010024.803                    91007783.858    21912217.586  
  21912214.137  
  24452247.805   128497426.630    24452258.684   100127918.6964   24452258.199  
                
  21809790.992   114611232.723    21809798.887    89307502.3704   21809798.723  
                
  22668168.023   119122043.882    22668173.980    92822399.6574                 
                
  19748205.141   105417261.611                    81991206.708    19748208.262  
  19748203.617  
  21192334.195   113404440.833                    88203447.211    21192337.910  
  21192332.457  
  21768500.594   116446822.781                    90569777.904    21768504.141  
  21768498.160  
 21  8 14  6 42 20.0000000  0 15G15G26R16R 2G29G18G 5R 3R 9G10G23G16
                                R18R17R19
  23684277.805   124461731.962    23684285.910    96983204.9104   23684285.641  
                
  21426464.766   112596832.268    21426474.602    87737846.5554   21426474.473  
                
  21348197.727   114038242.058                    88696433.641    21348199.965  
  21348197.281  
  20934148.258   111708636.615                    86884532.703    20934151.285  
  20934146.027  
  21400087.430   112458211.100    21400094.859    87629802.2664   21400094.938  
                
  20214846.711   106229743.074    20214853.574    82776464.9624   20214853.574  
                
  22595245.336   118738816.845    22595252.789    92523792.3044   22595252.762  
                
  21576247.344   115499361.100                    89832844.061    21576252.219  
  21576245.992  
  21909885.211   116997585.653                    90998108.966    21909888.094  
  21909884.668  
  24445214.711   128460467.574    24445225.633   100099119.4564   24445225.121  
                
  21804206.320   114581885.109    21804214.230    89284634.1124   21804214.062  
                
  22663858.023   119099394.723    22663864.008    92804750.9674                 
                
  19747732.344   105414737.825                    81989243.762    19747735.461  
  19747730.805  
  21196613.945   113427342.612                    88221259.711    21196617.660  
  21196612.195  
  21763859.359   116421995.272                    90550467.636    21763862.883  
  21763856.918  
 21  8 14  6 42 30.0000000  0 15G15G26R16R 2G29G18G 5R 3R 9G10G23G16
                                R18R17R19
  23679662.359   124437478.017    23679670.492    96964305.7394   23679670.227  
                
  21426439.250   112596698.126    21426449.113    87737742.0284   21426448.973  
                
  21352802.484   114062839.792                    88715565.209    21352804.723  
  21352802.051  
  20934267.352   111709272.152                    86885027.003    20934270.359  
  20934265.102  
  21403731.453   112477360.499    21403738.859    87644723.8824   21403738.949  
                
  20214315.008   106226948.958    20214321.883    82774287.7324   20214321.883  
                
  22600374.188   118765769.120    22600381.656    92544794.0634   22600381.602  
                
  21569761.188   115464640.236                    89805838.977    21569766.070  
  21569759.801  
  21907571.672   116985231.445                    90988500.149    21907574.484  
  21907571.137  
  24438183.258   128423517.285    24438194.250   100070327.0514   24438193.684  
                
  21798629.445   114552578.445    21798637.359    89261797.7654   21798637.191  
                
  22659558.016   119076798.053    22659564.039    92787143.1814                 
                
  19747265.688   105412246.775                    81987306.283    19747268.812  
  19747264.145  
  21200897.539   113450264.958                    88239088.175    21200901.266  
  21200895.758  
  21759221.180   116397184.210                    90531170.142    21759224.699  
  21759218.797  
 21  8 14  6 42 40.0000000  0 15G15G26R16R 2G29G18G 5R 3R 9G10G23G16
                                R18R17R19
  23675054.039   124413261.659    23675062.246    96945435.8724   23675061.961  
                
  21426426.297   112596630.072    21426436.195    87737688.9944   21426436.031  
                
  21357420.164   114087506.577                    88734750.476    21357422.379  
  21357419.746  
  20934403.695   111709999.720                    86885592.900    20934406.734  
  20934401.453  
  21407382.594   112496547.361    21407389.969    87659674.6734   21407390.059  
                
  20213791.195   106224196.331    20213798.078    82772142.8314   20213798.082  
                
  22605511.820   118792767.559    22605519.285    92565831.8014   22605519.234  
                
  21563284.375   115429969.621                    89778872.980    21563289.293  
  21563282.969  
  21905274.172   116972962.887                    90978957.940    21905276.938  
  21905273.656  
  24431153.664   128386576.700    24431164.711   100041542.1994   24431164.086  
                
  21793060.539   114523313.665    21793068.406    89238994.0494   21793068.250  
                
  22655268.180   119054254.849    22655274.207    92769577.0454                 
                
  19746805.305   105409789.224                    81985394.861    19746808.434  
  19746803.754  
  21205185.070   113473208.491                    88256933.141    21205188.816  
  21205183.277  
  21754586.258   116372390.706                    90511886.352    21754589.793  
  21754583.930  
 21  8 14  6 42 50.0000000  0 15G15G26R16R 2G29G18G 5R 3R 9G10G23G16
                                R18R17R19
  23670452.438   124389080.431    23670460.707    96926593.3564   23670460.398  
                
  21426425.414   112596625.422    21426435.352    87737685.3634   21426435.148  
                
  21362050.266   114112239.663                    88753987.330    21362052.488  
  21362049.844  
  20934556.664   111710815.996                    86886227.785    20934559.699  
  20934554.430  
  21411040.352   112515768.937    21411047.699    87674652.5234   21411047.801  
                
  20213274.773   106221482.515    20213281.652    82770028.1724   20213281.660  
                
  22610657.711   118819809.338    22610665.184    92586903.3054   22610665.145  
                
  21556816.484   115395346.713                    89751944.065    21556821.430  
  21556815.062  
  21902992.211   116960777.292                    90969480.234    21902994.957  
  21902991.707  
  24424125.430   128349643.247    24424136.500   100012762.8904   24424135.840  
                
  21787499.117   114494088.212    21787506.918    89216220.9694   21787506.785  
                
  22650988.016   119031762.491    22650994.051    92752050.5254                 
                
  19746350.695   105407362.468                    81983507.390    19746353.820  
  19746349.141  
  21209476.078   113496170.550                    88274792.502    21209479.832  
  21209474.293  
  21749954.141   116347612.218                    90492614.173    21749957.688  
  21749951.852  
 21  8 14  6 43  0.0000000  0 15G15G26R16R 2G29G18G 5R 3R 9G10G23G16
                                R18R17R19
  23665857.945   124364936.631    23665866.324    96907780.0464   23665866.008  
                
  21426437.031   112596686.467    21426447.027    87737732.9274   21426446.805  
                
  21366693.188   114137041.277                    88773277.460    21366695.430  
  21366692.750  
  20934726.641   111711723.044                    86886933.264    20934729.688  
  20934724.418  
  21414705.156   112535027.610    21414712.488    87689659.2754   21414712.590  
                
  20212766.172   106218809.800    20212773.059    82767945.5374   20212773.059  
                
  22615812.273   118846896.693    22615819.719    92608010.3324   22615819.691  
                
  21550357.992   115360774.060                    89725054.252    21550362.969  
  21550356.555  
  21900726.258   116948677.248                    90960069.095    21900729.000  
  21900725.762  
  24417099.000   128312719.303    24417110.074    99983990.9984   24417109.395  
                
  21781945.633   114464904.458    21781953.379    89193480.3924   21781953.266  
                
  22646718.008   119009323.449    22646724.051    92734565.5684                 
                
  19745902.305   105404968.967                    81981645.771    19745905.430  
  19745900.746  
  21213771.016   113519153.541                    88292668.157    21213774.746  
  21213769.258  
  21745325.258   116322850.795                    90473355.285    21745328.758  
  21745323.027  
 21  8 14  6 43 10.0000000  0 15G15G26R16R 2G29G18G 5R 3R 9G10G23G16
                                R18R17R19
  23661270.562   124340829.961    23661278.984    96888995.6534   23661278.688  
                
  21426461.070   112596812.797    21426471.109    87737831.3614   21426470.859  
                
  21371348.805   114161910.730                    88792620.351    21371351.066  
  21371348.355  
  20934913.680   111712721.135                    86887709.574    20934916.746  
  20934911.477  
  21418376.945   112554322.961    21418384.266    87704694.6104   21418384.359  
                
  20212265.305   106216177.745    20212272.195    82765894.5884   20212272.199  
                
  22620975.391   118874029.027    22620982.773    92629152.3994   22620982.754  
                
  21543908.844   115326251.403                    89698203.331    21543913.840  
  21543907.418  
  21898476.219   116936662.243                    90950724.090    21898478.938  
  21898475.730  
  24410074.352   128275804.550    24410085.414    99955226.2764   24410084.715  
                
  21776400.016   114435762.083    21776407.727    89170772.0584   21776407.629  
                
  22642458.070   118986937.351    22642464.117    92717121.8474                 
                
  19745460.055   105402608.177                    81979809.604    19745463.172  
  19745458.496  
  21218069.773   113542156.955                    88310559.683    21218073.484  
  21218068.027  
  21740699.453   116298106.063                    90454109.401    21740702.953  
  21740697.254  
 21  8 14  6 43 20.0000000  0 15G15G26R16R 2G29G18G 5R 3R 9G10G23G16
                                R18R17R19
  23656690.219   124316760.310    23656698.648    96870240.1064   23656698.371  
                
  21426497.484   112597004.164    21426507.539    87737980.4784   21426507.254  
                
  21376017.094   114186847.876                    88812015.896    21376019.352  
  21376016.664  
  20935117.742   111713810.075                    86888556.520    20935120.816  
  20935115.562  
  21422055.641   112573654.615    21422062.945    87719758.2354   21422063.035  
                
  20211772.117   106213586.070    20211779.020    82763875.1014   20211779.020  
                
  22626147.000   118901206.043    22626154.320    92650329.2864   22626154.324  
                
  21537468.945   115291778.421                    89671391.049    21537473.973  
  21537467.512  
  21896242.102   116924732.212                    90941445.172    21896244.812  
  21896241.602  
  24403051.375   128238898.819    24403062.484    99926468.5904   24403061.770  
                
  21770862.250   114406660.924    21770869.922    89148095.8304   21770869.828  
                
  22638208.180   118964603.999    22638214.223    92699719.2404                 
                
  19745023.906   105400279.987                    81977998.781    19745027.012  
  19745022.332  
  21222372.312   113565180.648                    88328466.979    21222376.020  
  21222370.598  
  21736076.664   116273377.817                    90434876.320    21736080.227  
  21736074.566  
 21  8 14  6 43 30.0000000  0 15G15G26R16R 2G29G18G 5R 3R 9G10G23G16
                                R18R17R19
  23652117.016   124292728.083    23652125.438    96851513.7024   23652125.191  
                
  21426546.328   112597260.842    21426556.379    87738180.4784   21426556.094  
                
  21380698.008   114211852.431                    88831463.879    21380700.266  
  21380697.574  
  20935338.805   111714989.618                    86889473.935    20935341.895  
  20935336.637  
  21425741.320   112593022.913    21425748.633    87734850.4014   21425748.711  
                
  20211286.688   106211035.044    20211293.602    82761887.2924   20211293.598  
                
  22631327.156   118928427.883    22631334.422    92671541.1064   22631334.434  
                
  21531038.469   115257355.777                    89644617.896    21531043.492  
  21531037.051  
  21894023.984   116912887.535                    90932232.630    21894026.672  
  21894023.473  
  24396030.180   128202002.428    24396041.309    99897718.1924   24396040.586  
                
  21765332.398   114377601.323    21765340.008    89125451.9954   21765339.918  
                
  22633968.398   118942323.784    22633974.441    92682358.0314                 
                
  19744593.891   105397984.532                    81976213.433    19744596.992  
  19744592.301  
  21226678.703   113588224.787                    88346390.181    21226682.367  
  21226677.043  
  21731456.984   116248666.419                    90415656.373    21731460.680  
  21731454.957  
 21  8 14  6 43 40.0000000  0 15G15G26R16R 2G29G18G 5R 3R 9G10G23G16
                                R18R17R19
  23647550.922   124268733.133    23647559.336    96832816.3514   23647559.090  
                
  21426607.531   112597582.478    21426617.551    87738431.0974   21426617.281  
                
  21385391.492   114236924.199                    88850964.132    21385393.762  
  21385391.055  
  20935576.828   111716259.759                    86890461.828    20935579.934  
  20935574.691  
  21429433.891   112612427.483    21429441.211    87749970.8394   21429441.289  
                
  20210808.898   106208524.296    20210815.836    82759930.8684   20210815.824  
                
  22636515.758   118955694.169    22636522.992    92692787.5524   22636523.004  
                
  21524617.406   115222983.359                    89617883.795    21524622.371  
  21524616.012  
  21891821.727   116901127.635                    90923086.036    21891824.426  
  21891821.219  
  24389010.703   128165115.167    24389021.844    99868974.8954   24389021.113  
                
  21759810.391   114348583.022    21759817.914    89102840.3344   21759817.863  
                
  22629738.664   118920096.451    22629744.742    92665038.0294                 
                
  19744169.961   105395721.597                    81974453.376    19744173.059  
  19744168.355  
  21230988.844   113611289.041                    88364329.051    21230992.461  
  21230987.215  
  21726840.453   116223971.566                    90396449.274    21726844.227  
  21726838.422  
 21  8 14  6 43 50.0000000  0 15G15G26R16R 2G29G18G 5R 3R 9G10G23G16
                                R18R17R19
  23642991.969   124244775.631    23643000.414    96814148.1874   23643000.164  
                
  21426681.125   112597969.193    21426691.105    87738732.4344   21426690.859  
                
  21390097.555   114262063.165                    88870516.654    21390099.844  
  21390097.125  
  20935831.844   111717620.567                    86891520.225    20935834.961  
  20935829.723  
  21433133.406   112631868.530    21433140.727    87765119.7074   21433140.809  
                
  20210338.805   106206053.933    20210345.773    82758005.9114   20210345.746  
                
  22641712.805   118983004.904    22641720.035    92714068.6354   22641720.039  
                
  21518205.766   115188661.332                    89591188.923    21518210.699  
  21518204.375  
  21889635.414   116889452.843                    90914005.647    21889638.125  
  21889634.891  
  24381993.016   128128237.243    24382004.156    99840238.8724   24382003.438  
                
  21754296.297   114319606.236    21754303.773    89080261.0254   21754303.758  
                
  22625519.031   118897922.183    22625525.168    92647759.3964                 
                
  19743752.125   105393491.208                    81972718.629    19743755.219  
  19743750.504  
  21235302.758   113634373.501                    88382283.625    21235306.352  
  21235301.145  
  21722227.102   116199293.458                    90377255.220    21722230.922  
  21722225.074  
 21  8 14  6 44  0.0000000  0 15G15G26R16R 2G29G18G 5R 3R 9G10G23G16
                                R18R17R19
  23638440.125   124220855.642    23638448.637    96795509.2454   23638448.379  
                
  21426767.102   112598420.975    21426777.020    87739084.4724   21426776.809  
                
  21394816.195   114287269.227                    88890121.361    21394818.504  
  21394815.766  
  20936103.836   111719071.987                    86892649.116    20936106.957  
  20936101.730  
  21436839.844   112651345.933    21436847.148    87780296.8964   21436847.242  
                
  20209876.383   106203623.904    20209883.383    82756112.3864   20209883.328  
                
  22646918.281   119010359.906    22646925.480    92735384.2064   22646925.496  
                
  21511803.555   115154389.836                    89564533.331    21511808.465  
  21511802.188  
  21887465.070   116877863.277                    90904991.545    21887467.793  
  21887464.559  
  24374977.188   128091368.701    24374988.266    99811510.1634   24374987.555  
                
  21748790.109   114290671.033    21748797.609    89057714.1314   21748797.578  
                
  22621309.508   118875801.029    22621315.719    92630522.1434                 
                
  19743340.414   105391293.482                    81971009.286    19743343.520  
  19743338.797  
  21239620.461   113657478.153                    88400253.913    21239624.023  
  21239618.875  
  21717616.812   116174631.838                    90358073.964    21717620.699  
  21717614.828  
 21  8 14  6 44 10.0000000  0 15G15G26R16R 2G29G18G 5R 3R 9G10G23G16
                                R18R17R19
  23633895.398   124196973.326    23633904.043    96776899.6714   23633903.762  
                
  21426865.453   112598937.832    21426875.309    87739487.2194   21426875.125  
                
  21399547.359   114312542.229                    88909778.152    21399549.668  
  21399546.930  
  20936392.844   111720614.155                    86893848.578    20936395.953  
  20936390.746  
  21440553.195   112670859.726    21440560.473    87795502.4474   21440560.590  
                
  20209421.641   106201234.218    20209428.676    82754250.2954   20209428.594  
                
  22652132.180   119037759.124    22652139.340    92756734.2484   22652139.355  
                
  21505410.805   115120169.060                    89537917.204    21505415.715  
  21505409.461  
  21885310.672   116866358.915                    90896043.709    21885313.398  
  21885310.168  
  24367963.141   128054509.652    24367974.160    99782788.8544   24367973.488  
                
  21743291.844   114261777.516    21743299.387    89035199.7134   21743299.344  
                
  22617110.102   118853733.074    22617116.305    92613326.3314                 
                
  19742934.773   105389128.172                    81969325.150    19742937.879  
  19742933.156  
  21243941.898   113680602.989                    88418239.886    21243945.453  
  21243940.309  
  21713009.734   116149986.914                    90338905.678    21713013.570  
  21713007.738  
 21  8 14  6 44 20.0000000  0 15G15G26R16R 2G29G18G 5R 3R 9G10G23G16
                                R18R17R19
  23629357.898   124173128.948    23629366.660    96758319.6554   23629366.355  
                
  21426976.219   112599519.920    21426986.008    87739940.7894   21426985.855  
                
  21404291.031   114337882.091                    88929486.930    21404293.340  
  21404290.578  
  20936698.781   111722246.716                    86895118.354    20936701.879  
  20936696.707  
  21444273.492   112690410.015    21444280.770    87810736.4344   21444280.887  
                
  20208974.602   106198885.022    20208981.656    82752419.7514   20208981.566  
                
  22657354.500   119065202.621    22657361.633    92778118.7774   22657361.668  
                
  21499027.586   115085999.404                    89511340.813    21499032.465  
  21499026.273  
  21883172.281   116854940.021                    90887162.337    21883175.008  
  21883171.801  
  24360950.922   128017660.331    24360961.887    99754075.1214   24360961.266  
                
  21737801.562   114232925.928    21737809.129    89012717.9654   21737809.059  
                
  22612920.867   118831718.533    22612927.055    92596172.1434                 
                
  19742535.297   105386995.759                    81967666.606    19742538.418  
  19742533.676  
  21248267.125   113703748.144                    88436241.668    21248270.691  
  21248265.551  
  21708405.734   116125358.607                    90319750.374    21708409.574  
  21708403.699  
 21  8 14  6 44 30.0000000  0 15G15G26R16R 2G29G18G 5R 3R 9G10G23G16
                                R18R17R19
  23624827.594   124149322.609    23624836.496    96739769.2914   23624836.188  
                
  21427099.406   112600167.239    21427109.137    87740445.1974   21427109.012  
                
  21409047.211   114363288.719                    88949247.622    21409049.504  
  21409046.770  
  20937021.758   111723970.149                    86896458.808    20937024.832  
  20937019.691  
  21448000.758   112709996.872    21448008.047    87825998.9104   21448008.156  
                
  20208535.266   106196576.294    20208542.332    82750620.7434   20208542.230  
                
  22662585.227   119092690.301    22662592.355    92799537.7404   22662592.387  
                
  21492653.938   115051880.876                    89484804.192    21492658.770  
  21492652.652  
  21881049.906   116843606.558                    90878347.427    21881052.641  
  21881049.426  
  24353940.586   127980820.827    24353951.496    99725369.0404   24353950.914  
                
  21732319.289   114204116.357    21732326.852    88990268.9544   21732326.793  
                
  22608741.836   118809757.597    22608748.016    92579059.7354                 
                
  19742141.953   105384896.085                    81966033.522    19742145.078  
  19742140.332  
  21252596.172   113726913.701                    88454259.308    21252599.750  
  21252594.582  
  21703804.883   116100747.392                    90300608.294    21703808.762  
  21703802.816  
 21  8 14  6 44 40.0000000  0 15G15G26R16R 2G29G18G 5R 3R 9G10G23G16
                                R18R17R19
  23620304.555   124125554.337    23620313.594    96721248.5844   23620313.277  
                
  21427234.984   112600879.664    21427244.664    87741000.3274   21427244.586  
                
  21413815.820   114388761.745                    88969059.965    21413818.105  
  21413815.359  
  20937361.727   111725784.284                    86897869.807    20937364.797  
  20937359.676  
  21451734.938   112729620.105    21451742.230    87841289.7354   21451742.344  
                
  20208103.609   106194307.879    20208110.680    82748853.1514   20208110.574  
                
  22667824.312   119120221.898    22667831.469    92820990.9214   22667831.465  
                
  21486289.922   115017813.647                    89458307.465    21486294.691  
  21486288.629  
  21878943.516   116832358.540                    90869598.970    21878946.273  
  21878943.023  
  24346932.164   127943991.109    24346942.965    99696670.5804   24346942.441  
                
  21726844.992   114175348.747    21726852.531    88967852.6414   21726852.500  
                
  22604572.992   118787850.211    22604579.207    92561989.0464                 
                
  19741754.742   105382829.111                    81964425.884    19741757.875  
  19741753.133  
  21256929.000   113750099.477                    88472292.683    21256932.598  
  21256927.387  
  21699207.164   116076152.880                    90281479.244    21699211.109  
  21699205.094  
 21  8 14  6 44 50.0000000  0 15G15G26R16R 2G29G18G 5R 3R 9G10G23G16
                                R18R17R19
  23615788.719   124101823.960    23615797.879    96702757.4224   23615797.570  
                
  21427382.906   112601656.952    21427392.555    87741606.0074   21427392.484  
                
  21418596.781   114414300.835                    88988923.693    21418599.102  
  21418596.301  
  20937718.648   111727688.871                    86899351.160    20937721.703  
  20937716.578  
  21455476.000   112749279.515    21455483.316    87856608.7484   21455483.426  
                
  20207679.562   106192079.537    20207686.625    82747116.7844   20207686.508  
                
  22673071.711   119147797.112    22673078.895    92842478.0884   22673078.844  
                
  21479935.430   114983797.474                    89431850.461    21479940.180  
  21479934.148  
  21876853.094   116821195.786                    90860916.815    21876855.879  
  21876852.605  
  24339925.656   127907171.026    24339936.242    99667979.6294   24339935.785  
                
  21721378.656   114146622.973    21721386.195    88945468.9314   21721386.180  
                
  22600414.320   118765996.307    22600420.570    92544960.0424                 
                
  19741373.594   105380794.537                    81962843.442    19741376.730  
  19741371.980  
  21261265.539   113773305.107                    88490341.483    21261269.148  
  21261263.898  
  21694612.570   116051574.892                    90262363.037    21694616.520  
  21694610.469  
 21  8 14  6 45  0.0000000  0 15G15G26R16R 2G29G18G 5R 3R 9G10G23G16
                                R18R17R19
  23611280.273   124078132.020    23611289.461    96684296.1844   23611289.156  
                
  21427543.234   112602499.414    21427552.867    87742262.4644   21427552.805  
                
  21423390.172   114439906.280                    89008839.024    21423392.516  
  21423389.676  
  20938092.531   111729683.980                    86900902.899    20938095.594  
  20938090.457  
  21459224.000   112768975.352    21459231.348    87871956.1454   21459231.461  
                
  20207263.203   106189891.516    20207270.262    82745411.8344   20207270.129  
                
  22678327.453   119175416.196    22678334.645    92863999.4464   22678334.609  
                
  21473590.578   114949833.074                    89405433.741    21473595.352  
  21473589.297  
  21874778.688   116810118.535                    90852301.170    21874781.492  
  21874778.207  
  24332920.969   127870360.950    24332931.430    99639296.4734   24332931.027  
                
  21715920.359   114117939.406    21715927.941    88923118.1124   21715927.914  
                
  22596265.906   118744196.203    22596272.184    92527972.9514                 
                
  19740998.617   105378792.883                    81961286.603    19741001.750  
  19740997.012  
  21265605.875   113796530.948                    88508406.037    21265609.496  
  21265604.238  
  21690021.117   116027013.606                    90243259.833    21690025.066  
  21690019.020  
 21  8 14  6 45 10.0000000  0 15G15G26R16R 2G29G18G 5R 3R 9G10G23G16
                                R18R17R19
  23606779.109   124054478.513    23606788.285    96665864.8954   23606787.992  
                
  21427715.922   112603406.921    21427725.570    87742969.6114   21427725.488  
                
  21428195.906   114465577.639                    89028805.612    21428198.266  
  21428195.406  
  20938483.352   111731769.521                    86902524.989    20938486.426  
  20938481.277  
  21462978.898   112788707.486    21462986.277    87887331.8224   21462986.383  
                
  20206854.484   106187743.731    20206861.543    82743738.2354   20206861.406  
                
  22683591.484   119203078.881    22683598.676    92885554.7804   22683598.641  
                
  21467255.352   114915920.254                    89379057.125    21467260.137  
  21467254.074  
  21872720.266   116799126.738                    90843752.015    21872723.105  
  21872719.789  
  24325918.141   127833560.857    24325928.539    99610621.1044   24325928.184  
                
  21710470.078   114089298.026    21710477.699    88900800.1684   21710477.648  
                
  22592127.703   118722449.836    22592133.988    92511027.7264                 
                
  19740629.727   105376823.750                    81959755.059    19740632.863  
  19740628.121  
  21269949.953   113819776.973                    88526486.259    21269953.605  
  21269948.301  
  21685432.781   116002469.081                    90224169.639    21685436.668  
  21685430.684  
 21  8 14  6 45 20.0000000  0 15G15G26R16R 2G29G18G 5R 3R 9G10G23G16
                                R18R17R19
  23602285.281   124030863.517    23602294.426    96647463.6314   23602294.160  
                
  21427901.008   112604379.530    21427910.676    87743727.4874   21427910.582  
                
  21433014.008   114491315.034                    89048823.590    21433016.355  
  21433013.520  
  20938891.242   111733946.105                    86904217.870    20938894.336  
  20938889.172  
  21466740.695   112808475.869    21466748.109    87902735.7544   21466748.199  
                
  20206453.430   106185636.181    20206460.484    82742095.9924   20206460.348  
                
  22688863.797   119230785.072    22688870.984    92907144.0084   22688870.945  
                
  21460929.828   114882059.468                    89352720.994    21460934.633  
  21460928.531  
  21870677.922   116788220.737                    90835269.548    21870680.793  
  21870677.441  
  24318917.227   127796770.895    24318927.590    99581953.6404   24318927.273  
                
  21705027.867   114060698.975    21705035.488    88878515.2024   21705035.426  
                
  22587999.758   118700757.351    22588006.043    92494124.4974                 
                
  19740266.961   105374887.256                    81958248.905    19740270.090  
  19740265.363  
  21274297.812   113843043.207                    88544582.216    21274301.492  
  21274296.164  
  21680847.594   115977941.455                    90205092.607    21680851.469  
  21680845.473  
 21  8 14  6 45 30.0000000  0 15G15G26R16R 2G29G18G 5R 3R 9G10G23G16
                                R18R17R19
  23597798.805   124007287.212    23597807.949    96629092.5094   23597807.688  
                
  21428098.492   112605417.311    21428108.188    87744536.1364   21428108.094  
                
  21437844.461   114517118.410                    89068892.892    21437846.801  
  21437843.988  
  20939316.133   111736213.377                    86905981.322    20939319.262  
  20939314.074  
  21470509.430   112828280.690    21470516.879    87918168.0704   21470516.961  
                
  20206060.047   106183568.931    20206067.102    82740485.1494   20206066.953  
                
  22694144.414   119258534.896    22694151.566    92928767.2434   22694151.547  
                
  21454614.062   114848250.746                    89326425.324    21454618.840  
  21454612.777  
  21868651.641   116777400.476                    90826853.793    21868654.562  
  21868651.129  
  24311918.258   127759991.208    24311928.590    99553294.1734   24311928.320  
                
  21699593.734   114032142.405    21699601.312    88856263.3384   21699601.266  
                
  22583882.102   118679118.908    22583888.395    92477263.3954                 
                
  19739910.305   105372983.416                    81956768.145    19739913.434  
  19739908.707  
  21278649.461   113866329.662                    88562693.885    21278653.133  
  21278647.789  
  21676265.578   115953430.651                    90186028.658    21676269.418  
  21676263.398  
 21  8 14  6 45 40.0000000  0 15G15G26R16R 2G29G18G 5R 3R 9G10G23G16
                                R18R17R19
  23593319.758   123983749.713    23593328.918    96610751.6114   23593328.621  
                
  21428308.375   112606520.217    21428318.090    87745395.5384   21428317.996  
                
  21442687.211   114542987.444                    89089013.233    21442689.555  
  21442686.766  
  20939758.031   111738571.426                    86907815.365    20939761.176  
  20939755.977  
  21474285.086   112848121.841    21474292.570    87933628.7044   21474292.629  
                
  20205674.320   106181541.933    20205681.359    82738905.6664   20205681.211  
                
  22699433.297   119286328.108    22699440.406    92950424.2834   22699440.418  
                
  21448308.062   114814494.278                    89300170.321    21448312.816  
  21448306.785  
  21866641.414   116766666.018                    90818504.754    21866644.379  
  21866640.910  
  24304921.250   127723221.832    24304931.535    99524642.7364   24304931.328  
                
  21694167.695   114003628.356    21694175.223    88834044.6034   21694175.199  
                
  22579774.734   118657534.578    22579781.023    92460444.4344                 
                
  19739559.797   105371112.382                    81955312.889    19739562.941  
  19739558.203  
  21283004.867   113889636.305                    88580821.281    21283008.551  
  21283003.184  
  21671686.711   115928936.775                    90166977.901    21671690.566  
  21671684.543  
 21  8 14  6 45 50.0000000  0 15G15G26R16R 2G29G18G 5R 3R 9G10G23G16
                                R18R17R19
  23588848.070   123960251.033    23588857.281    96592440.9714   23588856.965  
                
  21428530.625   112607688.162    21428540.355    87746305.6214   21428540.242  
                
  21447542.234   114568921.997                    89109184.551    21447544.578  
  21447541.816  
  20940216.891   111741019.973                    86909719.787    20940220.043  
  20940214.840  
  21478067.648   112867999.312    21478075.164    87949117.6344   21478075.203  
                
  20205296.234   106179555.069    20205303.250    82737357.4604   20205303.105  
                
  22704730.414   119314164.588    22704737.496    92972115.0494   22704737.512  
                
  21442011.852   114780790.147                    89273955.998    21442016.559  
  21442010.590  
  21864647.250   116756017.242                    90810222.389    21864650.266  
  21864646.738  
  24297926.203   127686462.803    24297936.461    99495999.3764   24297936.285  
                
  21688749.750   113975156.847    21688757.238    88811859.0134   21688757.254  
                
  22575677.672   118636004.335    22575683.957    92443667.6294                 
                
  19739215.406   105369273.992                    81953883.025    19739218.547  
  19739213.809  
  21287364.000   113912962.989                    88598964.234    21287367.715  
  21287362.293  
  21667110.922   115904459.362                    90147939.906    21667114.781  
  21667108.738  
 21  8 14  6 46  0.0000000  0 15G15G26R16R 2G29G18G 5R 3R 9G10G23G16
                                R18R17R19
  23584383.883   123936791.526    23584393.074    96574160.8384   23584392.766  
                
  21428765.281   112608921.285    21428775.023    87747266.4924   21428774.910  
                
  21452409.492   114594921.971                    89129406.729    21452411.879  
  21452409.074  
  20940692.719   111743559.104                    86911694.666    20940695.887  
  20940690.656  
  21481857.141   112887913.225    21481864.668    87964634.9544   21481864.715  
                
  20204925.805   106177608.456    20204932.797    82735840.6284   20204932.664  
                
  22710035.750   119342044.255    22710042.824    92993839.4534   22710042.840  
                
  21435725.469   114747138.720                    89247782.684    21435730.172  
  21435724.207  
  21862669.156   116745454.351                    90802006.823    21862672.199  
  21862668.629  
  24290933.070   127649714.323    24290943.398    99467364.2334   24290943.246  
                
  21683339.930   113946728.095    21683347.402    88789706.7484   21683347.426  
                
  22571590.938   118614528.388    22571597.234    92426933.1264                 
                
  19738877.172   105367468.524                    81952478.769    19738880.316  
  19738875.574  
  21291726.938   113936309.938                    88617122.969    21291730.648  
  21291725.184  
  21662538.336   115879999.060                    90128915.216    21662542.148  
  21662536.160  
 21  8 14  6 46 10.0000000  0 15G15G26R16R 2G29G18G 5R 3R 9G10G23G16
                                R18R17R19
  23579927.141   123913371.136    23579936.258    96555911.1704   23579935.977  
                
  21429012.328   112610219.491    21429022.066    87748278.0734   21429021.949  
                
  21457288.977   114620987.292                    89149679.741    21457291.406  
  21457288.574  
  20941185.570   111746189.057                    86913740.196    20941188.742  
  20941183.508  
  21485653.531   112907863.386    21485661.059    87980180.5274   21485661.117  
                
  20204563.016   106175701.999    20204569.984    82734355.0784   20204569.859  
                
  22715349.273   119369966.943    22715356.320    93015597.3904   22715356.332  
                
  21429448.961   114713540.028                    89221650.369    21429453.629  
  21429447.727  
  21860707.156   116734977.372                    90793858.070    21860710.207  
  21860706.645  
  24283941.945   127612976.379    24283952.324    99438737.2984   24283952.195  
                
  21677938.250   113918342.080    21677945.723    88767587.7874   21677945.746  
                
  22567514.531   118593106.734    22567520.871    92410240.9244                 
                
  19738545.070   105365695.758                    81951099.973    19738548.215  
  19738543.473  
  21296093.617   113959676.946                    88635297.274    21296097.352  
  21296091.816  
  21657968.875   115855555.657                    90109903.701    21657972.695  
  21657966.746  
 21  8 14  6 46 20.0000000  0 15G15G26R16R 2G29G18G 5R 3R 9G10G23G16
                                R18R17R19
  23575477.875   123889989.948    23575486.926    96537692.0884   23575486.641  
                
  21429271.750   112611582.749    21429281.473    87749340.3544   21429281.352  
                
  21462180.641   114647117.665                    89170003.365    21462183.113  
  21462180.254  
  20941695.383   111748909.530                    86915856.113    20941698.551  
  20941693.328  
  21489456.828   112927849.846    21489464.363    87995754.3904   21489464.422  
                
  20204207.867   106173835.683    20204214.820    82732900.8064   20204214.707  
                
  22720670.969   119397932.601    22720677.996    93037388.8114   22720678.008  
                
  21423182.320   114679994.148                    89195559.159    21423186.941  
  21423181.109  
  21858761.258   116724586.369                    90785776.190    21858764.328  
  21858760.734  
  24276952.844   127576249.069    24276963.285    99410118.6684   24276963.164  
                
  21672544.719   113889998.895    21672552.195    88745502.2064   21672552.227  
                
  22563448.477   118571739.471    22563454.836    92393591.1204                 
                
  19738219.086   105363955.684                    81949746.584    19738222.230  
  19738217.492  
  21300464.062   113983064.025                    88653487.219    21300467.793  
  21300462.266  
  21653402.633   115831129.253                    90090905.392    21653406.426  
  21653400.496  
 21  8 14  6 46 30.0000000  0 15G15G26R16R 2G29G18G 5R 3R 9G10G23G16
                                R18R17R19
  23571036.031   123866648.037    23571045.051    96519503.6094   23571044.773  
                
  21429543.547   112613010.997    21429553.254    87750453.2764   21429553.152  
                
  21467084.461   114673312.924                    89190377.456    21467086.926  
  21467084.082  
  20942222.195   111751720.630                    86918042.513    20942225.359  
  20942220.152  
  21493267.016   112947872.487    21493274.547    88011356.4294   21493274.617  
                
  20203860.336   106172009.384    20203867.289    82731477.7194   20203867.168  
                
  22726000.812   119425941.080    22726007.824    93059213.5994   22726007.855  
                
  21416925.570   114646501.266                    89169509.156    21416930.188  
  21416924.363  
  21856831.430   116714281.206                    90777761.073    21856834.520  
  21856830.879  
  24269965.930   127539532.397    24269976.254    99381508.3004   24269976.145  
                
  21667159.344   113861698.546    21667166.805    88723449.9924   21667166.852  
                
  22559392.758   118550426.583    22559399.141    92376983.6904                 
                
  19737899.227   105362248.242                    81948418.578    19737902.375  
  19737897.633  
  21304838.219   114006471.095                    88671692.721    21304841.969  
  21304836.434  
  21648839.516   115806719.644                    90071920.182    21648843.312  
  21648837.367  
 21  8 14  6 46 40.0000000  0 15G15G26R16R 2G29G18G 5R 3R 9G10G23G16
                                R18R17R19
  23566601.656   123843345.459    23566610.672    96501345.7754   23566610.395  
                
  21429827.695   112614504.179    21429837.379    87751616.7944   21429837.281  
                
  21472000.367   114699572.729                    89210801.735    21472002.816  
  21471999.992  
  20942765.930   111754622.102                    86920299.225    20942769.086  
  20942763.887  
  21497084.070   112967931.228    21497091.598    88026986.6154   21497091.695  
                
  20203520.406   106170223.055    20203527.363    82730085.7774   20203527.238  
                
  22731338.789   119453992.245    22731345.797    93081071.6514   22731345.828  
                
  21410678.734   114613061.471                    89143500.450    21410683.328  
  21410677.520  
  21854917.703   116704062.008                    90769812.799    21854920.781  
  21854917.152  
  24262981.039   127502826.427    24262991.227    99352906.2644   24262991.141  
                
  21661782.109   113833441.056    21661789.551    88701431.1744   21661789.609  
                
  22555347.422   118529168.193    22555353.809    92360418.7044                 
                
  19737585.461   105360573.349                    81947115.895    19737588.609  
  19737583.879  
  21309216.133   114029898.177                    88689913.772    21309219.902  
  21309214.363  
  21644279.555   115782326.742                    90052947.903    21644283.312  
  21644277.383  
 21  8 14  6 46 50.0000000  0 15G15G26R16R 2G29G18G 5R 3R 9G10G23G16
                                R18R17R19
  23562174.797   123820082.378    23562183.805    96483218.7204   23562183.539  
                
  21430124.203   112616062.339    21430133.871    87752830.9514   21430133.781  
                
  21476928.414   114725897.397                    89231276.457    21476930.840  
  21476928.027  
  20943326.641   111757614.137                    86922626.365    20943329.793  
  20943324.594  
  21500908.008   112988026.147    21500915.547    88042644.9884   21500915.637  
                
  20203188.078   106168476.712    20203195.035    82728724.9874   20203194.914  
                
  22736684.898   119482086.150    22736691.922    93102963.0004   22736691.961  
                
  21404441.844   114579674.868                    89117533.100    21404446.410  
  21404440.645  
  21853020.047   116693928.675                    90761931.310    21853023.137  
  21853019.496  
  24255998.156   127466131.253    24256008.270    99324312.6434   24256008.176  
                
  21656413.047   113805226.559    21656420.453    88679445.8754   21656420.535  
                
  22551312.461   118507964.373    22551318.859    92343896.2634                 
                
  19737277.836   105358931.262                    81945838.700    19737281.000  
  19737276.258  
  21313597.797   114053345.298                    88708150.399    21313601.574  
  21313596.023  
  21639722.711   115757950.688                    90033988.778    21639726.441  
  21639720.512  
 21  8 14  6 47  0.0000000  0 15G15G26R16R 2G29G18G 5R 3R 9G10G23G16
                                R18R17R19
  23557755.492   123796859.061    23557764.500    96465122.6334   23557764.281  
                
  21430433.102   112617685.569    21430442.758    87754095.8044   21430442.672  
                
  21481868.500   114752286.380                    89251801.214    21481870.910  
  21481868.125  
  20943904.312   111760696.677                    86925023.894    20943907.461  
  20943902.266  
  21504738.836   113008157.283    21504746.387    88058331.5784   21504746.469  
                
  20202863.391   106166770.441    20202870.340    82727395.4314   20202870.215  
                
  22742039.086   119510222.536    22742046.148    93124887.4454   22742046.176  
                
  21398214.953   114546341.878                    89091607.458    21398219.500  
  21398213.754  
  21851138.547   116683881.568                    90754116.910    21851141.645  
  21851137.996  
  24249017.336   127429447.069    24249027.438    99295727.5944   24249027.320  
                
  21651052.227   113777055.269    21651059.578    88657494.2314   21651059.695  
                
  22547287.922   118486815.263    22547294.324    92327416.4444                 
                
  19736976.328   105357321.781                    81944586.886    19736979.492  
  19736974.750  
  21317983.211   114076812.507                    88726402.666    21317986.992  
  21317981.449  
  21635169.031   115733591.730                    90015042.925    21635172.770  
  21635166.801  
 21  8 14  6 47 10.0000000  0 15G15G26R16R 2G29G18G 5R 3R 9G10G23G16
                                R18R17R19
  23553343.781   123773675.632    23553352.820    96447057.6514   23553352.625  
                
  21430754.391   112619373.923    21430764.039    87755411.4074   21430763.953  
                
  21486820.703   114778740.008                    89272376.268    21486823.070  
  21486820.348  
  20944499.023   111763870.165                    86927492.152    20944502.184  
  20944496.953  
  21508576.570   113028324.698    21508584.129    88074046.4324   21508584.223  
                
  20202546.328   106165104.282    20202553.258    82726097.1254   20202553.141  
                
  22747401.375   119538401.439    22747408.477    93146845.0254   22747408.484  
                
  21391998.086   114513062.554                    89065723.547    21392002.637  
  21391996.906  
  21849273.195   116673920.665                    90746369.532    21849276.305  
  21849272.625  
  24242038.734   127392774.020    24242048.754    99267151.2184   24242048.633  
                
  21645699.648   113748927.309    21645706.973    88635576.3434   21645707.105  
                
  22543273.828   118465721.058    22543280.242    92310979.4084                 
                
  19736680.992   105355745.243                    81943360.687    19736684.156  
  19736679.422  
  21322372.406   114100299.831                    88744670.573    21322376.176  
  21322370.676  
  21630618.547   115709249.705                    89996110.252    21630622.273  
  21630616.277  
 21  8 14  6 47 20.0000000  0 15G15G26R16R 2G29G18G 5R 3R 9G10G23G16
                                R18R17R19
  23548939.609   123750531.891    23548948.699    96429023.6034   23548948.504  
                
  21431088.008   112621127.076    21431097.648    87756777.4904   21431097.570  
                
  21491784.859   114805257.611                    89293001.060    21491787.184  
  21491784.516  
  20945110.594   111767133.668                    86930030.447    20945113.781  
  20945108.504  
  21512421.148   113048528.126    21512428.730    88089789.3474   21512428.812  
                
  20202236.836   106163477.895    20202243.730    82724829.8134   20202243.641  
                
  22752771.688   119566622.531    22752778.828    93168835.4794   22752778.812  
                
  21385791.266   114479836.956                    89039881.411    21385795.797  
  21385790.105  
  21847423.945   116664045.792                    90738689.067    21847427.086  
  21847423.391  
  24235062.156   127356111.876    24235072.188    99238583.3454   24235072.043  
                
  21640355.266   113720842.441    21640362.570    88613692.0384   21640362.711  
                
  22539270.133   118444681.544    22539276.531    92294584.9854                 
                
  19736391.742   105354201.205                    81942159.766    19736394.891  
  19736390.176  
  21326765.281   114123806.914                    88762953.873    21326769.043  
  21326763.562  
  21626071.133   115684924.391                    89977190.555    21626074.910  
  21626068.902  
 21  8 14  6 47 30.0000000  0 15G15G26R16R 2G29G18G 5R 3R 9G10G23G16
                                R18R17R19
  23544543.094   123727428.338    23544552.207    96411020.8454   23544552.027  
                
  21431434.008   112622945.353    21431443.629    87758194.3274   21431443.578  
                
  21496761.039   114831839.394                    89313675.774    21496763.367  
  21496760.688  
  20945739.188   111770488.020                    86932639.375    20945742.387  
  20945737.055  
  21516272.648   113068767.865    21516280.223    88105560.5694   21516280.301  
                
  20201934.969   106161891.582    20201941.824    82723593.7254   20201941.770  
                
  22758150.055   119594886.011    22758157.266    93190858.9594   22758157.223  
                
  21379594.523   114446665.356                    89014081.293    21379599.051  
  21379593.379  
  21845590.844   116654257.216                    90731075.752    21845594.016  
  21845590.293  
  24228087.719   127319461.056    24228097.789    99210024.2894   24228097.602  
                
  21635019.164   113692801.087    21635026.453    88591841.6364   21635026.609  
                
  22535276.914   118423697.097    22535283.277    92278233.4614                 
                
  19736108.648   105352690.047                    81940984.424    19736111.801  
  19736107.082  
  21331161.914   114147334.182                    88781252.831    21331165.715  
  21331160.145  
  21621526.930   115660616.146                    89958284.187    21621530.746  
  21621524.723  
 21  8 14  6 47 40.0000000  0 15G15G26R16R 2G29G18G 5R 3R 9G10G23G16
                                R18R17R19
  23540154.242   123704365.051    23540163.383    96393049.4664   23540163.203  
                
  21431792.422   112624828.768    21431802.027    87759661.9244   21431801.984  
                
  21501749.219   114858485.209                    89334400.289    21501751.562  
  21501748.824  
  20946384.758   111773932.934                    86935318.763    20946387.973  
  20946382.598  
  21520131.062   113089043.929    21520138.617    88121360.1004   21520138.723  
                
  20201640.734   106160345.380    20201647.555    82722388.8924   20201647.523  
                
  22763536.477   119623191.762    22763543.734    93212915.3814   22763543.688  
                
  21373407.914   114413548.012                    88988323.385    21373412.465  
  21373406.750  
  21843773.930   116644554.996                    90723529.578    21843777.117  
  21843773.367  
  24221115.430   127282821.663    24221125.570    99181474.1394   24221125.344  
                
  21629691.367   113664803.356    21629698.664    88570025.2354   21629698.828  
                
  22531294.219   118402767.857    22531300.527    92261924.9704                 
                
  19735831.719   105351211.747                    81939834.641    19735834.855  
  19735830.152  
  21335562.297   114170881.464                    88799567.370    21335566.109  
  21335560.512  
  21616986.055   115636325.167                    89939391.218    21616989.777  
  21616983.816  
 21  8 14  6 47 50.0000000  0 15G15G26R16R 2G29G18G 5R 3R 9G10G23G16
                                R18R17R19
  23535773.031   123681341.964    23535782.191    96375109.4224   23535782.016  
                
  21432163.195   112626777.149    21432172.785    87761180.1394   21432172.758  
                
  21506749.320   114885194.790                    89355174.407    21506751.672  
  21506748.941  
  20947047.273   111777468.231                    86938068.442    20947050.465  
  20947045.082  
  21523996.344   113109356.122    21524003.891    88137187.7694   21524003.996  
                
  20201354.094   106158839.070    20201360.887    82721215.1454   20201360.883  
                
  22768930.906   119651539.596    22768938.172    93235004.5924   22768938.148  
                
  21367231.484   114380485.093                    88962607.789    21367236.043  
  21367230.293  
  21841973.180   116634939.120                    90716050.564    21841976.375  
  21841972.633  
  24214145.312   127246193.619    24214155.504    99152932.8314   24214155.238  
                
  21624371.859   113636849.167    21624379.168    88548242.7634   21624379.332  
                
  22527322.008   118381893.700    22527328.309    92245659.4054                 
                
  19735560.930   105349766.251                    81938710.368    19735564.055  
  19735559.367  
  21339966.430   114194448.788                    88817897.478    21339970.254  
  21339964.648  
  21612448.320   115612051.189                    89920511.440    21612452.000  
  21612446.043  
 21  8 14  6 48  0.0000000  0 15G15G26R16R 2G29G18G 5R 3R 9G10G23G16
                                R18R17R19
  23531399.508   123658359.196    23531408.684    96357200.7764   23531408.500  
                
  21432546.305   112628790.425    21432555.887    87762748.9214   21432555.867  
                
  21511761.367   114911968.127                    89375998.084    21511763.715  
  21511761.020  
  20947726.711   111781093.923                    86940888.415    20947729.910  
  20947724.516  
  21527868.484   113129704.328    21527875.992    88153043.4984   21527876.121  
                
  20201075.031   106157372.585    20201081.812    82720072.4254   20201081.816  
                
  22774333.320   119679929.363    22774340.609    93257126.4734   22774340.574  
                
  21361065.203   114347476.525                    88936934.475    21361069.754  
  21361064.012  
  21840188.578   116625409.478                    90708638.631    21840191.762  
  21840188.012  
  24207177.273   127209576.938    24207187.582    99124400.3764   24207187.301  
                
  21619060.633   113608938.532    21619067.961    88526494.2184   21619068.117  
                
  22523360.281   118361074.719    22523366.605    92229436.8274                 
                
  19735296.250   105348353.401                    81937611.493    19735299.367  
  19735294.688  
  21344374.289   114218036.010                    88836243.080    21344378.113  
  21344372.527  
  21607913.750   115587794.174                    89901644.887    21607917.387  
  21607911.477  
 21  8 14  6 48 10.0000000  0 15G15G26R16R 2G29G18G 5R 3R 9G10G23G16
                                R18R17R19
  23527033.766   123635417.050    23527042.941    96339323.7794   23527042.762  
                
  21432941.797   112630868.763    21432951.387    87764368.4064   21432951.367  
                
  21516785.273   114938804.840                    89396871.087    21516787.609  
  21516784.918  
  20948423.211   111784810.630                    86943779.189    20948426.402  
  20948421.000  
  21531747.508   113150088.703    21531754.957    88168927.4334   21531755.113  
                
  20200803.570   106155946.081    20200810.352    82718960.8644   20200810.359  
                
  22779743.719   119708361.084    22779751.023    93279281.0544   22779750.961  
                
  21354909.102   114314522.550                    88911303.629    21354913.645  
  21354907.883  
  21838420.172   116615966.333                    90701293.970    21838423.332  
  21838419.570  
  24200211.422   127172971.882    24200221.848    99095876.9914   24200221.551  
                
  21613757.750   113581071.721    21613765.109    88504779.8344   21613765.242  
                
  22519409.094   118340311.121    22519415.453    92213257.3974                 
                
  19735037.750   105346973.536                    81936538.261    19735040.844  
  19735036.188  
  21348785.875   114241643.303                    88854604.290    21348789.695  
  21348784.117  
  21603382.336   115563554.253                    89882791.629    21603385.965  
  21603380.035  
 21  8 14  6 48 20.0000000  0 15G15G26R16R 2G29G18G 5R 3R 9G10G23G16
                                R18R17R19
  23522675.750   123612515.514    23522684.938    96321478.4554   23522684.754  
                
  21433349.656   112633012.030    21433359.250    87766038.4754   21433359.223  
                
  21521821.031   114965704.870                    89417793.316    21521823.375  
  21521820.660  
  20949136.648   111788617.678                    86946740.217    20949139.855  
  20949134.434  
  21535633.414   113170509.204    21535640.832    88184839.5004   21535640.984  
                
  20200539.695   106154559.403    20200546.488    82717880.3364   20200546.492  
                
  22785162.062   119736834.543    22785169.371    93301468.1554   22785169.312  
                
  21348763.242   114281623.388                    88885715.403    21348767.781  
  21348761.992  
  21836667.953   116606609.576                    90694016.489    21836671.090  
  21836667.359  
  24193247.844   127136378.421    24193258.301    99067362.6254   24193258.000  
                
  21608463.195   113553248.677    21608470.574    88483099.5434   21608470.684  
                
  22515468.438   118319602.841    22515474.820    92197121.0854                 
                
  19734785.375   105345626.329                    81935490.438    19734788.469  
  19734783.805  
  21353201.195   114265270.524                    88872981.009    21353204.992  
  21353199.465  
  21598854.109   115539331.275                    89863951.523    21598857.703  
  21598851.801  
 21  8 14  6 48 30.0000000  0 15G15G26R16R 2G29G18G 5R 3R 9G10G23G16
                                R18R17R19
  23518325.477   123589654.859    23518334.668    96303664.9794   23518334.492  
                
  21433769.883   112635220.342    21433779.496    87767759.2484   21433779.469  
                
  21526868.648   114992668.323                    89438764.861    21526870.996  
  21526868.258  
  20949867.000   111792515.027                    86949771.490    20949870.207  
  20949864.770  
  21539526.203   113190965.921    21539533.602    88200779.7934   21539533.762  
                
  20200283.422   106153212.680    20200290.230    82716830.9394   20200290.227  
                
  22790588.328   119765349.655    22790595.641    93323687.7084   22790595.582  
                
  21342627.695   114248779.357                    88860170.038    21342632.238  
  21342626.449  
  21834931.938   116597339.369                    90686806.316    21834935.062  
  21834931.367  
  24186286.539   127099796.780    24186297.039    99038857.4814   24186296.730  
                
  21603177.016   113525469.618    21603184.395    88461453.5334   21603184.492  
                
  22511538.344   118298950.086    22511544.734    92181028.0354                 
                
  19734539.156   105344312.011                    81934468.185    19734542.262  
  19734537.598  
  21357620.234   114288917.743                    88891373.301    21357624.047  
  21357618.500  
  21594329.062   115515125.378                    89845124.741    21594332.707  
  21594326.758  
 21  8 14  6 48 40.0000000  0 15G15G26R16R 2G29G18G 5R 3R 9G10G23G16
                                R18R17R19
  23513982.961   123566834.922    23513992.125    96285883.2044   23513991.941  
                
  21434202.445   112637493.477    21434212.082    87769530.5184   21434212.039  
                
  21531928.047   115019694.645                    89459785.333    21531930.391  
  21531927.680  
  20950614.336   111796502.963                    86952873.204    20950617.531  
  20950612.082  
  21543425.836   113211458.568    21543433.207    88216748.0874   21543433.379  
                
  20200034.695   106151905.644    20200041.512    82715812.4794   20200041.504  
                
  22796022.445   119793906.080    22796029.746    93345939.4674   22796029.691  
                
  21336502.422   114215990.252                    88834667.419    21336506.977  
  21336501.176  
  21833212.094   116588155.559                    90679663.371    21833215.230  
  21833211.527  
  24179327.422   127063226.771    24179338.027    99010361.4174   24179337.711  
                
  21597899.172   113497734.414    21597906.586    88439841.6954   21597906.652  
                
  22507618.820   118278352.789    22507625.250    92164978.2044                 
                
  19734299.078   105343030.490                    81933471.447    19734302.191  
  19734297.508  
  21362043.016   114312584.880                    88909781.055    21362046.809  
  21362041.246  
  21589807.227   115490936.581                    89826311.273    21589810.914  
  21589804.926  
 21  8 14  6 48 50.0000000  0 16G15G26R16R 2G29G18G 5R 3R 9G10G23G16
                                R18R17G13R19
  23509648.203   123544055.600    23509657.336    96268133.0914   23509657.164  
                
  21434647.320   112639831.255    21434656.969    87771352.1544   21434656.898  
                
  21536999.156   115046783.581                    89480854.502    21537001.500  
  21536998.801  
  20951378.484   111800580.668                    86956044.751    20951381.707  
  20951376.211  
  21547332.273   113231986.979    21547339.648    88232744.2424   21547339.812  
                
  20199793.500   106150638.115    20199800.324    82714824.7914   20199800.305  
                
  22801464.398   119822503.709    22801471.684    93368223.3174   22801471.633  
                
  21330387.414   114183256.160                    88809207.576    21330391.961  
  21330386.191  
  21831508.414   116579058.062                    90672587.545    21831511.562  
  21831507.832  
  24172370.578   127026668.374    24172381.234    98981874.3954   24172380.902  
                
  21592629.656   113470042.972    21592637.121    88418263.9574   21592637.148  
                
  22503709.805   118257810.843    22503716.266    92148971.5004                 
                
  19734065.062   105341781.320                    81932499.870    19734068.184  
  19734063.500  
  21366469.469   114336271.598                    88928204.056    21366473.246  
  21366467.691  
  24506228.031   128781105.207    24506236.195   100348940.1484                 
                
  21585288.477   115466764.423                    89807510.733    21585292.184  
  21585286.176  
 21  8 14  6 49  0.0000000  0 16G15G26R16R 2G29G18G 5R 3R 9G10G23G16
                                R18R17G13R19
  23505321.055   123521316.283    23505330.125    96250414.1304   23505329.980  
                
  21435104.336   112642232.917    21435113.984    87773223.5784   21435113.910  
                
  21542081.852   115073934.397                    89501971.800    21542084.207  
  21542081.504  
  20952159.461   111804748.141                    86959286.119    20952162.664  
  20952157.191  
  21551245.375   113252550.428    21551252.750    88248767.7014   21551252.898  
                
  20199559.664   106149409.342    20199566.496    82713867.3054   20199566.480  
                
  22806914.031   119851141.681    22806921.301    93390538.6104   22806921.266  
                
  21324282.539   114150576.246                    88783789.884    21324287.066  
  21324281.340  
  21829820.750   116570046.046                    90665578.187    21829823.902  
  21829820.176  
  24165415.906   126990120.907    24165426.512    98953395.8794   24165426.168  
                
  21587368.344   113442394.613    21587375.844    88396719.7974   21587375.844  
                
  22499811.203   118237323.537    22499817.676    92133007.3724                 
                
  19733837.008   105340563.970                    81931553.044    19733840.141  
  19733835.449  
  21370899.430   114359977.238                    88946641.770    21370903.227  
  21370897.645  
  24503207.961   128765234.568    24503216.047   100336573.4014                 
                
  21580772.719   115442608.479                    89788722.739    21580776.449  
  21580770.434  
 21  8 14  6 49 10.0000000  0 16G15G26R16R 2G29G18G 5R 3R 9G10G23G16
                                R18R17G13R19
  23501001.938   123498619.078    23501010.957    96232727.9954   23501010.824  
                
  21435573.891   112644700.410    21435583.523    87775146.2964   21435583.453  
                
  21547176.430   115101148.589                    89523138.384    21547178.797  
  21547176.062  
  20952957.531   111809006.772                    86962598.385    20952960.723  
  20952955.273  
  21555165.523   113273150.859    21555172.910    88264819.9774   21555173.047  
                
  20199333.586   106148221.250    20199340.418    82712941.5234   20199340.398  
                
  22812371.719   119879821.862    22812378.984    93412886.7944   22812378.941  
                
  21318188.219   114117952.846                    88758416.122    21318192.734  
  21318187.070  
  21828149.492   116561121.629                    90658636.971    21828152.645  
  21828148.898  
  24158463.633   126953586.391    24158474.234    98924927.4604   24158473.879  
                
  21582115.625   113414791.396    21582123.141    88375210.7984   21582123.121  
                
  22495923.383   118216892.932    22495929.891    92117087.4204                 
                
  19733615.273   105339380.329                    81930632.430    19733618.414  
  19733613.730  
  21375333.305   114383703.752                    88965095.698    21375337.109  
  21375331.508  
  24500197.188   128749412.940    24500205.246   100324244.8464                 
                
  21576260.367   115418470.556                    89769948.798    21576264.105  
  21576258.039  
 21  8 14  6 49 20.0000000  0 16G15G26R16R 2G29G18G 5R 3R 9G10G23G16
                                R18R17G13R19
  23496690.664   123475963.261    23496699.707    96215074.1364   23496699.559  
                
  21436055.812   112647232.885    21436065.426    87777119.6574   21436065.355  
                
  21552282.727   115128425.493                    89544353.732    21552285.117  
  21552282.344  
  20953772.555   111813355.897                    86965981.039    20953775.746  
  20953770.309  
  21559092.539   113293787.418    21559099.949    88280900.3994   21559100.082  
                
  20199115.078   106147072.990    20199121.914    82712046.7734   20199121.898  
                
  22817837.258   119908543.296    22817844.516    93435267.1274   22817844.496  
                
  21312104.320   114085385.262                    88733085.780    21312108.824  
  21312103.223  
  21826494.484   116552283.941                    90651763.218    21826497.656  
  21826493.883  
  24151513.695   126917064.105    24151524.238    98896468.5574   24151523.898  
                
  21576871.352   113387232.570    21576878.914    88353736.4044   21576878.875  
                
  22492046.219   118196518.290    22492052.758    92101211.0764                 
                
  19733399.719   105338229.681                    81929737.483    19733402.863  
  19733398.172  
  21379770.922   114407450.226                    88983565.176    21379774.723  
  21379769.152  
  24497195.570   128733639.552    24497203.629   100311953.9024                 
                
  21571751.289   115394350.085                    89751188.448    21571755.074  
  21571748.973  
 21  8 14  6 49 30.0000000  0 16G15G26R16R 2G29G18G 5R 3R 9G10G23G16
                                R18R17G13R19
  23492387.289   123453349.029    23492396.422    96197452.6984   23492396.238  
                
  21436550.109   112649830.435    21436559.707    87779143.7194   21436559.652  
                
  21557400.727   115155764.848                    89565617.660    21557403.094  
  21557400.324  
  20954604.555   111817795.619                    86969434.166    20954607.723  
  20954602.301  
  21563026.430   113314460.143    21563033.859    88297009.0174   21563033.988  
                
  20198904.164   106145964.616    20198910.992    82711183.1034   20198910.988  
                
  22823310.625   119937305.951    22823317.855    93457679.5814   22823317.859  
                
  21306030.930   114052873.847                    88707799.139    21306035.418  
  21306029.820  
  21824855.750   116543533.190                    90644957.084    21824858.926  
  21824855.152  
  24144566.055   126880554.193    24144576.559    98868019.2894   24144576.254  
                
  21571635.547   113359718.291    21571643.156    88332296.7144   21571643.094  
                
  22488179.719   118176199.727    22488186.289    92085378.4444                 
                
  19733190.359   105337112.095                    81928868.247    19733193.508  
  19733188.809  
  21384212.266   114431216.733                    89002050.206    21384216.078  
  21384210.496  
  24494203.180   128717914.473    24494211.105   100299700.5854                 
                
  21567245.391   115370246.740                    89732441.415    21567249.184  
  21567243.137  
 21  8 14  6 49 40.0000000  0 16G15G26R16R 2G29G18G 5R 3R 9G10G23G16
                                R18R17G13R19
  23488091.844   123430776.373    23488101.043    96179863.6414   23488100.852  
                
  21437056.766   112652492.870    21437066.352    87781218.3474   21437066.312  
                
  21562530.367   115183166.365                    89586929.941    21562532.746  
  21562529.957  
  20955453.523   111822325.861                    86972957.683    20955456.676  
  20955451.293  
  21566967.180   113335168.891    21566974.621    88313145.6934   21566974.758  
                
  20198700.805   106144895.979    20198707.633    82710350.3974   20198707.633  
                
  22828791.805   119966109.611    22828799.012    93480123.9834   22828799.035  
                
  21299967.992   114020418.526                    88682556.130    21299972.492  
  21299966.855  
  21823233.258   116534869.190                    90638218.432    21823236.430  
  21823232.676  
  24137620.758   126844056.604    24137631.188    98839579.6214   24137630.938  
                
  21566408.219   113332248.506    21566415.848    88310891.6934   21566415.785  
                
  22484323.898   118155937.271    22484330.480    92069589.5234                 
                
  19732987.156   105336027.388                    81928024.601    19732990.309  
  19732985.586  
  21388657.305   114455003.055                    89020550.660    21388661.145  
  21388655.562  
  24491219.984   128702237.664    24491227.781   100287484.9244                 
                
  21562742.766   115346160.684                    89713707.836    21562746.570  
  21562740.520  
 21  8 14  6 49 50.0000000  0 16G15G26R16R 2G29G18G 5R 3R 9G10G23G16
                                R18R17G13R19
  23483804.336   123408245.246    23483813.527    96162306.9164   23483813.332  
                
  21437575.727   112655220.030    21437585.312    87783343.4024   21437585.262  
                
  21567671.594   115210629.823                    89608290.410    21567673.949  
  21567671.199  
  20956319.398   111826946.377                    86976551.423    20956322.523  
  20956317.152  
  21570914.773   113355913.606    21570922.234    88329310.3894   21570922.371  
                
  20198504.969   106143866.850    20198511.793    82709548.4844   20198511.801  
                
  22834280.727   119994954.049    22834287.926    93502600.1584   22834287.938  
                
  21293915.508   113988019.148                    88657356.614    21293919.984  
  21293914.352  
  21821626.992   116526291.809                    90631547.135    21821630.164  
  21821626.418  
  24130677.758   126807571.247    24130688.164    98811149.4874   24130687.977  
                
  21561189.320   113304823.115    21561196.988    88289521.2654   21561196.922  
                
  22480478.727   118135730.755    22480485.293    92053844.1874                 
                
  19732790.039   105334975.204                    81927206.232    19732793.199  
  19732788.484  
  21393106.078   114478809.247                    89039066.581    21393109.922  
  21393104.359  
  24488245.992   128686609.146    24488253.625   100275306.8494                 
                
  21558243.305   115322091.699                    89694987.513    21558247.121  
  21558241.117  
 21  8 14  6 50  0.0000000  0 16G15G26R16R 2G29G18G 5R 3R 9G10G23G16
                                R18R17G13R19
  23479524.773   123385755.990    23479533.977    96144782.8304   23479533.797  
                
  21438107.055   112658012.175    21438116.648    87785519.0994   21438116.582  
                
  21572824.438   115238155.395                    89629699.160    21572826.812  
  21572824.047  
  20957202.211   111831657.196                    86980215.390    20957205.320  
  20957199.988  
  21574869.242   113376694.413    21574876.730    88345503.2214   21574876.855  
                
  20198316.711   106142877.525    20198323.531    82708777.5794   20198323.543  
                
  22839777.430   120023839.380    22839784.598    93525108.2084   22839784.629  
                
  21287873.602   113955676.396                    88632201.139    21287878.027  
  21287872.465  
  21820037.008   116517801.408                    90624943.483    21820040.156  
  21820036.480  
  24123737.188   126771098.466    24123747.578    98782729.1634   24123747.422  
                
  21555978.945   113277442.465    21555986.688    88268185.7194   21555986.598  
                
  22476644.273   118115580.559    22476650.816    92038142.7384                 
                
  19732599.133   105333956.102                    81926413.598    19732602.312  
  19732597.582  
  21397558.586   114502635.422                    89057598.036    21397562.426  
  21397556.840  
  24485281.258   128671029.331    24485288.770   100263166.7154                 
                
  21553747.125   115298040.151                    89676280.762    21553750.918  
  21553744.973  
 21  8 14  6 50 10.0000000  0 16G15G26R16R 2G29G18G 5R 3R 9G10G23G16
                                R18R17G13R19
  23475253.172   123363308.500    23475262.430    96127291.2894   23475262.234  
                
  21438650.703   112660869.060    21438660.312    87787745.2434   21438660.234  
                
  21577988.805   115265742.492                    89651155.798    21577991.184  
  21577988.430  
  20958101.922   111836458.245                    86983949.535    20958105.012  
  20958099.707  
  21578830.500   113397510.935    21578838.004    88361723.8854   21578838.109  
                
  20198135.961   106141927.714    20198142.777    82708037.4724   20198142.793  
                
  22845281.836   120052765.234    22845289.020    93547647.8224   22845289.043  
                
  21281842.242   113923390.068                    88607089.557    21281846.633  
  21281841.074  
  21818463.273   116509397.755                    90618407.315    21818466.406  
  21818462.746  
  24116799.047   126734638.135    24116809.363    98754318.5314   24116809.211  
                
  21550777.055   113250106.421    21550784.859    88246884.9264   21550784.746  
                
  22472820.508   118095486.526    22472827.023    92022485.0444                 
                
  19732414.352   105332969.765                    81925646.443    19732417.527  
  19732412.801  
  21402014.758   114526481.317                    89076144.851    21402018.613  
  21402012.996  
  24482325.719   128655497.956    24482333.211   100251064.3524                 
                
  21549254.133   115274005.565                    89657587.220    21549257.871  
  21549251.973  
 21  8 14  6 50 20.0000000  0 16G15G26R16R 2G29G18G 5R 3R 9G10G23G16
                                R18R17G13R19
  23470989.508   123340902.852    23470998.832    96109832.3634   23470998.633  
                
  21439206.672   112663790.682    21439216.289    87790021.8344   21439216.215  
                
  21583164.703   115293391.190                    89672660.329    21583167.070  
  21583164.324  
  20959018.562   111841349.588                    86987753.929    20959021.656  
  20959016.371  
  21582798.578   113418363.297    21582806.094    88377972.4594   21582806.207  
                
  20197962.750   106141017.451    20197969.551    82707328.1714   20197969.566  
                
  22850793.961   120081731.598    22850801.195    93570218.9914   22850801.203  
                
  21275821.422   113891160.234                    88582021.918    21275825.816  
  21275820.238  
  21816905.797   116501080.892                    90611938.653    21816908.898  
  21816905.242  
  24109863.297   126698190.383    24109873.570    98725917.7004   24109873.406  
                
  21545583.680   113222815.096    21545591.488    88225618.9524   21545591.383  
                
  22469007.445   118075448.786    22469013.965    92006871.2344                 
                
  19732235.727   105332016.240                    81924904.818    19732238.910  
  19732234.180  
  21406474.648   114550346.984                    89094707.009    21406478.492  
  21406472.879  
  24479379.398   128640015.117    24479386.953   100238999.8184                 
                
  21544764.320   115249988.090                    89638906.949    21544768.020  
  21544762.191  
 21  8 14  6 50 30.0000000  0 16G15G26R16R 2G29G18G 5R 3R 9G10G23G16
                                R18R17G13R19
  23466733.867   123318539.356    23466743.230    96092406.2984   23466743.027  
                
  21439774.984   112666777.199    21439784.602    87792348.9904   21439784.539  
                
  21588352.102   115321101.357                    89694212.665    21588354.484  
  21588351.719  
  20959952.109   111846331.143                    86991628.472    20959955.215  
  20959949.945  
  21586773.492   113439251.540    21586781.016    88394249.0014   21586781.125  
                
  20197797.070   106140146.828    20197803.855    82706649.7664   20197803.887  
                
  22856313.750   120110738.336    22856321.016    93592821.6304   22856321.020  
                
  21269811.250   113858987.345                    88556998.557    21269815.621  
  21269810.055  
  21815364.609   116492851.010                    90605537.621    21815367.688  
  21815364.055  
  24102929.945   126661755.400    24102940.215    98697526.8164   24102940.055  
                
  21540398.852   113195568.692    21540406.652    88204387.9924   21540406.555  
                
  22465205.133   118055467.539    22465211.668    91991301.4384                 
                
  19732063.266   105331095.633                    81924188.794    19732066.457  
  19732061.723  
  21410938.250   114574232.574                    89113284.690    21410942.125  
  21410936.477  
  24476442.391   128624581.014    24476449.949   100226973.2184                 
                
  21540277.734   115225987.904                    89620240.144    21540281.410  
  21540275.598  
 21  8 14  6 50 40.0000000  0 16G15G26R16R 2G29G18G 5R 3R 9G10G23G16
                                R18R17G13R19
  23462486.289   123296218.068    23462495.609    96075013.0764   23462495.430  
                
  21440355.617   112669828.443    21440365.238    87794726.5774   21440365.188  
                
  21593550.953   115348872.696                    89715812.590    21593553.328  
  21593550.551  
  20960902.578   111851403.027                    86995573.270    20960905.711  
  20960900.434  
  21590755.227   113460175.689    21590762.750    88410553.5274   21590762.867  
                
  20197638.914   106139315.731    20197645.688    82706002.1554   20197645.730  
                
  22861841.219   120139785.411    22861848.516    93615455.7104   22861848.500  
                
  21263811.711   113826871.459                    88532019.536    21263816.066  
  21263810.504  
  21813839.695   116484708.030                    90599204.182    21813842.770  
  21813839.145  
  24095999.039   126625333.194    24096009.309    98669145.9054   24096009.148  
                
  21535222.562   113168367.172    21535230.383    88183192.0144   21535230.293  
                
  22461413.555   118035542.672    22461420.094    91975775.5674                 
                
  19731896.961   105330207.894                    81923498.331    19731900.160  
  19731895.418  
  21415405.547   114598137.895                    89131877.696    21415409.410  
  21415403.785  
  24473514.648   128609195.706    24473522.297   100214984.6974                 
                
  21535794.422   115202005.008                    89601586.794    21535798.027  
  21535792.199  
 21  8 14  6 50 50.0000000  0 16G15G26R16R 2G29G18G 5R 3R 9G10G23G16
                                R18R17G13R19
  23458246.781   123273939.240    23458256.062    96057652.9404   23458255.895  
                
  21440948.602   112672944.603    21440958.227    87797154.7564   21440958.180  
                
  21598761.320   115376705.532                    89737460.332    21598763.707  
  21598760.910  
  20961869.930   111856564.947                    86999588.085    20961873.074  
  20961867.801  
  21594743.828   113481135.886    21594751.367    88426886.1324   21594751.492  
                
  20197488.312   106138524.298    20197495.078    82705385.4624   20197495.125  
                
  22867376.375   120168872.845    22867383.691    93638121.2324   22867383.680  
                
  21257822.852   113794812.797                    88507085.044    21257827.234  
  21257821.590  
  21812331.102   116476652.168                    90592938.514    21812334.188  
  21812330.578  
  24089070.516   126588924.001    24089080.895    98640775.1364   24089080.680  
                
  21530054.875   113141210.800    21530062.711    88162031.2174   21530062.617  
                
  22457632.758   118015674.477    22457639.301    91960293.8684                 
                
  19731736.820   105329353.096                    81922833.489    19731740.023  
  19731735.270  
  21419876.570   114622063.150                    89150486.215    21419880.418  
  21419874.832  
  24470596.211   128593859.473    24470603.965   100203034.3874                 
                
  21531314.352   115178039.692                    89582947.102    21531317.965  
  21531312.133  
 21  8 14  6 51  0.0000000  0 16G15G26R16R 2G29G18G 5R 3R 9G10G23G16
                                R18R17G13R19
  23454015.352   123251702.935    23454024.645    96040325.9484   23454024.465  
                
  21441553.922   112676125.566    21441563.551    87799633.4344   21441563.500  
                
  21603983.070   115404599.213                    89759155.405    21603985.477  
  21603982.699  
  20962854.172   111861817.027                    87003673.038    20962857.316  
  20962852.051  
  21598739.258   113502131.996    21598746.820    88443246.7294   21598746.941  
                
  20197345.234   106137772.434    20197352.004    82704799.5914   20197352.047  
                
  22872919.195   120198000.573    22872926.520    93660818.1594   22872926.527  
                
  21251844.711   113762811.549                    88482195.198    21251849.141  
  21251843.418  
  21810838.812   116468683.360                    90586740.566    21810841.910  
  21810838.320  
  24082144.484   126552527.799    24082154.957    98612414.4754   24082154.711  
                
  21524895.766   113114099.574    21524903.598    88140905.5914   21524903.504  
                
  22453862.758   117995863.017    22453869.312    91944856.3694                 
                
  19731582.883   105328531.333                    81922194.342    19731586.078  
  19731581.324  
  21424351.312   114646008.277                    89169110.175    21424355.133  
  21424349.586  
  24467687.164   128578572.366    24467694.988   100191122.3654                 
                
  21526837.539   115154091.740                    89564320.942    21526841.172  
  21526835.344  
 21  8 14  6 51 10.0000000  0 16G15G26R16R 2G29G18G 5R 3R 9G10G23G16
                                R18R17G13R19
  23449791.992   123229509.018    23449801.258    96023031.9994   23449801.070  
                
  21442171.531   112679371.106    21442181.160    87802162.4204   21442181.109  
                
  21609216.227   115432553.782                    89780897.835    21609218.668  
  21609215.863  
  20963855.391   111867159.719                    87007828.468    20963858.539  
  20963853.266  
  21602741.484   113523163.818    21602749.051    88459635.1574   21602749.184  
                
  20197209.648   106137059.875    20197216.430    82704244.3494   20197216.469  
                
  22878469.609   120227168.227    22878476.938    93683546.1824   22878476.945  
                
  21245877.266   113730867.473                    88457349.798    21245881.711  
  21245875.938  
  21809362.797   116460801.506                    90580610.234    21809365.895  
  21809362.316  
  24075220.938   126516144.465    24075231.430    98584063.8414   24075231.176  
                
  21519745.227   113087033.341    21519753.059    88119815.0294   21519752.961  
                
  22450103.523   117976108.122    22450110.062    91929462.9404                 
                
  19731435.070   105327742.288                    81921580.640    19731438.262  
  19731433.512  
  21428829.703   114669973.010                    89187749.383    21428833.504  
  21428827.969  
  24464787.422   128563334.175    24464795.305   100179248.4434                 
                
  21522363.938   115130160.967                    89545708.120    21522367.555  
  21522361.723  
 21  8 14  6 51 20.0000000  0 16G15G26R16R 2G29G18G 5R 3R 9G10G23G16
                                R18R17G13R19
  23445576.719   123207357.849    23445586.012    96005771.3494   23445585.820  
                
  21442801.469   112682681.441    21442811.121    87804741.9064   21442811.059  
                
  21614460.742   115460568.975                    89802687.415    21614463.199  
  21614460.410  
  20964873.430   111872592.141                    87012053.684    20964876.582  
  20964871.324  
  21606750.531   113544231.518    21606758.105    88476051.5384   21606758.230  
                
  20197081.562   106136386.835    20197088.359    82703719.9114   20197088.383  
                
  22884027.609   120256375.759    22884034.965    93706305.2914   22884034.965  
                
  21239920.594   113698981.100                    88432549.282    21239925.055  
  21239919.227  
  21807903.094   116453006.759                    90574547.667    21807906.176  
  21807902.605  
  24068299.898   126479774.319    24068310.375    98555723.4744   24068310.141  
                
  21514603.297   113060012.413    21514611.129    88098759.7714   21514611.031  
                
  22446355.117   117956410.130    22446361.629    91914113.8674                 
                
  19731293.398   105326986.060                    81920992.457    19731296.582  
  19731291.840  
  21433311.805   114693957.560                    89206404.044    21433315.594  
  21433310.086  
  24461897.062   128548145.241    24461904.961   100167412.9324                 
                
  21517893.531   115106247.345                    89527108.661    21517897.125  
  21517891.312  
 21  8 14  6 51 30.0000000  0 16G15G26R16R 2G29G18G 5R 3R 9G10G23G16
                                R18R17G13R19
  23441369.602   123185249.347    23441378.840    95988543.9504   23441378.633  
                
  21443443.695   112686056.389    21443453.387    87807371.7334   21443453.293  
                
  21619716.586   115488644.701                    89824524.079    21619719.066  
  21619716.262  
  20965908.367   111878114.813                    87016349.100    20965911.523  
  20965906.262  
  21610766.398   113565335.049    21610774.012    88492495.8314   21610774.117  
                
  20196960.977   106135753.159    20196967.789    82703226.1384   20196967.797  
                
  22889593.164   120285622.964    22889600.535    93729095.3084   22889600.531  
                
  21233974.695   113667152.468                    88407793.689    21233979.176  
  21233973.332  
  21806459.688   116445299.008                    90568552.741    21806462.746  
  21806459.168  
  24061381.367   126443417.291    24061391.863    98527393.3344   24061391.621  
                
  21509469.977   113033036.719    21509477.805    88077739.7664   21509477.699  
                
  22442617.523   117936769.002    22442624.016    91898809.1074                 
                
  19731157.906   105326262.818                    81920429.939    19731161.098  
  19731156.352  
  21437797.562   114717961.730                    89225073.929    21437801.324  
  21437795.840  
  24459016.055   128533005.481    24459023.910   100155615.7134                 
                
  21513426.430   115082351.296                    89508522.835    21513429.988  
  21513424.234  
 21  8 14  6 51 40.0000000  0 16G15G26R16R 2G29G18G 5R 3R 9G10G23G16
                                R18R17G13R19
  23437170.680   123163183.818    23437179.836    95971350.0044   23437179.590  
                
  21444098.266   112689496.133    21444107.988    87810052.0524   21444107.871  
                
  21624983.750   115516780.899                    89846407.781    21624986.270  
  21624983.414  
  20966960.172   111883727.420                    87020714.466    20966963.301  
  20966958.090  
  21614789.102   113586474.440    21614796.762    88508968.0774   21614796.820  
                
  20196847.914   106135159.018    20196854.738    82702763.1724   20196854.738  
                
  22895166.297   120314909.946    22895173.672    93751916.3274   22895173.676  
                
  21228039.648   113635381.765                    88383083.142    21228044.152  
  21228038.293  
  21805032.625   116437678.523                    90562625.698    21805035.672  
  21805032.078  
  24054465.344   126407073.636    24054475.945    98499073.6294   24054475.680  
                
  21504345.328   113006106.539    21504353.141    88056755.2174   21504353.035  
                
  22438890.805   117917184.957    22438897.270    91883548.8104                 
                
  19731028.609   105325572.583                    81919893.100    19731031.816  
  19731027.059  
  21442287.070   114741985.883                    89243759.370    21442290.820  
  21442285.352  
  24456144.484   128517915.250    24456152.324   100143857.0904                 
                
  21508962.555   115058472.513                    89489950.433    21508966.078  
  21508960.395  
 21  8 14  6 51 50.0000000  0 16G15G26R16R 2G29G18G 5R 3R 9G10G23G16
                                R18R17G13R19
  23432979.914   123141161.148    23432989.043    95954189.4864   23432988.766  
                
  21444765.117   112693000.476    21444774.871    87812782.7104   21444774.742  
                
  21630262.148   115544977.178                    89868338.207    21630264.695  
  21630261.801  
  20968028.844   111889430.071                    87025149.851    20968031.977  
  20968026.762  
  21618818.586   113607649.529    21618826.254    88525468.1354   21618826.312  
                
  20196742.328   106134604.178    20196749.152    82702330.8284   20196749.148  
                
  22900746.945   120344236.473    22900754.309    93774768.1554   22900754.336  
                
  21222115.438   113603669.172                    88358417.803    21222119.938  
  21222114.039  
  21803621.867   116430145.141                    90556766.411    21803624.887  
  21803621.324  
  24047551.852   126370743.266    24047562.516    98470764.2834   24047562.234  
                
  21499229.312   112979221.747    21499237.078    88035806.0334   21499236.973  
                
  22435174.906   117897657.847    22435181.309    91868332.8704                 
                
  19730905.438   105324915.066                    81919381.708    19730908.656  
  19730903.887  
  21446780.219   114766029.633                    89262460.073    21446783.961  
  21446778.488  
  24453282.289   128502874.369    24453290.141   100132136.9084                 
                
  21504501.930   115034611.145                    89471391.625    21504505.457  
  21504499.797  
 21  8 14  6 52  0.0000000  0 16G15G26R16R 2G29G18G 5R 3R 9G10G23G16
                                R18R17G13R19
  23428797.312   123119181.544    23428806.461    95937062.5394   23428806.152  
                
  21445444.258   112696569.373    21445454.043    87815563.6664   21445453.906  
                
  21635551.828   115573233.595                    89890315.399    21635554.348  
  21635551.480  
  20969114.391   111895222.733                    87029655.267    20969117.543  
  20969112.328  
  21622854.859   113628860.313    21622862.500    88541996.0084   21622862.586  
                
  20196644.219   106134088.623    20196651.039    82701929.1014   20196651.039  
                
  22906335.102   120373602.413    22906342.477    93797650.6994   22906342.504  
                
  21216202.070   113572014.621                    88333797.595    21216206.539  
  21216200.652  
  21802227.406   116422698.835                    90550974.836    21802230.398  
  21802226.852  
  24040640.992   126334426.264    24040651.648    98442465.3344   24040651.352  
                
  21494121.945   112952382.411    21494129.672    88014892.2784   21494129.574  
                
  22431469.859   117878187.691    22431476.203    91853161.3304                 
                
  19730788.414   105324290.398                    81918895.845    19730791.629  
  19730786.871  
  21451277.031   114790092.983                    89281176.004    21451280.812  
  21451275.277  
  24450429.500   128487882.938    24450437.383   100120455.2724                 
                
  21500044.477   115010766.865                    89452846.089    21500048.055  
  21500042.293  
 21  8 14  6 52 10.0000000  0 16G15G26R16R 2G29G18G 5R 3R 9G10G23G16
                                R18R17G13R19
  23424622.977   123097245.369    23424632.129    95919969.4154   23424631.812  
                
  21446135.734   112700203.087    21446145.559    87818395.1264   21446145.406  
                
  21640852.750   115601550.069                    89912339.323    21640855.270  
  21640852.395  
  20970216.836   111901105.576                    87034230.816    20970219.980  
  20970214.777  
  21626897.984   113650107.010    21626905.617    88558551.8684   21626905.711  
                
  20196553.641   106133612.579    20196560.438    82701558.1554   20196560.449  
                
  22911930.789   120403007.980    22911938.219    93820564.1234   22911938.211  
                
  21210299.648   113540418.648                    88309222.965    21210304.086  
  21210298.215  
  21800849.305   116415339.815                    90545251.163    21800852.289  
  21800848.758  
  24033732.750   126298122.956    24033743.367    98414177.0544   24033743.055  
                
  21489023.305   112925588.886    21489031.020    87994014.2214   21489030.918  
                
  22427775.719   117858774.887    22427782.016    91838034.4804                 
                
  19730677.602   105323698.864                    81918435.760    19730680.809  
  19730676.074  
  21455777.562   114814176.215                    89299907.399    21455781.379  
  21455775.781  
  24447586.188   128472941.294    24447594.129   100108812.4564                 
                
  21495590.367   114986940.454                    89434314.453    21495593.980  
  21495588.133  
 21  8 14  6 52 20.0000000  0 16G15G26R16R 2G29G18G 5R 3R 9G10G23G16
                                R18R17G13R19
  23420456.867   123075352.375    23420465.992    95902909.9234   23420465.680  
                
  21446839.469   112703901.254    21446849.328    87821276.8154   21446849.152  
                
  21646164.797   115629926.083                    89934409.540    21646167.340  
  21646164.430  
  20971336.164   111907078.551                    87038876.453    20971339.305  
  20971334.129  
  21630947.859   113671389.286    21630955.508    88575135.4494   21630955.590  
                
  20196470.500   106133175.700    20196477.273    82701217.7294   20196477.305  
                
  22917533.930   120432452.747    22917541.422    93843508.0514   22917541.379  
                
  21204408.094   113508880.908                    88284693.619    21204412.539  
  21204406.645  
  21799487.500   116408067.907                    90539595.238    21799490.480  
  21799486.949  
  24026827.055   126261833.115    24026837.621    98385899.2614   24026837.297  
                
  21483933.320   112898840.931    21483941.035    87973171.6594   21483940.930  
                
  22424092.438   117839419.204    22424098.695    91822952.1394                 
                
  19730572.938   105323140.165                    81918001.224    19730576.148  
  19730571.422  
  21460281.742   114838279.052                    89318654.022    21460285.578  
  21460279.926  
  24444752.297   128458049.234    24444760.316   100097208.2774                 
                
  21491139.477   114963131.227                    89415796.163    21491143.082  
  21491137.211  
 21  8 14  6 52 30.0000000  0 16G15G26R16R 2G29G18G 5R 3R 9G10G23G16
                                R18R17G13R19
  23416299.023   123053502.875    23416308.152    95885884.3344   23416307.859  
                
  21447555.508   112707664.080    21447565.398    87824208.8824   21447565.207  
                
  21651488.055   115658361.873                    89956526.252    21651490.590  
  21651487.734  
  20972472.336   111913141.335                    87043591.934    20972475.484  
  20972470.312  
  21635004.555   113692707.299    21635012.191    88591746.8754   21635012.285  
                
  20196394.852   106132778.167    20196401.598    82700907.9634   20196401.652  
                
  22923144.531   120461936.684    22923152.066    93866482.5334   22923152.012  
                
  21198527.516   113477401.934                    88260209.966    21198531.961  
  21198526.066  
  21798142.062   116400883.354                    90534007.271    21798145.051  
  21798141.508  
  24019923.953   126225557.021    24019934.500    98357632.1984   24019934.156  
                
  21478852.070   112872138.809    21478859.781    87952364.8174   21478859.672  
                
  22420420.078   117820120.893    22420426.281    91807914.4984                 
                
  19730474.461   105322614.508                    81917592.376    19730477.680  
  19730472.941  
  21464789.625   114862401.632                    89337416.009    21464793.488  
  21464787.809  
  24441927.906   128443207.027    24441936.000   100085642.9334                 
                
  21486691.891   114939339.627                    89397291.583    21486695.492  
  21486689.590  
 21  8 14  6 52 40.0000000  0 16G15G26R16R 2G29G18G 5R 3R 9G10G23G16
                                R18R17G13R19
  23412149.461   123031696.910    23412158.602    95868892.6594   23412158.336  
                
  21448283.859   112711491.574    21448293.762    87827191.3494   21448293.566  
                
  21656822.461   115686857.158                    89978689.258    21656824.984  
  21656822.129  
  20973625.344   111919293.958                    87048377.326    20973628.504  
  20973623.309  
  21639068.055   113714061.110    21639075.676    88608386.2034   21639075.797  
                
  20196326.695   106132419.989    20196333.418    82700628.8724   20196333.492  
                
  22928762.602   120491459.857    22928770.141    93889487.5964   22928770.105  
                
  21192657.961   113445981.881                    88235772.154    21192662.445  
  21192656.500  
  21796812.992   116393786.185                    90528487.255    21796815.980  
  21796812.426  
  24013023.477   126189294.778    24013034.020    98329375.9284   24013033.656  
                
  21473779.570   112845482.649    21473787.293    87931593.7914   21473787.172  
                
  22416758.672   117800880.116    22416764.816    91792921.6834                 
                
  19730382.172   105322121.836                    81917209.191    19730385.395  
  19730380.652  
  21469301.195   114886543.929                    89356193.337    21469305.070  
  21469299.379  
  24439113.000   128428414.769    24439121.211   100074116.5184                 
                
  21482247.547   114915565.355                    89378800.499    21482251.129  
  21482245.223  
 21  8 14  6 52 50.0000000  0 16G15G26R16R 2G29G18G 5R 3R 9G10G23G16
                                R18R17G13R19
  23408008.133   123009934.405    23408017.387    95851934.8984   23408017.113  
                
  21449024.461   112715383.479    21449034.355    87830224.0044   21449034.160  
                
  21662167.930   115715411.670                    90000898.299    21662170.453  
  21662167.590  
  20974795.164   111925536.371                    87053232.540    20974798.324  
  20974793.109  
  21643138.336   113735450.454    21643145.980    88625053.2234   21643146.070  
                
  20196265.984   106132100.935    20196272.672    82700380.2594   20196272.770  
                
  22934388.094   120521021.982    22934395.586    93912523.0254   22934395.594  
                
  21186799.406   113414620.705                    88211380.133    21186803.906  
  21186797.938  
  21795500.250   116386776.219                    90523035.038    21795503.227  
  21795499.691  
  24006125.641   126153046.263    24006136.133    98301130.3544   24006135.773  
                
  21468715.766   112818872.267    21468723.496    87910858.4434   21468723.355  
                
  22413108.180   117781696.687    22413114.266    91777973.5504                 
                
  19730296.023   105321661.968                    81916851.518    19730299.242  
  19730294.500  
  21473816.445   114910705.846                    89374985.923    21473820.305  
  21473814.641  
  24436307.578   128413672.336    24436315.859   100062628.9284                 
                
  21477806.422   114891808.389                    89360322.884    21477810.012  
  21477804.105  
 21  8 14  6 53  0.0000000  0 16G15G26R16R 2G29G18G 5R 3R 9G10G23G16
                                R18R17G13R19
  23403875.195   122988215.786    23403884.484    95835011.3194   23403884.215  
                
  21449777.367   112719340.047    21449787.238    87833307.0434   21449787.062  
                
  21667524.477   115744025.374                    90023153.388    21667527.004  
  21667524.129  
  20975981.906   111931869.025                    87058157.943    20975985.059  
  20975979.840  
  21647215.406   113756875.576    21647223.078    88641748.1174   21647223.148  
                
  20196212.742   106131821.193    20196219.406    82700162.2774   20196219.520  
                
  22940021.008   120550623.112    22940028.453    93935588.8334   22940028.492  
                
  21180951.930   113383318.835                    88187034.270    21180956.445  
  21180950.465  
  21794203.883   116379853.667                    90517650.817    21794206.859  
  21794203.332  
  23999230.469   126116811.784    23999240.867    98272895.7004   23999240.535  
                
  21463660.742   112792307.991    21463668.441    87890159.0194   21463668.312  
                
  22409468.656   117762570.930    22409474.711    91763070.3734                 
                
  19730216.055   105321235.121                    81916519.523    19730219.281  
  19730214.523  
  21478335.367   114934887.491                    89393793.861    21478339.230  
  21478333.535  
  24433511.719   128398980.069    24433520.031   100051180.4384                 
                
  21473368.609   114868069.178                    89341859.065    21473372.211  
  21473366.277  
 21  8 14  6 53 10.0000000  0 16G15G26R16R 2G29G18G 5R 3R 9G10G23G16
                                R18R17G13R19
  23399750.625   122966541.176    23399759.965    95818122.0024   23399759.691  
                
  21450542.562   112723361.212    21450552.414    87836440.4184   21450552.238  
                
  21672892.086   115772698.279                    90045454.516    21672894.621  
  21672891.758  
  20977185.422   111938291.234                    87063153.006    20977188.598  
  20977183.371  
  21651299.297   113778336.493    21651306.977    88658470.8924   21651307.035  
                
  20196166.984   106131580.738    20196173.629    82699974.9094   20196173.754  
                
  22945661.320   120580263.092    22945668.766    93958684.9244   22945668.801  
                
  21175115.547   113352076.340                    88162734.552    21175120.059  
  21175114.102  
  21792923.891   116373018.588                    90512334.668    21792926.871  
  21792923.312  
  23992337.922   126080591.416    23992348.320    98244672.0564   23992347.996  
                
  21458614.508   112765789.917    21458622.211    87869495.5934   21458622.098  
                
  22405840.141   117743502.961    22405846.180    91748212.2164                 
                
  19730142.305   105320841.459                    81916213.345    19730145.539  
  19730140.766  
  21482857.984   114959088.878                    89412617.156    21482861.840  
  21482856.141  
  24430725.406   128384338.059    24430733.750   100039771.0934                 
                
  21468934.086   114844347.615                    89323408.996    21468937.707  
  21468931.742  
 21  8 14  6 53 20.0000000  0 16G15G26R16R 2G29G18G 5R 3R 9G10G23G16
                                R18R17G13R19
  23395634.438   122944910.512    23395643.855    95801266.9704   23395643.602  
                
  21451320.039   112727446.870    21451329.875    87839624.0454   21451329.688  
                
  21678270.727   115801430.090                    90067801.487    21678273.266  
  21678270.406  
  20978405.789   111944803.319                    87068217.969    20978408.977  
  20978403.742  
  21655389.953   113799832.988    21655397.645    88675221.4074   21655397.703  
                
  20196128.680   106131379.433    20196135.309    82699818.0534   20196135.441  
                
  22951309.000   120609941.772    22951316.496    93981811.1584   22951316.512  
                
  21169290.242   113320893.171                    88138480.980    21169294.746  
  21169288.801  
  21791660.266   116366270.903                    90507086.466    21791663.254  
  21791659.680  
  23985448.086   126044385.111    23985458.477    98216459.3704   23985458.145  
                
  21453577.055   112739317.968    21453584.781    87848868.1204   21453584.656  
                
  22402222.586   117724492.641    22402228.637    91733398.9894                 
                
  19730074.711   105320480.650                    81915932.719    19730077.957  
  19730073.180  
  21487384.242   114983309.801                    89431455.648    21487388.137  
  21487382.414  
  24427948.656   128369746.235    24427957.016   100028400.8104                 
                
  21464502.836   114820643.469                    89304972.421    21464506.434  
  21464500.488  
 21  8 14  6 53 30.0000000  0 16G15G26R16R 2G29G18G 5R 3R 9G10G23G16
                                R18R17G13R19
  23391526.648   122923323.901    23391536.148    95784446.2394   23391535.879  
                
  21452109.766   112731596.907    21452119.586    87842857.8424   21452119.426  
                
  21683660.352   115830220.404                    90090193.937    21683662.871  
  21683660.035  
  20979643.016   111951405.399                    87073352.935    20979646.191  
  20979640.973  
  21659487.367   113821365.006    21659495.094    88691999.5874   21659495.152  
                
  20196097.812   106131217.212    20196104.430    82699691.6444   20196104.562  
                
  22956964.008   120639658.944    22956971.559    94004967.3884   22956971.559  
                
  21163476.078   113289769.578                    88114273.737    21163480.566  
  21163474.633  
  21790412.992   116359610.513                    90501906.174    21790415.984  
  21790412.402  
  23978560.938   126008192.933    23978571.336    98188257.6924   23978570.996  
                
  21448548.383   112712892.195    21448556.098    87828276.6174   21448555.969  
                
  22398616.023   117705540.049    22398622.078    91718630.7424                 
                
  19730013.281   105320152.735                    81915677.671    19730016.520  
  19730011.750  
  21491914.164   115007550.436                    89450309.460    21491918.098  
  21491912.320  
  24425181.469   128355204.638    24425189.828   100017069.7354                 
                
  21460074.844   114796956.744                    89286549.424    21460078.430  
  21460072.492  
 21  8 14  6 53 40.0000000  0 16G15G26R16R 2G29G18G 5R 3R 9G10G23G16
                                R18R17G13R19
  23387427.305   122901781.671    23387436.863    95767660.0964   23387436.582  
                
  21452911.789   112735811.570    21452921.594    87846141.9984   21452921.445  
                
  21689060.977   115859069.507                    90112632.120    21689063.527  
  21689060.645  
  20980897.070   111958097.262                    87078557.697    20980900.238  
  20980895.020  
  21663591.578   113842932.744    21663599.363    88708805.6094   21663599.387  
                
  20196074.414   106131094.268    20196081.023    82699595.8454   20196081.148  
                
  22962626.352   120669414.741    22962633.941    94028153.7124   22962633.914  
                
  21157673.094   113258705.833                    88090113.070    21157677.578  
  21157671.680  
  21789182.094   116353037.658                    90496793.956    21789185.082  
  21789181.496  
  23971676.531   125972015.153    23971686.980    98160067.2424   23971686.621  
                
  21443528.562   112686512.886    21443536.266    87807721.3194   21443536.152  
                
  22395020.484   117686645.418    22395026.539    91703907.6634                 
                
  19729958.078   105319858.046                    81915448.470    19729961.320  
  19729956.539  
  21496447.781   115031810.772                    89469178.598    21496451.758  
  21496445.918  
  24422423.914   128340713.634    24422432.238   100005778.0434                 
                
  21455650.195   114773287.890                    89268140.319    21455653.762  
  21455647.867  
 21  8 14  6 53 50.0000000  0 16G15G26R16R 2G29G18G 5R 3R 9G10G23G16
                                R18R17G13R19
  23383336.352   122880283.617    23383345.934    95750908.3474   23383345.656  
                
  21453726.062   112740090.587    21453735.859    87849476.2964   21453735.734  
                
  21694472.547   115887977.022                    90135115.708    21694475.102  
  21694472.172  
  20982167.859   111964878.434                    87083831.947    20982171.039  
  20982165.824  
  21667702.555   113864536.043    21667710.367    88725639.3404   21667710.387  
                
  20196058.445   106131010.350    20196065.047    82699530.4564   20196065.172  
                
  22968296.039   120699209.005    22968303.621    94051370.0214   22968303.590  
                
  21151881.297   113227701.923                    88065998.914    21151885.770  
  21151879.898  
  21787967.594   116346552.320                    90491749.805    21787970.590  
  21787966.984  
  23964794.820   125935851.656    23964805.332    98131887.9174   23964804.969  
                
  21438517.555   112660179.896    21438525.281    87787202.1234   21438525.156  
                
  22391435.961   117667808.667    22391442.004    91689229.6734                 
                
  19729909.023   105319596.223                    81915244.833    19729912.254  
  19729907.469  
  21500985.039   115056090.589                    89488062.888    21500989.035  
  21500983.113  
  24419675.953   128326273.028    24419684.262    99994525.6304                 
                
  21451228.781   114749636.468                    89249744.797    21451232.359  
  21451226.430  
 21  8 14  6 54  0.0000000  0 16G15G26R16R 2G29G18G 5R 3R 9G10G23G16
                                R18R17G13R19
  23379253.836   122858829.807    23379263.398    95734191.0874   23379263.152  
                
  21454552.570   112744433.879    21454562.371    87852860.6794   21454562.242  
                
  21699894.977   115916942.611                    90157644.501    21699897.551  
  21699894.613  
  20983455.492   111971749.412                    87089176.042    20983458.660  
  20983453.465  
  21671820.258   113886174.696    21671828.078    88742500.6174   21671828.121  
                
  20196049.891   106130965.366    20196056.488    82699495.4024   20196056.617  
                
  22973972.953   120729041.329    22973980.484    94074615.9854   22973980.473  
                
  21146100.688   113196757.886                    88041931.340    21146105.137  
  21146099.297  
  21786769.445   116340154.282                    90486773.564    21786772.445  
  21786768.801  
  23957915.906   125899702.456    23957926.406    98103719.7284   23957926.020  
                
  21433515.359   112633893.225    21433523.105    87766719.0194   21433522.965  
                
  22387862.461   117649029.797    22387868.496    91674596.7924                 
                
  19729866.109   105319367.135                    81915066.654    19729869.336  
  19729864.551  
  21505525.953   115080389.906                    89506962.328    21505529.980  
  21505524.047  
  24416937.578   128311882.830    24416945.914    99983312.5264                 
                
  21446810.672   114726002.610                    89231362.904    21446814.246  
  21446808.305  
 21  8 14  6 54 10.0000000  0 16G15G26R16R 2G29G18G 5R 3R 9G10G23G16
                                R18R17G13R19
  23375179.859   122837420.644    23375189.441    95717508.6224   23375189.168  
                
  21455391.352   112748841.700    21455401.176    87856295.3494   21455401.020  
                
  21705328.297   115945966.270                    90180218.435    21705330.887  
  21705327.922  
  20984759.867   111978709.817                    87094589.687    20984763.031  
  20984757.832  
  21675944.758   113907849.065    21675952.621    88759389.7184   21675952.637  
                
  20196048.789   106130959.580    20196055.391    82699490.8884   20196055.508  
                
  22979657.109   120758911.787    22979664.574    94097891.6694   22979664.594  
                
  21140331.359   113165874.142                    88017910.656    21140335.773  
  21140330.027  
  21785587.703   116333843.885                    90481865.473    21785590.699  
  21785587.047  
  23951039.727   125863567.891    23951050.215    98075562.9274   23951049.812  
                
  21428522.031   112607653.180    21428529.781    87746272.2434   21428529.629  
                
  22384300.047   117630309.148    22384306.059    91660009.2814                 
                
  19729829.422   105319171.304                    81914914.342    19729832.637  
  19729827.871  
  21510070.539   115104708.888                    89525877.075    21510074.594  
  21510068.633  
  24414208.852   128297543.408    24414217.168    99972138.9394                 
                
  21442395.859   114702386.391                    89212994.737    21442399.426  
  21442393.508  
 21  8 14  6 54 20.0000000  0 16G15G26R16R 2G29G18G 5R 3R 9G10G23G16
                                R18R17G13R19
  23371114.344   122816056.006    23371123.953    95700860.8554   23371123.648  
                
  21456242.359   112753313.762    21456252.223    87859780.0684   21456252.043  
                
  21710772.469   115975047.897                    90202837.485    21710775.043  
  21710772.109  
  20986081.039   111985759.849                    87100073.061    20986084.199  
  20986078.992  
  21680075.984   113929558.825    21680083.906    88776306.4064   21680083.902  
                
  20196055.094   106130992.687    20196061.699    82699516.6864   20196061.816  
                
  22985348.500   120788820.249    22985355.902    94121196.9594   22985355.930  
                
  21134573.281   113135050.684                    87993936.866    21134577.664  
  21134572.016  
  21784422.336   116327620.936                    90477025.415    21784425.352  
  21784421.707  
  23944166.398   125827447.785    23944176.781    98047417.3924   23944176.367  
                
  21423537.570   112581459.651    21423545.301    87725861.7114   21423545.148  
                
  22380748.656   117611646.534    22380754.652    91645466.9804                 
                
  19729798.898   105319008.394                    81914787.639    19729802.098  
  19729797.340  
  21514618.781   115129047.316                    89544806.955    21514622.840  
  21514616.902  
  24411489.766   128283254.582    24411498.070    99961004.8024                 
                
  21437984.352   114678787.737                    89194640.221    21437987.922  
  21437982.039  
 21  8 14  6 54 30.0000000  0 16G15G26R16R 2G29G18G 5R 3R 9G10G23G16
                                R18R17G13R19
  23367057.359   122794736.254    23367066.957    95684248.0794   23367066.664  
                
  21457105.633   112757850.320    21457115.539    87863315.0514   21457115.352  
                
  21716227.461   116004187.372                    90225501.516    21716230.008  
  21716227.105  
  20987419.117   111992900.083                    87105626.574    20987422.270  
  20987417.047  
  21684214.008   113951304.252    21684221.953    88793250.8814   21684221.949  
                
  20196068.844   106131064.935    20196075.461    82699572.9864   20196075.570  
                
  22991047.156   120818766.841    22991054.531    94144531.9724   22991054.539  
                
  21128826.531   113104287.866                    87970010.234    21128830.895  
  21128825.301  
  21783273.391   116321485.661                    90472253.540    21783276.414  
  21783272.793  
  23937295.797   125791342.514    23937306.176    98019283.4214   23937305.746  
                
  21418562.016   112555312.974    21418569.730    87705487.6894   21418569.582  
                
  22377208.383   117593042.283    22377214.391    91630970.1654                 
                
  19729774.594   105318878.643                    81914686.717    19729777.797  
  19729773.031  
  21519170.695   115153405.458                    89563752.159    21519174.754  
  21519168.844  
  24408780.391   128269016.749    24408788.652    99949910.3944                 
                
  21433576.125   114655206.687                    89176299.412    21433579.688  
  21433573.820  
 21  8 14  6 54 40.0000000  0 16G15G26R16R 2G29G18G 5R 3R 9G10G23G16
                                R18R17G13R19
  23363008.930   122773461.501    23363018.465    95667670.3464   23363018.199  
                
  21457981.180   112762451.350    21457991.113    87866900.2614   21457990.910  
                
  21721693.281   116033384.692                    90248210.536    21721695.805  
  21721692.918  
  20988773.883   112000129.355                    87111249.340    20988777.055  
  20988771.809  
  21688358.797   113973085.262    21688366.746    88810223.0844   21688366.754  
                
  20196090.039   106131176.295    20196096.664    82699659.7604   20196096.762  
                
  22996753.039   120848751.408    22996760.395    94167896.5714   22996760.391  
                
  21123091.148   113073585.856                    87946130.908    21123095.512  
  21123089.949  
  21782140.883   116315438.154                    90467549.920    21782143.902  
  21782140.273  
  23930427.992   125755252.099    23930438.418    97991161.0364   23930437.996  
                
  21413595.391   112529213.211    21413603.074    87685150.2234   21413602.934  
                
  22373679.219   117574496.407    22373685.246    91616518.8374                 
                
  19729756.484   105318782.008                    81914611.555    19729759.688  
  19729754.930  
  21523726.273   115177783.298                    89582712.684    21523730.336  
  21523724.410  
  24406080.727   128254829.930    24406088.902    99938855.7354                 
                
  21429171.258   114631643.558                    89157972.543    21429174.797  
  21429168.992  
 21  8 14  6 54 50.0000000  0 16G15G26R16R 2G29G18G 5R 3R 9G10G23G16
                                R18R17G13R19
  23358969.047   122752231.717    23358978.559    95651127.6774   23358978.305  
                
  21458868.977   112767116.737    21458878.930    87870535.6224   21458878.703  
                
  21727169.828   116062639.396                    90270964.180    21727172.352  
  21727169.473  
  20990145.469   112007448.400                    87116941.944    20990148.641  
  20990143.406  
  21692510.344   113994901.797    21692518.305    88827222.9684   21692518.301  
                
  20196118.656   106131326.670    20196125.285    82699776.9404   20196125.379  
                
  23002466.148   120878773.941    23002473.465    94191290.7514   23002473.465  
                
  21117367.125   113042944.671                    87922298.896    21117371.480  
  21117365.961  
  21781024.773   116309478.267                    90462914.432    21781027.805  
  21781024.145  
  23923562.977   125719176.566    23923573.500    97963050.2454   23923573.070  
                
  21408637.695   112503160.344    21408645.340    87664849.2964   21408645.211  
                
  22370161.180   117556008.975    22370167.211    91602113.0564                 
                
  19729744.586   105318718.492                    81914562.151    19729747.785  
  19729743.035  
  21528285.531   115202180.680                    89601688.429    21528289.598  
  21528283.684  
  24403390.789   128240694.145    24403398.918    99927840.8524                 
                
  21424769.688   114608098.149                    89139659.470    21424773.234  
  21424767.438  
 21  8 14  6 55  0.0000000  0 16G15G26R16R 2G29G18G 5R 3R 9G10G23G16
                                R18R17G13R19
  23354937.719   122731047.009    23354947.246    95634620.1284   23354946.988  
                
  21459768.992   112771846.363    21459778.961    87874221.0504   21459778.734  
                
  21732657.125   116091951.506                    90293762.472    21732659.680  
  21732656.758  
  20991533.805   112014856.808                    87122704.032    20991536.977  
  20991531.746  
  21696668.648   114016753.757    21696676.609    88844250.4584   21696676.590  
                
  20196154.680   106131515.951    20196161.309    82699924.4344   20196161.406  
                
  23008186.398   120908834.022    23008193.707    94214714.1844   23008193.719  
                
  21111654.492   113012364.453                    87898514.279    21111658.840  
  21111653.352  
  21779925.047   116303605.828                    90458346.979    21779928.086  
  21779924.402  
  23916700.820   125683115.966    23916711.398    97934951.0854   23916710.949  
                
  21403688.922   112477154.374    21403696.527    87644584.9104   21403696.398  
                
  22366654.266   117537579.996    22366660.301    91587752.8054                 
                
  19729738.875   105318688.013                    81914538.454    19729742.086  
  19729737.328  
  21532848.414   115226597.652                    89620679.384    21532852.516  
  21532846.559  
  24400710.523   128226609.338    24400718.660    99916865.7164                 
                
  21420371.414   114584570.345                    89121360.064    21420374.961  
  21420369.176  
 21  8 14  6 55 10.0000000  0 16G15G26R16R 2G29G18G 5R 3R 9G10G23G16
                                R18R17G13R19
  23350915.039   122709907.679    23350924.543    95618147.9334   23350924.281  
                
  21460681.258   112776640.398    21460691.223    87877956.6534   21460691.000  
                
  21738155.164   116121320.966                    90316605.363    21738157.719  
  21738154.777  
  20992939.023   112022355.330                    87128536.223    20992942.195  
  20992936.969  
  21700833.711   114038641.260    21700841.641    88861305.6564   21700841.645  
                
  20196198.133   106131744.289    20196204.746    82700102.3594   20196204.852  
                
  23013913.812   120938931.742    23013921.125    94238166.9564   23013921.117  
                
  21105953.273   112981845.338                    87874777.202    21105957.605  
  21105952.145  
  21778841.773   116297821.214                    90453847.830    21778844.793  
  21778841.094  
  23909841.445   125647070.501    23909852.180    97906863.7414   23909851.703  
                
  21398749.109   112451195.523    21398756.691    87624357.2484   21398756.562  
                
  22363158.516   117519209.725    22363164.570    91573438.3194                 
                
  19729739.391   105318690.771                    81914540.603    19729742.609  
  19729737.840  
  21537414.961   115251034.168                    89639685.557    21537419.098  
  21537413.105  
  24398040.023   128212575.861    24398048.160    99905930.5654                 
                
  21415976.461   114561060.427                    89103074.602    21415980.051  
  21415974.238  
 21  8 14  6 55 20.0000000  0 16G15G26R16R 2G29G18G 5R 3R 9G10G23G16
                                R18R17G13R19
  23346900.984   122688813.694    23346910.445    95601711.0414   23346910.191  
                
  21461605.766   112781498.705    21461615.711    87881742.3534   21461615.500  
                
  21743663.891   116150747.561                    90339492.694    21743666.453  
  21743663.531  
  20994360.938   112029942.903                    87134437.675    20994364.102  
  20994358.863  
  21705005.523   114060564.282    21705013.430    88878388.5194   21705013.438  
                
  20196248.992   106132011.557    20196255.598    82700310.6194   20196255.711  
                
  23019648.367   120969067.055    23019655.637    94261649.0124   23019655.645  
                
  21100263.531   112951387.656                    87851087.917    21100267.836  
  21100262.410  
  21777774.930   116292124.302                    90449416.905    21777777.906  
  21777774.234  
  23902984.977   125611040.157    23902995.820    97878788.1754   23902995.312  
                
  21393818.258   112425283.769    21393825.812    87604166.2814   21393825.688  
                
  22359673.938   117500898.097    22359680.004    91559169.5114                 
                
  19729746.094   105318726.555                    81914568.436    19729749.301  
  19729744.543  
  21541985.180   115275490.363                    89658707.025    21541989.363  
  21541983.352  
  24395379.281   128198593.658    24395387.375    99895035.3744                 
                
  21411584.852   114537568.352                    89084802.988    21411588.438  
  21411582.633  
 21  8 14  6 55 30.0000000  0 16G15G26R16R 2G29G18G 5R 3R 9G10G23G16
                                R18R17G13R19
  23342895.547   122667765.081    23342905.004    95585309.5334   23342904.754  
                
  21462542.477   112786421.186    21462552.387    87885578.0454   21462552.203  
                
  21749183.266   116180230.901                    90362424.189    21749185.816  
  21749182.895  
  20995799.594   112037619.881                    87140408.668    20995802.742  
  20995797.516  
  21709184.062   114082522.634    21709191.957    88895498.9094   21709191.973  
                
  20196307.234   106132317.634    20196313.832    82700549.1194   20196313.957  
                
  23025390.008   120999239.615    23025397.234    94285160.0964   23025397.254  
                
  21094585.242   112920991.320                    87827446.323    21094589.516  
  21094584.125  
  21776724.484   116286515.012                    90445054.159    21776727.465  
  21776723.832  
  23896131.477   125575024.922    23896142.312    97850724.3794   23896141.805  
                
  21388896.367   112399419.116    21388903.906    87584012.0224   21388903.777  
                
  22356200.500   117482645.085    22356206.566    91544946.3854                 
                
  19729758.992   105318795.410                    81914621.985    19729762.191  
  19729757.430  
  21546559.031   115299965.956                    89677743.568    21546563.246  
  21546557.203  
  24392728.312   128184662.799    24392736.371    99884180.1594                 
                
  21407196.523   114514093.857                    89066545.062    21407200.113  
  21407194.281  
 21  8 14  6 55 40.0000000  0 16G15G26R16R 2G29G18G 5R 3R 9G10G23G16
                                R18R17G13R19
  23338898.719   122646761.744    23338908.180    95568943.3174   23338907.914  
                
  21463491.383   112791407.689    21463501.242    87889463.6384   21463501.086  
                
  21754713.211   116209770.791                    90385399.629    21754715.719  
  21754712.797  
  20997254.977   112045386.122                    87146449.069    20997258.098  
  20997252.863  
  21713369.336   114104516.345    21713377.230    88912636.8614   21713377.242  
                
  20196372.836   106132662.392    20196379.426    82700817.7634   20196379.559  
                
  23031138.727   121029449.301    23031145.918    94308700.0994   23031145.941  
                
  21088918.422   112890656.358                    87803852.468    21088922.664  
  21088917.324  
  21775690.430   116280993.269                    90440759.471    21775693.410  
  21775689.789  
  23889280.961   125539024.798    23889291.711    97822672.3534   23889291.172  
                
  21383983.438   112373601.533    21383990.973    87563894.4344   21383990.848  
                
  22352738.203   117464450.570    22352744.258    91530768.8544                 
                
  19729778.039   105318897.097                    81914701.072    19729781.227  
  19729776.477  
  21551136.516   115324460.868                    89696795.144    21551140.742  
  21551134.688  
  24390087.125   128170783.214    24390095.145    99873364.9024                 
                
  21402811.523   114490637.078                    89048300.904    21402815.094  
  21402809.285  
 21  8 14  6 55 50.0000000  0 16G15G26R16R 2G29G18G 5R 3R 9G10G23G16
                                R18R17G13R19
  23334910.609   122625804.087    23334920.027    95552612.6864   23334919.750  
                
  21464452.500   112796458.411    21464462.301    87893399.2714   21464462.172  
                
  21760253.711   116239367.069                    90408418.962    21760256.223  
  21760253.285  
  20998727.070   112053241.523                    87152558.851    20998730.172  
  20998724.953  
  21717561.328   114126545.328    21717569.215    88929802.2924   21717569.219  
                
  20196445.836   106133045.996    20196452.426    82701116.6744   20196452.559  
                
  23036894.508   121059696.121    23036901.680    94332269.0494   23036901.734  
                
  21083263.125   112860383.096                    87780306.616    21083267.371  
  21083262.027  
  21774672.812   116275559.285                    90436533.035    21774675.793  
  21774672.180  
  23882433.352   125503040.065    23882444.043    97794632.3154   23882443.508  
                
  21379079.516   112347831.273    21379087.070    87543813.7254   21379086.930  
                
  22349287.125   117446314.987    22349293.168    91516637.2294                 
                
  19729803.297   105319031.907                    81914805.915    19729806.477  
  19729801.723  
  21555717.633   115348975.349                    89715861.963    21555721.863  
  21555715.797  
  24387455.742   128156955.138    24387463.785    99862589.7954                 
                
  21398429.836   114467198.099                    89030070.602    21398433.398  
  21398427.574  
 21  8 14  6 56  0.0000000  0 16G15G26R16R 2G29G18G 5R 3R 9G10G23G16
                                R18R17G13R19
  23330931.180   122604892.081    23330940.523    95536317.6234   23330940.258  
                
  21465425.805   112801573.146    21465435.547    87897384.7814   21465435.461  
                
  21765804.789   116269019.896                    90431482.261    21765807.316  
  21765804.328  
  21000215.820   112061185.820                    87158737.756    21000218.914  
  21000213.672  
  21721760.016   114148609.526    21721767.883    88946995.1694   21721767.887  
                
  20196526.188   106133468.264    20196532.785    82701445.7174   20196532.910  
                
  23042657.289   121089979.815    23042664.469    94355866.7324   23042664.551  
                
  21077619.375   112830171.678                    87756808.869    21077623.637  
  21077618.293  
  21773671.586   116270212.875                    90432374.705    21773674.570  
  21773670.961  
  23875588.570   125467070.583    23875599.266    97766604.1744   23875598.727  
                
  21374184.578   112322108.254    21374192.145    87523769.8284   21374191.984  
                
  22345847.227   117428238.210    22345853.285    91502551.4314                 
                
  19729834.711   105319199.631                    81914936.377    19729837.906  
  19729833.137  
  21560302.406   115373509.212                    89734943.838    21560306.629  
  21560300.598  
  24384834.141   128143178.541    24384842.238    99851854.7754                 
                
  21394051.484   114443776.881                    89011854.092    21394055.012  
  21394049.215  
 21  8 14  6 56 10.0000000  0 16G15G26R16R 2G29G18G 5R 3R 9G10G23G16
                                R18R17G13R19
  23326960.500   122584026.069    23326969.812    95520058.4104   23326969.559  
                
  21466411.352   112806752.171    21466421.055    87901420.3874   21466420.984  
                
  21771366.398   116298728.903                    90454589.259    21771368.938  
  21771365.945  
  21001721.414   112069219.933                    87164986.502    21001724.500  
  21001719.281  
  21725965.445   114170709.176    21725973.309    88964215.6614   21725973.312  
                
  20196613.961   106133929.467    20196620.562    82701805.1014   20196620.688  
                
  23048427.141   121120300.613    23048434.387    94379493.3134   23048434.461  
                
  21071987.281   112800022.527                    87733359.523    21071991.547  
  21071986.238  
  21772686.852   116264954.459                    90428284.806    21772689.859  
  21772686.191  
  23868746.812   125431116.798    23868757.477    97738588.2654   23868756.938  
                
  21369298.719   112296432.851    21369306.285    87503763.0304   21369306.117  
                
  22342418.578   117410220.570    22342424.648    91488511.7284                 
                
  19729872.383   105319400.703                    81915092.757    19729875.570  
  19729870.805  
  21564890.844   115398062.697                    89754040.993    21564895.043  
  21564889.062  
  24382222.391   128129453.749    24382230.527    99841160.1884                 
                
  21389676.484   114420373.600                    88993651.565    21389679.996  
  21389674.203  
 21  8 14  6 56 20.0000000  0 16G15G26R16R 2G29G18G 5R 3R 9G10G23G16
                                R18R17G13R19
  23322998.586   122563206.145    23323007.891    95503835.1044   23323007.645  
                
  21467409.102   112811995.394    21467418.770    87905506.0144   21467418.707  
                
  21776938.555   116328494.218                    90477740.032    21776941.098  
  21776938.090  
  21003243.711   112077343.193                    87171304.611    21003246.797  
  21003241.570  
  21730177.609   114192844.181    21730185.484    88981463.7114   21730185.480  
                
  20196709.125   106134429.506    20196715.742    82702194.7494   20196715.855  
                
  23054204.016   121150658.360    23054211.328    94403148.6864   23054211.387  
                
  21066366.766   112769935.324                    87709958.373    21066371.020  
  21066365.762  
  21771718.539   116259783.792                    90424263.190    21771721.594  
  21771717.883  
  23861907.938   125395178.670    23861918.633    97710584.5544   23861918.109  
                
  21364421.906   112270805.051    21364429.477    87483793.3364   21364429.301  
                
  22339001.188   117392261.999    22339007.254    91474518.0384                 
                
  19729916.258   105319634.924                    81915274.930    19729919.438  
  19729914.688  
  21569482.938   115422635.730                    89773153.329    21569487.094  
  21569481.164  
  24379620.531   128115780.790    24379628.645    99830505.9254                 
                
  21385304.852   114396988.252                    88975462.967    21385308.348  
  21385302.590  
 21  8 14  6 56 30.0000000  0 16G15G26R16R 2G29G18G 5R 3R 9G10G23G16
                                R18R17G13R19
  23319045.438   122542432.337    23319054.770    95487647.7394   23319054.516  
                
  21468419.055   112817302.750    21468428.699    87909641.6174   21468428.660  
                
  21782521.227   116358315.658                    90500934.494    21782523.766  
  21782520.762  
  21004782.695   112085555.501                    87177691.954    21004785.758  
  21004780.543  
  21734396.484   114215014.533    21734404.352    88998739.3084   21734404.359  
                
  20196811.656   106134968.342    20196818.293    82702614.6254   20196818.391  
                
  23059987.914   121181053.014    23059995.234    94426832.8144   23059995.301  
                
  21060757.930   112739910.683                    87686605.900    21060762.176  
  21060756.953  
  21770766.680   116254700.933                    90420309.844    21770769.777  
  21770766.000  
  23855072.125   125359256.263    23855082.758    97682593.0944   23855082.250  
                
  21359554.164   112245224.907    21359561.727    87463860.7654   21359561.551  
                
  22335595.016   117374362.476    22335601.086    91460570.3614                 
                
  19729966.375   105319902.440                    81915483.002    19729969.574  
  19729964.793  
  21574078.664   115447228.262                    89792280.836    21574082.805  
  21574076.914  
  24377028.516   128102159.687    24377036.648    99819892.1294                 
                
  21380936.570   114373620.896                    88957288.378    21380940.082  
  21380934.320  
 21  8 14  6 56 40.0000000  0 16G15G26R16R 2G29G18G 5R 3R 9G10G23G16
                                R18R17G13R19
  23315101.070   122521704.616    23315110.398    95471496.2854   23315110.133  
                
  21469441.203   112822674.157    21469450.832    87913827.1234   21469450.801  
                
  21788114.242   116388192.655                    90524172.139    21788116.789  
  21788113.809  
  21006338.430   112093857.209                    87184148.850    21006341.473  
  21006336.266  
  21738622.086   114237220.194    21738629.953    89016042.4064   21738629.965  
                
  20196921.562   106135545.870    20196928.211    82703064.6494   20196928.305  
                
  23065778.797   121211484.320    23065786.090    94450545.5154   23065786.184  
                
  21055160.734   112709948.359                    87663301.874    21055164.984  
  21055159.789  
  21769831.266   116249705.824                    90416424.765    21769834.379  
  21769830.594  
  23848239.336   125323349.607    23848249.848    97654613.9034   23848249.352  
                
  21354695.484   112219692.417    21354703.039    87443965.3314   21354702.867  
                
  22332200.094   117356522.074    22332206.176    91446668.7464                 
                
  19730022.656   105320202.887                    81915716.678    19730025.855  
  19730021.082  
  21578678.023   115471840.200                    89811423.443    21578682.117  
  21578676.277  
  24374446.375   128088590.512    24374454.512    99809318.7834                 
                
  21376571.602   114350271.265                    88939127.550    21376575.102  
  21376569.355  
 21  8 14  6 56 50.0000000  0 16G15G26R16R 2G29G18G 5R 3R 9G10G23G16
                                R18R17G13R19
  23311165.492   122501022.994    23311174.801    95455380.7634   23311174.531  
                
  21470475.500   112828109.439    21470485.133    87918062.4124   21470485.105  
                
  21793717.711   116418125.337                    90547453.091    21793720.246  
  21793717.270  
  21007910.758   112102247.474                    87190674.606    21007913.785  
  21007908.598  
  21742854.375   114259460.984    21742862.250    89033372.8744   21742862.262  
                
  20197038.805   106136161.934    20197045.461    82703544.6994   20197045.547  
                
  23071576.609   121241951.973    23071583.867    94474286.5454   23071583.984  
                
  21049575.219   112680048.633                    87640046.539    21049579.492  
  21049574.305  
  21768912.258   116244798.377                    90412607.860    21768915.395  
  21768911.590  
  23841409.523   125287458.651    23841419.941    97626646.9414   23841419.457  
                
  21349845.875   112194207.544    21349853.418    87424107.0004   21349853.262  
                
  22328816.461   117338740.961    22328822.543    91432813.3484                 
                
  19730085.164   105320536.563                    81915976.208    19730088.379  
  19730083.574  
  21583280.984   115496471.476                    89830581.116    21583285.055  
  21583279.250  
  24371874.094   128075073.184    24371882.203    99798785.8364                 
                
  21372209.984   114326939.600                    88920980.721    21372213.469  
  21372207.738  
 21  8 14  6 57  0.0000000  0 16G15G26R16R 2G29G18G 5R 3R 9G10G23G16
                                R18R17G13R19
  23307238.758   122480387.705    23307248.043    95439301.3434   23307247.746  
                
  21471521.969   112833608.665    21471531.613    87922347.5184   21471531.578  
                
  21799331.570   116448113.363                    90570777.099    21799334.117  
  21799331.121  
  21009499.758   112110726.732                    87197269.606    21009502.789  
  21009497.594  
  21747093.352   114281736.986    21747101.238    89050730.7924   21747101.270  
                
  20197163.375   106136816.584    20197170.043    82704054.8184   20197170.121  
                
  23077381.328   121272455.942    23077388.559    94498055.8614   23077388.707  
                
  21044001.422   112650211.611                    87616839.970    21044005.719  
  21044000.508  
  21768009.703   116239978.808                    90408859.312    21768012.852  
  21768009.031  
  23834582.695   125251583.549    23834593.082    97598692.3324   23834592.613  
                
  21345005.344   112168770.413    21345012.867    87404285.8714   21345012.703  
                
  22325444.117   117321019.158    22325450.211    91419004.1554                 
                
  19730153.844   105320903.195                    81916261.363    19730157.059  
  19730152.242  
  21587887.539   115521122.133                    89849753.834    21587891.660  
  21587885.797  
  24369311.734   128061607.867    24369319.781    99788293.3574                 
                
  21367851.664   114303625.571                    88902847.607    21367855.121  
  21367849.379  
 21  8 14  6 57 10.0000000  0 16G15G26R16R 2G29G18G 5R 3R 9G10G23G16
                                R18R17G13R19
  23303320.883   122459799.059    23303330.168    95423258.2574   23303329.852  
                
  21472580.625   112839171.968    21472590.273    87926682.5614   21472590.227  
                
  21804955.797   116478156.871                    90594144.264    21804958.352  
  21804955.359  
  21011105.492   112119295.262                    87203934.024    21011108.504  
  21011103.316  
  21751339.062   114304048.295    21751346.945    89068116.2174   21751346.988  
                
  20197295.320   106137509.976    20197301.988    82704595.1234   20197302.078  
                
  23083192.977   121302996.400    23083200.219    94521853.5984   23083200.367  
                
  21038439.414   112620437.623                    87593682.421    21038443.707  
  21038438.488  
  21767123.617   116235247.120                    90405179.101    21767126.770  
  21767122.965  
  23827758.922   125215724.566    23827769.316    97570750.3004   23827768.855  
                
  21340173.953   112143381.293    21340181.414    87384502.1504   21340181.273  
                
  22322083.102   117303356.901    22322089.215    91405241.3564                 
                
  19730228.758   105321303.095                    81916572.405    19730231.988  
  19730227.168  
  21592497.742   115545792.306                    89868941.729    21592501.855  
  21592496.004  
  24366759.289   128048194.814    24366767.305    99777841.6654                 
                
  21363496.742   114280329.631                    88884728.541    21363500.164  
  21363494.410  
 21  8 14  6 57 20.0000000  0 16G15G26R16R 2G29G18G 5R 3R 9G10G23G16
                                R18R17G13R19
  23299411.852   122439256.997    23299421.160    95407251.4874   23299420.840  
                
  21473651.453   112844799.200    21473661.102    87931067.4144   21473661.051  
                
  21810590.312   116508255.458                    90617554.260    21810592.895  
  21810589.867  
  21012727.844   112127952.474                    87210667.426    21012730.832  
  21012725.664  
  21755591.461   114326394.750    21755599.336    89085529.0334   21755599.398  
                
  20197434.602   106138241.926    20197441.266    82705165.4744   20197441.355  
                
  23089011.516   121333573.082    23089018.785    94545679.5664   23089018.934  
                
  21032889.156   112590726.566                    87570573.833    21032893.445  
  21032888.227  
  21766253.969   116230603.212                    90401567.181    21766257.129  
  21766253.348  
  23820938.242   125179881.610    23820948.621    97542820.7594   23820948.184  
                
  21335351.680   112118040.099    21335359.090    87364755.7744   21335358.980  
                
  22318733.383   117285754.080    22318739.523    91391524.8774                 
                
  19730309.883   105321736.182                    81916909.242    19730313.113  
  19730308.305  
  21597111.578   115570481.838                    89888144.687    21597115.629  
  21597109.820  
  24364216.797   128034834.042    24364224.781    99767430.7074                 
                
  21359145.195   114257051.815                    88866623.582    21359148.594  
  21359142.863  
 21  8 14  6 57 30.0000000  0 16G15G26R16R 2G29G18G 5R 3R 9G10G23G16
                                R18R17G13R19
  23295511.719   122418761.712    23295521.047    95391281.1454   23295520.742  
                
  21474734.453   112850490.396    21474744.109    87935502.1114   21474744.039  
                
  21816235.141   116538408.976                    90641006.995    21816237.723  
  21816234.715  
  21014366.930   112136698.859                    87217470.171    21014369.879  
  21014364.738  
  21759850.562   114348776.436    21759858.441    89102969.3004   21759858.492  
                
  20197581.250   106139012.525    20197587.906    82705765.9384   20197588.004  
                
  23094836.969   121364185.984    23094844.211    94569533.7634   23094844.391  
                
  21027350.688   112561078.697                    87547514.405    21027355.008  
  21027349.734  
  21765400.797   116226047.258                    90398023.677    21765403.973  
  21765400.191  
  23814120.695   125144054.885    23814131.023    97514903.8584   23814130.578  
                
  21330538.562   112092746.987    21330545.953    87345046.8664   21330545.852  
                
  22315395.008   117268210.789    22315401.180    91377854.7874                 
                
  19730397.242   105322202.504                    81917271.937    19730400.465  
  19730395.691  
  21601729.055   115595190.836                    89907362.794    21601733.098  
  21601727.293  
  24361684.281   128021525.639    24361692.250    99757060.5034                 
                
  21354797.016   114233792.037                    88848532.637    21354800.410  
  21354794.746  
 21  8 14  6 57 40.0000000  0 16G15G26R16R 2G29G18G 5R 3R 9G10G23G16
                                R18R17G13R19
  23291620.484   122398313.196    23291629.840    95375347.2784   23291629.531  
                
  21475829.609   112856245.467    21475839.270    87939986.5754   21475839.191  
                
  21821890.234   116568617.447                    90664502.469    21821892.793  
  21821889.801  
  21016022.609   112145533.948                    87224341.918    21016025.531  
  21016020.426  
  21764116.352   114371193.266    21764124.262    89120436.9494   21764124.293  
                
  20197735.219   106139821.660    20197741.871    82706396.4344   20197741.977  
                
  23100669.258   121394834.804    23100676.477    94593415.9664   23100676.664  
                
  21021824.047   112531494.305                    87524504.328    21021828.410  
  21021823.070  
  21764564.062   116221579.193                    90394548.501    21764567.242  
  21764563.480  
  23807306.250   125108244.372    23807316.469    97486999.5864   23807316.031  
                
  21325734.594   112067501.970    21325741.965    87325375.4344   21325741.855  
                
  22312067.961   117250727.103    22312074.156    91364231.1514                 
                
  19730490.820   105322702.044                    81917660.469    19730494.031  
  19730489.277  
  21606350.133   115619919.184                    89926595.927    21606354.137  
  21606348.383  
  24359161.688   128008269.537    24359169.699    99746731.0874                 
                
  21350452.164   114210550.101                    88830455.612    21350455.578  
  21350449.949  
 21  8 14  6 57 50.0000000  0 16G15G26R16R 2G29G18G 5R 3R 9G10G23G16
                                R18R17G13R19
  23287738.203   122377911.624    23287747.543    95359449.9854   23287747.238  
                
  21476936.914   112862064.441    21476946.578    87944520.8464   21476946.484  
                
  21827555.531   116598880.441                    90688040.327    21827558.098  
  21827555.090  
  21017694.938   112154457.773                    87231282.678    21017697.824  
  21017692.746  
  21768388.828   114393645.259    21768396.773    89137931.9954   21768396.781  
                
  20197896.531   106140669.361    20197903.184    82707056.9844   20197903.285  
                
  23106508.414   121425519.720    23106515.609    94617326.2704   23106515.805  
                
  21016309.312   112501973.537                    87501543.744    21016313.688  
  21016308.316  
  21763743.812   116217199.047                    90391141.726    21763746.996  
  21763743.234  
  23800494.961   125072450.233    23800505.027    97459108.0704   23800504.602  
                
  21320939.797   112042305.162    21320947.137    87305741.5634   21320947.039  
                
  22308752.289   117233303.194    22308758.504    91350654.0874                 
                
  19730590.609   105323234.680                    81918074.737    19730593.809  
  19730589.062  
  21610974.883   115644666.997                    89945844.227    21610978.840  
  21610973.133  
  24356649.062   127995065.872    24356657.168    99736442.5404                 
                
  21346110.727   114187326.312                    88812392.658    21346114.105  
  21346108.566  
 21  8 14  6 58  0.0000000  0 16G15G26R16R 2G29G18G 5R 3R 9G10G23G16
                                R18R17G13R19
  23283864.867   122357556.997    23283874.184    95343589.2624   23283873.883  
                
  21478056.344   112867947.087    21478065.996    87949104.7274   21478065.910  
                
  21833231.070   116629197.988                    90711620.626    21833233.598  
  21833230.605  
  21019383.906   112163470.429                    87238292.529    21019386.777  
  21019381.727  
  21772667.945   114416132.138    21772675.902    89155454.2334   21772675.914  
                
  20198065.133   106141555.400    20198071.785    82707747.4074   20198071.887  
                
  23112354.352   121456240.284    23112361.523    94641264.3654   23112361.727  
                
  21010806.391   112472516.021                    87478632.357    21010810.770  
  21010805.371  
  21762939.969   116212906.587                    90387803.143    21762943.172  
  21762939.383  
  23793686.703   125036672.332    23793696.676    97431229.2024   23793696.262  
                
  21316154.148   112017156.436    21316161.461    87286145.1664   21316161.379  
                
  22305447.953   117215938.871    22305454.188    91337123.4504                 
                
  19730696.578   105323800.361                    81918514.710    19730699.773  
  19730695.039  
  21615603.203   115669433.987                    89965107.443    21615607.141  
  21615601.441  
  24354146.430   127981914.653    24354154.621    99726194.8474                 
                
  21341772.594   114164120.253                    88794343.524    21341775.969  
  21341770.402  
 21  8 14  6 58 10.0000000  0 16G15G26R16R 2G29G18G 5R 3R 9G10G23G16
                                R18R17G13R19
  23280000.562   122337249.835    23280009.844    95327765.4974   23280009.551  
                
  21479187.977   112873893.827    21479197.621    87953738.5464   21479197.555  
                
  21838916.781   116659570.031                    90735243.319    21838919.344  
  21838916.324  
  21021089.562   112172572.124                    87245371.641    21021092.430  
  21021087.391  
  21776953.797   114438654.359    21776961.746    89173004.0014   21776961.750  
                
  20198241.125   106142480.189    20198247.797    82708468.0254   20198247.891  
                
  23118207.141   121486996.798    23118214.285    94665230.4774   23118214.477  
                
  21005315.461   112443122.705                    87455770.862    21005319.848  
  21005314.410  
  21762152.672   116208702.364                    90384533.188    21762155.883  
  21762152.102  
  23786881.523   125000911.186    23786891.555    97403363.4104   23786891.145  
                
  21311377.758   111992056.323    21311385.066    87266586.6484   21311384.969  
                
  22302155.062   117198634.570    22302161.301    91323639.5874                 
                
  19730808.844   105324399.594                    81918980.786    19730812.039  
  19730807.301  
  21620235.188   115694220.607                    89984385.916    21620239.145  
  21620233.418  
  24351653.883   127968816.349    24351662.090    99715988.3994                 
                
  21337437.891   114140932.497                    88776308.615    21337441.266  
  21337435.719  
 21  8 14  6 58 20.0000000  0 16G15G26R16R 2G29G18G 5R 3R 9G10G23G16
                                R18R17G13R19
  23276145.219   122316989.896    23276154.457    95311978.5584   23276154.195  
                
  21480331.742   112879904.369    21480341.387    87958422.0924   21480341.312  
                
  21844612.664   116689996.390                    90758908.248    21844615.227  
  21844612.180  
  21022811.859   112181762.609                    87252519.790    21022814.719  
  21022809.699  
  21781246.320   114461211.697    21781254.262    89190581.1404   21781254.277  
                
  20198424.430   106143443.477    20198431.121    82709218.6424   20198431.195  
                
  23124066.703   121517788.951    23124073.836    94689224.3604   23124074.016  
                
  20999836.453   112413793.279                    87432959.095    20999840.848  
  20999835.336  
  21761381.812   116204586.009                    90381331.568    21761385.023  
  21761381.254  
  23780079.469   124965166.656    23780089.566    97375510.5614   23780089.160  
                
  21306610.578   111967004.637    21306617.871    87247065.8604   21306617.750  
                
  22298873.547   117181390.186    22298879.777    91310202.4104                 
                
  19730927.336   105325032.137                    81919472.762    19730930.527  
  19730925.797  
  21624870.789   115719026.626                    90003679.459    21624874.746  
  21624868.996  
  24349171.359   127955770.807    24349179.535    99705823.0444                 
                
  21333106.586   114117762.885                    88758287.833    21333109.965  
  21333104.414  
 21  8 14  6 58 30.0000000  0 16G15G26R16R 2G29G18G 5R 3R 9G10G23G16
                                R18R17G13R19
  23272299.008   122296777.934    23272308.219    95296229.0004   23272307.969  
                
  21481487.773   112885979.337    21481497.422    87963155.8334   21481497.332  
                
  21850318.789   116720477.395                    90782615.690    21850321.332  
  21850318.289  
  21024550.812   112191041.917                    87259737.028    21024553.672  
  21024548.664  
  21785545.656   114483804.792    21785553.594    89208186.1504   21785553.613  
                
  20198615.180   106144445.855    20198621.902    82709999.7214   20198621.961  
                
  23129933.156   121548617.270    23129940.277    94713246.4204   23129940.438  
                
  20994369.562   112384528.724                    87410197.786    20994373.949  
  20994368.402  
  21760627.570   116200558.357                    90378198.925    21760630.746  
  21760627.043  
  23773280.680   124929439.423    23773290.844    97347671.1844   23773290.426  
                
  21301852.742   111942002.076    21301860.004    87227583.3544   21301859.895  
                
  22295603.578   117164206.427    22295609.797    91296812.4764                 
                
  19731052.172   105325698.532                    81919991.065    19731055.355  
  19731050.645  
  21629510.133   115743852.593                    90022988.549    21629514.102  
  21629508.355  
  24346699.016   127942778.703    24346707.180    99695699.3294                 
                
  21328778.773   114094611.976                    88740281.555    21328782.152  
  21328776.566  
 21  8 14  6 58 40.0000000  0 16G15G26R16R 2G29G18G 5R 3R 9G10G23G16
                                R18R17G13R19
  23268461.680   122276612.591    23268470.871    95280515.7654   23268470.629  
                
  21482655.781   112892117.236    21482665.426    87967938.6154   21482665.340  
                
  21856034.859   116751011.629                    90806364.510    21856037.406  
  21856034.371  
  21026306.266   112200409.314                    87267022.799    21026309.125  
  21026304.148  
  21789851.516   114506432.163    21789859.469    89225817.8544   21789859.473  
                
  20198813.086   106145485.867    20198819.832    82710810.1164   20198819.879  
                
  23135806.180   121579480.158    23135813.281    94737295.4104   23135813.441  
                
  20988914.523   112355327.540                    87387485.769    20988918.910  
  20988913.344  
  21759889.641   116196617.761                    90375134.041    21759892.824  
  21759889.137  
  23766484.945   124893728.149    23766495.156    97319844.2364   23766494.719  
                
  21297103.992   111917047.274    21297111.254    87208138.0564   21297111.148  
                
  22292344.891   117147081.895    22292351.098    91283468.6894                 
                
  19731183.070   105326397.257                    81920534.525    19731186.270  
  19731181.547  
  21634152.922   115768697.056                    90042311.986    21634156.918  
  21634151.164  
  24344236.570   127929838.660    24344244.730    99685616.1854                 
                
  21324454.203   114071478.510                    88722288.882    21324457.594  
  21324451.988  
 21  8 14  6 58 50.0000000  0 16G15G26R16R 2G29G18G 5R 3R 9G10G23G16
                                R18R17G13R19
  23264633.438   122256495.000    23264642.629    95264839.7374   23264642.367  
                
  21483835.938   112898319.045    21483845.574    87972771.1824   21483845.496  
                
  21861760.992   116781599.663                    90830155.193    21861763.535  
  21861760.520  
  21028078.328   112209865.331                    87274377.476    21028081.199  
  21028076.234  
  21794164.062   114529094.746    21794172.035    89243476.9974   21794172.008  
                
  20199018.328   106146564.449    20199025.102    82711650.5754   20199025.129  
                
  23141685.953   121610378.595    23141693.023    94761372.1074   23141693.180  
                
  20983471.523   112326190.916                    87364823.941    20983475.934  
  20983470.328  
  21759168.203   116192765.313                    90372137.700    21759171.379  
  21759167.691  
  23759692.477   124858033.882    23759702.762    97292030.5594   23759702.309  
                
  21292364.523   111892141.278    21292371.816    87188730.8054   21292371.695  
                
  22289097.664   117130017.714    22289103.879    91270171.9294                 
                
  19731320.258   105327129.550                    81921104.082    19731323.453  
  19731318.746  
  21638799.375   115793561.151                    90061650.711    21638803.383  
  21638797.605  
  24341784.258   127916951.781    24341792.391    99675574.4944                 
                
  21320133.008   114048363.182                    88704310.305    21320136.391  
  21320130.816  
 21  8 14  6 59  0.0000000  0 16G15G26R16R 2G29G18G 5R 3R 9G10G23G16
                                R18R17G13R19
  23260814.344   122236425.363    23260823.512    95249201.0664   23260823.215  
                
  21485028.219   112904584.543    21485037.848    87977653.3994   21485037.770  
                
  21867497.203   116812241.338                    90853987.588    21867499.762  
  21867496.703  
  21029867.023   112219410.118                    87281801.207    21029869.930  
  21029864.934  
  21798483.297   114551792.393    21798491.281    89261163.4704   21798491.234  
                
  20199230.883   106147681.426    20199237.680    82712520.9514   20199237.688  
                
  23147572.445   121641312.204    23147579.477    94785476.2104   23147579.613  
                
  20978040.609   112297118.832                    87342212.324    20978045.016  
  20978039.402  
  21758463.250   116189000.846                    90369209.764    21758466.395  
  21758462.734  
  23752903.250   124822356.555    23752913.590    97264230.0714   23752913.129  
                
  21287634.344   111867284.008    21287641.668    87169361.5174   21287641.539  
                
  22285861.906   117113013.699    22285868.109    91256922.0644                 
                
  19731463.664   105327895.051                    81921699.470    19731466.852  
  19731462.145  
  21643449.453   115818444.647                    90081004.524    21643453.480  
  21643447.660  
  24339342.055   127904117.979    24339350.168    99665574.1244                 
                
  21315815.289   114025266.377                    88686346.119    21315818.652  
  21315813.129  
 21  8 14  6 59 10.0000000  0 16G15G26R16R 2G29G18G 5R 3R 9G10G23G16
                                R18R17G13R19
  23257004.289   122216403.546    23257013.449    95233599.6754   23257013.148  
                
  21486232.648   112910913.844    21486242.273    87982585.3124   21486242.211  
                
  21873243.430   116842936.659                    90877861.719    21873246.000  
  21873242.914  
  21031672.258   112229043.188                    87289293.587    21031675.168  
  21031670.152  
  21802809.219   114574525.247    21802817.219    89278877.3744   21802817.168  
                
  20199450.758   106148836.896    20199457.562    82713421.3144   20199457.562  
                
  23153465.633   121672281.008    23153472.609    94809607.7454   23153472.758  
                
  20972621.805   112268111.637                    87319651.163    20972626.203  
  20972620.586  
  21757774.773   116185324.410                    90366350.332    21757777.910  
  21757774.273  
  23746117.297   124786696.355    23746127.672    97236442.9354   23746127.203  
                
  21282913.453   111842475.636    21282920.793    87150030.3274   21282920.652  
                
  22282637.641   117096070.094    22282643.828    91243719.2574                 
                
  19731613.344   105328694.045                    81922320.908    19731616.535  
  19731611.812  
  21648103.180   115843347.601                    90100373.480    21648107.215  
  21648101.395  
  24336909.969   127891337.402    24336918.109    99655615.2374                 
                
  21311500.977   114002187.699                    88668396.055    21311504.316  
  21311498.816  
 21  8 14  6 59 20.0000000  0 16G15G26R16R 2G29G18G 5R 3R 9G10G23G16
                                R18R17G13R19
  23253203.336   122196429.507    23253212.457    95218035.5244   23253212.180  
                
  21487449.164   112917306.670    21487458.797    87987566.7434   21487458.719  
                
  21878999.633   116873685.247                    90901777.271    21879002.172  
  21878999.117  
  21033494.047   112238764.648                    87296854.725    21033496.984  
  21033491.941  
  21807141.789   114597292.982    21807149.809    89296618.4614   21807149.730  
                
  20199677.914   106150030.607    20199684.738    82714351.4844   20199684.734  
                
  23159365.477   121703284.809    23159372.453    94833766.5364   23159372.578  
                
  20967215.109   112239169.247                    87297140.432    20967219.539  
  20967213.863  
  21757102.773   116181735.956                    90363559.301    21757105.934  
  21757102.273  
  23739334.602   124751053.166    23739344.988    97208669.0484   23739344.527  
                
  21278201.859   111817716.034    21278209.188    87130737.1474   21278209.051  
                
  22279424.844   117079186.790    22279431.039    91230563.4434                 
                
  19731769.242   105329526.209                    81922968.153    19731772.426  
  19731767.695  
  21652760.492   115868269.777                    90119757.370    21652764.539  
  21652758.664  
  24334488.000   127878610.026    24334496.199    99645697.8114                 
                
  21307190.039   113979127.083                    88650460.034    21307193.383  
  21307187.875  
 21  8 14  6 59 30.0000000  0 16G15G26R16R 2G29G18G 5R 3R 9G10G23G16
                                R18R17G13R19
  23249411.516   122176503.364    23249420.527    95202508.6734   23249420.289  
                
  21488677.773   112923763.042    21488687.414    87992597.6734   21488687.316  
                
  21884765.789   116904486.857                    90925734.062    21884768.348  
  21884765.281  
  21035332.406   112248574.437                    87304484.574    21035335.375  
  21035330.297  
  21811480.992   114620095.590    21811489.031    89314386.7124   21811488.938  
                
  20199912.344   106151262.546    20199919.188    82715311.4384   20199919.160  
                
  23165271.953   121734323.437    23165278.922    94857952.4754   23165279.031  
                
  20961820.508   112210291.614                    87274680.057    20961824.996  
  20961819.234  
  21756447.219   116178235.308                    90360836.561    21756450.359  
  21756446.730  
  23732555.188   124715427.038    23732565.523    97180908.4524   23732565.059  
                
  21273499.555   111793005.281    21273506.867    87111482.0154   21273506.734  
                
  22276223.531   117062363.792    22276229.750    91217454.6214                 
                
  19731931.344   105330391.515                    81923641.161    19731934.523  
  19731929.793  
  21657421.383   115893211.204                    90139156.245    21657425.461  
  21657419.527  
  24332076.148   127865935.834    24332084.371    99635821.8584                 
                
  21302882.508   113956084.669                    88632538.174    21302885.855  
  21302880.359  
 21  8 14  6 59 40.0000000  0 16G15G26R16R 2G29G18G 5R 3R 9G10G23G16
                                R18R17G13R19
  23245628.844   122156625.328    23245637.777    95187019.2994   23245637.570  
                
  21489918.453   112930282.875    21489928.098    87997678.0694   21489928.004  
                
  21890541.805   116935341.244                    90949731.939    21890544.375  
  21890541.293  
  21037187.297   112258472.548                    87312183.120    21037190.289  
  21037185.195  
  21815826.789   114642932.956    21815834.867    89332182.0584   21815834.770  
                
  20200154.031   106152532.678    20200160.891    82716301.1564   20200160.852  
                
  23171185.016   121765396.818    23171191.934    94882165.4874   23171192.078  
                
  20956438.078   112181479.173                    87252270.386    20956442.598  
  20956436.816  
  21755808.117   116174822.553                    90358182.213    21755811.246  
  21755807.629  
  23725778.984   124679818.089    23725789.352    97153161.2554   23725788.883  
                
  21268806.547   111768343.435    21268813.840    87092264.9984   21268813.719  
                
  22273033.695   117045601.148    22273039.949    91204392.8344                 
                
  19732099.672   105331290.108                    81924340.066    19732102.855  
  19732098.129  
  21662085.875   115918171.777                    90158570.003    21662089.973  
  21662084.031  
  24329674.453   127853314.899    24329682.652    99625987.3834                 
                
  21298578.359   113933060.477                    88614630.484    21298581.707  
  21298576.188  
