     2.11           OBSERVATION DATA    M (MIXED)           RINEX VERSION / TYPE
EFT-CORS.RU                             20210817 150658 UTC PGM / RUN BY / DATE 
MDNG                                                        MARKER NAME         
                                                            MARKER NUMBER       
MDNG                EFT-CORS.RU                             OBSERVER / AGENCY   
0                   TRIMBLE BD970       2.0                 REC # / TYPE / VERS 
0                   UNKNOWN EXT NONE                        ANT # / TYPE        
  3463911.2830  3030468.2400  4402179.3760                  APPROX POSITION XYZ 
        0.0000        0.0000        0.0000                  ANTENNA: DELTA H/E/N
     1     1                                                WAVELENGTH FACT L1/2
     6    C1    L1    P2    L2    C2    P1                  # / TYPES OF OBSERV 
    10.000                                                  INTERVAL            
  2021     8    14    18    30    0.0000000     GPS         TIME OF FIRST OBS   
  2021     8    14    19    30    0.0000000     GPS         TIME OF LAST OBS    
     0                                                      RCV CLOCK OFFS APPL 
                                                            END OF HEADER       
 21  8 14 18 30  0.0000000  0 13G 4G 9G 7G16G 8R 8G20G27G30R 2R10R12
                                R 1
  22982415.047   120773425.278    22982422.703    94109214.1994   22982422.504  
                
  20697702.742   108767200.194    20697711.309    84753713.0974   20697711.051  
                
  20572654.039   108110074.987    20572660.133    84241665.4854   20572660.082  
                
  23931894.516   125762987.525    23931899.730    97997170.0814                 
                
  24370513.023   128067906.069    24370523.180    99793220.6404   24370523.805  
                
  20448123.359   109498792.221                    85165753.729    20448126.086  
  20448122.812  
  22267797.648   117018069.833    22267803.980    91182948.0654                 
                
  24220113.633   127277552.838    24220122.523    99177353.1934   24220122.566  
                
  21872922.680   114943024.977    21872931.754    89566046.0324   21872932.043  
                
  22775988.141   121537042.903                    94528805.597    22775991.773  
  22775985.941  
  20825176.656   111009943.227                                                  
  20825175.832  
  22403218.250   119673973.802                    93079745.735    22403222.527  
  22403217.672  
  19179235.430   102524023.303                    79740908.762    19179240.371  
  19179234.809  
 21  8 14 18 30 10.0000000  0 13G 4G 9G 7G16G 8R 8G20G27G30R 2R10R12
                                R 1
  22987701.914   120801208.074    22987709.562    94130863.1224   22987709.375  
                
  20700082.414   108779705.414    20700091.043    84763457.4164   20700090.746  
                
  20572273.469   108108075.122    20572279.578    84240107.1474   20572279.512  
                
  23938070.602   125795443.052    23938075.809    98022460.1084                 
                
  24365799.195   128043134.989    24365809.352    99773918.5234   24365809.984  
                
  20453133.031   109525618.933                    85186618.953    20453135.754  
  20453132.480  
  22264693.328   117001756.568    22264699.633    91170236.4144                 
                
  24217410.086   127263345.684    24217418.914    99166282.6894   24217418.992  
                
  21868860.359   114921677.411    21868869.465    89549411.5744   21868869.738  
                
  22768544.430   121497322.005                    94497911.589    22768548.098  
  22768542.258  
  20831078.523   111041403.492                                                  
  20831077.691  
  22396041.641   119635637.404                    93049928.525    22396045.848  
  22396040.996  
  19177954.742   102517177.350                    79735584.131    19177959.703  
  19177954.125  
 21  8 14 18 30 20.0000000  0 13G 4G 9G 7G16G 8R 8G20G27G30R 2R10R12
                                R 1
  22992993.336   120829014.764    22993000.969    94152530.6684   22993000.789  
                
  20702470.227   108792253.485    20702478.898    84773235.1254   20702478.578  
                
  20571899.383   108106109.293    20571905.508    84238575.3394   20571905.430  
                
  23944253.914   125827936.611    23944259.156    98047779.7414                 
                
  24361090.805   128018392.390    24361100.957    99754638.6004   24361101.586  
                
  20458153.586   109552503.857                    85207529.438    20458156.301  
  20458152.988  
  22261600.453   116985503.402    22261606.711    91157571.6124                 
                
  24214716.836   127249192.649    24214725.637    99155254.3594   24214725.719  
                
  21864803.773   114900359.942    21864812.910    89532800.5714   21864813.160  
                
  22761102.633   121457611.266                    94467025.465    22761106.312  
  22761100.512  
  20836987.828   111072903.356                                                  
  20836986.992  
  22388871.047   119597333.388                    93020136.520    22388875.223  
  22388870.398  
  19176687.711   102510404.344                    79730316.239    19176692.703  
  19176687.070  
 21  8 14 18 30 30.0000000  0 13G 4G 9G 7G16G 8R 8G20G27G30R 2R10R12
                                R 1
  22998289.281   120856845.182    22998296.875    94174216.7014   22998296.727  
                
  20704866.188   108804844.281    20704874.895    84783046.1264   20704874.555  
                
  20571531.750   108104177.416    20571537.891    84237069.9804   20571537.812  
                
  23950444.414   125860468.003    23950449.699    98073128.8434                 
                
  24356387.883   127993678.407    24356398.000    99735380.9714   24356398.617  
                
  20463184.945   109579446.656                    85228484.948    20463187.652  
  20463184.301  
  22258518.984   116969310.219    22258525.191    91144953.5514                 
                
  24212033.883   127235093.728    24212042.645    99144268.1784   24212042.723  
                
  21860752.891   114879072.403    21860762.027    89516212.8844   21860762.277  
                
  22753662.742   121417910.632                    94436147.198    22753666.414  
  22753660.648  
  20842904.547   111104442.791                                                  
  20842903.703  
  22381706.445   119559061.790                    92990369.742    22381710.688  
  22381705.875  
  19175434.320   102503704.235                    79725105.038    19175439.320  
  19175433.672  
 21  8 14 18 30 40.0000000  0 13G 4G 9G 7G16G 8R 8G20G27G30R 2R10R12
                                R 1
  23003589.789   120884699.607    23003597.383    94195921.4464   23003597.250  
                
  20707270.320   108817478.081    20707279.051    84792890.6414   20707278.695  
                
  20571170.641   108102279.781    20571176.797    84235591.3034   20571176.703  
                
  23956642.148   125893037.397    23956647.461    98098507.5874                 
                
  24351690.492   127968993.610    24351700.594    99716146.0944   24351701.219  
                
  20468227.180   109606447.656                    85249485.706    20468229.875  
  20468226.492  
  22255449.016   116953177.460    22255455.188    91132382.5714                 
                
  24209361.312   127221049.281    24209370.066    99133324.4694   24209370.145  
                
  21856707.773   114857815.192    21856716.902    89499648.8334   21856717.164  
                
  22746224.812   121378220.394                    94405277.025    22746228.434  
  22746222.688  
  20848828.703   111136021.890                                                  
  20848827.852  
  22374547.992   119520822.936                    92960628.422    22374552.289  
  22374547.469  
  19174194.648   102497077.469                    79719950.884    19174199.648  
  19174193.992  
 21  8 14 18 30 50.0000000  0 13G 4G 9G 7G16G 8R 8G20G27G30R 2R10R12
                                R 1
  23008894.797   120912577.586    23008902.402    94217644.5544   23008902.266  
                
  20709682.555   108830154.485    20709691.285    84802768.3554   20709690.918  
                
  20570815.961   108100415.943    20570822.137    84234138.9644   20570822.031  
                
  23962846.992   125925644.243    23962852.355    98123915.4864                 
                
  24346998.586   127944337.355    24347008.652    99696933.4624   24347009.285  
                
  20473280.258   109633506.686                    85270531.622    20473282.934  
  20473279.559  
  22252390.477   116937104.712    22252396.641    91119858.3534                 
                
  24206699.031   127207058.994    24206707.758    99122422.9604   24206707.859  
                
  21852668.336   114836587.830    21852677.457    89483108.0394   21852677.719  
                
  22738788.766   121338540.316                    94374414.774    22738792.391  
  22738786.594  
  20854760.203   111167640.080                                                  
  20854759.332  
  22367395.680   119482616.393                    92930912.243    22367399.957  
  22367395.121  
  19172968.602   102490523.568                    79714853.405    19172973.613  
  19172967.953  
 21  8 14 18 31  0.0000000  0 13G 4G 9G 7G16G 8R 8G20G27G30R 2R10R12
                                R 1
  23014204.266   120940479.021    23014211.883    94239385.9244   23014211.734  
                
  20712102.883   108842873.396    20712111.598    84812679.1864   20712111.230  
                
  20570467.695   108098585.842    20570473.891    84232712.9144   20570473.777  
                
  23969058.938   125958288.379    23969064.340    98149352.4964                 
                
  24342312.102   127919709.724    24342322.086    99677743.1104   24342322.766  
                
  20478344.094   109660623.390                    85291622.384    20478346.777  
  20478343.379  
  22249343.344   116921091.979    22249349.531    91107380.8954                 
                
  24204047.055   127193122.851    24204055.770    99111563.6434   24204055.875  
                
  21848634.578   114815390.294    21848643.695    89466590.4834   21848643.945  
                
  22731354.625   121298870.454                    94343560.445    22731358.223  
  22731352.410  
  20860698.977   111199297.142                                                  
  20860698.070  
  22360249.406   119444442.380                    92901221.368    22360253.699  
  22360248.867  
  19171756.211   102484042.634                    79709812.676    19171761.234  
  19171755.566  
 21  8 14 18 31 10.0000000  0 13G 4G 9G 7G16G 8R 8G20G27G30R 2R10R12
                                R 1
  23019518.312   120968404.486    23019525.934    94261146.0244   23019525.793  
                
  20714531.422   108855635.415    20714540.113    84822623.6144   20714539.766  
                
  20570125.992   108096790.133    20570132.199    84231313.6634   20570132.082  
                
  23975278.070   125990970.249    23975283.504    98174818.8734                 
                
  24337631.180   127895111.347    24337641.133    99658575.5504   24337641.820  
                
  20483418.797   109687798.136                    85312758.292    20483421.469  
  20483418.098  
  22246307.766   116905139.895    22246313.938    91094950.6994                 
                
  24201405.516   127179241.510    24201414.242    99100747.0394   24201414.359  
                
  21844606.609   114794223.175    21844615.730    89450096.6304   21844615.977  
                
  22723922.477   121259211.235                    94312714.423    22723926.094  
  22723920.242  
  20866645.109   111230993.366                                                  
  20866644.184  
  22353109.234   119406301.470                    92871556.221    22353113.652  
  22353108.816  
  19170557.578   102477635.230                    79704829.133    19170562.602  
  19170556.945  
 21  8 14 18 31 20.0000000  0 13G 4G 9G 7G16G 8R 8G20G27G30R 2R10R12
                                R 1
  23024836.773   120996353.306    23024844.391    94282924.3104   23024844.277  
                
  20716968.023   108868439.866    20716976.672    84832601.1074   20716976.359  
                
  20569790.672   108095028.081    20569796.891    84229940.6314   20569796.762  
                
  23981504.219   126023688.977    23981509.688    98200313.9734                 
                
  24332955.766   127870541.981    24332965.707    99639430.6294   24332966.391  
                
  20488504.242   109715030.427                    85333938.963    20488506.883  
  20488503.590  
  22243283.602   116889247.899    22243289.762    91082567.3244                 
                
  24198774.305   127165414.457    24198783.074    99089972.7374   24198783.184  
                
  21840584.289   114773085.818    21840593.418    89433625.9724   21840593.652  
                
  22716492.367   121219562.876                    94281876.818    22716495.977  
  22716490.145  
  20872598.469   111262728.151                                                  
  20872597.539  
  22345975.141   119368192.981                    92841916.306    22345979.633  
  22345974.781  
  19169372.609   102471300.917                    79699902.457    19169377.633  
  19169371.973  
 21  8 14 18 31 30.0000000  0 13G 4G 9G 7G16G 8R 8G20G27G30R 2R10R12
                                R 1
  23030159.781   121024326.011    23030167.426    94304721.2114   23030167.328  
                
  20719412.820   108881287.367    20719421.422    84842612.1394   20719421.141  
                
  20569461.867   108093300.206    20569468.109    84228594.2314   20569467.973  
                
  23987737.508   126056445.129    23987743.016    98225838.2394                 
                
  24328286.047   127846002.104    24328295.961    99620308.6984   24328296.633  
                
  20493600.516   109742320.710                    85355164.740    20493603.164  
  20493599.898  
  22240271.000   116873416.573    22240277.137    91070231.2154                 
                
  24196153.555   127151642.323    24196162.309    99079241.2174   24196162.410  
                
  21836567.773   114751978.874    21836576.910    89417179.0134   21836577.137  
                
  22709064.328   121179925.217                    94251047.548    22709067.883  
  22709062.090  
  20878559.164   111294502.103                                                  
  20878558.238  
  22338847.406   119330117.683                    92812302.193    22338851.863  
  22338847.012  
  19168201.438   102465040.324                    79695033.100    19168206.449  
  19168200.797  
 21  8 14 18 31 40.0000000  0 13G 4G 9G 7G16G 8R 8G20G27G30R 2R10R12
                                R 1
  23035487.234   121052322.021    23035494.902    94326536.2994   23035494.789  
                
  20721865.695   108894177.322    20721874.262    84852656.2644   20721874.016  
                
  20569139.461   108091605.945    20569145.723    84227274.0314   20569145.566  
                
  23993977.805   126089238.111    23993983.352    98251391.2004                 
                
  24323621.891   127821491.399    24323631.723    99601209.4574   24323632.414  
                
  20498707.516   109769668.324                    85376435.092    20498710.152  
  20498706.945  
  22237269.859   116857645.498    22237275.977    91057942.0674                 
                
  24193543.156   127137924.617    24193551.875    99068552.1344   24193551.980  
                
  21832556.930   114730901.753    21832566.086    89400755.2944   21832566.312  
                
  22701638.250   121140298.089                    94220226.468    22701641.742  
  22701635.977  
  20884527.031   111326314.225                                                  
  20884526.086  
  22331725.734   119292075.082                    92782713.518    22331730.199  
  22331725.348  
  19167043.914   102458852.686                    79690220.490    19167048.914  
  19167043.277  
 21  8 14 18 31 50.0000000  0 14G 4G 9G 7G 5G16G 8R 8G20G27G30R 2R10
                                R12R 1
  23040819.141   121080341.420    23040826.801    94348369.6074   23040826.691  
                
  20724326.680   108907109.847    20724335.219    84862733.5514   20724334.984  
                
  20568823.469   108089945.375    20568829.758    84225980.0854   20568829.594  
                
  24564285.969   129086186.505    24564294.020   100586676.4614   24564294.297  
                
  24000225.078   126122067.887    24000230.664    98276972.8474                 
                
  24318963.359   127797010.182    24318973.117    99582133.1894   24318973.797  
                
  20503825.242   109797073.318                    85397750.075    20503827.852  
  20503824.719  
  22234280.203   116841934.755    22234286.316    91045699.9204                 
                
  24190943.164   127124261.592    24190951.859    99057905.6374   24190951.996  
                
  21828551.789   114709854.577    21828560.957    89384354.9064   21828561.164  
                
  22694214.117   121100681.574                    94189413.636    22694217.598  
  22694211.855  
  20890502.078   111358164.601                                                  
  20890501.102  
  22324610.219   119254065.425                    92753150.474    22324614.695  
  22324609.832  
  19165900.148   102452738.609                    79685465.093    19165905.145  
  19165899.496  
 21  8 14 18 32  0.0000000  0 14G 4G 9G 7G 5G16G 8R 8G20G27G30R 2R10
                                R12R 1
  23046155.398   121108383.792    23046163.035    94370220.7894   23046162.949  
                
  20726795.672   108920084.514    20726804.203    84872843.6784   20726803.973  
                
  20568513.797   108088318.075    20568520.117    84224712.0634   20568519.926  
                
  24558294.594   129054701.889    24558302.641   100562142.9904   24558302.785  
                
  24006479.297   126154933.909    24006484.891    98302582.7414                 
                
  24314310.305   127772558.027    24314320.074    99563079.5964   24314320.738  
                
  20508953.594   109824535.332                    85419109.429    20508956.195  
  20508953.113  
  22231301.961   116826284.048    22231308.086    91033504.5574                 
                
  24188353.500   127110652.865    24188362.203    99047301.4514   24188362.336  
                
  21824552.273   114688836.968    21824561.418    89367977.5544   21824561.645  
                
  22686791.992   121061075.815                    94158609.180    22686795.477  
  22686789.703  
  20896484.203   111390052.736                                                  
  20896483.191  
  22317500.828   119216088.286                    92723612.726    22317505.250  
  22317500.402  
  19164769.969   102446697.176                    79680766.192    19164774.969  
  19164769.309  
 21  8 14 18 32 10.0000000  0 14G 4G 9G 7G 5G16G 8R 8G20G27G30R 2R10
                                R12R 1
  23051496.219   121136450.124    23051503.852    94392090.6584   23051503.781  
                
  20729272.891   108933102.400    20729281.422    84882987.4834   20729281.191  
                
  20568210.664   108086725.096    20568217.016    84223470.7844   20568216.809  
                
  24552309.477   129023250.189    24552317.609   100537635.1894   24552317.703  
                
  24012740.594   126187837.150    24012746.230    98328221.6254                 
                
  24309663.000   127748136.170    24309672.801    99544049.5944   24309673.434  
                
  20514092.750   109852055.227                    85440513.781    20514095.340  
  20514092.297  
  22228335.367   116810694.523    22228341.508    91021356.8674                 
                
  24185774.391   127097099.595    24185783.098    99036740.4934   24185783.230  
                
  21820558.570   114667849.977    21820567.680    89351624.0584   21820567.922  
                
  22679372.000   121021481.718                    94127813.802    22679375.559  
  22679369.730  
  20902473.578   111421979.571                                                  
  20902472.555  
  22310397.773   119178144.877                    92694101.188    22310402.105  
  22310397.277  
  19163653.688   102440730.039                    79676125.085    19163658.680  
  19163653.020  
 21  8 14 18 32 20.0000000  0 14G 4G 9G 7G 5G16G 8R 8G20G27G30R 2R10
                                R12R 1
  23056841.523   121164540.047    23056849.207    94413978.9084   23056849.113  
                
  20731758.258   108946163.111    20731766.793    84893164.6584   20731766.555  
                
  20567913.977   108085166.028    20567920.359    84222255.9294   20567920.137  
                
  24546330.648   128991831.230    24546338.855   100513152.9054   24546338.797  
                
  24019008.875   126220777.111    24019014.590    98353889.0914                 
                
  24305021.367   127723744.169    24305031.176    99525042.8444   24305031.793  
                
  20519242.664   109879632.689                    85461962.914    20519245.250  
  20519242.250  
  22225380.352   116795165.845    22225386.512    91009256.6094                 
                
  24183205.773   127083601.487    24183214.500    99026222.4934   24183214.652  
                
  21816570.648   114646893.282    21816579.727    89335294.1714   21816579.965  
                
  22671954.148   120981898.975                    94097027.236    22671957.746  
  22671951.922  
  20908470.125   111453944.523                                                  
  20908469.121  
  22303300.945   119140234.976                    92664615.708    22303305.262  
  22303300.434  
  19162551.219   102434836.729                    79671541.392    19162556.207  
  19162550.547  
 21  8 14 18 32 30.0000000  0 14G 4G 9G 7G 5G16G 8R 8G20G27G30R 2R10
                                R12R 1
  23062191.266   121192653.483    23062199.012    94435885.4634   23062198.898  
                
  20734251.766   108959266.576    20734260.297    84903375.1474   20734260.043  
                
  20567623.727   108083640.750    20567630.141    84221067.4014   20567629.895  
                
  24540358.070   128960445.066    24540366.277   100488696.1534   24540366.152  
                
  24025284.102   126253753.583    24025289.887    98379585.0294                 
                
  24300385.438   127699382.103    24300395.223    99506059.4344   24300395.816  
                
  20524403.258   109907267.389                    85483456.580    20524405.852  
  20524402.867  
  22222436.922   116779698.033    22222443.078    90997203.7644                 
                
  24180647.648   127070158.520    24180656.414    99015747.4614   24180656.594  
                
  21812588.453   114625966.764    21812597.492    89318987.8024   21812597.746  
                
  22664538.461   120942327.811                    94066249.704    22664542.102  
  22664536.332  
  20914473.773   111485947.373                                                  
  20914472.773  
  22296210.367   119102358.408                    92635156.171    22296214.684  
  22296209.840  
  19161462.578   102429017.309                    79667015.174    19161467.570  
  19161461.898  
 21  8 14 18 32 40.0000000  0 14G 4G 9G 7G 5G16G 8R 8G20G27G30R 2R10
                                R12R 1
  23067545.500   121220790.384    23067553.234    94457810.3314   23067553.145  
                
  20736753.414   108972412.832    20736761.941    84913618.9924   20736761.688  
                
  20567339.906   108082149.284    20567346.340    84219905.2244   20567346.078  
                
  24534391.742   128929091.836    24534399.918   100464265.0734   24534399.816  
                
  24031566.250   126286766.472    24031572.086    98405309.3624                 
                
  24295755.258   127675050.286    24295765.043    99487099.5904   24295765.621  
                
  20529574.570   109934959.511                    85504994.889    20529577.156  
  20529574.184  
  22219505.086   116764291.109    22219511.219    90985198.3854                 
                
  24178100.055   127056770.853    24178108.879    99005315.5254   24178109.059  
                
  21808612.031   114605070.530    21808621.035    89302705.0254   21808621.312  
                
  22657124.984   120902768.121                    94035481.082    22657128.609  
  22657122.918  
  20920484.516   111517988.051                                                  
  20920483.527  
  22289125.984   119064515.347                    92605722.712    22289130.375  
  22289125.504  
  19160387.781   102423271.900                    79662546.519    19160392.770  
  19160387.105  
 21  8 14 18 32 50.0000000  0 14G 4G 9G 7G 5G16G 8R 8G20G27G30R 2R10
                                R12R 1
  23072904.219   121248950.738    23072911.918    94479753.4774   23072911.879  
                
  20739263.195   108985601.854    20739271.715    84923896.1454   20739271.449  
                
  20567062.531   108080691.649    20567068.988    84218769.4004   20567068.703  
                
  24528431.672   128897771.609    24528439.832   100439859.7114   24528439.785  
                
  24037855.312   126319815.720    24037861.180    98431062.0104                 
                
  24291130.852   127650748.621    24291140.609    99468163.2254   24291141.180  
                
  20534756.586   109962708.884                    85526577.732    20534759.195  
  20534756.211  
  22216584.836   116748945.124    22216590.965    90973240.4614                 
                
  24175562.992   127043438.533    24175571.863    98994926.7254   24175572.020  
                
  21804641.367   114584204.550    21804650.344    89286445.8244   21804650.633  
                
  22649713.719   120863220.016                    94004721.450    22649717.277  
  22649711.641  
  20926502.336   111550066.405                                                  
  20926501.359  
  22282047.891   119026705.932                    92576315.421    22282052.340  
  22282047.457  
  19159326.789   102417600.279                    79658135.256    19159331.789  
  19159326.121  
 21  8 14 18 33  0.0000000  0 14G 4G 9G 7G 5G16G 8R 8G20G27G30R 2R10
                                R12R 1
  23078267.375   121277134.445    23078275.078    94501714.7934   23078275.043  
                
  20741781.117   108998833.566    20741789.621    84934206.5654   20741789.344  
                
  20566791.562   108079267.703    20566798.047    84217659.8364   20566797.746  
                
  24522477.891   128866484.504    24522486.105   100415480.1374   24522486.074  
                
  24044151.242   126352901.072    24044157.117    98456842.8134                 
                
  24286512.148   127626477.340    24286521.957    99449250.5604   24286522.520  
                
  20539949.258   109990515.355                    85548204.968    20539951.863  
  20539948.863  
  22213676.188   116733660.067    22213682.320    90961330.0244                 
                
  24173036.469   127030161.580    24173045.371    98984581.0564   24173045.523  
                
  21800676.445   114563368.755    21800685.418    89270210.1504   21800685.707  
                
  22642304.602   120823683.586                    93973970.905    22642308.145  
  22642302.516  
  20932527.242   111582182.484                                                  
  20932526.238  
  22274976.188   118988930.114                    92546934.224    22274980.598  
  22274975.738  
  19158279.648   102412002.703                    79653781.578    19158284.652  
  19158278.980  
 21  8 14 18 33 10.0000000  0 14G 4G 9G 7G 5G16G 8R 8G20G27G30R 2R10
                                R12R 1
  23083634.969   121305341.556    23083642.699    94523694.3694   23083642.668  
                
  20744307.164   109012108.026    20744315.641    84944550.2894   20744315.375  
                
  20566527.008   108077877.458    20566533.520    84216576.5334   20566533.203  
                
  24516530.453   128835230.524    24516538.680   100391126.3834   24516538.625  
                
  24050454.023   126386022.522    24050459.895    98482651.7564                 
                
  24281899.188   127602236.441    24281909.027    99430361.5684   24281909.586  
                
  20545152.609   110018379.088                    85569876.760    20545155.219  
  20545152.191  
  22210779.141   116718436.003    22210785.254    90949467.1174                 
                
  24170520.500   127016940.107    24170529.453    98974278.6344   24170529.566  
                
  21796717.281   114542563.246    21796726.266    89253998.0744   21796726.543  
                
  22634897.727   120784159.049                    93943229.614    22634901.234  
  22634895.625  
  20938559.133   111614335.900                                                  
  20938558.129  
  22267910.680   118951188.020                    92517579.259    22267915.160  
  22267910.301  
  19157246.359   102406479.175                    79649485.499    19157251.363  
  19157245.719  
 21  8 14 18 33 20.0000000  0 14G 4G 9G 7G 5G16G 8R 8G20G27G30R 2R10
                                R12R 1
  23089007.039   121333572.151    23089014.781    94545692.2354   23089014.777  
                
  20746841.367   109025425.349    20746849.816    84954927.4204   20746849.562  
                
  20566268.883   108076521.004    20566275.418    84215519.5574   20566275.082  
                
  24510589.336   128804009.797    24510597.613   100366798.5514   24510597.539  
                
  24056763.688   126419180.098    24056769.543    98508488.8004                 
                
  24277292.141   127578026.312    24277301.984    99411496.5494   24277302.543  
                
  20550366.656   110046299.998                    85591593.011    20550369.266  
  20550366.230  
  22207893.750   116703273.201    22207899.848    90937651.9314                 
                
  24168015.156   127003774.365    24168024.129    98964019.6034   24168024.203  
                
  21792763.906   114521788.129    21792772.918    89237809.6834   21792773.176  
                
  22627493.102   120744646.490                    93912497.665    22627496.590  
  22627490.953  
  20944598.031   111646526.630                                                  
  20944597.031  
  22260851.625   118913480.011                    92488250.819    22260856.125  
  22260851.281  
  19156226.984   102401029.969                    79645247.229    19156231.992  
  19156226.355  
 21  8 14 18 33 30.0000000  0 14G 4G 9G 7G 5G16G 8R 8G20G27G30R 2R10
                                R12R 1
  23094383.539   121361825.798    23094391.281    94567708.0664   23094391.324  
                
  20749383.664   109038785.148    20749392.086    84965337.6484   20749391.844  
                
  20566017.109   108075197.941    20566023.656    84214488.6004   20566023.316  
                
  24504654.492   128772822.087    24504662.789   100342496.4454   24504662.680  
                
  24063080.141   126452373.257    24063085.988    98534353.5774                 
                
  24272690.867   127553846.601    24272700.656    99392655.2044   24272701.223  
                
  20555591.328   110074277.853                    85613353.562    20555593.922  
  20555590.875  
  22205019.953   116688171.316    22205026.035    90925884.2234                 
                
  24165520.328   126990664.010    24165529.281    98953803.7394   24165529.348  
                
  21788816.242   114501043.062    21788825.270    89221644.7034   21788825.512  
                
  22620090.750   120705146.110                    93881775.169    22620094.215  
  22620088.539  
  20950643.875   111678754.358                                                  
  20950642.859  
  22253798.969   118875805.596                    92458948.510    22253803.375  
  22253798.527  
  19155221.438   102395654.725                    79641066.479    19155226.434  
  19155220.828  
 21  8 14 18 33 40.0000000  0 14G 4G 9G 7G 5G16G 8R 8G20G27G30R 2R10
                                R12R 1
  23099764.484   121390102.957    23099772.301    94589742.2164   23099772.352  
                
  20751934.125   109052187.878    20751942.523    84975781.3284   20751942.309  
                
  20565771.789   108073908.777    20565778.344    84213484.0544   20565778.004  
                
  24498726.023   128741667.933    24498734.352   100318220.5144   24498734.266  
                
  24069403.422   126485602.297    24069409.309    98560246.3494                 
                
  24268095.516   127529697.946    24268105.254    99373838.0774   24268105.832  
                
  20560826.641   110102312.721                    85635158.465    20560829.227  
  20560826.156  
  22202157.844   116673130.865    22202163.902    90914164.3864                 
                
  24163036.133   126977609.578    24163045.105    98943631.4894   24163045.180  
                
  21784874.383   114480328.487    21784883.422    89205503.4934   21784883.664  
                
  22612690.703   120665657.907                    93851062.139    22612694.113  
  22612688.445  
  20956696.695   111711019.236                                                  
  20956695.660  
  22246752.547   118838165.401                    92429672.839    22246757.027  
  22246752.145  
  19154229.820   102390353.975                    79636943.675    19154234.836  
  19154229.207  
 21  8 14 18 33 50.0000000  0 14G 4G 9G 7G 5G16G 8R 8G20G27G30R 2R10
                                R12R 1
  23105149.867   121418403.427    23105157.797    94611794.5234   23105157.809  
                
  20754492.727   109065633.371    20754501.105    84986258.3284   20754500.895  
                
  20565532.883   108072653.318    20565539.438    84212505.7714   20565539.082  
                
  24492803.977   128710547.432    24492812.270   100293970.7404   24492812.211  
                
  24075733.500   126518867.037    24075739.395    98586166.9364                 
                
  24263505.977   127505580.301    24263515.789    99355045.1264   24263516.359  
                
  20566072.555   110130404.376                    85657007.526    20566075.137  
  20566072.062  
  22199307.406   116658151.713    22199313.445    90902492.3124                 
                
  24160562.578   126964611.029    24160571.602    98933502.7614   24160571.691  
                
  21780938.305   114459644.277    21780947.332    89189385.9314   21780947.586  
                
  22605292.922   120626181.924                    93820358.597    22605296.289  
  22605290.648  
  20962756.438   111743321.138                                                  
  20962755.422  
  22239712.562   118800559.281                    92400423.650    22239717.062  
  22239712.148  
  19153252.133   102385127.665                    79632878.765    19153257.145  
  19153251.512  
 21  8 14 18 34  0.0000000  0 14G 4G 9G 7G 5G16G 8R 8G20G27G30R 2R10
                                R12R 1
  23110539.594   121446726.856    23110547.637    94633864.7324   23110547.582  
                
  20757059.398   109079121.293    20757067.762    84996768.3954   20757067.551  
                
  20565300.312   108071431.200    20565306.859    84211553.4724   20565306.508  
                
  24486888.289   128679460.366    24486896.598   100269747.0694   24486896.555  
                
  24082070.273   126552166.987    24082076.188    98612114.9494                 
                
  24258922.227   127481493.383    24258932.172    99336276.1274   24258932.734  
                
  20571329.031   110158552.671                    85678900.634    20571331.617  
  20571328.512  
  22196468.586   116643233.602    22196474.621    90890867.8124                 
                
  24158099.602   126951668.081    24158108.680    98923417.3584   24158108.738  
                
  21777007.938   114438990.109    21777016.941    89173291.7754   21777017.207  
                
  22597897.477   120586718.463                    93789664.828    22597900.832  
  22597895.203  
  20968822.992   111775659.302                                                  
  20968822.008  
  22232678.930   118762987.086                    92371200.841    22232683.441  
  22232678.523  
  19152288.320   102379975.538                    79628871.553    19152293.328  
  19152287.688  
 21  8 14 18 34 10.0000000  0 14G 4G 9G 7G 5G16G 8R 8G20G27G30R 2R10
                                R12R 1
  23115933.797   121475073.682    23115941.895    94655953.1784   23115941.793  
                
  20759634.242   109092652.135    20759642.594    85007311.9094   20759642.375  
                
  20565074.188   108070242.879    20565080.711    84210627.5034   20565080.375  
                
  24480979.039   128648407.178    24480987.355   100245549.7684   24480987.320  
                
  24088413.805   126585502.523    24088419.762    98638090.6654                 
                
  24254344.508   127457437.676    24254354.492    99317531.4364   24254355.039  
                
  20576596.133   110186757.789                    85700837.946    20576598.719  
  20576595.562  
  22193641.492   116628377.117    22193647.531    90879291.3244                 
                
  24155647.312   126938781.290    24155656.430    98913375.7244   24155656.473  
                
  21773083.383   114418366.474    21773092.367    89157221.4204   21773092.648  
                
  22590504.406   120547267.568                    93758980.816    22590507.738  
  22590502.129  
  20974896.492   111808034.431                                                  
  20974895.523  
  22225651.797   118725449.281                    92342004.776    22225656.246  
  22225651.352  
  19151338.477   102374898.092                    79624922.433    19151343.484  
  19151337.824  
 21  8 14 18 34 20.0000000  0 15G 4G 9G14G 7G 5G16G 8R 8G20G27G30R 2
                                R10R12R 1
  23121332.484   121503443.941    23121340.613    94678059.8664   23121340.480  
                
  20762217.258   109106225.915    20762225.613    85017888.8774   20762225.395  
                
  24685149.117   129721328.372    24685157.473   101081593.6584   24685157.363  
                
  20564854.492   108069088.366    20564860.988    84209727.8794   20564860.672  
                
  24475076.289   128617388.046    24475084.609   100221379.0304   24475084.574  
                
  24094764.125   126618873.578    24094770.156    98664094.0654                 
                
  24249772.797   127433413.612    24249782.875    99298811.4144   24249783.395  
                
  20581873.875   110215019.887                    85722819.583    20581876.469  
  20581873.285  
  22190826.148   116613582.353    22190832.199    90867762.9334                 
                
  24153205.742   126925950.821    24153214.910    98903377.9684   24153214.965  
                
  21769164.664   114397773.438    21769173.641    89141174.9064   21769173.930  
                
  22583113.680   120507829.231                    93728306.566    22583116.996  
  22583111.391  
  20980976.922   111840446.485                                                  
  20980975.988  
  22218630.984   118687946.121                    92312835.672    22218635.516  
  22218630.641  
  19150402.625   102369895.397                    79621031.450    19150407.656  
  19150401.965  
 21  8 14 18 34 30.0000000  0 15G 4G 9G14G 7G 5G16G 8R 8G20G27G30R 2
                                R10R12R 1
  23126735.664   121531838.025    23126743.871    94700185.1474   23126743.695  
                
  20764808.523   109119843.092    20764816.887    85028499.6624   20764816.656  
                
  24677860.039   129683023.936    24677868.168   101051746.1424   24677868.234  
                
  20564641.320   108067968.143    20564647.789    84208854.9784   20564647.492  
                
  24469180.109   128586403.548    24469188.473   100197235.2804   24469188.398  
                
  24101121.250   126652280.446    24101127.367    98690125.3974                 
                
  24245207.195   127409421.564    24245217.371    99280116.3404   24245217.859  
                
  20587162.273   110243339.067                    85744845.608    20587164.879  
  20587161.660  
  22188022.633   116598849.774    22188028.707    90856282.9994                 
                
  24150774.977   126913177.156    24150784.219    98893424.4884   24150784.242  
                
  21765251.836   114377211.440    21765260.809    89125152.5764   21765261.098  
                
  22575725.461   120468404.555                    93697642.948    22575728.820  
  22575723.215  
  20987064.273   111872895.487                                                  
  20987063.363  
  22211616.805   118650477.949                    92283693.773    22211621.355  
  22211616.477  
  19149480.852   102364968.019                    79617199.041    19149485.871  
  19149480.195  
 21  8 14 18 34 40.0000000  0 15G 4G 9G14G 7G 5G16G 8R 8G20G27G30R 2
                                R10R12R 1
  23132143.086   121560254.299    23132151.316    94722327.6764   23132151.125  
                
  20767407.734   109133501.968    20767416.117    85039142.9424   20767415.879  
                
  24670571.516   129644721.987    24670579.348   101021900.5294   24670579.566  
                
  20564434.352   108066880.512    20564440.805    84208007.4804   20564440.516  
                
  24463290.234   128555452.114    24463298.605   100173117.2964   24463298.547  
                
  24107484.844   126685721.362    24107491.047    98716183.2424                 
                
  24240647.414   127385460.068    24240657.617    99261445.0594   24240658.098  
                
  20592461.078   110271713.955                    85766914.956    20592463.703  
  20592460.430  
  22185230.648   116584177.774    22185236.742    90844850.2764                 
                
  24148354.727   126900458.748    24148363.984    98883514.0504   24148364.000  
                
  21761344.609   114356678.830    21761353.590    89109153.1494   21761353.879  
                
  22568339.469   120428991.676                    93666988.513    22568342.852  
  22568337.262  
  20993158.203   111905379.550                                                  
  20993157.297  
  22204609.000   118613043.398                    92254578.014    22204613.504  
  22204608.637  
  19148572.859   102360114.256                    79613423.886    19148577.887  
  19148572.203  
 21  8 14 18 34 50.0000000  0 15G 4G 9G14G 7G 5G16G 8R 8G20G27G30R 2
                                R10R12R 1
  23137554.891   121588693.480    23137563.113    94744488.0904   23137562.902  
                
  20770015.039   109147203.394    20770023.438    85049819.3804   20770023.188  
                
  24663283.641   129606423.466    24663291.246   100992057.5934   24663291.590  
                
  20564233.727   108065826.217    20564240.176    84207185.9574   20564239.906  
                
  24457406.820   128524534.662    24457415.188   100149025.7654   24457415.137  
                
  24113855.047   126719197.005    24113861.336    98742268.1394                 
                
  24236093.648   127361529.955    24236103.789    99242798.2314   24236104.301  
                
  20597770.414   110300145.267                    85789028.187    20597773.051  
  20597769.734  
  22182450.359   116569567.247    22182456.461    90833465.4344                 
                
  24145945.148   126887796.461    24145954.398    98873647.3504   24145954.426  
                
  21757443.133   114336176.467    21757452.137    89093177.2874   21757452.414  
                
  22560955.875   120389591.467                    93636343.935    22560959.234  
  22560953.684  
  20999258.891   111937899.613                                                  
  20999257.992  
  22197607.602   118575643.220                    92225489.011    22197612.078  
  22197607.223  
  19147678.836   102355335.172                    79609706.825    19147683.848  
  19147678.199  
 21  8 14 18 35  0.0000000  0 15G 4G 9G14G 7G 5G16G 8R 8G20G27G30R 2
                                R10R12R 1
  23142971.062   121617155.572    23142979.246    94766666.3574   23142979.023  
                
  20772630.430   109160947.334    20772638.840    85060528.9364   20772638.586  
                
  24655996.422   129568128.448    24656003.828   100962217.3774   24656004.262  
                
  20564039.438   108064805.234    20564045.891    84206390.3884   20564045.609  
                
  24451529.883   128493651.279    24451538.223   100124960.7964   24451538.230  
                
  24120231.828   126752707.260    24120238.211    98768380.0234                 
                
  24231545.922   127337631.487    24231556.000    99224176.0614   24231556.543  
                
  20603090.242   110328632.778                    85811185.130    20603092.879  
  20603089.562  
  22179681.781   116555018.246    22179687.914    90822128.5474                 
                
  24143546.281   126875190.407    24143555.578    98863824.4724   24143555.570  
                
  21753547.414   114315704.346    21753556.465    89077224.9964   21753556.711  
                
  22553574.727   120350204.362                    93605709.538    22553578.105  
  22553572.547  
  21005366.289   111970455.483                                                  
  21005365.406  
  22190612.633   118538277.488                    92196426.765    22190617.090  
  22190612.258  
  19146798.758   102350630.594                    79606047.690    19146803.758  
  19146798.137  
 21  8 14 18 35 10.0000000  0 15G 4G 9G14G 7G 5G16G 8R 8G20G27G30R 2
                                R10R12R 1
  23148391.602   121645640.819    23148399.734    94788862.6714   23148399.547  
                
  20775253.961   109174734.060    20775262.383    85071271.8364   20775262.133  
                
  24648709.891   129529837.259    24648717.191   100932380.1574   24648717.676  
                
  20563851.539   108063817.816    20563858.000    84205620.9804   20563857.715  
                
  24445659.523   128462802.380    24445667.828   100100922.6914   24445667.848  
                
  24126615.250   126786252.320    24126621.711    98794519.0394                 
                
  24227004.312   127313764.957    24227014.312    99205578.7774   24227014.855  
                
  20608420.602   110357176.574                    85833385.868    20608423.262  
  20608419.961  
  22176924.961   116540531.049    22176931.137    90810839.8304                 
                
  24141158.164   126862640.879    24141167.520    98854045.6304   24141167.504  
                
  21749657.500   114295262.753    21749666.594    89061296.4884   21749666.820  
                
  22546196.086   120310830.749                    93575085.625    22546199.480  
  22546193.918  
  21011480.453   112003047.349                                                  
  21011479.605  
  22183624.203   118500946.549                    92167391.591    22183628.668  
  22183623.809  
  19145932.719   102346001.061                    79602446.950    19145937.711  
  19145932.121  
 21  8 14 18 35 20.0000000  0 15G 4G 9G14G 7G 5G16G 8R 8G20G27G30R 2
                                R10R12R 1
  23153816.531   121674149.143    23153824.648    94811076.9494   23153824.477  
                
  20777885.633   109188563.519    20777894.059    85082048.0344   20777893.809  
                
  24641424.062   129491549.966    24641431.355   100902545.9894   24641431.848  
                
  20563670.031   108062864.000    20563676.496    84204877.7504   20563676.207  
                
  24439795.727   128431987.900    24439803.977   100076911.3984   24439804.023  
                
  24133005.266   126819832.051    24133011.766    98820685.0444                 
                
  24222468.805   127289930.412    24222478.688    99187006.4034   24222479.227  
                
  20613761.547   110385777.065                    85855630.689    20613764.230  
  20613760.941  
  22174179.914   116526105.738    22174186.141    90799599.3294                 
                
  24138780.820   126850147.927    24138790.180    98844310.8884   24138790.164  
                
  21745773.398   114274851.645    21745782.520    89045391.7324   21745782.719  
                
  22538819.992   120271470.520                    93544472.121    22538823.348  
  22538817.812  
  21017601.344   112035675.115                                                  
  21017600.512  
  22176642.273   118463650.451                    92138383.534    22176646.793  
  22176641.895  
  19145080.703   102341446.510                    79598904.523    19145085.691  
  19145080.133  
 21  8 14 18 35 30.0000000  0 15G 4G 9G14G 7G 5G16G 8R 8G20G27G30R 2
                                R10R12R 1
  23159245.805   121702680.386    23159253.961    94833309.0784   23159253.809  
                
  20780525.398   109202435.575    20780533.824    85092857.4244   20780533.586  
                
  24634138.977   129453266.476    24634146.262   100872714.7614   24634146.719  
                
  20563494.867   108061943.528    20563501.328    84204160.4984   20563501.035  
                
  24433938.461   128401207.853    24433946.684   100052926.9534   24433946.719  
                
  24139401.828   126853446.188    24139408.375    98846877.8814                 
                
  24217939.406   127266127.994    24217949.152    99168459.0814   24217949.723  
                
  20619112.930   110414433.471                    85877919.001    20619115.629  
  20619112.340  
  22171446.625   116511742.211    22171452.879    90788406.9624                 
                
  24136414.250   126837711.554    24136423.578    98834620.2094   24136423.582  
                
  21741895.062   114254470.883    21741904.195    89029510.6284   21741904.375  
                
  22531446.391   120232123.538                    93513868.938    22531449.730  
  22531444.199  
  21023728.852   112068338.153                                                  
  21023728.008  
  22169666.875   118426389.120                    92109402.511    22169671.410  
  22169666.500  
  19144242.703   102336966.923                    79595420.391    19144247.676  
  19144242.133  
 21  8 14 18 35 40.0000000  0 15G 4G 9G14G 7G 5G16G 8R 8G20G27G30R 2
                                R10R12R 1
  23164679.430   121731234.614    23164687.691    94855559.1104   23164687.520  
                
  20783173.289   109216350.318    20783181.719    85103700.0814   20783181.488  
                
  24626854.602   129414986.989    24626861.922   100842886.6644   24626862.336  
                
  20563326.055   108061056.426    20563332.504    84203469.2524   20563332.230  
                
  24428087.820   128370462.488    24428096.004   100028969.5254   24428096.035  
                
  24145804.914   126887094.699    24145811.535    98873097.4914                 
                
  24213416.141   127242357.702    24213425.758    99149936.7994   24213426.324  
                
  20624474.781   110443145.899                    85900250.876    20624477.473  
  20624474.223  
  22168725.125   116497440.600    22168731.418    90777262.8504                 
                
  24134058.445   126825331.860    24134067.738    98824973.7164   24134067.758  
                
  21738022.523   114234120.618    21738031.656    89013653.2784   21738031.828  
                
  22524075.336   120192790.236                    93483276.390    22524078.668  
  22524073.176  
  21029863.023   112101036.728                                                  
  21029862.180  
  22162698.062   118389162.962                    92080448.854    22162702.621  
  22162697.656  
  19143418.727   102332562.286                    79591994.556    19143423.703  
  19143418.152  
 21  8 14 18 35 50.0000000  0 15G 4G 9G14G 7G 5G16G 8R 8G20G27G30R 2
                                R10R12R 1
  23170117.430   121759811.735    23170125.750    94877827.0084   23170125.570  
                
  20785829.289   109230307.699    20785837.727    85114575.9564   20785837.504  
                
  24619571.016   129376711.547    24619578.363   100813061.7044   24619578.719  
                
  20563163.594   108060202.700    20563170.023    84202804.0064   20563169.766  
                
  24422243.766   128339751.810    24422251.930   100005039.1094   24422251.945  
                
  24152214.500   126920777.436    24152221.176    98899343.7524                 
                
  24208898.961   127218619.597    24208908.527    99131439.5814   24208909.074  
                
  20629847.141   110471914.548                    85922626.493    20629849.809  
  20629846.594  
  22166015.422   116483200.976    22166021.734    90766167.0314                 
                
  24131713.469   126813008.895    24131722.691    98815371.4164   24131722.762  
                
  21734155.781   114213800.783    21734164.914    88997819.6434   21734165.086  
                
  22516706.812   120153470.393                    93452694.300    22516710.152  
  22516704.668  
  21036003.797   112133770.539                                                  
  21036002.938  
  22155735.805   118351971.798                    92051522.431    22155740.395  
  22155735.344  
  19142608.836   102328232.943                    79588627.295    19142613.820  
  19142608.254  
 21  8 14 18 36  0.0000000  0 15G 4G 9G14G 7G 5G16G 8R 8G20G27G30R 2
                                R10R12R 1
  23175559.914   121788412.458    23175568.312    94900113.2454   23175568.137  
                
  20788493.531   109244308.374    20788501.984    85125485.5684   20788501.762  
                
  24612288.312   129338440.930    24612295.711   100783240.4984   24612296.043  
                
  20563007.609   108059382.989    20563014.016    84202165.2734   20563013.781  
                
  24416406.461   128309076.537    24416414.617    99981136.2954   24416414.613  
                
  24158630.711   126954494.922    24158637.445    98925617.1034                 
                
  24204388.070   127194914.404    24204397.602    99112968.0104   24204398.117  
                
  20635230.070   110500739.789                    85945046.123    20635232.762  
  20635229.535  
  22163317.656   116469024.101    22163323.957    90755120.1124                 
                
  24129379.430   126800743.414    24129388.621    98805813.9114   24129388.695  
                
  21730294.961   114193512.066    21730304.094    88982010.2584   21730304.273  
                
  22509340.984   120114165.002                    93422123.457    22509344.312  
  22509338.867  
  21042151.336   112166540.313                                                  
  21042150.500  
  22148780.180   118314816.317                    92022623.741    22148784.832  
  22148779.750  
  19141813.109   102323979.361                    79585318.957    19141818.102  
  19141812.496  
 21  8 14 18 36 10.0000000  0 15G 4G 9G14G 7G 5G16G 8R 8G20G27G30R 2
                                R10R12R 1
  23181006.578   121817035.026    23181015.023    94922416.5494   23181014.832  
                
  20791165.695   109258350.695    20791174.180    85136427.6364   20791173.965  
                
  24605006.195   129300173.636    24605013.695   100753421.9304   24605013.996  
                
  20562857.773   108058595.626    20562864.152    84201551.7484   20562863.938  
                
  24410575.625   128278435.251    24410583.773    99957259.9774   24410583.754  
                
  24165053.203   126988245.413    24165059.969    98951916.1844                 
                
  24199883.180   127171240.831    24199892.680    99094521.0794   24199893.148  
                
  20640623.250   110529620.024                    85967508.506    20640625.965  
  20640622.719  
  22160631.492   116454908.188    22160637.793    90744120.7024                 
                
  24127056.000   126788533.808    24127065.129    98796299.9574   24127065.207  
                
  21726439.742   114173252.843    21726448.871    88966223.8534   21726449.051  
                
  22501977.500   120074872.141                    93391562.349    22501980.812  
  22501975.398  
  21048305.250   112199344.036                                                  
  21048304.426  
  22141830.984   118277695.066                    91993751.682    22141835.645  
  22141830.566  
  19141031.273   102319800.051                    79582068.390    19141036.270  
  19141030.633  
 21  8 14 18 36 20.0000000  0 15G 4G 9G14G 7G 5G16G 8R 8G20G27G30R 2
                                R10R12R 1
  23186457.703   121845680.772    23186466.125    94944737.9084   23186465.930  
                
  20793846.039   109272436.015    20793854.555    85147403.2054   20793854.332  
                
  24597724.938   129261910.990    24597732.590   100723606.9744   24597732.828  
                
  20562714.344   108057841.890    20562720.691    84200964.4294   20562720.508  
                
  24404751.547   128247829.392    24404759.688    99933411.2604   24404759.656  
                
  24171482.234   127022030.141    24171489.059    98978241.9534                 
                
  24195384.570   127147600.222    24195393.961    99076099.8364   24195394.441  
                
  20646026.953   110558556.478                    85990014.627    20646029.645  
  20646026.445  
  22157957.211   116440854.728    22157963.531    90733169.9504                 
                
  24124743.531   126776381.597    24124752.621    98786830.7104   24124752.695  
                
  21722590.406   114153024.467    21722599.527    88950461.4874   21722599.723  
                
  22494616.797   120035594.030                    93361012.717    22494620.090  
  22494614.672  
  21054465.773   112232183.075                                                  
  21054464.961  
  22134888.516   118240609.521                    91964907.388    22134893.141  
  22134888.117  
  19140263.594   102315696.383                    79578876.656    19140268.613  
  19140262.930  
 21  8 14 18 36 30.0000000  0 15G 4G 9G14G 7G 5G16G 8R 8G20G27G30R 2
                                R10R12R 1
  23191913.195   121874349.349    23191921.570    94967077.0864   23191921.391  
                
  20796534.500   109286563.992    20796543.047    85158412.0104   20796542.816  
                
  24590444.547   129223652.726    24590452.289   100693795.4154   24590452.480  
                
  20562577.250   108057121.470    20562583.566    84200403.0714   20562583.398  
                
  24398934.133   128217258.527    24398942.258    99909589.8164   24398942.250  
                
  24177917.695   127055848.714    24177924.586    99004594.0724                 
                
  24190892.180   127123992.404    24190901.418    99057704.1364   24190901.941  
                
  20651441.062   110587548.681                    86012564.121    20651443.730  
  20651440.582  
  22155294.766   116426863.476    22155301.117    90722267.6844                 
                
  24122441.898   126764286.444    24122450.984    98777405.9294   24122451.051  
                
  21718746.883   114132826.623    21718756.016    88934722.9144   21718756.211  
                
  22487258.695   119996329.992                    93330474.020    22487262.035  
  22487256.602  
  21060632.820   112265056.762                                                  
  21060632.020  
  22127952.773   118203559.392                    91936090.625    22127957.234  
  22127952.273  
  19139509.992   102311668.002                    79575743.469    19139515.035  
  19139509.305  
 21  8 14 18 36 40.0000000  0 15G 4G 9G14G 7G 5G16G 8R 8G20G27G30R 2
                                R10R12R 1
  23197373.000   121903040.741    23197381.406    94989433.9984   23197381.188  
                
  20799231.070   109300734.580    20799239.645    85169454.0274   20799239.406  
                
  24583165.109   129185398.982    24583172.840   100663987.3514   24583172.992  
                
  20562446.500   108056434.322    20562452.789    84199867.6384   20562452.648  
                
  24393123.422   128186722.919    24393131.520    99885795.8444   24393131.508  
                
  24184359.586   127089700.952    24184366.477    99030972.4344                 
                
  24186406.062   127100417.468    24186415.238    99039334.0574   24186415.746  
                
  20656865.586   110616596.660                    86035156.991    20656868.246  
  20656865.141  
  22152644.156   116412934.393    22152650.555    90711413.8464                 
                
  24120151.141   126752248.432    24120160.215    98768025.6874   24120160.277  
                
  21714909.164   114112659.300    21714918.324    88919008.1214   21714918.500  
                
  22479903.242   119957080.047                    93299946.318    22479906.602  
  22479901.148  
  21066806.359   112297965.154                                                  
  21066805.602  
  22121023.625   118166544.674                    91907301.381    22121027.957  
  22121023.055  
  19138770.516   102307715.081                    79572668.970    19138775.566  
  19138769.801  
 21  8 14 18 36 50.0000000  0 15G 4G 9G14G 7G 5G16G 8R 8G20G27G30R 2
                                R10R12R 1
  23202837.148   121931754.893    23202845.559    95011808.6614   23202845.289  
                
  20801935.750   109314947.797    20801944.348    85180529.2544   20801944.098  
                
  24575886.484   129147149.781    24575894.242   100634182.8074   24575894.359  
                
  20562322.062   108055780.385    20562328.336    84199358.0734   20562328.203  
                
  24387319.422   128156222.605    24387327.504    99862029.3714   24387327.508  
                
  24190807.859   127123586.773    24190814.699    99057376.9704                 
                
  24181926.281   127076875.709    24181935.445    99020989.8354   24181935.934  
                
  20662300.477   110645700.144                    86057793.011    20662303.129  
  20662300.051  
  22150005.391   116399067.562    22150011.852    90700608.5294                 
                
  24117871.266   126740267.609    24117880.301    98758690.0014   24117880.383  
                
  21711077.266   114092522.530    21711086.457    88903317.1334   21711086.621  
                
  22472550.422   119917844.236                    93269429.614    22472553.816  
  22472548.328  
  21072986.406   112330908.245                                                  
  21072985.645  
  22114101.023   118129565.420                    91878539.759    22114105.348  
  22114100.438  
  19138045.203   102303837.822                    79569653.326    19138050.250  
  19138044.496  
 21  8 14 18 37  0.0000000  0 15G 4G 9G14G 7G 5G16G 8R 8G20G27G30R 2
                                R10R12R 1
  23208305.625   121960491.734    23208313.984    95034200.9994   23208313.738  
                
  20804648.539   109329203.593    20804657.145    85191637.6634   20804656.891  
                
  24568608.742   129108905.249    24568616.570   100604381.9384   24568616.625  
                
  20562203.938   108055159.657    20562210.203    84198874.3884   20562210.066  
                
  24381522.156   128125757.675    24381530.152    99838290.4384   24381530.180  
                
  24197262.477   127157506.010    24197269.246    99083807.5364                 
                
  24177452.781   127053366.888    24177461.898    99002671.2834   24177462.336  
                
  20667745.734   110674859.195                    86080472.264    20667748.363  
  20667745.309  
  22147378.469   116385263.024    22147384.988    90689851.7624                 
                
  24115602.289   126728344.070    24115611.301    98749398.9464   24115611.398  
                
  21707251.156   114072416.255    21707260.367    88887649.9104   21707260.531  
                
  22465200.422   119878623.116                    93238924.295    22465203.762  
  22465198.324  
  21079172.891   112363885.693                                                  
  21079172.148  
  22107185.062   118092621.770                    91849805.837    22107189.402  
  22107184.484  
  19137333.984   102300035.955                    79566696.306    19137339.039  
  19137333.289  
 21  8 14 18 37 10.0000000  0 15G 4G 9G14G 7G 5G16G 8R 8G20G27G30R 2
                                R10R12R 1
  23213778.461   121989251.303    23213786.691    95056611.0584   23213786.484  
                
  20807369.430   109343502.009    20807378.043    85202779.2814   20807377.797  
                
  24561331.883   129070665.519    24561339.801   100574584.8104   24561339.801  
                
  20562092.148   108054572.193    20562098.418    84198416.6304   20562098.289  
                
  24375731.680   128095328.370    24375739.633    99814579.3054   24375739.707  
                
  24203723.453   127191458.666    24203730.195    99110264.1564                 
                
  24172985.500   127029891.219    24172994.633    98984378.5734   24172995.059  
                
  20673201.391   110704073.917                    86103194.817    20673203.996  
  20673200.973  
  22144763.430   116371520.941    22144770.008    90679143.6584                 
                
  24113344.242   126716477.926    24113353.266    98740152.6214   24113353.340  
                
  21703430.875   114052340.565    21703440.082    88872006.5194   21703440.254  
                
  22457853.125   119839416.490                    93208430.250    22457856.453  
  22457851.020  
  21085365.789   112396897.300                                                  
  21085365.055  
  22100275.781   118055713.799                    91821099.656    22100280.137  
  22100275.230  
  19136636.898   102296309.624                    79563798.042    19136641.934  
  19136636.230  
 21  8 14 18 37 20.0000000  0 15G 4G 9G14G 7G 5G16G 8R 8G20G27G30R 2
                                R10R12R 1
  23219255.664   122018033.673    23219263.758    95079038.8994   23219263.605  
                
  20810098.461   109357843.167    20810107.078    85213954.2054   20810106.832  
                
  24554055.945   129032430.768    24554063.980   100544791.5564   24554063.926  
                
  20561986.703   108054018.053    20561992.977    84197984.8334   20561992.832  
                
  24369948.000   128064934.715    24369955.898    99790895.9244   24369955.988  
                
  24210190.789   127225444.636    24210197.484    99136746.7164                 
                
  24168524.586   127006448.981    24168533.719    98966111.9144   24168534.164  
                
  20678667.422   110733344.109                    86125960.521    20678670.004  
  20678667.035  
  22142160.297   116357841.405    22142166.926    90668484.2854                 
                
  24111097.156   126704669.362    24111106.125    98730951.1264   24111106.184  
                
  21699616.438   114032295.588    21699625.621    88856387.0524   21699625.781  
                
  22450508.578   119800224.741                    93177947.825    22450511.973  
  22450506.461  
  21091565.141   112429943.237                                                  
  21091564.410  
  22093373.266   118018841.811                    91792421.447    22093377.637  
  22093372.707  
  19135953.992   102292659.007                    79560958.665    19135959.020  
  19135953.355  
 21  8 14 18 37 30.0000000  0 15G 4G 9G14G 7G 5G16G 8R 8G20G27G30R 2
                                R10R12R 1
  23224737.141   122046838.609    23224745.160    95101484.2984   23224745.043  
                
  20812835.570   109372226.821    20812844.188    85225162.2424   20812843.941  
                
  24546781.008   128994200.860    24546789.105   100515002.0784   24546788.980  
                
  20561887.547   108053496.996    20561893.828    84197578.8174   20561893.676  
                
  24364171.094   128034576.677    24364179.004    99767240.3454   24364179.082  
                
  24216664.414   127259463.673    24216671.039    99163255.0364                 
                
  24164070.016   126983040.079    24164079.145    98947871.2194   24164079.590  
                
  20684143.805   110762669.763                    86148769.357    20684146.383  
  20684143.445  
  22139569.047   116344224.288    22139575.703    90657873.5424                 
                
  24108860.992   126692918.234    24108869.891    98721794.4074   24108869.961  
                
  21695807.797   114012281.093    21695816.957    88840791.3574   21695817.129  
                
  22443166.789   119761047.790                    93147476.890    22443170.250  
  22443164.637  
  21097770.867   112463023.202                                                  
  21097770.109  
  22086477.508   117982005.562                    91763771.047    22086481.828  
  22086476.898  
  19135285.266   102289084.229                    79558178.278    19135290.297  
  19135284.652  
 21  8 14 18 37 40.0000000  0 15G 4G 9G14G 7G 5G16G 8R 8G20G27G30R 2
                                R10R12R 1
  23230222.875   122075666.123    23230230.871    95123947.2894   23230230.742  
                
  20815580.789   109386653.030    20815589.398    85236403.4344   20815589.148  
                
  24539507.070   128955975.913    24539515.141   100485216.4114   24539514.957  
                
  20561794.695   108053009.066    20561800.988    84197198.6114   20561800.828  
                
  24358400.977   128004254.462    24358408.887    99743612.6534   24358408.953  
                
  24223144.320   127293515.685    24223150.836    99189789.0784                 
                
  24159621.859   126959664.700    24159630.938    98929656.6414   24159631.371  
                
  20689630.531   110792050.890                    86171621.325    20689633.105  
  20689630.199  
  22136989.695   116330669.682    22136996.363    90647311.5144                 
                
  24106635.758   126681224.649    24106644.621    98712682.5324   24106644.727  
                
  21692004.984   113992297.174    21692014.125    88825219.4654   21692014.305  
                
  22435827.750   119721885.525                    93117017.360    22435831.211  
  22435825.641  
  21103982.891   112496136.745                                                  
  21103982.094  
  22079588.438   117945205.086                    91735148.480    22079592.707  
  22079587.801  
  19134630.703   102285585.193                    79555456.804    19134635.727  
  19134630.109  
 21  8 14 18 37 50.0000000  0 15G 4G 9G14G 7G 5G16G 8R 8G20G27G30R 2
                                R10R12R 1
  23235712.938   122104516.401    23235720.863    95146428.0304   23235720.758  
                
  20818334.133   109401121.989    20818342.734    85247677.9474   20818342.504  
                
  24532234.102   128917756.239    24532242.195   100455434.8954   24532241.973  
                
  20561708.180   108052554.433    20561714.480    84196844.3554   20561714.312  
                
  24352637.711   127973968.272    24352645.664    99720013.0654   24352645.719  
                
  24229630.523   127327600.737    24229636.914    99216348.8454                 
                
  24155180.109   126936323.043    24155189.184    98911468.3604   24155189.613  
                
  20695127.602   110821487.286                    86194516.304    20695130.160  
  20695127.293  
  22134422.281   116317177.802    22134428.930    90636798.3584                 
                
  24104421.523   126669588.880    24104430.410    98703615.7364   24104430.504  
                
  21688208.023   113972344.015    21688217.168    88809671.5544   21688217.340  
                
  22428491.539   119682738.378                    93086569.581    22428495.020  
  22428489.508  
  21110201.328   112529284.489                                                  
  21110200.504  
  22072706.125   117908440.865                    91706554.119    22072710.391  
  22072705.504  
  19133990.336   102282162.068                    79552794.378    19133995.352  
  19133989.738  
 21  8 14 18 38  0.0000000  0 15G 4G 9G14G 7G 5G16G 8R 8G20G27G30R 2
                                R10R12R 1
  23241207.289   122133389.111    23241215.133    95168926.2674   23241215.055  
                
  20821095.562   109415633.401    20821104.160    85258985.5414   20821103.930  
                
  24524962.086   128879541.617    24524970.246   100425657.3064   24524969.934  
                
  20561627.945   108052132.806    20561634.254    84196515.8154   20561634.078  
                
  24346881.289   127943717.997    24346889.238    99696441.4414   24346889.273  
                
  24236122.930   127361718.458    24236129.250    99242934.1074                 
                
  24150744.750   126913015.218    24150753.887    98893306.4424   24150754.316  
                
  20700634.930   110850978.714                    86217454.085    20700637.496  
  20700634.629  
  22131866.766   116303748.475    22131873.398    90626333.9564                 
                
  24102218.281   126658010.744    24102227.168    98694593.8414   24102227.273  
                
  21684416.867   113952421.374    21684426.012    88794147.4124   21684426.168  
                
  22421158.141   119643606.097                    93056133.348    22421161.633  
  22421156.121  
  21116426.062   112562465.820                                                  
  21116425.238  
  22065830.570   117871712.540                    91677987.668    22065834.754  
  22065829.914  
  19133364.117   102278814.596                    79550190.784    19133369.148  
  19133363.508  
 21  8 14 18 38 10.0000000  0 15G 4G 9G14G 7G 5G16G 8R 8G20G27G30R 2
                                R10R12R 1
  23246705.938   122162284.513    23246713.754    95191442.1654   23246713.688  
                
  20823865.125   109430187.534    20823873.703    85270326.4184   20823873.480  
                
  24517691.055   128841332.446    24517699.281   100395883.9484   24517698.941  
                
  20561554.047   108051744.443    20561560.359    84196213.1924   20561560.176  
                
  24341131.773   127913504.000    24341139.711    99672898.0674   24341139.703  
                
  24242621.586   127395868.998    24242627.844    99269544.9134                 
                
  24146315.859   126889741.457    24146325.062    98875171.0694   24146325.492  
                
  20706152.547   110880525.241                    86240434.709    20706155.133  
  20706152.254  
  22129323.203   116290381.979    22129329.820    90615918.5114                 
                
  24100026.062   126646490.576    24100034.930    98685617.0884   24100035.051  
                
  21680631.570   113932529.529    21680640.695    88778647.2794   21680640.852  
                
  22413827.648   119604489.269                    93025709.174    22413831.160  
  22413825.621  
  21122657.086   112595680.651                                                  
  21122656.254  
  22058961.750   117835020.548                    91649449.449    22058965.910  
  22058961.090  
  19132752.188   102275543.501                    79547646.592    19132757.246  
  19132751.566  
 21  8 14 18 38 20.0000000  0 15G 4G 9G14G 7G 5G16G 8R 8G20G27G30R 2
                                R10R12R 1
  23252208.898   122191202.474    23252216.656    95213975.6424   23252216.629  
                
  20826642.789   109444784.284    20826651.344    85281700.5074   20826651.129  
                
  24510421.070   128803128.700    24510429.359   100366114.8294   24510428.965  
                
  20561486.445   108051389.191    20561492.754    84195936.3664   20561492.566  
                
  24335389.141   127883326.200    24335397.070    99649382.9224   24335397.031  
                
  24249126.445   127430052.160    24249132.617    99296181.1434                 
                
  24141893.461   126866501.536    24141902.680    98857062.0584   24141903.117  
                
  20711680.445   110910126.891                    86263458.211    20711683.051  
  20711680.117  
  22126791.570   116277078.188    22126798.184    90605551.9274                 
                
  24097844.883   126635028.359    24097853.754    98676685.5024   24097853.859  
                
  21676852.117   113912668.369    21676861.199    88763171.0554   21676861.371  
                
  22406500.109   119565388.105                    92995297.172    22406503.645  
  22406498.086  
  21128894.398   112628928.960                                                  
  21128893.543  
  22052099.719   117798364.813                    91620939.478    22052103.887  
  22052099.051  
  19132154.461   102272348.352                    79545161.479    19132159.551  
  19132153.812  
 21  8 14 18 38 30.0000000  0 15G 4G 9G14G 7G 5G16G 8R 8G20G27G30R 2
                                R10R12R 1
  23257716.148   122220143.052    23257723.871    95236526.7344   23257723.855  
                
  20829428.594   109459423.723    20829437.125    85293107.8594   20829436.910  
                
  24503152.133   128764930.529    24503160.453   100336350.0494   24503160.055  
                
  20561425.180   108051067.188    20561431.484    84195685.4624   20561431.297  
                
  24329653.453   127853184.772    24329661.348    99625896.1064   24329661.281  
                
  24255637.516   127464267.872    24255643.605    99322842.7414                 
                
  24137477.570   126843295.971    24137486.848    98838979.8334   24137487.270  
                
  20717218.688   110939783.973                    86286524.819    20717221.309  
  20717218.305  
  22124271.922   116263837.379    22124278.516    90595234.4034                 
                
  24095674.766   126623624.258    24095683.613    98667799.1874   24095683.719  
                
  21673078.523   113892838.000    21673087.578    88747718.8184   21673087.770  
                
  22399175.469   119526302.270                    92964897.095    22399178.973  
  22399173.422  
  21135138.000   112662210.840                                                  
  21135137.129  
  22045244.516   117761745.610                    91592457.902    22045248.699  
  22045243.887  
  19131571.000   102269229.444                    79542735.654    19131576.102  
  19131570.324  
 21  8 14 18 38 40.0000000  0 15G 4G 9G14G 7G 5G16G 8R 8G20G27G30R 2
                                R10R12R 1
  23263227.633   122249105.939    23263235.328    95259095.2314   23263235.312  
                
  20832222.453   109474105.551    20832230.969    85304548.2444   20832230.762  
                
  24495884.211   128726737.750    24495892.516   100306589.4694   24495892.164  
                
  20561370.164   108050778.054    20561376.461    84195460.1644   20561376.270  
                
  24323924.656   127823079.685    24323932.539    99602437.6194   24323932.461  
                
  24262154.711   127498515.746    24262160.719    99349529.3904                 
                
  24133068.117   126820124.384    24133077.465    98820924.0834   24133077.871  
                
  20722767.117   110969495.599                    86309633.855    20722769.766  
  20722766.684  
  22121764.219   116250659.285    22121770.777    90584965.7564                 
                
  24093515.641   126612278.034    24093524.465    98658957.9834   24093524.574  
                
  21669310.727   113873038.155    21669319.762    88732290.3774   21669319.965  
                
  22391853.766   119487232.231                    92934509.292    22391857.242  
  22391851.699  
  21141387.773   112695525.539                                                  
  21141386.895  
  22038396.133   117725162.713                    91564004.556    22038400.309  
  22038395.496  
  19131001.727   102266186.364                    79540368.830    19131006.840  
  19131001.035  
 21  8 14 18 38 50.0000000  0 15G 4G 9G14G 7G 5G16G 8R 8G20G27G30R 2
                                R10R12R 1
  23268743.438   122278091.423    23268751.086    95281681.3254   23268751.121  
                
  20835024.438   109488830.102    20835032.941    85316021.9284   20835032.723  
                
  24488617.328   128688550.772    24488625.684   100276833.4004   24488625.355  
                
  20561321.453   108050522.062    20561327.742    84195260.6924   20561327.551  
                
  24318202.859   127793011.277    24318210.680    99579007.7134   24318210.590  
                
  24268678.047   127532796.020    24268683.988    99376241.2984                 
                
  24128665.234   126796987.219    24128674.617    98802895.1374   24128675.043  
                
  20728325.836   110999262.332                    86332785.747    20728328.512  
  20728325.359  
  22119268.508   116237544.221    22119275.055    90574746.2224                 
                
  24091367.617   126600990.108    24091376.457    98650162.2114   24091376.547  
                
  21665548.812   113853269.190    21665557.832    88716885.9894   21665558.031  
                
  22384535.000   119448177.997                    92904133.776    22384538.508  
  22384532.945  
  21147643.719   112728873.222                                                  
  21147642.828  
  22031554.562   117688616.355                    91535579.630    22031558.715  
  22031553.953  
  19130446.750   102263219.682                    79538061.406    19130451.859  
  19130446.059  
 21  8 14 18 39  0.0000000  0 15G 4G 9G14G 7G 5G16G 8R 8G20G27G30R 2
                                R10R12R 1
  23274263.484   122307099.350    23274271.156    95304284.8994   23274271.184  
                
  20837834.531   109503597.255    20837843.012    85327528.7914   20837842.801  
                
  24481351.500   128650369.559    24481359.949   100247081.8124   24481359.621  
                
  20561279.023   108050299.099    20561285.305    84195086.9584   20561285.121  
                
  24312488.000   127762979.381    24312495.723    99555606.2554   24312495.645  
                
  24275207.492   127567108.434    24275213.367    99402978.2614                 
                
  24124268.938   126773884.684    24124278.336    98784893.1724   24124278.785  
                
  20733894.766   111029083.750                    86355980.195    20733897.438  
  20733894.246  
  22116784.773   116224492.120    22116791.309    90564575.7544                 
                
  24089230.664   126589760.399    24089239.551    98641411.7954   24089239.641  
                
  21661792.742   113833530.947    21661801.758    88701505.5454   21661801.953  
                
  22377219.195   119409139.564                    92873770.573    22377222.695  
  22377217.129  
  21153905.836   112762253.886                                                  
  21153904.930  
  22024719.789   117652106.621                    91507183.195    22024724.000  
  22024719.266  
  19129906.070   102260329.450                    79535813.441    19129911.191  
  19129905.395  
 21  8 14 18 39 10.0000000  0 15G 4G 9G14G 7G 5G16G 8R 8G20G27G30R 2
                                R10R12R 1
  23279787.820   122336129.719    23279795.461    95326905.9694   23279795.496  
                
  20840652.742   109518407.006    20840661.207    85339068.8564   20840660.992  
                
  24474086.867   128612194.277    24474095.355   100217334.8794   24474095.039  
                
  20561242.898   108050109.237    20561249.164    84194939.0114   20561248.996  
                
  24306780.141   127732984.259    24306787.789    99532233.4634   24306787.699  
                
  24281743.070   127601452.982    24281748.902    99429740.2554                 
                
  24119879.219   126750816.766    24119888.645    98766918.1684   24119889.105  
                
  20739473.953   111058960.108                    86379217.362    20739476.648  
  20739473.391  
  22114313.062   116211503.139    22114319.602    90554454.4704                 
                
  24087104.820   126578589.022    24087113.719    98632706.8474   24087113.793  
                
  21658042.547   113813823.516    21658051.551    88686149.1124   21658051.754  
                
  22369906.445   119370117.227                    92843419.878    22369909.910  
  22369904.359  
  21160174.125   112795667.409                                                  
  21160173.219  
  22017891.992   117615633.650                    91478815.342    22017896.191  
  22017891.453  
  19129379.672   102257515.481                    79533624.805    19129384.781  
  19129379.023  
 21  8 14 18 39 20.0000000  0 15G 4G 9G14G 7G 5G16G 8R 8G20G27G30R 2
                                R10R12R 1
  23285316.344   122365182.260    23285324.023    95349544.3124   23285324.070  
                
  20843479.000   109533259.083    20843487.449    85350641.9054   20843487.219  
                
  24466823.391   128574024.725    24466831.820   100187592.4234   24466831.543  
                
  20561212.992   108049952.092    20561219.250    84194816.5684   20561219.094  
                
  24301079.227   127703025.717    24301086.809    99508889.1554   24301086.730  
                
  24288284.664   127635829.182    24288290.465    99456526.8944                 
                
  24115496.078   126727783.491    24115505.539    98748970.1754   24115506.008  
                
  20745063.305   111088890.808                    86402496.777    20745066.008  
  20745062.738  
  22111853.312   116198577.041    22111859.863    90544382.1844                 
                
  24084990.055   126567475.848    24084998.926    98624047.2294   24084999.004  
                
  21654298.164   113794146.629    21654307.145    88670816.4734   21654307.359  
                
  22362596.664   119331110.761                    92813081.522    22362600.078  
  22362594.590  
  21166448.531   112829113.542                                                  
  21166447.613  
  22011071.023   117579197.216                    91450475.919    22011075.234  
  22011070.430  
  19128867.539   102254777.802                    79531495.493    19128872.652  
  19128866.922  
 21  8 14 18 39 30.0000000  0 15G 4G 9G14G 7G 5G16G 8R 8G20G27G30R 2
                                R10R12R 1
  23290849.156   122394257.274    23290856.859    95372200.1714   23290856.926  
                
  20846313.383   109548153.878    20846321.801    85362248.2294   20846321.574  
                
  24459561.094   128535861.342    24459569.453   100157854.7734   24459569.238  
                
  20561189.391   108049828.103    20561195.633    84194719.9504   20561195.473  
                
  24295385.375   127673104.280    24295392.906    99485573.7774   24295392.863  
                
  24294832.312   127670237.254    24294838.090    99483338.3944                 
                
  24111119.633   126704785.204    24111129.094    98731049.4444   24111129.566  
                
  20750662.867   111118876.251                    86425818.792    20750665.582  
  20750662.281  
  22109405.602   116185714.213    22109412.164    90534359.2044                 
                
  24082886.414   126556421.195    24082895.305    98615433.2434   24082895.371  
                
  21650559.648   113774500.639    21650568.609    88655507.9054   21650568.832  
                
  22355289.922   119292120.564                    92782755.794    22355293.270  
  22355287.883  
  21172729.031   112862592.174                                                  
  21172728.113  
  22004256.820   117542797.725                    91422165.254    22004261.176  
  22004256.328  
  19128369.719   102252116.640                    79529425.698    19128374.836  
  19128369.125  
 21  8 14 18 39 40.0000000  0 15G 4G 9G14G 7G 5G16G 8R 8G20G27G30R 2
                                R10R12R 1
  23296386.164   122423354.497    23296393.984    95394873.3164   23296394.055  
                
  20849155.844   109563091.077    20849164.227    85373887.6064   20849164.020  
                
  24452299.945   128497703.878    24452308.238   100128121.7154   24452308.059  
                
  20561172.047   108049736.942    20561178.277    84194648.9184   20561178.125  
                
  24289698.562   127643219.714    24289706.078    99462287.1534   24289706.062  
                
  24301385.984   127704676.910    24301391.754    99510174.4904                 
                
  24106749.773   126681821.519    24106759.230    98713155.6694   24106759.695  
                
  20756272.562   111148916.041                    86449183.071    20756275.309  
  20756271.906  
  22106969.891   116172914.429    22106976.457    90524385.3494                 
                
  24080793.914   126545424.964    24080802.797    98606864.7534   24080802.859  
                
  21646826.977   113754885.302    21646835.934    88640223.2374   21646836.156  
                
  22347986.273   119253146.778                    92752442.853    22347989.598  
  22347984.227  
  21179015.586   112896103.066                                                  
  21179014.672  
  21997449.547   117506434.919                    91393883.098    21997453.965  
  21997449.090  
  19127886.188   102249531.858                    79527415.316    19127891.305  
  19127885.598  
 21  8 14 18 39 50.0000000  0 15G 4G 9G14G 7G 5G16G 8R 8G20G27G30R 2
                                R10R12R 1
  23301927.398   122452474.064    23301935.367    95417563.8684   23301935.434  
                
  20852006.398   109578070.871    20852014.750    85385560.1734   20852014.551  
                
  24445039.914   128459552.663    24445048.215   100098393.5004   24445048.055  
                
  20561160.961   108049678.720    20561167.188    84194603.5524   20561167.035  
                
  24284018.805   127613372.320    24284026.293    99439029.4754   24284026.289  
                
  24307945.680   127739148.226    24307951.441    99537035.2514                 
                
  24102386.578   126658892.796    24102395.996    98695289.1364   24102396.465  
                
  20761892.438   111179010.393                    86472589.780    20761895.219  
  20761891.727  
  22104546.219   116160177.987    22104552.785    90514460.8474                 
                
  24078712.555   126534487.390    24078721.430    98598341.9844   24078721.488  
                
  21643100.164   113735300.825    21643109.117    88624962.6114   21643109.332  
                
  22340685.617   119214189.121                    92722142.471    22340688.941  
  22340683.562  
  21185308.234   112929646.283                                                  
  21185307.328  
  21990649.219   117470109.145                    91365629.738    21990653.699  
  21990648.781  
  19127417.000   102247023.769                    79525464.572    19127422.109  
  19127416.418  
 21  8 14 18 40  0.0000000  0 15G 4G 9G14G 7G 5G16G 8R 8G20G27G30R 2
                                R10R12R 1
  23307472.938   122481615.922    23307480.980    95440271.8124   23307481.027  
                
  20854865.062   109593093.240    20854873.379    85397265.9124   20854873.191  
                
  24437781.156   128421407.770    24437789.445   100068670.2414   24437789.293  
                
  20561156.148   108049653.422    20561162.379    84194583.8354   20561162.215  
                
  24278346.109   127583562.088    24278353.602    99415800.7804   24278353.625  
                
  24314511.375   127773651.061    24314517.137    99563920.5914                 
                
  24098030.117   126635999.456    24098039.465    98677450.1584   24098039.941  
                
  20767522.484   111209159.080                    86496038.754    20767525.305  
  20767521.770  
  22102134.609   116147504.853    22102141.168    90504585.6854                 
                
  24076642.391   126523608.512    24076651.254    98589864.9284   24076651.285  
                
  21639379.227   113715747.183    21639388.176    88609726.0114   21639388.379  
                
  22333388.094   119175248.155                    92691855.049    22333391.402  
  22333386.039  
  21191606.922   112963221.762                                                  
  21191606.000  
  21983855.891   117433820.566                    91337405.308    21983860.398  
  21983855.484  
  19126962.148   102244592.306                    79523573.435    19126967.262  
  19126961.551  
 21  8 14 18 40 10.0000000  0 15G 4G 9G14G 7G 5G16G 8R 8G20G27G30R 2
                                R10R12R 1
  23313022.711   122510779.928    23313030.777    95462997.0054   23313030.789  
                
  20857731.797   109608158.047    20857740.090    85409004.7214   20857739.906  
                
  24430523.680   128383269.168    24430531.875   100038951.8844   24430531.715  
                
  20561157.570   108049660.898    20561163.812    84194589.6674   20561163.648  
                
  24272680.469   127553789.077    24272687.934    99392601.0694   24272688.000  
                
  24321082.992   127808185.110    24321088.750    99590830.2334                 
                
  24093680.344   126613141.372    24093689.672    98659638.6934   24093690.152  
                
  20773162.656   111239361.999                    86519529.927    20773165.520  
  20773161.934  
  22099735.023   116134894.955    22099741.566    90494759.7854                 
                
  24074583.367   126512788.258    24074592.250    98581433.5604   24074592.254  
                
  21635664.141   113696224.289    21635673.074    88594513.3784   21635673.281  
                
  22326093.625   119136323.501                    92661580.323    22326096.934  
  22326091.578  
  21197911.562   112996829.041                                                  
  21197910.645  
  21977069.586   117397568.925                    91309209.614    21977074.012  
  21977069.133  
  19126521.609   102242237.380                    79521741.827    19126526.707  
  19126520.996  
 21  8 14 18 40 20.0000000  0 15G 4G 9G14G 7G 5G16G 8R 8G20G27G30R 2
                                R10R12R 1
  23318576.688   122539965.962    23318584.738    95485739.3874   23318584.723  
                
  20860606.594   109623265.195    20860614.875    85420776.5204   20860614.695  
                
  24423267.414   128345136.853    24423275.473   100009238.3894   24423275.340  
                
  20561165.211   108049701.034    20561171.469    84194620.9404   20561171.293  
                
  24267021.953   127524053.463    24267029.363    99369430.4934   24267029.465  
                
  24327660.539   127842750.253    24327666.324    99617764.1254                 
                
  24089337.273   126590318.276    24089346.512    98641854.4634   24089346.992  
                
  20778812.930   111269619.041                    86543063.174    20778815.805  
  20778812.152  
  22097347.477   116122348.276    22097354.020    90484983.1564                 
                
  24072535.500   126502026.640    24072544.395    98573047.8884   24072544.387  
                
  21631954.898   113676732.045    21631963.816    88579324.6144   21631964.031  
                
  22318802.352   119097415.919                    92631318.888    22318805.699  
  22318800.309  
  21204222.164   113030468.103                                                  
  21204221.246  
  21970290.125   117361354.396                    91281042.780    21970294.559  
  21970289.691  
  19126095.391   102239959.012                    79519969.763    19126100.477  
  19126094.754  
 21  8 14 18 40 30.0000000  0 15G 4G 9G14G 7G 5G16G 8R 8G20G27G30R 2
                                R10R12R 1
  23324134.797   122569174.154    23324142.902    95508499.0064   23324142.871  
                
  20863489.469   109638414.819    20863497.738    85432581.4214   20863497.559  
                
  24416012.398   128307011.044    24416020.309    99979529.9704   24416020.211  
                
  20561179.086   108049773.955    20561185.359    84194677.7684   20561185.164  
                
  24261370.586   127494355.418    24261377.922    99346289.1804   24261378.090  
                
  24334243.977   127877346.415    24334249.766    99644722.2094                 
                
  24085000.945   126567530.694    24085010.070    98624097.9104   24085010.590  
                
  20784473.312   111299930.171                    86566638.489    20784476.176  
  20784472.508  
  22094971.992   116109864.985    22094978.520    90475255.9214                 
                
  24070498.828   126491323.865    24070507.746    98564708.0724   24070507.707  
                
  21628251.508   113657270.653    21628260.422    88564159.8894   21628260.648  
                
  22311514.281   119058525.428                    92601070.735    22311517.637  
  22311512.234  
  21210538.711   113064138.843                                                  
  21210537.797  
  21963517.664   117325177.080                    91252904.886    21963522.082  
  21963517.207  
  19125683.539   102237757.460                    79518257.446    19125688.625  
  19125682.883  
 21  8 14 18 40 40.0000000  0 15G 4G 9G14G 7G 5G16G 8R 8G20G27G30R 2
                                R10R12R 1
  23329697.117   122598404.624    23329705.328    95531275.9784   23329705.273  
                
  20866380.453   109653607.036    20866388.723    85444419.5134   20866388.539  
                
  24408758.641   128268891.964    24408766.445    99949826.8154   24408766.375  
                
  20561199.234   108049879.831    20561205.523    84194760.2714   20561205.316  
                
  24255726.391   127464694.999    24255733.668    99323177.1964   24255733.867  
                
  24340833.336   127911973.700    24340839.070    99671704.5314                 
                
  24080671.391   126544778.822    24080680.496    98606369.1994   24080681.035  
                
  20790143.828   111330295.456                    86590255.940    20790146.691  
  20790142.996  
  22092608.602   116097445.267    22092615.109    90465578.2094                 
                
  24068473.375   126480680.116    24068482.312    98556414.2734   24068482.266  
                
  21624554.016   113637840.186    21624562.926    88549019.2704   21624563.152  
                
  22304229.406   119019651.942                    92570835.807    22304232.758  
  22304227.336  
  21216861.234   113097841.448                                                  
  21216860.316  
  21956752.195   117289037.334                    91224796.214    21956756.637  
  21956751.754  
  19125286.062   102235632.765                    79516604.898    19125291.152  
  19125285.402  
 21  8 14 18 40 50.0000000  0 15G 4G 9G14G 7G 5G16G 8R 8G20G27G30R 2
                                R10R12R 1
  23335263.695   122627657.197    23335271.973    95554070.1864   23335271.906  
                
  20869279.539   109668841.776    20869287.805    85456290.7364   20869287.613  
                
  24401506.156   128230779.612    24401513.883    99920128.8984   24401513.816  
                
  20561225.625   108050018.501    20561231.930    84194868.3304   20561231.703  
                
  24250089.375   127435072.308    24250096.613    99300094.6174   24250096.840  
                
  24347428.594   127946631.988    24347434.273    99698710.9744                 
                
  24076348.664   126522062.761    24076357.750    98588668.3724   24076358.293  
                
  20795824.398   111360714.784                    86613915.413    20795827.301  
  20795823.516  
  22090257.312   116085089.114    22090263.797    90455950.0394                 
                
  24066459.172   126470095.421    24066468.121    98548166.4834   24066468.062  
                
  21620862.391   113618440.596    21620871.309    88533902.7104   21620871.527  
                
  22296947.758   118980795.695                    92540614.303    22296951.090  
  22296945.641  
  21223189.617   113131575.414                                                  
  21223188.711  
  21949993.664   117252934.972                    91196716.634    21949998.176  
  21949993.273  
  19124903.016   102233585.130                    79515012.299    19124908.113  
  19124902.348  
 21  8 14 18 41  0.0000000  0 15G 4G 9G14G 7G 5G16G 8R 8G20G27G30R 2
                                R10R12R 1
  23340834.500   122656931.816    23340842.805    95576881.5654   23340842.715  
                
  20872186.688   109684118.943    20872194.949    85468195.0244   20872194.754  
                
  24394254.953   128192674.048    24394262.629    99890436.2644   24394262.523  
                
  20561258.242   108050189.912    20561264.559    84195001.9034   20561264.309  
                
  24244459.523   127405487.373    24244466.711    99277041.4444   24244466.934  
                
  24354029.711   127981321.142    24354035.398    99725741.4294                 
                
  24072032.734   126499382.575    24072041.855    98570995.4904   24072042.379  
                
  20801515.062   111391188.029                    86637616.819    20801517.977  
  20801514.172  
  22087918.102   116072796.465    22087924.547    90446371.3554                 
                
  24064456.195   126459569.779    24064465.098    98539964.7064   24064465.086  
                
  21617176.633   113599071.855    21617185.574    88518810.1894   21617185.789  
                
  22289669.305   118941956.534                    92510406.046    22289672.605  
  22289667.172  
  21229523.922   113165340.864                                                  
  21229523.000  
  21943242.102   117216870.116                    91168666.213    21943246.719  
  21943241.789  
  19124534.320   102231614.251                    79513479.383    19124539.418  
  19124533.652  
 21  8 14 18 41 10.0000000  0 15G 4G 9G14G 7G 5G16G 8R 8G20G27G30R 2
                                R10R12R 1
  23346409.523   122686228.542    23346417.801    95599710.2094   23346417.691  
                
  20875101.938   109699438.635    20875110.176    85480132.4444   20875110.000  
                
  24387005.023   128154575.427    24387012.668    99860749.0274   24387012.551  
                
  20561297.102   108050394.098    20561303.422    84195161.0144   20561303.172  
                
  24238836.906   127375940.379    24238844.047    99254017.8444   24238844.273  
                
  24360636.602   128016041.014    24360642.383    99752795.9194                 
                
  24067723.656   126476738.426    24067732.883    98553350.6864   24067733.359  
                
  20807215.812   111421715.329                    86661360.292    20807218.750  
  20807214.941  
  22085591.008   116060567.497    22085597.441    90436842.2984                 
                
  24062464.508   126449103.365    24062473.359    98531809.0564   24062473.379  
                
  21613496.766   113579734.054    21613505.727    88503741.7854   21613505.938  
                
  22282394.164   118903135.094                    92480211.578    22282397.449  
  22282392.055  
  21235864.078   113199137.509                                                  
  21235863.141  
  21936497.656   117180842.949                    91140645.112    21936502.332  
  21936497.391  
  19124180.039   102229720.438                    79512006.419    19124185.133  
  19124179.367  
 21  8 14 18 41 20.0000000  0 15G 4G 9G14G 7G 5G16G 8R 8G20G27G30R 2
                                R10R12R 1
  23351988.695   122715547.248    23351996.934    95622555.9604   23351996.832  
                
  20878025.250   109714800.730    20878033.469    85492102.9104   20878033.316  
                
  24379756.383   128116483.702    24379764.020    99831067.1844   24379763.902  
                
  20561342.148   108050630.829    20561348.465    84195345.4874   20561348.207  
                
  24233221.523   127346431.355    24233228.660    99231023.8394   24233228.848  
                
  24367249.336   128050791.308    24367255.121    99779874.0454                 
                
  24063421.414   126454130.113    24063430.672    98535733.8304   24063431.117  
                
  20812926.586   111452296.380                    86685145.540    20812929.562  
  20812925.668  
  22083276.016   116048402.092    22083282.438    90427362.7534                 
                
  24060484.062   126438696.081    24060492.859    98523699.4944   24060492.895  
                
  21609822.766   113560427.088    21609831.746    88488697.4074   21609831.957  
                
  22275122.203   118864330.654                    92450030.344    22275125.496  
  22275120.109  
  21242210.055   113232965.232                                                  
  21242209.090  
  21929760.266   117144853.480                    91112653.309    21929764.973  
  21929760.043  
  19123840.148   102227903.522                    79510593.257    19123845.234  
  19123839.496  
 21  8 14 18 41 30.0000000  0 15G 4G 9G14G 7G 5G16G 8R 8G20G27G30R 2
                                R10R12R 1
  23357572.086   122744888.128    23357580.316    95645418.9784   23357580.238  
                
  20880956.680   109730205.466    20880964.879    85504106.5934   20880964.758  
                
  24372509.102   128078399.213    24372516.754    99801390.9744   24372516.641  
                
  20561393.469   108050900.540    20561399.766    84195555.6484   20561399.516  
                
  24227613.398   127316960.601    24227620.504    99208059.6614   24227620.711  
                
  24373867.898   128085572.203    24373873.703    99806976.0474                 
                
  24059126.047   126431558.020    24059135.301    98518145.1984   24059135.781  
                
  20818647.406   111482931.142                    86708972.569    20818650.398  
  20818646.488  
  22080973.172   116036300.548    22080979.598    90417932.9924                 
                
  24058514.945   126428348.277    24058523.727    98515636.2774   24058523.781  
                
  21606154.688   113541151.216    21606163.688    88473677.2524   21606163.887  
                
  22267853.594   118825544.097                    92419863.052    22267856.926  
  22267851.496  
  21248561.859   113266824.105                                                  
  21248560.867  
  21923029.914   117108901.805                    91084690.932    21923034.703  
  21923029.730  
  19123514.719   102226163.867                    79509240.194    19123519.805  
  19123514.082  
 21  8 14 18 41 40.0000000  0 15G 4G 9G14G 7G 5G16G 8R 8G20G27G30R 2
                                R10R12R 1
  23363159.641   122774250.777    23363167.934    95668298.9544   23363167.820  
                
  20883896.141   109745652.443    20883904.328    85516143.1964   20883904.223  
                
  24365263.195   128040321.697    24365270.809    99771720.1974   24365270.680  
                
  20561450.984   108051202.778    20561457.250    84195791.1624   20561457.020  
                
  24222012.500   127287527.821    24222019.605    99185125.0484   24222019.836  
                
  24380492.195   128120383.245    24380498.020    99834101.5354                 
                
  24054837.617   126409022.122    24054846.863    98500584.7684   24054847.363  
                
  20824378.211   111513619.387                    86732841.193    20824381.234  
  20824377.305  
  22078682.430   116024262.622    22078688.855    90408552.7854                 
                
  24056557.070   126418059.611    24056565.898    98507619.1604   24056565.930  
                
  21602492.453   113521906.060    21602501.473    88458681.0314   21602501.672  
                
  22260588.305   118786775.240                    92389709.500    22260591.629  
  22260586.180  
  21254919.422   113300713.561                                                  
  21254918.402  
  21916306.703   117072987.815                    91056757.838    21916311.488  
  21916306.504  
  19123203.672   102224501.169                    79507946.973    19123208.762  
  19123203.051  
 21  8 14 18 41 50.0000000  0 15G 4G 9G14G 7G 5G16G 8R 8G20G27G30R 2
                                R10R12R 1
  23368751.438   122803635.529    23368759.719    95691196.1694   23368759.562  
                
  20886843.711   109761142.032    20886851.914    85528213.0054   20886851.824  
                
  24358018.633   128002251.585    24358026.293    99742055.1984   24358026.172  
                
  20561514.750   108051537.877    20561520.980    84196052.2804   20561520.770  
                
  24216418.914   127258133.452    24216426.047    99162220.3734   24216426.273  
                
  24387122.320   128155224.675    24387128.172    99861250.7134                 
                
  24050556.133   126386522.801    24050565.383    98483052.8264   24050565.871  
                
  20830119.086   111544361.484                    86756751.720    20830122.145  
  20830118.211  
  22076403.875   116012288.690    22076410.293    90399222.4524                 
                
  24054610.547   126407830.552    24054619.383    98499648.4984   24054619.395  
                
  21598836.141   113502692.028    21598845.176    88443709.0644   21598845.371  
                
  22253326.398   118748024.366                    92359569.929    22253329.680  
  22253324.270  
  21261282.797   113334633.993                                                  
  21261281.781  
  21909590.648   117037111.892                    91028854.364    21909595.387  
  21909590.398  
  19122907.109   102222915.846                    79506713.950    19122912.195  
  19122906.492  
 21  8 14 18 42  0.0000000  0 15G 4G 9G14G 7G 5G16G 8R 8G20G27G30R 2
                                R10R12R 1
  23374347.359   122833042.150    23374355.645    95714110.4084   23374355.500  
                
  20889799.352   109776674.011    20889807.586    85540315.8384   20889807.508  
                
  24350775.414   127964188.756    24350783.109    99712395.8564   24350783.023  
                
  20561584.727   108051905.584    20561590.918    84196338.8074   20561590.734  
                
  24210832.633   127228777.473    24210839.781    99139345.6164   24210839.988  
                
  24393758.164   128190096.189    24393764.031    99888423.3124                 
                
  24046281.562   126364059.953    24046290.871    98465549.3374   24046291.328  
                
  20835869.977   111575157.148                    86780703.884    20835873.074  
  20835869.133  
  22074137.461   116000378.567    22074143.855    90389941.8444                 
                
  24052675.336   126397660.946    24052684.176    98491724.1374   24052684.160  
                
  21595185.703   113483508.860    21595194.734    88428761.1484   21595194.930  
                
  22246067.898   118709291.626                    92329444.477    22246071.199  
  22246065.766  
  21267651.945   113368585.128                                                  
  21267650.934  
  21902881.664   117001273.916                    91000980.398    21902886.414  
  21902881.414  
  19122625.008   102221407.815                    79505541.030    19122630.105  
  19122624.398  
 21  8 14 18 42 10.0000000  0 15G 4G 9G14G 7G 5G16G 8R 8G20G27G30R 2
                                R10R12R 1
  23379947.414   122862470.744    23379955.785    95737041.7764   23379955.637  
                
  20892763.070   109792248.486    20892771.340    85552451.7834   20892771.258  
                
  24343533.609   127926133.418    24343541.387    99682742.3854   24343541.359  
                
  20561660.930   108052306.007    20561667.082    84196650.8234   20561666.926  
                
  24205253.703   127199460.040    24205260.918    99116500.8924   24205261.113  
                
  24400399.734   128224997.813    24400405.633    99915619.3894                 
                
  24042013.961   126341633.773    24042023.309    98448074.4104   24042023.766  
                
  20841630.781   111606006.038                    86804697.467    20841633.910  
  20841629.957  
  22071883.203   115988532.413    22071889.574    90380711.0684                 
                
  24050751.469   126387550.991    24050760.328    98483846.2554   24050760.312  
                
  21591541.180   113464356.771    21591550.191    88413837.4404   21591550.395  
                
  22238812.789   118670576.932                    92299333.052    22238816.059  
  22238810.656  
  21274026.805   113402566.797                                                  
  21274025.758  
  21896179.859   116965474.013                    90973136.056    21896184.559  
  21896179.586  
  19122357.359   102219977.134                    79504428.275    19122362.469  
  19122356.742  
 21  8 14 18 42 20.0000000  0 15G 4G 9G14G 7G 5G16G 8R 8G20G27G30R 2
                                R10R12R 1
  23385551.641   122891921.213    23385560.090    95759990.1854   23385559.891  
                
  20895734.875   109807865.389    20895743.199    85564620.8014   20895743.098  
                
  24336293.273   127888085.604    24336301.090    99653094.7674   24336301.109  
                
  20561743.336   108052739.066    20561749.461    84196988.2824   20561749.312  
                
  24199682.102   127170181.208    24199689.367    99093686.2424   24199689.547  
                
  24407046.984   128259929.440    24407052.949    99942838.8314                 
                
  24037753.352   126319244.212    24037762.723    98430628.0154   24037763.203  
                
  20847401.570   111636908.365                    86828732.605    20847404.723  
  20847400.766  
  22069641.125   115976750.198    22069647.453    90371530.1134                 
                
  24048838.969   126377500.710    24048847.840    98476014.8884   24048847.812  
                
  21587902.555   113445235.648    21587911.559    88398937.8714   21587911.777  
                
  22231561.070   118631880.323                    92269235.709    22231564.301  
  22231558.934  
  21280407.367   113436578.750                                                  
  21280406.297  
  21889485.367   116929712.339                    90945321.414    21889489.887  
  21889484.973  
  19122104.211   102218623.907                    79503375.762    19122109.324  
  19122103.578  
 21  8 14 18 42 30.0000000  0 15G 4G 9G14G 7G 5G16G 8R 8G20G27G30R 2
                                R10R12R 1
  23391160.016   122921393.423    23391168.484    95782955.5204   23391168.254  
                
  20898714.719   109823524.609    20898723.109    85576822.7844   20898722.977  
                
  24329054.320   127850045.286    24329062.254    99623452.9824   24329062.293  
                
  20561831.914   108053204.586    20561838.016    84197351.0294   20561837.875  
                
  24194117.836   127140940.913    24194125.090    99070901.6224   24194125.266  
                
  24413699.852   128294890.791    24413705.930    99970081.3994                 
                
  24033499.742   126296891.493    24033509.168    98413210.3464   24033509.652  
                
  20853182.305   111667863.898                    86852809.120    20853185.469  
  20853181.535  
  22067411.195   115965031.888    22067417.484    90362398.9744                 
                
  24046937.789   126367510.030    24046946.676    98468229.9664   24046946.660  
                
  21584269.797   113426145.418    21584278.801    88384062.3724   21584279.016  
                
  22224312.797   118593202.219                    92239152.760    22224316.012  
  22224310.641  
  21286793.531   113470620.693                                                  
  21286792.469  
  21882797.938   116893988.804                    90917536.455    21882802.371  
  21882797.492  
  19121865.500   102217347.885                    79502383.309    19121870.629  
  19121864.840  
 21  8 14 18 42 40.0000000  0 15G 4G 9G14G 7G 5G16G 8R 8G20G27G30R 2
                                R10R12R 1
  23396772.570   122950887.530    23396781.004    95805937.9374   23396780.789  
                
  20901702.664   109839226.328    20901711.125    85589057.8894   20901710.965  
                
  24321816.883   127812012.749    24321824.898    99593817.2864   24321824.941  
                
  20561926.719   108053702.736    20561932.812    84197739.2094   20561932.672  
                
  24188560.969   127111739.482    24188568.211    99048147.2854   24188568.387  
                
  24420358.352   128329881.860    24420364.527    99997347.1714                 
                
  24029253.227   126274575.902    24029262.629    98395821.5794   24029263.129  
                
  20858973.016   111698872.759                    86876927.127    20858976.164  
  20858972.277  
  22065193.492   115953377.732    22065199.742    90353317.8164                 
                
  24045048.023   126357579.230    24045056.887    98460491.6984   24045056.910  
                
  21580642.969   113407086.299    21580651.984    88369211.1214   21580652.207  
                
  22217068.023   118554542.692                    92209084.240    22217071.227  
  22217065.875  
  21293185.414   113504693.094                                                  
  21293184.344  
  21876117.625   116858303.609                    90889781.309    21876122.020  
  21876117.211  
  19121641.297   102216149.406                    79501451.154    19121646.430  
  19121640.621  
 21  8 14 18 42 50.0000000  0 15G 4G 9G14G 7G 5G16G 8R 8G20G27G30R 2
                                R10R12R 1
  23402389.258   122980403.267    23402397.629    95828937.2204   23402397.438  
                
  20904698.641   109854970.304    20904707.164    85601325.9194   20904706.977  
                
  24314580.977   127773987.858    24314588.988    99564187.5154   24314589.043  
                
  20562027.688   108054233.306    20562033.766    84198152.6414   20562033.625  
                
  24183011.453   127082576.752    24183018.730    99025423.1064   24183018.879  
                
  24427022.422   128364902.368    24427028.719   100024635.8934                 
                
  24025013.727   126252297.283    24025023.090    98378461.6144   24025023.605  
                
  20864773.609   111729934.582                    86901086.312    20864776.750  
  20864772.926  
  22062987.938   115941787.497    22062994.160    90344286.4754                 
                
  24043169.633   126347708.166    24043178.445    98452799.9714   24043178.484  
                
  21577022.000   113388058.048    21577031.039    88354383.9154   21577031.246  
                
  22209826.664   118515901.522                    92179029.999    22209829.859  
  22209824.531  
  21299582.898   113538795.301                                                  
  21299581.852  
  21869444.500   116822656.619                    90862055.893    21869448.832  
  21869444.047  
  19121431.523   102215028.097                    79500579.028    19121436.660  
  19121430.844  
 21  8 14 18 43  0.0000000  0 15G 4G 9G14G 7G 5G16G 8R 8G20G27G30R 2
                                R10R12R 1
  23408010.125   123009940.862    23408018.430    95851953.5234   23408018.230  
                
  20907702.711   109870756.766    20907711.289    85613627.0524   20907711.074  
                
  24307346.664   127735970.955    24307354.617    99534563.9734   24307354.664  
                
  20562134.859   108054796.483    20562140.930    84198591.4824   20562140.781  
                
  24177469.391   127053453.133    24177476.680    99002729.3964   24177476.828  
                
  24433692.180   128399952.412    24433698.551   100051947.6134                 
                
  24020781.320   126230055.876    24020790.625    98361130.6784   24020791.191  
                
  20870584.156   111761049.656                    86925286.920    20870587.293  
  20870583.523  
  22060794.609   115930261.481    22060800.793    90335305.1654                 
                
  24041302.656   126337897.108    24041311.457    98445154.9964   24041311.504  
                
  21573406.977   113369060.934    21573416.027    88339580.9754   21573416.223  
                
  22202588.844   118477279.255                    92148990.444    22202592.035  
  22202586.715  
  21305986.000   113572927.489                                                  
  21305984.965  
  21862778.539   116787048.107                    90834360.390    21862782.828  
  21862778.078  
  19121236.328   102213984.647                    79499767.453    19121241.469  
  19121235.652  
 21  8 14 18 43 10.0000000  0 15G 4G 9G14G 7G 5G16G 8R 8G20G27G30R 2
                                R10R12R 1
  23413635.070   123039499.904    23413643.309    95874986.5404   23413643.098  
                
  20910714.797   109886585.365    20910723.414    85625961.0164   20910723.184  
                
  24300113.758   127697961.743    24300121.711    99504946.4244   24300121.734  
                
  20562248.164   108055391.874    20562254.219    84199055.4224   20562254.066  
                
  24171934.719   127024368.321    24171942.000    98980065.9114   24171942.160  
                
  24440367.469   128435031.535    24440373.930   100079281.9974                 
                
  24016556.023   126207851.709    24016565.309    98343828.7354   24016565.887  
                
  20876404.547   111792217.484                    86949528.553    20876407.688  
  20876403.957  
  22058613.453   115918799.397    22058619.613    90326373.6724                 
                
  24039447.062   126328145.784    24039455.832    98437556.5734   24039455.863  
                
  21569797.812   113350094.591    21569806.836    88324802.0124   21569807.043  
                
  22195354.523   118438675.522                    92118965.329    22195357.727  
  22195352.363  
  21312394.602   113607088.989                                                  
  21312393.559  
  21856119.734   116751477.914                    90806694.672    21856124.016  
  21856119.289  
  19121055.578   102213018.423                    79499015.940    19121060.715  
  19121054.914  
 21  8 14 18 43 20.0000000  0 15G 4G 9G14G 7G 5G16G 8R 8G20G27G30R 2
                                R10R12R 1
  23419264.125   123069080.651    23419272.316    95898036.4754   23419272.109  
                
  20913734.945   109902456.321    20913743.586    85638327.9914   20913743.359  
                
  24292882.445   127659960.575    24292890.316    99475335.1464   24292890.312  
                
  20562367.648   108056019.785    20562373.680    84199544.7104   20562373.539  
                
  24166407.492   126995322.676    24166414.793    98957432.9714   24166414.949  
                
  24447048.359   128470139.896    24447054.848   100106639.1684                 
                
  24012337.812   126185684.842    24012347.086    98326555.8564   24012347.652  
                
  20882234.789   111823438.018                    86973811.195    20882237.906  
  20882234.242  
  22056444.516   115907401.546    22056450.676    90317492.2404                 
                
  24037602.875   126318454.483    24037611.605    98430004.9304   24037611.645  
                
  21566194.547   113331159.309    21566203.543    88310047.2464   21566203.762  
                
  22188123.812   118400090.952                    92088955.144    22188127.031  
  22188121.613  
  21318808.820   113641280.385                                                  
  21318807.754  
  21849468.125   116715946.277                    90779058.957    21849472.395  
  21849467.688  
  19120889.367   102212129.921                    79498324.883    19120894.508  
  19120888.707  
 21  8 14 18 43 30.0000000  0 15G 4G 9G14G 7G 5G16G 8R 8G20G27G30R 2
                                R10R12R 1
  23424897.297   123098683.049    23424905.422    95921103.2854   23424905.199  
                
  20916763.141   109918369.598    20916771.789    85650727.9384   20916771.551  
                
  24285652.641   127621967.508    24285660.434    99445730.1714   24285660.414  
                
  20562493.312   108056680.167    20562499.312    84200059.2934   20562499.199  
                
  24160887.742   126966316.296    24160895.016    98934830.6174   24160895.191  
                
  24453734.805   128505277.346    24453741.336   100134019.0134                 
                
  24008126.688   126163555.341    24008136.000    98309312.1154   24008136.566  
                
  20888074.922   111854711.530                    86998135.033    20888078.008  
  20888074.422  
  22054287.812   115896067.938    22054293.973    90308660.8524                 
                
  24035770.109   126308823.278    24035778.844    98422500.1114   24035778.867  
                
  21562597.188   113312255.058    21562606.164    88295316.6654   21562606.383  
                
  22180896.617   118361525.252                    92058959.634    22180899.844  
  22180894.414  
  21325228.539   113675501.097                                                  
  21325227.496  
  21842823.773   116680453.356                    90751453.354    21842828.027  
  21842823.309  
  19120737.680   102211319.046                    79497694.199    19120742.828  
  19120737.027  
 21  8 14 18 43 40.0000000  0 15G 4G 9G14G 7G 5G16G 8R 8G20G27G30R 2
                                R10R12R 1
  23430534.578   123128307.091    23430542.629    95944186.9594   23430542.438  
                
  20919799.406   109934325.264    20919808.051    85663160.9244   20919807.820  
                
  24278424.367   127583982.680    24278432.094    99416131.6134   24278432.086  
                
  20562625.141   108057372.960    20562631.105    84200599.1354   20562631.027  
                
  24155375.508   126937349.344    24155382.734    98912258.9564   24155382.922  
                
  24460426.750   128540443.813    24460433.320   100161421.4324                 
                
  24003922.797   126141463.723    24003932.078    98292097.8524   24003932.613  
                
  20893924.875   111886037.709                    87022499.828    20893927.918  
  20893924.398  
  22052143.336   115884798.682    22052149.484    90299879.6154                 
                
  24033948.805   126299252.262    24033957.586    98415042.2144   24033957.586  
                
  21559005.734   113293381.892    21559014.699    88280610.3104   21559014.914  
                
  22173673.008   118322978.866                    92028979.132    22173676.234  
  22173670.836  
  21331653.781   113709751.193                                                  
  21331652.754  
  21836186.633   116644999.217                    90723877.926    21836190.918  
  21836186.148  
  19120600.562   102210586.034                    79497124.084    19120605.719  
  19120599.922  
 21  8 14 18 43 50.0000000  0 15G 4G 9G14G 7G 5G16G 8R 8G20G27G30R 2
                                R10R12R 1
  23436176.000   123157952.849    23436184.031    95967287.5534   23436183.832  
                
  20922843.750   109950323.379    20922852.395    85675626.9864   20922852.160  
                
  24271197.711   127546006.268    24271205.379    99386539.6404   24271205.355  
                
  20562763.172   108058098.312    20562769.090    84201164.3444   20562769.039  
                
  24149870.797   126908422.031    24149877.992    98889718.2124   24149878.180  
                
  24467124.211   128575639.327    24467130.820   100188846.5224                 
                
  23999726.078   126119409.767    23999735.348    98274912.9774   23999735.875  
                
  20899784.727   111917416.802                    87046905.791    20899787.703  
  20899784.270  
  22050011.133   115873593.870    22050017.262    90291148.6054                 
                
  24032138.992   126289741.642    24032147.801    98407631.3454   24032147.793  
                
  21555420.227   113274539.934    21555429.195    88265928.2774   21555429.422  
                
  22166453.070   118284451.957                    91999013.760    22166456.285  
  22166450.875  
  21338084.531   113744030.694                                                  
  21338083.523  
  21829556.805   116609583.982                    90696332.734    21829561.098  
  21829556.336  
  19120478.008   102209930.886                    79496614.521    19120483.160  
  19120477.371  
 21  8 14 18 44  0.0000000  0 15G 4G 9G14G 7G 5G16G 8R 8G20G27G30R 2
                                R10R12R 1
  23441821.523   123187619.994    23441829.547    95990404.8024   23441829.336  
                
  20925896.117   109966363.650    20925904.750    85688125.8974   20925904.535  
                
  24263972.633   127508038.084    24263980.230    99356954.0424   24263980.199  
                
  20562907.344   108058855.965    20562913.223    84201754.7244   20562913.211  
                
  24144373.586   126879534.094    24144380.727    98867208.1204   24144380.902  
                
  24473827.156   128610863.512    24473833.785   100216293.9434                 
                
  23995536.500   126097393.431    23995545.793    98257757.4014   23995546.301  
                
  20905654.383   111948848.326                    87071352.526    20905657.332  
  20905653.969  
  22047891.133   115862453.263    22047897.238    90282467.6144                 
                
  24030340.617   126280291.153    24030349.449    98400267.3454   24030349.418  
                
  21551840.609   113255728.905    21551849.598    88251270.3364   21551849.809  
                
  22159236.797   118245944.670                    91969063.660    22159240.051  
  22159234.602  
  21344520.719   113778339.162                                                  
  21344519.723  
  21822934.258   116574207.504                    90668817.693    21822938.523  
  21822933.766  
  19120369.969   102209353.357                    79496165.328    19120375.109  
  19120369.348  
 21  8 14 18 44 10.0000000  0 15G 4G 9G14G 7G 5G16G 8R 8G20G27G30R 2
                                R10R12R 1
  23447471.188   123217308.874    23447479.160    96013539.0084   23447478.969  
                
  20928956.578   109982446.459    20928965.207    85700657.9474   20928964.992  
                
  24256749.156   127470078.583    24256756.730    99327375.2274   24256756.707  
                
  20563057.734   108059646.231    20563063.578    84202370.5164   20563063.598  
                
  24138883.969   126850686.004    24138891.109    98844729.1254   24138891.258  
                
  24480535.594   128646116.571    24480542.230   100243763.8754                 
                
  23991354.188   126075415.235    23991363.512    98240631.5614   23991363.980  
                
  20911533.906   111980332.680                    87095840.357    20911536.832  
  20911533.570  
  22045783.430   115851377.238    22045789.531    90273836.9414                 
                
  24028553.781   126270901.262    24028562.617    98392950.5514   24028562.582  
                
  21548266.945   113236949.181    21548275.961    88236636.7864   21548276.152  
                
  22152024.164   118207456.772                    91939128.642    22152027.434  
  22152021.949  
  21350962.398   113812676.933                                                  
  21350961.383  
  21816319.000   116538870.140                    90641333.073    21816323.242  
  21816318.508  
  19120276.547   102208853.970                    79495776.918    19120281.676  
  19120275.926  
 21  8 14 18 44 20.0000000  0 15G 4G 9G14G 7G 5G16G 8R 8G20G27G30R 2
                                R10R12R 1
  23453124.797   123247019.121    23453132.805    96036689.8194   23453132.625  
                
  20932025.047   109998571.362    20932033.680    85713222.8044   20932033.445  
                
  24249527.367   127432127.412    24249534.805    99297802.8914   24249534.797  
                
  20563214.234   108060468.676    20563220.059    84203011.3874   20563220.094  
                
  24133401.883   126821877.525    24133409.027    98822280.9844   24133409.156  
                
  24487249.438   128681398.004    24487256.070   100271255.9034                 
                
  23987179.109   126053474.965    23987188.414    98223535.2384   23987188.879  
                
  20917423.172   112011869.192                    87120368.754    20917426.066  
  20917422.883  
  22043687.953   115840365.482    22043694.059    90265256.3544                 
                
  24026778.383   126261571.594    24026787.176    98385680.6954   24026787.176  
                
  21544699.156   113218200.367    21544708.203    88222027.3274   21544708.375  
                
  22144815.188   118168988.380                    91909208.809    22144818.477  
  22144812.938  
  21357409.453   113847043.347                                                  
  21357408.434  
  21809711.031   116503571.685                    90613878.709    21809715.258  
  21809710.562  
  19120197.664   102208432.270                    79495448.926    19120202.781  
  19120197.035  
 21  8 14 18 44 30.0000000  0 15G 4G 9G14G 7G 5G16G 8R 8G20G27G30R 2
                                R10R12R 1
  23458782.516   123276750.833    23458790.520    96059857.3734   23458790.348  
                
  20935101.570   110014738.570    20935110.203    85725820.6184   20935109.961  
                
  24242307.219   127394184.912    24242314.551    99268237.3294   24242314.555  
                
  20563376.891   108061323.430    20563382.703    84203677.4354   20563382.738  
                
  24127927.414   126793109.069    24127934.559    98799863.9934   24127934.688  
                
  24493968.711   128716707.928    24493975.316   100298770.1434                 
                
  23983011.305   126031572.953    23983020.594    98206468.7314   23983021.062  
                
  20923322.195   112043458.049                    87144937.866    20923325.086  
  20923321.930  
  22041604.758   115829418.274    22041610.879    90256726.0714                 
                
  24025014.508   126252302.440    24025023.234    98378457.9874   24025023.254  
                
  21541137.297   113199482.672    21541146.379    88207442.1214   21541146.535  
                
  22137609.891   118130539.629                    91879304.215    22137613.152  
  22137607.648  
  21363861.898   113881438.527                                                  
  21363860.891  
  21803110.406   116468312.265                    90586454.700    21803114.566  
  21803109.961  
  19120133.375   102208088.618                    79495181.635    19120138.488  
  19120132.758  
 21  8 14 18 44 40.0000000  0 15G 4G 9G14G 7G 5G16G 8R 8G20G27G30R 2
                                R10R12R 1
  23464444.336   123306503.973    23464452.324    96083041.6404   23464452.188  
                
  20938186.133   110030948.043    20938194.766    85738451.3794   20938194.527  
                
  24235088.719   127356251.159    24235095.996    99238678.5654   24235095.980  
                
  20563545.695   108062210.492    20563551.500    84204368.6474   20563551.535  
                
  24122460.539   126764380.527    24122467.695    98777478.1254   24122467.812  
                
  24500693.352   128752046.173    24500699.930   100326306.4454                 
                
  23978850.742   126009709.062    23978860.035    98189431.9454   23978860.488  
                
  20929230.977   112075099.207                    87169547.643    20929233.875  
  20929230.695  
  22039533.836   115818535.559    22039539.961    90248246.0404                 
                
  24023262.164   126243093.831    24023270.852    98371282.4634   24023270.891  
                
  21537581.352   113180796.107    21537590.469    88192881.1664   21537590.598  
                
  22130408.375   118092110.930                    91849415.247    22130411.645  
  22130406.168  
  21370319.711   113915862.288                                                  
  21370318.715  
  21796517.148   116433092.052                    90559061.181    21796521.223  
  21796516.688  
  19120083.664   102207822.861                    79494974.942    19120088.762  
  19120083.039  
 21  8 14 18 44 50.0000000  0 15G 4G 9G14G 7G 5G16G 8R 8G20G27G30R 2
                                R10R12R 1
  23470110.273   123336278.508    23470118.242    96106242.5694   23470118.113  
                
  20941278.742   110047199.793    20941287.371    85751115.0764   20941287.121  
                
  24227871.867   127318326.210    24227879.105    99209126.6694   24227879.062  
                
  20563720.633   108063129.812    20563726.438    84205085.0074   20563726.473  
                
  24117001.258   126735691.937    24117008.430    98755123.4024   24117008.539  
                
  24507423.352   128787412.625    24507429.902   100353864.7224                 
                
  23974697.555   125987883.810    23974706.816    98172425.2734   23974707.270  
                
  20935149.477   112106792.468                    87194197.955    20935152.371  
  20935149.195  
  22037475.203   115807717.442    22037481.301    90239816.3534                 
                
  24021521.336   126233945.842    24021529.977    98364154.1654   24021530.027  
                
  21534031.336   113162140.670    21534040.465    88178344.4724   21534040.582  
                
  22123210.641   118053702.490                    91819542.034    22123213.922  
  22123208.469  
  21376782.875   113950314.560                                                  
  21376781.934  
  21789931.258   116397911.138                    90531698.225    21789935.266  
  21789930.789  
  19120048.547   102207635.177                    79494828.968    19120053.645  
  19120047.898  
 21  8 14 18 45  0.0000000  0 15G 4G 9G14G 7G 5G16G 8R 8G20G27G30R 2
                                R10R12R 1
  23475780.281   123366074.409    23475788.246    96129460.1584   23475788.105  
                
  20944379.383   110063493.798    20944387.988    85763811.6964   20944387.754  
                
  24220656.688   127280410.185    24220663.879    99179581.7324   24220663.852  
                
  20563901.727   108064081.481    20563907.531    84205826.5664   20563907.555  
                
  24111549.617   126707043.445    24111556.805    98732799.9014   24111556.941  
                
  24514158.695   128822807.159    24514165.227   100381444.8854                 
                
  23970551.680   125966097.006    23970560.930    98155448.5364   23970561.383  
                
  20941077.766   112138537.986                    87218888.918    20941080.625  
  20941077.500  
  22035428.883   115796963.998    22035434.949    90231437.0434                 
                
  24019792.062   126224858.549    24019800.629    98357073.1764   24019800.711  
                
  21530487.242   113143516.383    21530496.363    88163832.0454   21530496.473  
                
  22116016.742   118015314.393                    91789684.640    22116019.992  
  22116014.586  
  21383251.352   113984795.127                                                  
  21383250.465  
  21783352.703   116362769.540                    90504365.870    21783356.719  
  21783352.223  
  19120028.031   102207525.494                    79494743.649    19120033.121  
  19120027.379  
 21  8 14 18 45 10.0000000  0 15G 4G 9G14G 7G 5G16G 8R 8G20G27G30R 2
                                R10R12R 1
  23481454.344   123395891.840    23481462.359    96152694.4944   23481462.223  
                
  20947488.102   110079830.186    20947496.691    85776541.3524   20947496.469  
                
  24213443.250   127242503.332    24213450.422    99150043.9294   24213450.410  
                
  20564088.977   108065065.494    20564094.785    84206593.3294   20564094.801  
                
  24106105.664   126678435.411    24106112.871    98710507.9354   24106113.023  
                
  24520899.422   128858229.908    24520905.898   100409046.9884                 
                
  23966413.070   125944348.601    23966422.387    98138501.7454   23966422.824  
                
  20947015.797   112170335.754                    87243620.520    20947018.660  
  20947015.559  
  22033394.906   115786275.396    22033400.945    90223108.2614                 
                
  24018074.367   126215832.151    24018082.859    98350039.6334   24018082.977  
                
  21526949.117   113124923.416    21526958.242    88149344.0244   21526958.355  
                
  22108826.602   117976946.372                    91759842.850    22108829.828  
  22108824.453  
  21389725.164   114019304.084                                                  
  21389724.312  
  21776781.500   116327667.450                    90477064.213    21776785.559  
  21776781.020  
  19120022.188   102207494.234                    79494719.344    19120027.266  
  19120021.520  
 21  8 14 18 45 20.0000000  0 15G 4G 9G14G 7G 5G16G 8R 8G20G27G30R 2
                                R10R12R 1
  23487132.500   123425730.638    23487140.539    96175945.5024   23487140.398  
                
  20950604.867   110096208.889    20950613.441    85789303.9714   20950613.219  
                
  24206231.508   127204605.609    24206238.680    99120513.2484   24206238.691  
                
  20564282.375   108066081.798    20564288.191    84207385.2484   20564288.191  
                
  24100669.383   126649867.692    24100676.609    98688247.3924   24100676.742  
                
  24527645.469   128893680.582    24527651.926   100436670.9494                 
                
  23962281.945   125922639.296    23962291.289    98121585.4204   23962291.715  
                
  20952963.477   112202185.283                    87268392.360    20952966.367  
  20952963.223  
  22031373.250   115775651.539    22031379.293    90214829.9414                 
                
  24016368.266   126206866.640    24016376.734    98343053.5384   24016376.855  
                
  21523416.930   113106361.660    21523426.074    88134880.3274   21523426.176  
                
  22101640.258   117938598.656                    91730016.880    22101643.465  
  22101638.105  
  21396204.242   114053841.121                                                  
  21396203.422  
  21770217.695   116292604.959                    90449793.381    21770221.816  
  21770217.234  
  19120030.969   102207541.170                    79494755.841    19120036.039  
  19120030.305  
 21  8 14 18 45 30.0000000  0 15G 4G 9G14G 7G 5G16G 8R 8G20G27G30R 2
                                R10R12R 1
  23492814.688   123455590.618    23492822.727    96199213.0234   23492822.570  
                
  20953729.648   110112629.705    20953738.203    85802099.4084   20953737.988  
                
  24199021.461   127166716.953    24199028.672    99090989.6524   24199028.703  
                
  20564481.875   108067130.212    20564487.703    84208202.1914   20564487.691  
                
  24095240.789   126621340.297    24095248.004    98666018.2484   24095248.129  
                
  24534396.766   128929158.888    24534403.195   100464316.3714                 
                
  23958158.180   125900968.745    23958167.586    98104699.3034   23958167.992  
                
  20958920.828   112234086.663                    87293204.526    20958923.734  
  20958920.496  
  22029363.891   115765092.338    22029369.949    90206601.9934                 
                
  24014673.734   126197961.930    24014682.203    98336114.7964   24014682.316  
                
  21519890.656   113087830.997    21519899.828    88120440.8544   21519899.914  
                
  22094457.852   117900271.973                    91700207.259    22094461.078  
  22094455.707  
  21402688.602   114088406.337                                                  
  21402687.812  
  21763661.250   116257581.854                    90422553.186    21763665.457  
  21763660.793  
  19120054.344   102207666.122                    79494853.016    19120059.422  
  19120053.688  
 21  8 14 18 45 40.0000000  0 15G 4G 9G14G 7G 5G16G 8R 8G20G27G30R 2
                                R10R12R 1
  23498500.875   123485471.960    23498508.969    96222497.1784   23498508.812  
                
  20956862.492   110129092.829    20956871.055    85814927.8094   20956870.844  
                
  24191813.242   127128837.642    24191820.422    99061473.3124   24191820.508  
                
  20564687.531   108068210.943    20564693.379    84209044.3274   20564693.359  
                
  24089819.945   126592853.658    24089827.191    98643820.8764   24089827.262  
                
  24541153.352   128964664.986    24541159.785   100491983.4744                 
                
  23954041.867   125879337.279    23954051.262    98087843.6124   23954051.668  
                
  20964887.922   112266040.177                    87318057.252    20964890.789  
  20964887.555  
  22027366.891   115754598.043    22027372.953    90198424.6244                 
                
  24012990.805   126189118.220    24012999.266    98329223.6204   24012999.375  
                
  21516370.336   113069331.625    21516379.543    88106025.7674   21516379.617  
                
  22087279.281   117861965.699                    91670413.519    22087282.484  
  22087277.148  
  21409178.180   114122999.405                                                  
  21409177.422  
  21757112.305   116222598.564                    90395343.943    21757116.555  
  21757111.832  
  19120092.391   102207869.519                    79495011.218    19120097.480  
  19120091.746  
 21  8 14 18 45 50.0000000  0 15G 4G 9G14G 7G 5G16G 8R 8G20G27G30R 2
                                R10R12R 1
  23504191.180   123515374.617    23504199.277    96245797.9454   23504199.109  
                
  20960003.367   110145598.215    20960011.941    85827789.1484   20960011.703  
                
  24184606.750   127090967.757    24184614.012    99031964.3294   24184614.113  
                
  20564899.320   108069323.932    20564905.188    84209911.5924   20564905.152  
                
  24084406.836   126564407.643    24084414.109    98621655.1664   24084414.145  
                
  24547915.211   129000198.772    24547921.648   100519672.1444                 
                
  23949932.953   125857744.830    23949942.344    98071018.3474   23949942.777  
                
  20970864.664   112298045.237                    87342950.097    20970867.477  
  20970864.312  
  22025382.234   115744168.625    22025388.277    90190297.8104                 
                
  24011319.516   126180335.614    24011327.953    98322380.0394   24011328.043  
                
  21512855.969   113050863.524    21512865.215    88091635.0524   21512865.293  
                
  22080104.625   117823680.318                    91640635.995    22080107.766  
  22080102.492  
  21415672.977   114157620.343                                                  
  21415672.207  
  21750570.742   116187655.035                    90368165.650    21750575.070  
  21750570.273  
  19120145.102   102208151.250                    79495230.331    19120150.180  
  19120144.457  
 21  8 14 18 46  0.0000000  0 15G 4G 9G14G 7G 5G16G 8R 8G20G27G30R 2
                                R10R12R 1
  23509885.523   123545298.470    23509893.648    96269115.2194   23509893.465  
                
  20963152.273   110162145.814    20963160.863    85840683.3744   20963160.605  
                
  24177402.062   127053107.292    24177409.398    99002462.7114   24177409.527  
                
  20565117.234   108070469.081    20565123.117    84210803.9114   20565123.074  
                
  24079001.477   126536002.352    24079008.746    98599521.1714   24079008.766  
                
  24554682.289   129035760.020    24554688.711   100547382.2244                 
                
  23945831.508   125836191.662    23945840.938    98054223.6954   23945841.375  
                
  20976851.086   112330102.205                    87367883.296    20976853.879  
  20976850.734  
  22023409.930   115733804.116    22023415.961    90182221.5794                 
                
  24009659.852   126171614.071    24009668.262    98315584.0324   24009668.344  
                
  21509347.539   113032426.625    21509356.812    88077268.6474   21509356.887  
                
  22072933.891   117785415.856                    91610874.752    22072937.008  
  22072931.781  
  21422172.953   114192268.868                                                  
  21422172.191  
  21744036.656   116152751.234                    90341018.241    21744041.020  
  21744036.195  
  19120212.453   102208511.273                    79495510.339    19120217.543  
  19120211.812  
 21  8 14 18 46 10.0000000  0 15G 4G 9G14G 7G 5G16G 8R 8G20G27G30R 2
                                R10R12R 1
  23515583.883   123575243.449    23515592.020    96292448.9554   23515591.828  
                
  20966309.195   110178735.545    20966317.809    85853610.4314   20966317.535  
                
  24170199.211   127015256.331    24170206.586    98972968.4694   24170206.738  
                
  20565341.242   108071646.282    20565347.137    84211721.2154   20565347.090  
                
  24073603.867   126507637.785    24073611.102    98577418.9124   24073611.141  
                
  24561454.570   129071348.544    24561460.961   100575113.5614                 
                
  23941737.539   125814677.647    23941746.984    98037459.5364   23941747.387  
                
  20982847.102   112362210.611                    87392856.490    20982849.879  
  20982846.742  
  22021449.961   115723504.461    22021455.988    90174195.8884                 
                
  24008011.805   126162953.600    24008020.172    98308835.6254   24008020.227  
                
  21505845.039   113014020.914    21505854.320    88062926.5404   21505854.387  
                
  22065767.062   117747172.304                    91581129.784    22065770.172  
  22065764.977  
  21428678.070   114226944.845                                                  
  21428677.312  
  21737510.000   116117887.218                    90313901.776    21737514.422  
  21737509.547  
  19120294.469   102208949.657                    79495851.305    19120299.547  
  19120293.840  
 21  8 14 18 46 20.0000000  0 15G 4G 9G14G 7G 5G16G 8R 8G20G27G30R 2
                                R10R12R 1
  23521286.172   123605209.544    23521294.414    96315799.1574   23521294.215  
                
  20969474.141   110195367.436    20969482.781    85866570.3434   20969482.500  
                
  24162998.164   126977414.963    24163005.574    98943481.6914   24163005.762  
                
  20565571.359   108072855.550    20565577.258    84212663.5054   20565577.207  
                
  24068214.047   126479314.127    24068221.250    98555348.5354   24068221.285  
                
  24568232.047   129106964.244    24568238.410   100602866.0704                 
                
  23937651.047   125793202.759    23937660.473    98020725.8704   23937660.879  
                
  20988852.727   112394370.487                    87417869.714    20988855.480  
  20988852.355  
  22019502.352   115713269.707    22019508.387    90166220.7454                 
                
  24006375.398   126154354.332    24006383.691    98302134.9004   24006383.785  
                
  21502348.484   112995646.424    21502357.770    88048608.7634   21502357.836  
                
  22058604.234   117708950.252                    91551401.563    22058607.371  
  22058602.113  
  21435188.352   114261648.236                                                  
  21435187.586  
  21730990.844   116083063.106                    90286816.363    21730995.312  
  21730990.402  
  19120391.156   102209466.507                    79496253.299    19120396.246  
  19120390.531  
 21  8 14 18 46 30.0000000  0 15G 4G 9G14G 7G 5G16G 8R 8G20G27G30R 2
                                R10R12R 1
  23526992.523   123635196.756    23527000.805    96339165.8294   23527000.574  
                
  20972647.117   110212041.496    20972655.766    85879563.1094   20972655.469  
                
  24155799.016   126939583.321    24155806.418    98914002.5254   24155806.645  
                
  20565807.586   108074096.931    20565813.480    84213630.8184   20565813.430  
                
  24062832.047   126451031.509    24062839.230    98533310.1454   24062839.270  
                
  24575014.656   129142607.091    24575020.984   100630639.6794                 
                
  23933572.086   125771767.613    23933581.477    98004023.1654   23933581.902  
                
  20994867.977   112426581.968                    87442923.099    20994870.684  
  20994867.555  
  22017567.117   115703099.974    22017573.184    90158296.2794                 
                
  24004750.656   126145816.293    24004758.945    98295481.9164   24004759.051  
                
  21498857.883   112977303.193    21498867.160    88034315.3434   21498867.234  
                
  22051445.328   117670749.151                    91521689.636    22051448.488  
  22051443.195  
  21441703.758   114296378.986                                                  
  21441702.969  
  21724479.203   116048279.042                    90259762.073    21724483.664  
  21724478.777  
  19120502.531   102210061.857                    79496716.348    19120507.605  
  19120501.898  
 21  8 14 18 46 40.0000000  0 15G 4G 9G14G 7G 5G16G 8R 8G20G27G30R 2
                                R10R12R 1
  23532702.953   123665204.980    23532711.195    96362548.8524   23532710.949  
                
  20975828.094   110228757.643    20975836.742    85892588.6734   20975836.449  
                
  24148601.742   126901761.404    24148609.133    98884530.9114   24148609.367  
                
  20566049.906   108075370.352    20566055.797    84214623.0934   20566055.758  
                
  24057457.867   126422789.980    24057465.000    98511303.7534   24057465.031  
                
  24581802.391   129178276.870    24581808.707   100658434.3234                 
                
  23929500.656   125750372.010    23929510.031    97987351.2694   23929510.434  
                
  21000892.812   112458844.645                    87468016.289    21000895.465  
  21000892.395  
  22015644.250   115692995.181    22015650.355    90150422.4224                 
                
  24003137.570   126137339.520    24003145.855    98288876.6464   24003145.965  
                
  21495373.219   112958991.161    21495382.488    88020046.2254   21495382.562  
                
  22044290.453   117632569.472                    91491994.343    22044293.625  
  22044288.332  
  21448224.234   114331136.719                                                  
  21448223.422  
  21717975.102   116013535.022                    90232738.904    21717979.488  
  21717974.676  
  19120628.586   102210735.679                    79497240.429    19120633.664  
  19120627.934  
 21  8 14 18 46 50.0000000  0 15G 4G 9G14G 7G 5G16G 8R 8G20G27G30R 2
                                R10R12R 1
  23538417.320   123695234.202    23538425.594    96385948.2454   23538425.320  
                
  20979017.086   110245515.868    20979025.719    85905647.0304   20979025.430  
                
  24141406.438   126863949.306    24141413.691    98855066.9554   24141413.934  
                
  20566298.305   108076675.699    20566304.188    84215640.2504   20566304.164  
                
  24052091.523   126394589.576    24052098.613    98489329.4094   24052098.641  
                
  24588595.234   129213973.516    24588601.555   100686249.8454                 
                
  23925436.750   125729016.015    23925446.145    97970710.2404   23925446.531  
                
  21006927.180   112491158.365                    87493149.199    21006929.789  
  21006926.770  
  22013733.742   115682955.407    22013739.887    90142599.2194                 
                
  24001536.133   126128924.053    24001544.445    98282319.1644   24001544.566  
                
  21491894.484   112940710.314    21491903.750    88005801.4174   21491903.832  
                
  22037139.594   117594411.196                    91462315.707    22037142.766  
  22037137.492  
  21454749.797   114365921.501                                                  
  21454749.000  
  21711478.500   115978831.029                    90205746.893    21711482.820  
  21711478.051  
  19120769.336   102211488.110                    79497825.656    19120774.398  
  19120768.691  
 21  8 14 18 47  0.0000000  0 15G 4G 9G14G 7G 5G16G 8R 8G20G27G30R 2
                                R10R12R 1
  23544135.711   123725284.268    23544143.953    96409363.8794   23544143.684  
                
  20982214.055   110262316.024    20982222.664    85918738.0554   20982222.391  
                
  24134212.961   126826146.996    24134220.102    98825610.6074   24134220.367  
                
  20566552.766   108078012.904    20566558.648    84216682.2314   20566558.625  
                
  24046732.992   126366430.267    24046740.070    98467387.0824   24046740.078  
                
  24595393.156   129249696.842    24595399.480   100714086.1924                 
                
  23921380.359   125707699.586    23921389.711    97954100.0314   23921390.121  
                
  21012971.070   112523523.153                    87518321.811    21012973.672  
  21012970.617  
  22011835.594   115672980.548    22011841.762    90134826.5984                 
                
  23999946.375   126120569.861    23999954.727    98275809.4094   23999954.824  
                
  21488421.672   112922460.596    21488430.949    87991580.8634   21488431.027  
                
  22029992.844   117556274.773                    91432654.065    22029995.992  
  22029990.766  
  21461280.367   114400732.960                                                  
  21461279.574  
  21704989.391   115944167.135                    90178786.078    21704993.652  
  21704988.941  
  19120924.727   102212318.729                    79498471.687    19120929.773  
  19120924.074  
 21  8 14 18 47 10.0000000  0 15G 4G 9G14G 7G 5G16G 8R 8G20G27G30R 2
                                R10R12R 1
  23549858.086   123755355.458    23549866.363    96432795.9634   23549866.078  
                
  20985419.062   110279158.415    20985427.648    85931861.9964   20985427.383  
                
  24127021.445   126788354.872    24127028.496    98796162.2204   24127028.766  
                
  20566813.336   108079382.224    20566819.219    84217749.2334   20566819.211  
                
  24041382.344   126338312.463    24041389.418    98445477.1154   24041389.445  
                
  24602196.180   129285446.927    24602202.473   100741943.3914                 
                
  23917331.586   125686423.168    23917340.848    97937521.0014   23917341.316  
                
  21019024.539   112555939.282                    87543534.352    21019027.145  
  21019024.027  
  22009949.852   115663070.942    22009956.043    90127104.8424                 
                
  23998368.344   126112277.289    23998376.703    98269347.6534   23998376.797  
                
  21484954.828   112904242.256    21484964.117    87977384.7674   21484964.191  
                
  22022850.203   117518160.321                    91403009.515    22022853.309  
  22022848.113  
  21467815.984   114435571.372                                                  
  21467815.168  
  21698507.812   115909543.583                    90151856.639    21698512.035  
  21698507.387  
  19121094.836   102213228.081                    79499178.958    19121099.895  
  19121094.176  
 21  8 14 18 47 20.0000000  0 15G 4G 9G14G 7G 5G16G 8R 8G20G27G30R 2
                                R10R12R 1
  23555584.469   123785447.696    23555592.746    96456244.4454   23555592.465  
                
  20988632.094   110296043.019    20988640.656    85945018.8214   20988640.402  
                
  24119831.828   126750572.983    24119838.848    98766721.7984   24119839.086  
                
  20567080.016   108080783.653    20567085.906    84218841.2574   20567085.895  
                
  24036039.602   126310236.279    24036046.723    98423599.5774   24036046.727  
                
  24609004.281   129321223.722    24609010.520   100769821.4594                 
                
  23913290.438   125665186.973    23913299.695    97920973.3334   23913300.191  
                
  21025087.555   112588406.595                    87568786.693    21025090.156  
  21025086.984  
  22008076.547   115653226.649    22008082.766    90119433.9504                 
                
  23996802.031   126104046.351    23996810.410    98262933.9574   23996810.492  
                
  21481493.969   112886055.326    21481503.254    87963213.1464   21481503.328  
                
  22015711.609   117480067.492                    91373381.782    22015714.688  
  22015709.496  
  21474356.617   114470436.529                                                  
  21474355.793  
  21692033.797   115874960.480                    90124958.641    21692037.957  
  21692033.355  
  19121279.703   102214216.307                    79499947.582    19121284.773  
  19121279.027  
 21  8 14 18 47 30.0000000  0 15G 4G 9G14G 7G 5G16G 8R 8G20G27G30R 2
                                R10R12R 1
  23561314.867   123815560.885    23561323.125    96479709.2504   23561322.824  
                
  20991853.148   110312969.740    20991861.684    85958208.4684   20991861.434  
                
  24112644.164   126712801.336    24112651.094    98737289.3444   24112651.328  
                
  20567352.789   108082217.100    20567358.699    84219958.2364   20567358.680  
                
  24030704.781   126282201.727    24030711.957    98401754.5124   24030711.953  
                
  24615817.422   129357026.982    24615823.605   100797720.1304                 
                
  23909256.961   125643990.964    23909266.230    97904456.9834   23909266.719  
                
  21031160.062   112620924.665                    87594078.510    21031162.648  
  21031159.445  
  22006215.664   115643447.635    22006221.922    90111813.9464                 
                
  23995247.453   126095877.079    23995255.832    98256568.2904   23995255.906  
                
  21478039.078   112867899.737    21478048.363    87949065.9384   21478048.441  
                
  22008577.164   117441996.787                    91343771.265    22008580.242  
  22008575.051  
  21480902.242   114505328.404                                                  
  21480901.414  
  21685567.328   115840417.926                    90098092.215    21685571.488  
  21685566.910  
  19121479.305   102215283.306                    79500777.465    19121484.371  
  19121478.629  
 21  8 14 18 47 40.0000000  0 15G 4G 9G14G 7G 5G16G 8R 8G20G27G30R 2
                                R10R12R 1
  23567049.180   123845694.948    23567057.480    96503190.3264   23567057.152  
                
  20995082.203   110329938.504    20995090.715    85971430.8794   20995090.469  
                
  24105458.461   126675040.020    24105465.301    98707864.9504   24105465.551  
                
  20567631.656   108083682.532    20567637.582    84221100.1304   20567637.551  
                
  24025377.891   126254208.881    24025385.105    98379941.9094   24025385.125  
                
  24622635.570   129392856.553    24622641.715   100825639.2894                 
                
  23905231.180   125622835.324    23905240.492    97887972.0824   23905240.973  
                
  21037242.078   112653493.644                    87619409.941    21037244.625  
  21037241.449  
  22004367.195   115633733.864    22004373.484    90104244.7814                 
                
  23993704.602   126087769.453    23993713.008    98250250.6564   23993713.082  
                
  21474590.141   112849775.444    21474599.430    87934943.1164   21474599.504  
                
  22001446.898   117403948.353                    91314178.048    22001449.961  
  22001444.824  
  21487452.828   114540246.651                                                  
  21487451.996  
  21679108.414   115805915.740                    90071257.164    21679112.602  
  21679107.996  
  19121693.648   102216429.086                    79501668.624    19121698.695  
  19121692.969  
 21  8 14 18 47 50.0000000  0 15G 4G 9G14G 7G 5G16G 8R 8G20G27G30R 2
                                R10R12R 1
  23572787.445   123875850.002    23572795.797    96526687.7664   23572795.430  
                
  20998319.281   110346949.483    20998327.762    85984686.1814   20998327.520  
                
  24098274.703   126637289.236    24098281.492    98678448.7674   24098281.770  
                
  20567916.602   108085179.981    20567922.551    84222266.9774   20567922.500  
                
  24020058.984   126226257.954    24020066.234    98358162.0014   24020066.277  
                
  24629458.719   129428712.455    24629464.812   100853578.9774                 
                
  23901213.086   125601720.149    23901222.461    97871518.7074   23901222.934  
                
  21043333.578   112686113.383                    87644780.861    21043336.094  
  21043332.922  
  22002531.172   115624085.521    22002537.480    90096726.5904                 
                
  23992173.531   126079723.715    23992181.910    98243981.2474   23992181.965  
                
  21471147.188   112831682.628    21471156.480    87920844.8224   21471156.547  
                
  21994320.789   117365922.163                    91284602.133    21994323.840  
  21994318.746  
  21494008.391   114575191.440                                                  
  21494007.578  
  21672657.141   115771454.398                    90044453.878    21672661.375  
  21672656.699  
  19121922.758   102217653.786                    79502621.166    19121927.812  
  19121922.070  
 21  8 14 18 48  0.0000000  0 15G 4G 9G14G 7G 5G16G 8R 8G20G27G30R 2
                                R10R12R 1
  23578529.719   123906025.757    23578538.047    96550201.3614   23578537.648  
                
  21001564.344   110364002.368    21001572.789    85997974.1394   21001572.559  
                
  24091092.930   126599548.794    24091099.633    98649040.6354   24091099.949  
                
  20568207.586   108086709.127    20568213.555    84223458.5184   20568213.496  
                
  24014748.031   126198348.709    24014755.234    98336414.5314   24014755.320  
                
  24636286.820   129464594.434    24636292.887   100881538.9784                 
                
  23897202.680   125580645.334    23897212.070    97855096.7674   23897212.523  
                
  21049434.531   112718783.731                    87670191.140    21049437.039  
  21049433.867  
  22000707.570   115614502.401    22000713.883    90089259.2314                 
                
  23990654.195   126071739.621    23990662.516    98237759.8864   23990662.586  
                
  21467710.172   112813620.998    21467719.457    87906770.8324   21467719.523  
                
  21987198.906   117327918.494                    91255043.747    21987201.949  
  21987196.895  
  21500568.828   114610162.264                                                  
  21500568.023  
  21666213.453   115737033.510                    90017682.074    21666217.723  
  21666213.004  
  19122166.539   102218956.978                    79503634.758    19122171.602  
  19122165.883  
 21  8 14 18 48 10.0000000  0 15G 4G 9G14G 7G 5G16G 8R 8G20G27G30R 2
                                R10R12R 1
  23584275.844   123936222.473    23584284.234    96573731.2454   23584283.871  
                
  21004817.438   110381097.449    21004825.848    86011294.9804   21004825.625  
                
  24083913.195   126561819.093    24083919.883    98619640.8884   24083920.207  
                
  20568504.656   108088270.265    20568510.645    84224674.9924   20568510.578  
                
  24009445.094   126170481.573    24009452.234    98314699.8944   24009452.316  
                
  24643119.867   129500502.495    24643125.906   100909519.2704                 
                
  23893200.000   125559611.263    23893209.398    97838706.5804   23893209.852  
                
  21055545.000   112751505.049                    87695641.057    21055547.508  
  21055544.336  
  21998896.438   115604984.763    21998902.754    90081842.8944                 
                
  23989146.648   126063817.500    23989154.965    98231586.8184   23989155.043  
                
  21464279.141   112795590.857    21464288.410    87892721.3744   21464288.484  
                
  21980081.258   117289937.489                    91225502.981    21980084.309  
  21980079.234  
  21507134.133   114645159.008                                                  
  21507133.305  
  21659777.398   115702653.402                    89990942.008    21659781.742  
  21659776.945  
  19122425.125   102220339.229                    79504709.842    19122430.168  
  19122424.465  
 21  8 14 18 48 20.0000000  0 15G 4G 9G14G 7G 5G16G 8R 8G20G27G30R 2
                                R10R12R 1
  23590025.961   123966440.152    23590034.430    96597277.4734   23590034.102  
                
  21008078.562   110398234.747    21008086.934    86024648.7174   21008086.727  
                
  24076735.523   126524100.275    24076742.227    98590249.6064   24076742.543  
                
  20568807.820   108089863.415    20568813.824    84225916.4094   20568813.758  
                
  24004150.219   126142656.827    24004157.297    98293018.2654   24004157.395  
                
  24649957.828   129536436.710    24649963.883   100937519.9484                 
                
  23889205.062   125538617.751    23889214.422    97822348.0044   23889214.871  
                
  21061664.922   112784277.067                    87721130.398    21061667.445  
  21061664.199  
  21997097.766   115595532.681    21997104.082    90074477.6454                 
                
  23987650.930   126055957.497    23987659.266    98225462.1364   23987659.312  
                
  21460854.125   112777592.290    21460863.367    87878696.5234   21460863.453  
                
  21972967.906   117251979.364                    91195980.046    21972970.949  
  21972965.852  
  21513704.359   114680181.983                                                  
  21513703.539  
  21653349.039   115668314.372                    89964233.884    21653353.434  
  21653348.594  
  19122698.516   102221800.685                    79505846.528    19122703.590  
  19122697.859  
 21  8 14 18 48 30.0000000  0 15G 4G 9G14G 7G 5G16G 8R 8G20G27G30R 2
                                R10R12R 1
  23595780.000   123996678.443    23595788.551    96620839.7764   23595788.234  
                
  21011347.648   110415413.926    21011355.977    86038035.0914   21011355.793  
                
  24069559.844   126486392.105    24069566.562    98560866.6384   24069566.871  
                
  20569117.031   108091488.328    20569123.043    84227182.5814   20569122.977  
                
  23998863.336   126114874.109    23998870.355    98271369.4014   23998870.488  
                
  24656800.719   129572396.636    24656806.773   100965540.6764                 
                
  23885217.883   125517665.058    23885227.176    97806021.2314   23885227.602  
                
  21067794.242   112817099.347                    87746658.833    21067796.777  
  21067793.496  
  21995311.523   115586145.894    21995317.836    90067163.2704                 
                
  23986166.969   126048159.315    23986175.305    98219385.6444   23986175.340  
                
  21457435.047   112759624.935    21457444.266    87864695.9924   21457444.367  
                
  21965858.789   117214043.778                    91166474.599    21965861.781  
  21965856.734  
  21520279.398   114715230.681                                                  
  21520278.586  
  21646928.336   115634016.047                    89937557.401    21646932.754  
  21646927.910  
  19122986.641   102223340.898                    79507044.473    19122991.711  
  19122985.984  
 21  8 14 18 48 40.0000000  0 15G 4G 9G14G 7G 5G16G 8R 8G20G27G30R 2
                                R10R12R 1
  23601538.008   124026937.465    23601546.621    96644418.2264   23601546.316  
                
  21014624.734   110432635.109    21014633.027    86051454.1954   21014632.859  
                
  24062386.242   126448694.781    24062392.980    98531492.1084   24062393.285  
                
  20569432.297   108093145.067    20569438.309    84228473.5474   20569438.242  
                
  23993584.516   126087133.659    23993591.523    98249753.4784   23993591.707  
                
  24663648.547   129608382.215    24663654.543   100993581.3784                 
                
  23881238.516   125496753.347    23881247.797    97789726.4194   23881248.223  
                
  21073932.984   112849972.047                    87772226.485    21073935.500  
  21073932.254  
  21993537.734   115576824.581    21993544.027    90059899.9084                 
                
  23984694.812   126040423.186    23984703.148    98213357.5024   23984703.199  
                
  21454021.953   112741689.004    21454031.152    87850719.9414   21454031.285  
                
  21958753.977   117176131.123                    91136986.980    21958756.922  
  21958751.910  
  21526859.266   114750305.038                                                  
  21526858.445  
  21640515.328   115599758.603                    89910912.710    21640519.750  
  21640514.887  
  19123289.555   102224960.112                    79508303.856    19123294.621  
  19123288.895  
 21  8 14 18 48 50.0000000  0 15G 4G 9G14G 7G 5G16G 8R 8G20G27G30R 2
                                R10R12R 1
  23607299.945   124057217.184    23607308.629    96668012.8044   23607308.352  
                
  21017909.820   110449898.318    21017918.086    86064906.0414   21017917.926  
                
  24055214.633   126411008.419    24055221.477    98502126.1364   24055221.801  
                
  20569753.625   108094833.651    20569759.637    84229789.3274   20569759.570  
                
  23988313.742   126059435.588    23988320.777    98228170.5884   23988320.941  
                
  24670501.242   129644393.332    24670507.219   101021642.0244                 
                
  23877266.961   125475882.645    23877276.227    97773463.5484   23877276.656  
                
  21080081.078   112882894.887                    87797833.144    21080083.586  
  21080080.277  
  21991776.422   115567568.807    21991782.691    90052687.6114                 
                
  23983234.500   126032749.184    23983242.816    98207377.7744   23983242.883  
                
  21450614.828   112723784.484    21450624.035    87836768.3714   21450624.164  
                
  21951653.453   117138241.364                    91107517.208    21951656.395  
  21951651.352  
  21533443.922   114785404.954                                                  
  21533443.102  
  21634110.000   115565542.208                    89884299.965    21634114.406  
  21634109.559  
  19123607.242   102226658.328                    79509624.689    19123612.293  
  19123606.586  
 21  8 14 18 49  0.0000000  0 15G 4G 9G14G 7G 5G16G 8R 8G20G27G30R 2
                                R10R12R 1
  23613065.812   124087517.495    23613074.586    96691623.4094   23613074.324  
                
  21021202.875   110467203.435    21021211.133    86078390.5434   21021210.984  
                
  24048045.164   126373333.029    24048052.094    98472768.7174   24048052.441  
                
  20570080.992   108096553.965    20570086.996    84231129.8364   20570086.934  
                
  23983051.016   126031779.863    23983058.074    98206620.6834   23983058.207  
                
  24677358.789   129680429.899    24677364.723   101049722.4714                 
                
  23873303.195   125455052.880    23873312.465    97757232.5784   23873312.918  
                
  21086238.570   112915868.166                    87823479.020    21086241.105  
  21086237.719  
  21990027.578   115558378.525    21990033.816    90045526.3564                 
                
  23981785.992   126025137.279    23981794.340    98201446.4164   23981794.387  
                
  21447213.672   112705911.277    21447222.867    87822841.2084   21447223.000  
                
  21944557.328   117100375.107                    91078065.684    21944560.254  
  21944555.195  
  21540033.375   114820530.391                                                  
  21540032.523  
  21627712.359   115531366.904                    89857719.175    21627716.711  
  21627711.934  
  19123939.711   102228435.570                    79511006.981    19123944.766  
  19123939.051  
 21  8 14 18 49 10.0000000  0 15G 4G 9G14G 7G 5G16G 8R 8G20G27G30R 2
                                R10R12R 1
  23618835.703   124117838.298    23618844.453    96715250.0104   23618844.180  
                
  21024503.898   110484550.398    21024512.145    86091907.6544   21024512.008  
                
  24040877.789   126335668.642    24040884.781    98443419.8744   24040885.145  
                
  20570414.367   108098305.865    20570420.367    84232494.9564   20570420.305  
                
  23977796.367   126004166.545    23977803.410    98185103.8204   23977803.547  
                
  24684221.195   129716491.752    24684227.039   101077822.6154                 
                
  23869347.258   125434264.227    23869356.461    97741033.6104   23869356.949  
                
  21092405.375   112948891.199                    87849163.602    21092407.914  
  21092404.496  
  21988291.188   115549253.716    21988297.398    90038416.1164                 
                
  23980349.289   126017587.424    23980357.715    98195563.4264   23980357.758  
                
  21443818.461   112688069.384    21443827.629    87808938.4344   21443827.773  
                
  21937465.523   117062532.037                    91048632.196    21937468.453  
  21937463.391  
  21546627.523   114855680.898                                                  
  21546626.656  
  21621322.398   115497232.552                    89831170.219    21621326.699  
  21621321.973  
  19124286.945   102230291.733                    79512450.655    19124292.012  
  19124286.277  
 21  8 14 18 49 20.0000000  0 15G 4G 9G14G 7G 5G16G 8R 8G20G27G30R 2
                                R10R12R 1
  23624609.578   124148179.786    23624618.227    96738892.7144   23624617.949  
                
  21027812.914   110501939.412    21027821.168    86105457.5344   21027821.020  
                
  24033712.539   126298015.543    24033719.617    98414079.8144   24033719.992  
                
  20570753.797   108100089.604    20570759.785    84233884.8884   20570759.734  
                
  23972549.852   125976595.927    23972556.883    98163620.2424   23972557.016  
                
  24691088.406   129752578.929    24691094.207   101105942.4744                 
                
  23865399.180   125413516.980    23865408.336    97724866.9294   23865408.863  
                
  21098581.562   112981964.408                    87874887.211    21098584.121  
  21098580.715  
  21986567.297   115540194.593    21986573.477    90031357.0634                 
                
  23978924.461   126010099.941    23978932.949    98189729.0304   23978932.945  
                
  21440429.242   112670258.981    21440438.375    87795060.2094   21440438.551  
                
  21930378.086   117024712.247                    91019216.813    21930381.023  
  21930375.965  
  21553226.422   114890856.737                                                  
  21553225.531  
  21614940.125   115463139.491                    89804653.383    21614944.414  
  21614939.715  
  19124649.008   102232227.127                    79513955.963    19124654.078  
  19124648.348  
 21  8 14 18 49 30.0000000  0 14G 4G 9G14G 7G 5G 8R 8G20G27G30R 2R10
                                R12R 1
  23630387.219   124178541.971    23630395.945    96762551.5574   23630395.648  
                
  21031129.938   110519370.510    21031138.207    86119040.2024   21031138.055  
                
  24026549.562   126260373.900    24026556.598    98384748.6924   24026556.980  
                
  20571099.289   108101905.215    20571105.266    84235299.6504   20571105.227  
                
  23967311.492   125949068.293    23967318.477    98142170.1514   23967318.621  
                
  23861458.992   125392811.288    23861468.145    97708732.6234   23861468.672  
                
  21104767.078   113015087.689                    87900649.748    21104769.676  
  21104766.238  
  21984855.930   115531201.309    21984862.074    90024349.3004                 
                
  23977511.516   126002674.905    23977520.031    98183943.2874   23977520.016  
                
  21437046.047   112652480.190    21437055.148    87781206.6114   21437055.336  
                
  21923295.109   116986916.255                    90989819.939    21923298.043  
  21923292.984  
  21559830.102   114926058.039                                                  
  21559829.188  
  21608565.625   115429088.001                    89778168.888    21608569.879  
  21608565.211  
  19125025.891   102234241.805                    79515522.927    19125030.977  
  19125025.234  
 21  8 14 18 49 40.0000000  0 14G 4G 9G14G 7G 5G 8R 8G20G27G30R 2R10
                                R12R 1
  23636168.789   124208924.863    23636177.582    96786226.5344   23636177.305  
                
  21034454.977   110536843.715    21034463.254    86132655.6794   21034463.086  
                
  24019388.836   126222743.847    24019395.789    98355426.5904   24019396.188  
                
  20571450.859   108103752.741    20571456.828    84236739.2814   20571456.793  
                
  23962081.359   125921583.828    23962088.289    98120753.6794   23962088.449  
                
  23857526.773   125372147.370    23857535.934    97692630.8744   23857536.426  
                
  21110961.977   113048261.119                    87926451.292    21110964.613  
  21110961.129  
  21983157.102   115522273.877    21983163.211    90017392.8684                 
                
  23976110.469   125995312.379    23976118.992    98178206.2754   23976119.000  
                
  21433668.875   112634733.004    21433677.949    87767377.6424   21433678.145  
                
  21916216.594   116949143.964                    90960441.520    21916219.520  
  21916214.461  
  21566438.484   114961284.440                                                  
  21566437.547  
  21602198.875   115395077.945                    89751716.628    21602203.129  
  21602198.449  
  19125417.633   102236335.863                    79517151.636    19125422.711  
  19125416.988  
 21  8 14 18 49 50.0000000  0 14G 4G 9G14G 7G 5G 8R 8G20G27G30R 2R10
                                R12R 1
  23641954.344   124239328.023    23641963.082    96809917.2974   23641962.812  
                
  21037787.945   110554358.591    21037796.230    86146303.6314   21037796.051  
                
  24012230.219   126185125.011    24012237.121    98326113.2394   24012237.535  
                
  20571808.414   108105631.692    20571814.387    84238203.3994   20571814.344  
                
  23956859.352   125894142.024    23956866.230    98099370.4524   23956866.383  
                
  23853602.445   125351524.917    23853611.633    97676561.4424   23853612.117  
                
  21117166.102   113081484.035                    87952291.328    21117168.730  
  21117165.230  
  21981470.719   115513411.875    21981476.789    90010487.4184                 
                
  23974721.234   125988012.040    23974729.809    98172517.7224   23974729.805  
                
  21430297.641   112617017.046    21430306.699    87753573.0004   21430306.898  
                
  21909142.523   116911395.395                    90931081.545    21909145.418  
  21909140.363  
  21573051.484   114996535.538                                                  
  21573050.547  
  21595839.820   115361109.114                    89725296.431    21595844.047  
  21595839.391  
  19125824.141   102238508.839                    79518841.735    19125829.211  
  19125823.512  
 21  8 14 18 50  0.0000000  0 14G 4G 9G14G 7G 5G 8R 8G20G27G30R 2R10
                                R12R 1
  23647743.688   124269751.620    23647752.473    96833623.9804   23647752.199  
                
  21041128.891   110571915.365    21041137.184    86159984.2334   21041137.000  
                
  24005073.750   126147517.709    24005080.664    98296808.8794   24005081.062  
                
  20572171.992   108107542.302    20572177.980    84239692.1904   20572177.922  
                
  23951645.516   125866743.143    23951652.340    98078020.6624   23951652.508  
                
  23849686.062   125330944.081    23849695.270    97660524.4314   23849695.738  
                
  21123379.508   113114756.554                    87978169.974    21123382.121  
  21123378.645  
  21979796.844   115504615.630    21979802.887    90003633.1984                 
                
  23973343.906   125980774.182    23973352.504    98166877.8614   23973352.496  
                
  21426932.383   112599332.538    21426941.441    87739792.8664   21426941.633  
                
  21902072.883   116873670.538                    90901739.990    21902075.777  
  21902070.699  
  21579669.117   115031811.326                                                  
  21579668.176  
  21589488.531   115327181.789                    89698908.510    21589492.758  
  21589488.094  
  19126245.484   102240761.170                    79520593.537    19126250.551  
  19126244.863  
 21  8 14 18 50 10.0000000  0 14G 4G 9G14G 7G 5G 8R 8G20G27G30R 2R10
                                R12R 1
  23653536.930   124300195.634    23653545.766    96857346.5834   23653545.465  
                
  21044477.797   110589513.998    21044486.098    86173697.4544   21044485.891  
                
  23997919.453   126109922.043    23997926.422    98267513.5714   23997926.844  
                
  20572541.594   108109484.540    20572547.602    84241205.6204   20572547.535  
                
  23946439.891   125839387.375    23946446.691    98056704.4894   23946446.887  
                
  23845777.633   125310405.163    23845786.871    97644520.0994   23845787.320  
                
  21129602.211   113148078.914                    88004087.367    21129604.836  
  21129601.297  
  21978135.484   115495885.083    21978141.508    89996830.1774                 
                
  23971978.461   125973598.838    23971987.023    98161286.7074   23971987.035  
                
  21423573.102   112581679.469    21423582.168    87726037.2404   21423582.363  
                
  21895007.844   116835970.207                    90872417.518    21895010.742  
  21895005.633  
  21586291.336   115067111.529                                                  
  21586290.406  
  21583145.008   115293295.930                    89672552.861    21583149.230  
  21583144.582  
  19126681.641   102243092.652                    79522406.914    19126686.707  
  19126681.039  
 21  8 14 18 50 20.0000000  0 14G 4G 9G14G 7G 5G 8R 8G20G27G30R 2R10
                                R12R 1
  23659334.086   124330660.186    23659342.941    96881085.1854   23659342.664  
                
  21047834.703   110607154.641    21047843.012    86187443.4044   21047842.801  
                
  23990767.430   126072338.242    23990774.449    98238227.5204   23990774.883  
                
  20572917.234   108111458.537    20572923.270    84242743.7974   20572923.188  
                
  23941242.508   125812074.913    23941249.324    98035422.0594   23941249.516  
                
  23841877.227   125289908.375    23841886.449    97628548.5644   23841886.895  
                
  21135834.148   113181450.751                    88030043.234    21135836.801  
  21135833.215  
  21976486.664   115487220.485    21976492.688    89990078.5324                 
                
  23970624.992   125966486.279    23970633.488    98155744.4364   23970633.508  
                
  21420219.844   112564058.031    21420228.914    87712306.2624   21420229.117  
                
  21887947.312   116798293.874                    90843113.718    21887950.215  
  21887945.105  
  21592918.234   115102436.611                                                  
  21592917.293  
  21576809.297   115259451.750                    89646229.623    21576813.496  
  21576808.887  
  19127132.664   102245503.643                    79524282.119    19127137.746  
  19127132.066  
 21  8 14 18 50 30.0000000  0 14G 4G 9G14G 7G 5G 8R 8G20G27G30R 2R10
                                R12R 1
  23665135.180   124361144.959    23665143.980    96904839.5294   23665143.730  
                
  21051199.531   110624836.971    21051207.852    86201221.8414   21051207.637  
                
  23983617.648   126034766.098    23983624.723    98208950.5584   23983625.105  
                
  20573298.852   108113463.959    20573304.918    84244306.4664   20573304.820  
                
  23936053.328   125784805.614    23936060.164    98014173.2754   23936060.340  
                
  23837984.797   125269453.559    23837994.016    97612609.7524   23837994.445  
                
  21142075.289   113214871.867                    88056037.436    21142077.965  
  21142074.332  
  21974850.336   115478621.550    21974856.348    89983378.0674                 
                
  23969283.383   125959436.166    23969291.836    98150250.8414   23969291.879  
                
  21416872.555   112546467.918    21416881.629    87698599.6864   21416881.832  
                
  21880891.320   116760641.749                    90813828.740    21880894.207  
  21880889.125  
  21599549.641   115137785.858                                                  
  21599548.684  
  21570481.422   115225649.290                    89619938.819    21570485.602  
  21570481.008  
  19127598.492   102247993.778                    79526218.886    19127603.598  
  19127597.902  
 21  8 14 18 50 40.0000000  0 14G 4G 9G14G 7G 5G 8R 8G20G27G30R 2R10
                                R12R 1
  23670940.117   124391650.062    23670948.914    96928609.7304   23670948.645  
                
  21054572.328   110642561.158    21054580.656    86215032.8934   21054580.449  
                
  23976470.180   125997205.962    23976477.316    98179682.9454   23976477.656  
                
  20573686.477   108115500.942    20573692.566    84245893.7274   20573692.449  
                
  23930872.398   125757579.724    23930879.223    97992958.3144   23930879.383  
                
  23834100.375   125249040.799    23834109.590    97596703.7324   23834110.004  
                
  21148325.680   113248342.614                    88082070.218    21148328.395  
  21148324.691  
  21973226.555   115470088.513    21973232.555    89976728.9514                 
                
  23967953.719   125952448.786    23967962.113    98144806.1384   23967962.223  
                
  21413531.266   112528909.321    21413540.336    87684917.6674   21413540.535  
                
  21873839.930   116723014.178                    90784562.876    21873842.824  
  21873837.746  
  21606185.594   115173159.284                                                  
  21606184.617  
  21564161.391   115191888.633                    89593680.514    21564165.527  
  21564160.992  
  19128079.195   102250563.344                    79528217.434    19128084.305  
  19128078.609  
 21  8 14 18 50 50.0000000  0 14G 4G 9G14G 7G 5G 8R 8G20G27G30R 2R10
                                R12R 1
  23676748.914   124422175.449    23676757.660    96952395.7444   23676757.398  
                
  21057953.086   110660327.160    21057961.426    86228876.5234   21057961.207  
                
  23969325.031   125959657.753    23969332.219    98150424.6324   23969332.504  
                
  20574080.070   108117569.269    20574086.176    84247505.4104   20574086.055  
                
  23925699.742   125730397.297    23925706.527    97971777.1924   23925706.680  
                
  23830224.008   125228670.353    23830233.141    97580830.6554   23830233.586  
                
  21154585.258   113281862.426                    88108141.182    21154587.965  
  21154584.297  
  21971615.320   115461621.386    21971621.309    89970131.1954                 
                
  23966635.977   125945524.094    23966644.367    98139410.2954   23966644.500  
                
  21410195.969   112511382.218    21410205.031    87671260.1824   21410205.227  
                
  21866793.117   116685411.004                    90755315.965    21866796.004  
  21866790.945  
  21612826.102   115208556.964                                                  
  21612825.137  
  21557849.148   115158169.710                    89567454.697    21557853.285  
  21557848.750  
  19128574.727   102253212.265                    79530277.700    19128579.844  
  19128574.156  
 21  8 14 18 51  0.0000000  0 14G 4G 9G14G 7G 5G 8R 8G20G27G30R 2R10
                                R12R 1
  23682561.664   124452721.182    23682570.301    96976197.6114   23682570.055  
                
  21061341.820   110678135.064    21061350.176    86242752.8104   21061349.949  
                
  23962182.141   125922121.722    23962189.477    98121175.8294   23962189.695  
                
  20574479.703   108119669.284    20574485.828    84249141.7944   20574485.699  
                
  23920535.391   125703258.536    23920542.105    97950630.0964   23920542.309  
                
  23826355.711   125208342.294    23826364.746    97564990.6124   23826365.211  
                
  21160854.047   113315431.436                    88134250.420    21160856.770  
  21160853.129  
  21970016.633   115453220.224    21970022.609    89963584.8374                 
                
  23965330.211   125938662.300    23965338.605    98134063.4734   23965338.730  
                
  21406866.688   112493886.709    21406875.754    87657627.3234   21406875.934  
                
  21859750.977   116647832.811                    90726088.489    21859753.840  
  21859748.809  
  21619471.125   115243978.649                                                  
  21619470.176  
  21551544.781   115124492.875                    89541261.623    21551548.949  
  21551544.406  
  19129085.117   102255940.583                    79532399.725    19129090.238  
  19129084.547  
 21  8 14 18 51 10.0000000  0 14G 4G 9G14G 7G 5G 8R 8G20G27G30R 2R10
                                R12R 1
  23688378.242   124483287.074    23688386.762    97000015.1884   23688386.535  
                
  21064738.484   110695984.663    21064746.844    86256661.5824   21064746.617  
                
  23955041.500   125884597.767    23955049.008    98091936.4174   23955049.156  
                
  20574885.312   108121800.773    20574891.453    84250802.6954   20574891.305  
                
  23915379.359   125676163.428    23915386.035    97929517.0214   23915386.281  
                
  23822495.516   125188056.771    23822504.480    97549183.7184   23822504.945  
                
  21167132.016   113349049.720                    88160397.972    21167134.770  
  21167131.137  
  21968430.484   115444884.968    21968436.465    89957089.8304                 
                
  23964036.398   125931863.294    23964044.797    98128765.5474   23964044.902  
                
  21403543.375   112476422.620    21403552.453    87644018.9514   21403552.629  
                
  21852713.453   116610279.247                    90696880.171    21852716.312  
  21852711.281  
  21626120.633   115279424.289                                                  
  21626119.684  
  21545248.258   115090857.835                    89515101.053    21545252.406  
  21545247.863  
  19129610.375   102258748.365                    79534583.552    19129615.508  
  19129609.801  
 21  8 14 18 51 20.0000000  0 14G 4G 9G14G 7G 5G 8R 8G20G27G30R 2R10
                                R12R 1
  23694198.570   124513873.277    23694207.102    97023848.5734   23694206.895  
                
  21068143.117   110713876.147    21068151.484    86270602.9974   21068151.266  
                
  23947903.242   125847086.172    23947910.879    98062706.6394   23947910.949  
                
  20575296.945   108123963.890    20575303.105    84252488.2444   20575302.941  
                
  23910231.664   125649112.167    23910238.324    97908438.1354   23910238.594  
                
  23818643.406   125167813.938    23818652.316    97533410.0824   23818652.785  
                
  21173419.125   113382716.989                    88186583.614    21173421.910  
  21173418.242  
  21966856.898   115436615.750    21966862.859    89950646.2894                 
                
  23962754.562   125925127.277    23962762.992    98123516.7124   23962763.102  
                
  21400226.086   112458990.172    21400235.164    87630435.2334   21400235.355  
                
  21845680.641   116572750.893                    90667691.478    21845683.504  
  21845678.445  
  21632774.609   115314893.722                                                  
  21632773.645  
  21538959.602   115057264.939                    89488973.252    21538963.766  
  21538959.227  
  19130150.531   102261635.833                    79536829.351    19130155.664  
  19130149.941  
 21  8 14 18 51 30.0000000  0 14G 4G 9G14G 7G 5G 8R 8G20G27G30R 2R10
                                R12R 1
  23700022.750   124544479.722    23700031.324    97047697.7514   23700031.105  
                
  21071555.727   110731809.508    21071564.121    86284577.0344   21071563.891  
                
  23940767.383   125809587.007    23940775.066    98033486.5304   23940775.062  
                
  20575714.570   108126158.520    20575720.750    84254198.3414   20575720.562  
                
  23905092.359   125622104.889    23905098.969    97887393.5214   23905099.285  
                
  23814799.453   125147613.854    23814808.203    97517669.7604   23814808.754  
                
  21179715.398   113416433.339                    88212807.444    21179718.184  
  21179714.547  
  21965295.898   115428412.641    21965301.848    89944254.2614                 
                
  23961484.734   125918454.325    23961493.230    98118317.0274   23961493.328  
                
  21396914.812   112441589.369    21396923.887    87616876.1734   21396924.090  
                
  21838652.523   116535247.714                    90638522.348    21838655.410  
  21838650.359  
  21639433.062   115350386.959                                                  
  21639432.082  
  21532678.844   115023714.333                    89462878.358    21532683.023  
  21532678.492  
  19130705.570   102264602.831                    79539137.018    19130710.727  
  19130704.973  
 21  8 14 18 51 40.0000000  0 14G 4G 9G14G 7G 5G 8R 8G20G27G30R 2R10
                                R12R 1
  23705850.984   124575107.385    23705859.582    97071563.4554   23705859.371  
                
  21074976.477   110749785.676    21074984.887    86298584.4364   21074984.656  
                
  23933634.125   125772101.353    23933641.805    98004276.9514   23933641.738  
                
  20576138.383   108128385.659    20576144.574    84255933.7804   20576144.383  
                
  23899961.609   125595142.667    23899968.230    97866384.0354   23899968.562  
                
  23810963.875   125127457.741    23810972.449    97501963.6874   23810973.078  
                
  21186021.039   113450199.793                    88239070.240    21186023.840  
  21186020.199  
  21963747.672   115420276.643    21963753.609    89937914.5144                 
                
  23960227.117   125911845.476    23960235.680    98113167.2834   23960235.715  
                
  21393609.758   112424221.194    21393618.840    87603342.5364   21393619.043  
                
  21831629.336   116497770.676                    90609373.519    21831632.227  
  21831627.258  
  21646096.109   115385904.736                                                  
  21646095.156  
  21526406.164   114990206.960                    89436817.076    21526410.355  
  21526405.824  
  19131275.719   102267650.546                    79541507.449    19131280.859  
  19131275.113  
 21  8 14 18 51 50.0000000  0 14G 4G 9G14G 7G 5G 8R 8G20G27G30R 2R10
                                R12R 1
  23711682.688   124605753.006    23711691.238    97095443.1454   23711691.035  
                
  21078404.766   110767801.428    21078413.188    86312622.6844   21078412.945  
                
  23926502.867   125734626.097    23926510.527    97975075.4714   23926510.391  
                
  20576567.781   108130642.110    20576573.980    84257692.0574   20576573.777  
                
  23894838.859   125568222.428    23894845.473    97845407.2284   23894845.816  
                
  23807136.047   125107342.399    23807144.504    97486289.3994   23807145.180  
                
  21192335.383   113484012.803                    88265369.233    21192338.215  
  21192334.551  
  21962211.594   115412204.531    21962217.539    89931624.5574                 
                
  23958981.086   125905297.528    23958989.652    98108064.9854   23958989.703  
                
  21390310.297   112406882.425    21390319.375    87589831.8174   21390319.586  
                
  21824610.531   116460317.064                    90580242.926    21824613.422  
  21824608.488  
  21652763.195   115421444.026                                                  
  21652762.266  
  21520140.984   114956739.578                    89410786.896    21520145.160  
  21520140.594  
  19131860.320   102270775.575                    79543938.031    19131865.477  
  19131859.715  
 21  8 14 18 52  0.0000000  0 14G 4G 9G14G 7G 5G 8R 8G20G27G30R 2R10
                                R12R 1
  23717518.320   124636419.453    23717526.855    97119339.0744   23717526.660  
                
  21081841.141   110785859.677    21081849.574    86326694.0454   21081849.324  
                
  23919374.148   125697164.204    23919381.801    97945884.3874   23919381.617  
                
  20577003.273   108132930.654    20577009.477    84259475.3404   20577009.266  
                
  23889724.656   125541347.089    23889731.258    97824465.4214   23889731.617  
                
  23803316.570   125087270.902    23803324.980    97470649.2684   23803325.617  
                
  21198658.930   113517875.153                    88291706.596    21198661.789  
  21198658.094  
  21960688.242   115404199.275    21960694.199    89925386.7004                 
                
  23957747.203   125898813.446    23957755.793    98103012.4764   23957755.848  
                
  21387017.000   112389576.011    21387026.062    87576346.3014   21387026.266  
                
  21817596.664   116422889.802                    90551132.851    21817599.562  
  21817594.586  
  21659434.750   115457007.210                                                  
  21659433.797  
  21513883.875   114923315.385                    89384790.330    21513888.059  
  21513883.477  
  19132459.953   102273980.946                    79546431.093    19132465.117  
  19132459.340  
 21  8 14 18 52 10.0000000  0 14G 4G 9G14G 7G 5G 8R 8G20G27G30R 2R10
                                R12R 1
  23723357.727   124667106.077    23723366.352    97143250.7184   23723366.160  
                
  21085285.469   110803959.744    21085293.922    86340797.9924   21085293.656  
                
  23912247.875   125659715.130    23912255.535    97916703.3074   23912255.305  
                
  20577444.773   108135250.739    20577450.980    84261283.1994   20577450.766  
                
  23884618.891   125514516.147    23884625.457    97803558.2084   23884625.816  
                
  23799505.344   125067242.634    23799513.711    97455042.8214   23799514.312  
                
  21204991.570   113551786.151                    88318081.805    21204994.430  
  21204990.754  
  21959177.500   115396260.318    21959183.457    89919200.5054                 
                
  23956525.367   125892392.656    23956533.965    98098009.2564   23956534.008  
                
  21383729.727   112372301.284    21383738.770    87562885.4724   21383738.988  
                
  21810587.562   116385487.975                    90522042.560    21810590.480  
  21810585.430  
  21666110.680   115492593.686                                                  
  21666109.695  
  21507634.734   114889933.656                    89358826.767    21507638.898  
  21507634.344  
  19133074.500   102277266.057                    79548986.176    19133079.676  
  19133073.883  
 21  8 14 18 52 20.0000000  0 14G 4G 9G14G 7G 5G 8R 8G20G27G30R 2R10
                                R12R 1
  23729200.969   124697812.765    23729209.699    97167177.9794   23729209.488  
                
  21088737.750   110822101.554    21088746.207    86354934.4614   21088745.953  
                
  23905124.055   125622278.904    23905131.691    97887532.2404   23905131.430  
                
  20577892.266   108137602.288    20577898.469    84263115.5784   20577898.250  
                
  23879521.609   125487729.677    23879528.105    97782685.6394   23879528.461  
                
  23795702.344   125047257.746    23795710.707    97439470.1874   23795711.336  
                
  21211333.328   113585745.839                    88344494.907    21211336.176  
  21211332.555  
  21957679.375   115388387.626    21957685.320    89913065.9274                 
                
  23955315.570   125886035.132    23955324.109    98093055.3554   23955324.199  
                
  21380448.477   112355058.196    21380457.504    87549449.3104   21380457.730  
                
  21803583.297   116348111.968                    90492972.373    21803586.223  
  21803581.094  
  21672790.945   115528203.357                                                  
  21672789.953  
  21501393.547   114856594.359                    89332896.220    21501397.707  
  21501393.172  
  19133703.992   102280631.012                    79551603.352    19133709.176  
  19133703.379  
 21  8 14 18 52 30.0000000  0 14G 4G 9G14G 7G 5G 8R 8G20G27G30R 2R10
                                R12R 1
  23735048.016   124728539.397    23735056.809    97191120.8004   23735056.602  
                
  21092197.953   110840285.023    21092206.414    86369103.4004   21092206.164  
                
  23898002.672   125584855.564    23898010.242    97858371.2094   23898009.977  
                
  20578345.711   108139985.130    20578351.918    84264972.3454   20578351.695  
                
  23874432.734   125460987.542    23874439.164    97761847.6184   23874439.547  
                
  23791907.586   125027316.100    23791916.000    97423931.2734   23791916.629  
                
  21217684.125   113619754.035                    88370945.732    21217686.973  
  21217683.379  
  21956193.852   115380581.135    21956199.785    89906982.9544                 
                
  23954117.812   125879740.863    23954126.273    98088150.7344   23954126.395  
                
  21377173.227   112337846.675    21377182.242    87536037.7574   21377182.477  
                
  21796583.891   116310761.822                    90463922.257    21796586.816  
  21796581.633  
  21679475.539   115563835.995                                                  
  21679474.547  
  21495160.312   114823297.567                    89306998.727    21495164.461  
  21495159.922  
  19134348.383   102284075.645                    79554282.511    19134353.570  
  19134347.766  
 21  8 14 18 52 40.0000000  0 14G 4G 9G14G 7G 5G 8R 8G20G27G30R 2R10
                                R12R 1
  23740898.867   124759286.112    23740907.734    97215079.2574   23740907.484  
                
  21095666.109   110858510.278    21095674.570    86383304.8924   21095674.312  
                
  23890883.742   125547445.285    23890891.289    97829220.3524   23890891.023  
                
  20578805.133   108142399.419    20578811.344    84266853.6094   20578811.121  
                
  23869352.359   125434290.016    23869358.734    97741044.3544   23869359.137  
                
  23788121.109   125007417.957    23788129.586    97408426.2414   23788130.199  
                
  21224043.961   113653810.629                    88397434.171    21224046.836  
  21224043.227  
  21954720.938   115372840.996    21954726.863    89900951.6704                 
                
  23952932.125   125873510.037    23952940.566    98083295.5534   23952940.680  
                
  21373904.016   112320666.897    21373913.023    87522650.9194   21373913.254  
                
  21789589.359   116273437.785                    90434892.446    21789592.305  
  21789587.098  
  21686164.469   115599491.719                                                  
  21686163.457  
  21488935.102   114790043.581                    89281134.540    21488939.254  
  21488934.699  
  19135007.703   102287600.057                    79557023.708    19135012.895  
  19135007.102  
 21  8 14 18 52 50.0000000  0 14G 4G 9G14G 7G 5G 8R 8G20G27G30R 2R10
                                R12R 1
  23746753.523   124790052.767    23746762.465    97239053.2534   23746762.160  
                
  21099142.188   110876777.167    21099150.633    86397538.8294   21099150.383  
                
  23883767.258   125510048.076    23883774.844    97800079.6884   23883774.559  
                
  20579270.508   108144844.975    20579276.727    84268759.2444   20579276.504  
                
  23864280.477   125407637.168    23864286.875    97720275.9234   23864287.258  
                
  23784342.930   124987563.449    23784351.422    97392955.2044   23784352.039  
                
  21230412.812   113687915.444                    88423960.132    21230415.688  
  21230412.086  
  21953260.617   115365167.019    21953266.535    89894971.9444                 
                
  23951758.484   125867342.565    23951766.930    98078489.7524   23951767.039  
                
  21370640.820   112303518.733    21370649.824    87509288.7214   21370650.047  
                
  21782599.773   116236140.156                    90405883.191    21782602.750  
  21782597.516  
  21692857.656   115635170.213                                                  
  21692856.648  
  21482717.844   114756832.147                    89255303.444    21482721.980  
  21482717.449  
  19135681.922   102291204.139                    79559826.891    19135687.129  
  19135681.324  
 21  8 14 18 53  0.0000000  0 14G 4G 9G14G 7G 5G 8R 8G20G27G30R 2R10
                                R12R 1
  23752612.109   124820839.322    23752620.945    97263042.7754   23752620.609  
                
  21102626.203   110895085.746    21102634.625    86411805.2534   21102634.383  
                
  23876653.297   125472664.068    23876660.906    97770949.3034   23876660.625  
                
  20579741.852   108147321.818    20579748.082    84270689.2544   20579747.859  
                
  23859217.133   125381029.058    23859223.586    97699542.3444   23859223.914  
                
  23780573.070   124967752.631    23780581.570    97377518.2154   23780582.168  
                
  21236790.664   113722068.473                    88450523.598    21236793.547  
  21236789.977  
  21951812.930   115357559.386    21951818.852    89889043.9194                 
                
  23950596.930   125861238.603    23950605.348    98073733.4114   23950605.457  
                
  21367383.680   112286402.258    21367392.691    87495951.2104   21367392.895  
                
  21775615.086   116198868.602                    90376894.218    21775618.094  
  21775612.828  
  21699555.109   115670871.332                                                  
  21699554.109  
  21476508.625   114723663.553                    89229505.661    21476512.727  
  21476508.238  
  19136371.102   102294888.181                    79562692.254    19136376.316  
  19136370.496  
 21  8 14 18 53 10.0000000  0 14G 4G 9G14G 7G 5G 8R 8G20G27G30R 2R10
                                R12R 1
  23758474.438   124851645.703    23758483.184    97287047.7374   23758482.836  
                
  21106118.133   110913435.907    21106126.531    86426104.0784   21106126.305  
                
  23869541.836   125435293.243    23869549.441    97741829.1954   23869549.203  
                
  20580219.109   108149829.844    20580225.348    84272643.5604   20580225.117  
                
  23854162.328   125354465.767    23854168.832    97678843.6834   23854169.109  
                
  23776811.508   124947985.428    23776820.020    97362115.2074   23776820.621  
                
  21243177.469   113756269.485                    88477124.387    21243180.355  
  21243176.832  
  21950377.859   115350018.034    21950383.777    89883167.5434                 
                
  23949447.453   125855198.053    23949455.859    98069026.5114   23949455.941  
                
  21364132.531   112269317.368    21364141.555    87482638.3174   21364141.746  
                
  21768635.352   116161623.455                    90347925.763    21768638.375  
  21768633.125  
  21706256.773   115706594.870                                                  
  21706255.797  
  21470307.406   114690537.770                    89203741.165    21470311.496  
  21470307.027  
  19137075.195   102298651.983                    79565619.653    19137080.414  
  19137074.582  
 21  8 14 18 53 20.0000000  0 14G 4G 9G14G 7G 5G 8R 8G20G27G30R 2R10
                                R12R 1
  23764340.484   124882471.906    23764349.219    97311068.1334   23764348.867  
                
  21109617.977   110931827.688    21109626.348    86440435.3314   21109626.141  
                
  23862432.891   125397935.772    23862440.516    97712719.4914   23862440.316  
                
  20580702.328   108152369.174    20580708.574    84274622.2604   20580708.336  
                
  23849116.055   125327947.372    23849122.605    97658180.0154   23849122.832  
                
  23773058.320   124928262.251    23773066.891    97346746.5154   23773067.480  
                
  21249573.273   113790518.602                    88503762.592    21249576.172  
  21249572.680  
  21948955.406   115342543.026    21948961.328    89877342.8654                 
                
  23948310.070   125849221.050    23948318.492    98064369.1214   23948318.527  
                
  21360887.406   112252264.163    21360896.422    87469350.1124   21360896.605  
                
  21761660.586   116124404.887                    90318978.007    21761663.656  
  21761658.398  
  21712962.625   115742340.871                                                  
  21712961.641  
  21464114.203   114657454.779                    89178009.958    21464118.289  
  21464113.820  
  19137794.219   102302495.553                    79568609.086    19137799.469  
  19137793.605  
 21  8 14 18 53 30.0000000  0 14G 4G 9G14G 7G 5G 8R 8G20G27G30R 2R10
                                R12R 1
  23770210.375   124913317.888    23770219.039    97335103.9764   23770218.660  
                
  21113125.734   110950261.068    21113134.094    86454798.9974   21113133.883  
                
  23855326.492   125360591.719    23855334.145    97683620.2434   23855333.953  
                
  20581191.500   108154939.754    20581197.754    84276625.3144   20581197.504  
                
  23844078.344   125301473.965    23844084.906    97637551.3774   23844085.113  
                
  23769313.477   124908583.002    23769322.098    97331412.0664   23769322.680  
                
  21255978.000   113824815.493                    88530437.937    21255980.891  
  21255977.414  
  21947545.586   115335134.387    21947551.520    89871569.9024                 
                
  23947184.766   125843307.602    23947193.199    98059761.2544   23947193.242  
                
  21357648.305   112235242.602    21357657.285    87456086.5654   21357657.492  
                
  21754690.773   116087212.719                    90290050.773    21754693.871  
  21754688.609  
  21719672.633   115778109.045                                                  
  21719671.637  
  21457929.031   114624414.737                    89152312.156    21457933.109  
  21457928.648  
  19138528.188   102306418.997                    79571660.647    19138533.453  
  19138527.578  
 21  8 14 18 53 40.0000000  0 14G 4G 9G14G 7G 5G 8R 8G20G27G30R 2R10
                                R12R 1
  23776084.086   124944183.624    23776092.559    97359155.1684   23776092.207  
                
  21116641.398   110968735.974    21116649.750    86469195.0294   21116649.547  
                
  23848222.625   125323261.146    23848230.332    97654531.4864   23848230.137  
                
  20581686.594   108157541.508    20581692.852    84278652.6554   20581692.602  
                
  23839049.203   125275045.612    23839055.773    97616957.8854   23839055.949  
                
  23765577.039   124888947.816    23765585.691    97316111.9544   23765586.254  
                
  21262391.664   113859160.249                    88557150.531    21262394.531  
  21262391.086  
  21946148.391   115327792.128    21946154.340    89865848.6584                 
                
  23946071.578   125837457.776    23946080.059    98055202.9654   23946080.090  
                
  21354415.227   112218252.688    21354424.172    87442847.6794   21354424.387  
                
  21747726.055   116050047.702                    90261144.648    21747729.172  
  21747723.930  
  21726386.820   115813899.469                                                  
  21726385.805  
  21451751.883   114591417.608                    89126647.736    21451755.984  
  21451751.512  
  19139277.086   102310422.314                    79574774.329    19139282.367  
  19139276.477  
 21  8 14 18 53 50.0000000  0 14G 4G 9G14G 7G 5G 8R 8G20G27G30R 2R10
                                R12R 1
  23781961.586   124975069.143    23781969.805    97383221.8124   23781969.504  
                
  21120164.992   110987252.524    21120173.328    86483623.5084   21120173.133  
                
  23841121.461   125285944.248    23841129.145    97625453.3924   23841128.934  
                
  20582187.633   108160174.506    20582193.883    84280704.3494   20582193.633  
                
  23834028.688   125248662.578    23834035.262    97596399.6974   23834035.430  
                
  23761849.016   124869356.805    23761857.688    97300846.2374   23761858.250  
                
  21268814.281   113893552.953                    88583900.408    21268817.129  
  21268813.727  
  21944763.859   115320516.417    21944769.812    89860179.2574                 
                
  23944970.523   125831671.705    23944979.055    98050694.3464   23944979.090  
                
  21351188.188   112201294.514    21351197.086    87429633.5264   21351197.320  
                
  21740766.328   116012909.344                    90232259.266    21740769.457  
  21740764.203  
  21733105.117   115849711.841                                                  
  21733104.129  
  21445582.805   114558463.629                    89101016.887    21445586.957  
  21445582.438  
  19140040.922   102314505.457                    79577950.108    19140046.215  
  19140040.328  
 21  8 14 18 54  0.0000000  0 14G 4G 9G14G 7G 5G 8R 8G20G27G30R 2R10
                                R12R 1
  23787842.664   125005974.191    23787850.758    97407303.6734   23787850.520  
                
  21123696.453   111005810.430    21123704.766    86498084.2114   21123704.578  
                
  23834022.875   125248640.858    23834030.527    97596385.8204   23834030.293  
                
  20582694.570   108162838.484    20582700.805    84282780.1774   20582700.566  
                
  23829016.758   125222324.721    23829023.375    97575876.6924   23829023.504  
                
  23758129.375   124849809.997    23758138.098    97285614.9744   23758138.668  
                
  21275245.766   113927993.123                    88610687.209    21275248.613  
  21275245.242  
  21943391.945   115313306.944    21943397.918    89854561.4924                 
                
  23943881.555   125825949.135    23943890.105    98046235.2154   23943890.121  
                
  21347967.156   112184367.873    21347976.023    87416443.9324   21347976.270  
                
  21733811.648   115975797.841                    90203394.774    21733814.773  
  21733809.492  
  21739827.531   115885546.164                                                  
  21739826.562  
  21439421.766   114525552.639                    89075419.467    21439425.930  
  21439421.387  
  19140819.695   102318668.412                    79581187.967    19140824.992  
  19140819.121  
 21  8 14 18 54 10.0000000  0 14G 4G 9G14G 7G 5G 8R 8G20G27G30R 2R10
                                R12R 1
  23793727.492   125036898.954    23793735.488    97431400.8764   23793735.297  
                
  21127235.820   111024409.927    21127244.113    86512577.3234   21127243.934  
                
  23826926.922   125211351.300    23826934.543    97567329.0424   23826934.301  
                
  20583207.445   108165533.661    20583213.645    84284880.2984   20583213.426  
                
  23824013.484   125196032.353    23824020.188    97555389.1604   23824020.262  
                
  23754418.242   124830307.774    23754426.992    97270418.4434   23754427.574  
                
  21281686.062   113962480.628                    88637510.830    21281688.949  
  21281685.543  
  21942032.680   115306164.004    21942038.652    89848995.5594                 
                
  23942804.734   125820290.435    23942813.277    98041825.8494   23942813.305  
                
  21344752.164   112167472.982    21344761.027    87403279.0844   21344761.266  
                
  21726862.133   115938713.978                    90174551.754    21726865.277  
  21726859.945  
  21746554.094   115921402.502                                                  
  21746553.137  
  21433268.852   114492684.891                    89049855.658    21433273.000  
  21433268.480  
  19141613.445   102322911.418                    79584488.075    19141618.750  
  19141612.883  
 21  8 14 18 54 20.0000000  0 14G 4G 9G14G 7G 5G 8R 8G20G27G30R 2R10
                                R12R 1
  23799616.109   125067843.400    23799623.996    97455513.4334   23799623.828  
                
  21130783.117   111043050.992    21130791.398    86527102.8264   21130791.227  
                
  23819833.609   125174075.629    23819841.184    97538283.0614   23819840.949  
                
  20583726.234   108168259.941    20583732.391    84287004.6724   20583732.199  
                
  23819018.875   125169785.488    23819025.656    97534937.0834   23819025.684  
                
  23750715.562   124810850.060    23750724.344    97255256.5934   23750724.930  
                
  21288135.266   113997015.745                    88664371.462    21288138.156  
  21288134.727  
  21940686.070   115299087.585    21940692.039    89843481.4724                 
                
  23941740.070   125814695.578    23941748.625    98037466.2354   23941748.672  
                
  21341543.211   112150609.846    21341552.090    87390138.9884   21341552.316  
                
  21719917.695   115901657.323                    90145729.905    21719920.863  
  21719915.516  
  21753284.742   115957280.596                                                  
  21753283.801  
  21427124.031   114459860.347                    89024325.466    21427128.180  
  21427123.672  
  19142422.164   102327234.481                    79587850.457    19142427.469  
  19142421.605  
 21  8 14 18 54 30.0000000  0 14G 4G 9G14G 7G 5G 8R 8G20G27G30R 2R10
                                R12R 1
  23805508.406   125098807.488    23805516.277    97479641.2704   23805516.117  
                
  21134338.297   111061733.601    21134346.570    86541660.6984   21134346.395  
                
  23812742.938   125136813.986    23812750.484    97509248.0344   23812750.262  
                
  20584250.961   108171017.422    20584257.070    84289153.3594   20584256.906  
                
  23814032.961   125143584.358    23814039.828    97514520.6344   23814039.805  
                
  23747021.328   124791436.859    23747030.125    97240129.4354   23747030.719  
                
  21294593.383   114031598.531                    88691269.171    21294596.270  
  21294592.863  
  21939352.133   115292077.723    21939358.066    89838019.2394                 
                
  23940687.562   125809164.635    23940696.148    98033156.4314   23940696.180  
                
  21338340.305   112133778.479    21338349.207    87377023.6414   21338349.414  
                
  21712978.422   115864628.089                    90116929.407    21712981.598  
  21712976.238  
  21760019.359   115993179.924                                                  
  21760018.414  
  21420987.344   114427079.309                    88998829.119    21420991.488  
  21420986.996  
  19143245.844   102331637.536                    79591275.048    19143251.148  
  19143245.277  
 21  8 14 18 54 40.0000000  0 14G 4G 9G14G 7G 5G 8R 8G20G27G30R 2R10
                                R12R 1
  23811404.398   125129791.128    23811412.281    97503784.3494   23811412.078  
                
  21137901.375   111080457.663    21137909.625    86556250.8774   21137909.453  
                
  23805654.961   125099566.353    23805662.445    97480223.8864   23805662.230  
                
  20584781.617   108173806.039    20584787.680    84291326.3104   20584787.547  
                
  23809055.742   125117428.874    23809062.668    97494139.7464   23809062.621  
                
  23743335.594   124772068.297    23743344.414    97225037.0694   23743345.004  
                
  21301060.266   114066228.358                    88718203.487    21301063.148  
  21301059.770  
  21938030.875   115285134.474    21938036.734    89832608.9154                 
                
  23939647.227   125803697.625    23939655.840    98028896.4314   23939655.871  
                
  21335143.430   112116978.819    21335152.336    87363933.0094   21335152.539  
                
  21706044.320   115827626.428                    90088150.356    21706047.500  
  21706042.102  
  21766758.008   116029100.723                                                  
  21766757.062  
  21414858.773   114394341.610                    88973366.476    21414862.902  
  21414858.430  
  19144084.492   102336120.567                    79594761.855    19144089.801  
  19144083.922  
 21  8 14 18 54 50.0000000  0 14G 4G 9G14G 7G 5G 8R 8G20G27G30R 2R10
                                R12R 1
  23817304.047   125160794.271    23817311.973    97527942.6194   23817311.750  
                
  21141472.336   111099223.159    21141480.559    86570873.3364   21141480.398  
                
  23798569.633   125062332.818    23798577.094    97451210.7684   23798576.887  
                
  20585318.164   108176625.666    20585324.180    84293523.4304   20585324.074  
                
  23804087.180   125091318.907    23804094.133    97473794.3414   23804094.074  
                
  23739658.398   124752744.567    23739667.184    97209979.6224   23739667.785  
                
  21307535.984   114100905.559                    88745174.649    21307538.898  
  21307535.504  
  21936722.273   115278257.717    21936728.059    89827250.4064                 
                
  23938619.039   125798294.501    23938627.680    98024686.2314   23938627.699  
                
  21331952.586   112100210.844    21331961.457    87350867.0664   21331961.668  
                
  21699115.422   115790652.535                    90059392.895    21699118.590  
  21699113.188  
  21773500.734   116065043.175                                                  
  21773499.801  
  21408738.320   114361647.240                    88947937.535    21408742.445  
  21408737.988  
  19144938.086   102340683.517                    79598310.809    19144943.383  
  19144937.488  
 21  8 14 18 55  0.0000000  0 14G 4G 9G14G 7G 5G 8R 8G20G27G30R 2R10
                                R12R 1
  23823207.484   125191816.959    23823215.348    97552116.1524   23823215.098  
                
  21145051.203   111118030.160    21145059.402    86585528.1464   21145059.250  
                
  23791487.031   125025113.563    23791494.465    97422208.7484   23791494.281  
                
  20585860.641   108179476.363    20585866.613    84295744.7574   20585866.543  
                
  23799127.367   125065254.821    23799134.316    97453484.6724   23799134.258  
                
  23735989.758   124733465.725    23735998.461    97194957.1534   23735999.055  
                
  21314020.508   114135629.852                    88772182.420    21314023.457  
  21314020.031  
  21935426.359   115271447.649    21935432.086    89821943.8604                 
                
  23937603.055   125792955.481    23937611.695    98020525.9574   23937611.734  
                
  21328767.805   112083474.702    21328776.613    87337825.9124   21328776.875  
                
  21692191.719   115753706.390                    90030657.001    21692194.887  
  21692189.492  
  21780247.430   116101006.800                                                  
  21780246.484  
  21402626.023   114328996.490                    88922542.516    21402630.156  
  21402625.707  
  19145806.680   102345326.652                    79601922.124    19145811.988  
  19145806.094  
 21  8 14 18 55 10.0000000  0 14G 4G 9G14G 7G 5G 8R 8G20G27G30R 2R10
                                R12R 1
  23829114.602   125222858.974    23829122.398    97576304.7474   23829122.133  
                
  21148637.922   111136878.473    21148646.090    86600215.1344   21148645.949  
                
  23784407.188   124987908.489    23784414.539    97393217.7974   23784414.375  
                
  20586408.984   108182357.944    20586414.926    84297990.1494   20586414.867  
                
  23794176.266   125039236.565    23794183.238    97433210.7104   23794183.188  
                
  23732329.664   124714231.878    23732338.254    97179969.7184   23732338.871  
                
  21320513.805   114170401.174                    88799226.771    21320516.805  
  21320513.336  
  21934143.094   115264704.051    21934148.797    89816689.1014                 
                
  23936599.234   125787680.371    23936607.949    98016415.4924   23936607.980  
                
  21325589.039   112066770.165    21325597.793    87324809.3914   21325598.086  
                
  21685273.250   115716788.245                    90001942.888    21685276.414  
  21685271.051  
  21786998.055   116136991.497                                                  
  21786997.090  
  21396521.875   114296389.244                    88897181.347    21396526.023  
  21396521.551  
  19146690.234   102350049.701                    79605595.605    19146695.547  
  19146689.664  
 21  8 14 18 55 20.0000000  0 14G 4G 9G14G 7G 5G 8R 8G20G27G30R 2R10
                                R12R 1
  23835025.359   125253920.547    23835033.176    97600508.5454   23835032.914  
                
  21152232.539   111155768.273    21152240.660    86614934.4564   21152240.539  
                
  23777330.156   124950717.912    23777337.375    97364238.1054   23777337.223  
                
  20586963.234   108185270.581    20586969.152    84300259.7414   20586969.098  
                
  23789233.930   125013264.445    23789240.941    97412972.7054   23789240.906  
                
  23728678.164   124695043.204    23728686.680    97165017.5174   23728687.301  
                
  21327015.883   114205219.469                    88826307.667    21327018.922  
  21327015.387  
  21932872.523   115258027.095    21932878.234    89811486.2814                 
                
  23935607.633   125782469.434    23935616.461    98012355.0364   23935616.441  
                
  21322416.336   112050097.470    21322425.078    87311817.6814   21322425.375  
                
  21678360.070   115679898.325                    89973250.743    21678363.246  
  21678357.914  
  21793752.609   116172997.058                                                  
  21793751.641  
  21390425.883   114263825.672                    88871854.154    21390430.051  
  21390425.555  
  19147588.789   102354852.937                    79609331.457    19147594.090  
  19147588.246  
 21  8 14 18 55 30.0000000  0 14G 4G 9G14G 7G 5G 8R 8G20G27G30R 2R10
                                R12R 1
  23840939.820   125285001.453    23840947.672    97624727.4124   23840947.402  
                
  21155835.016   111174699.380    21155843.109    86629685.9714   21155843.012  
                
  23770255.789   124913541.728    23770262.973    97335269.6614   23770262.824  
                
  20587523.359   108188214.068    20587529.273    84302553.3704   20587529.215  
                
  23784300.359   124987338.443    23784307.434    97392770.6524   23784307.430  
                
  23725035.266   124675899.709    23725043.703    97150100.5164   23725044.340  
                
  21333526.695   114240084.552                    88853424.935    21333529.793  
  21333526.164  
  21931614.617   115251416.744    21931620.355    89806335.3554                 
                
  23934628.234   125777322.574    23934637.129    98008344.4994   23934637.074  
                
  21319249.656   112033456.494    21319258.434    87298850.6954   21319258.719  
                
  21671452.188   115643036.497                    89944580.422    21671455.352  
  21671450.027  
  21800511.141   116209023.794                                                  
  21800510.211  
  21384338.086   114231305.781                    88846560.899    21384342.246  
  21384337.730  
  19148502.320   102359736.306                    79613129.633    19148507.613  
  19148501.785  
 21  8 14 18 55 40.0000000  0 14G 4G 9G14G 7G 5G 8R 8G20G27G30R 2R10
                                R12R 1
  23846858.055   125316101.787    23846865.891    97648961.4204   23846865.625  
                
  21159445.383   111193671.960    21159453.449    86644469.7964   21159453.348  
                
  23763184.148   124876380.205    23763191.340    97306312.6354   23763191.215  
                
  20588089.391   108191188.629    20588095.305    84304871.2094   20588095.242  
                
  23779375.609   124961458.704    23779382.707    97372604.6454   23779382.723  
                
  23721401.031   124656801.685    23721409.465    97135218.9464   23721410.066  
                
  21340046.242   114274996.448                    88880578.614    21340049.375  
  21340045.684  
  21930369.422   115244873.209    21930375.195    89801236.4954                 
                
  23933661.039   125772239.971    23933669.953    98004384.0374   23933669.902  
                
  21316089.039   112016847.361    21316097.898    87285908.5274   21316098.137  
                
  21664549.617   115606202.977                    89915932.155    21664552.766  
  21664547.441  
  21807273.492   116245071.010                                                  
  21807272.609  
  21378258.469   114198829.701                    88821301.753    21378262.652  
  21378258.082  
  19149430.852   102364699.839                    79616990.158    19149436.145  
  19149430.309  
 21  8 14 18 55 50.0000000  0 14G 4G 9G14G 7G 5G 8R 8G20G27G30R 2R10
                                R12R 1
  23852780.047   125347221.430    23852787.766    97673210.4814   23852787.520  
                
  21163063.617   111212685.880    21163071.656    86659285.8334   21163071.555  
                
  23756115.422   124839233.329    23756122.520    97277367.0194   23756122.398  
                
  20588661.305   108194194.107    20588667.230    84307213.1474   20588667.164  
                
  23774459.664   124935625.260    23774466.781    97352474.7014   23774466.793  
                
  23717775.391   124637748.869    23717783.895    97120372.6214   23717784.461  
                
  21346574.531   114309955.023                    88907768.605    21346577.660  
  21346573.984  
  21929136.914   115238396.314    21929142.719    89796189.5674                 
                
  23932706.062   125767221.604    23932715.016    98000473.6354   23932714.965  
                
  21312934.461   112000270.002    21312943.414    87272991.1144   21312943.613  
                
  21657652.445   115569398.394                    89887306.368    21657655.602  
  21657650.258  
  21814039.812   116281139.181                                                  
  21814038.953  
  21372187.055   114166397.468                    88796076.697    21372191.254  
  21372186.660  
  19150374.383   102369743.564                    79620913.054    19150379.688  
  19150373.824  
 21  8 14 18 56  0.0000000  0 14G 4G 9G14G 7G 5G 8R 8G20G27G30R 2R10
                                R12R 1
  23858705.641   125378360.236    23858713.297    97697474.4954   23858713.066  
                
  21166689.695   111231741.020    21166697.711    86674133.9934   21166697.621  
                
  23749049.461   124802101.093    23749056.516    97248432.8064   23749056.379  
                
  20589239.094   108197230.395    20589245.031    84309579.0854   20589244.953  
                
  23769552.523   124909838.113    23769559.652    97332380.8334   23769559.637  
                
  23714158.391   124618741.468    23714166.938    97105561.6764   23714167.500  
                
  21353111.523   114344960.141                    88934994.823    21353114.633  
  21353111.008  
  21927917.086   115231986.079    21927922.941    89791194.5834                 
                
  23931763.297   125762267.367    23931772.305    97996613.2094   23931772.258  
                
  21309785.922   111983724.299    21309794.941    87260098.3724   21309795.117  
                
  21650760.562   115532622.040                    89858702.545    21650763.707  
  21650758.410  
  21820809.938   116317227.620                                                  
  21820809.074  
  21366123.875   114134009.058                    88770885.707    21366128.070  
  21366123.469  
  19151332.875   102374867.290                    79624898.164    19151338.195  
  19151332.297  
 21  8 14 18 56 10.0000000  0 14G 4G 9G14G 7G 5G 8R 8G20G27G30R 2R10
                                R12R 1
  23864634.898   125409518.351    23864642.488    97721753.5414   23864642.289  
                
  21170323.648   111250837.555    21170331.641    86689014.4024   21170331.570  
                
  23741986.273   124764983.732    23741993.316    97219510.1794   23741993.160  
                
  20589822.766   108200297.621    20589828.711    84311969.1384   20589828.621  
                
  23764654.234   124884097.422    23764661.344    97312323.1574   23764661.301  
                
  23710550.078   124599779.720    23710558.660    97090786.3044   23710559.203  
                
  21359657.164   114380011.687                    88962257.147    21359660.254  
  21359656.656  
  21926709.969   115225642.640    21926715.855    89786251.6364                 
                
  23930832.789   125757377.531    23930841.793    97992802.9424   23930841.746  
                
  21306643.445   111967210.473    21306652.480    87247230.4584   21306652.637  
                
  21643874.117   115495874.645                    89830121.241    21643877.262  
  21643871.992  
  21827583.875   116353336.489                                                  
  21827582.992  
  21360068.922   114101664.608                    88745728.934    21360073.105  
  21360068.520  
  19152306.398   102380071.320                    79628945.743    19152311.734  
  19152305.805  
 21  8 14 18 56 20.0000000  0 14G 4G 9G14G 7G 5G 8R 8G20G27G30R 2R10
                                R12R 1
  23870567.742   125440695.707    23870575.402    97746047.5544   23870575.219  
                
  21173965.453   111269975.357    21173973.430    86703926.9734   21173973.359  
                
  23734925.906   124727881.303    23734932.926    97190599.1984   23734932.801  
                
  20590412.305   108203395.731    20590418.254    84314383.2444   20590418.160  
                
  23759764.789   124858403.307    23759771.863    97292301.7794   23759771.809  
                
  23706950.492   124580863.823    23706959.074    97076046.6384   23706959.590  
                
  21366211.477   114415109.738                    88989555.615    21366214.574  
  21366210.973  
  21925515.562   115219365.966    21925521.477    89781360.7244                 
                
  23929914.516   125752552.039    23929923.500    97989042.8364   23929923.465  
                
  21303507.016   111950728.434    21303516.031    87234387.3074   21303516.199  
                
  21636993.086   115459156.180                    89801562.438    21636996.219  
  21636990.961  
  21834361.648   116389465.834                                                  
  21834360.773  
  21354022.227   114069364.250                    88720606.441    21354026.402  
  21354021.848  
  19153294.922   102385355.539                    79633055.689    19153300.266  
  19153294.324  
 21  8 14 18 56 30.0000000  0 14G 4G 9G14G 7G 5G 8R 8G20G27G30R 2R10
                                R12R 1
  23876504.305   125471892.371    23876512.012    97770356.6254   23876511.820  
                
  21177615.141   111289154.556    21177623.105    86718871.8054   21177623.035  
                
  23727868.383   124690793.987    23727875.410    97161699.9994   23727875.285  
                
  20591007.758   108206524.866    20591013.711    84316821.5354   20591013.609  
                
  23754884.242   124832756.024    23754891.301    97272316.8994   23754891.227  
                
  23703359.664   124561993.901    23703368.266    97061342.8214   23703368.773  
                
  21372774.445   114450254.153                    89016890.151    21372777.547  
  21372773.930  
  21924333.859   115213156.140    21924339.785    89776521.9054                 
                
  23929008.516   125747791.073    23929017.500    97985333.0074   23929017.449  
                
  21300376.656   111934278.335    21300385.652    87221569.0514   21300385.836  
                
  21630117.500   115422466.694                    89773026.168    21630120.613  
  21630115.359  
  21841143.250   116425615.583                                                  
  21841142.344  
  21347983.812   114037108.099                    88695518.326    21347987.961  
  21347983.473  
  19154298.461   102390720.065                    79637228.092    19154303.809  
  19154297.871  
 21  8 14 18 56 40.0000000  0 14G 4G 9G14G 7G 5G 8R 8G20G27G30R 2R10
                                R12R 1
  23882444.453   125503108.324    23882452.285    97794680.7114   23882452.078  
                
  21181272.703   111308375.147    21181280.656    86733848.8904   21181280.605  
                
  23720813.734   124653721.892    23720820.801    97132812.6644   23720820.684  
                
  20591609.094   108209684.943    20591615.051    84319283.9544   20591614.949  
                
  23750012.648   124807155.697    23750019.711    97252368.6174   23750019.645  
                
  23699777.578   124543169.954    23699786.164    97046674.8174   23699786.680  
                
  21379346.102   114485444.939                    89044260.749    21379349.152  
  21379345.598  
  21923164.906   115207013.245    21923170.816    89771735.2394                 
                
  23928114.812   125743094.695    23928123.781    97981673.4924   23928123.754  
                
  21297252.375   111917860.169    21297261.395    87208775.6824   21297261.582  
                
  21623247.383   115385806.486                    89744512.688    21623250.512  
  21623245.207  
  21847928.625   116461785.422                                                  
  21847927.730  
  21341953.695   114004896.283                    88670464.694    21341957.824  
  21341953.348  
  19155317.047   102396164.936                    79641462.981    19155322.410  
  19155316.473  
 21  8 14 18 56 50.0000000  0 14G 4G 9G14G 7G 5G 8R 8G20G27G30R 2R10
                                R12R 1
  23888388.227   125534343.400    23888396.176    97819019.7154   23888395.961  
                
  21184938.117   111327637.010    21184946.062    86748858.1274   21184946.004  
                
  23713761.992   124616664.991    23713769.082    97103937.1534   23713768.977  
                
  20592216.297   108212875.787    20592222.254    84321770.3254   20592222.145  
                
  23745149.969   124781602.220    23745157.043    97232456.8304   23745156.945  
                
  23696204.227   124524391.919    23696212.828    97032042.6124   23696213.355  
                
  21385926.367   114520681.817                    89071667.217    21385929.355  
  21385925.875  
  21922008.672   115200937.147    21922014.570    89767000.6214                 
                
  23927233.383   125738462.814    23927242.340    97978064.2284   23927242.336  
                
  21294134.164   111901473.854    21294143.258    87196007.1384   21294143.414  
                
  21616382.742   115349175.430                    89716021.871    21616385.879  
  21616380.516  
  21854717.750   116497975.325                                                  
  21854716.887  
  21335931.852   113972728.698                    88645445.476    21335935.977  
  21335931.473  
  19156350.656   102401690.125                    79645760.355    19156356.031  
  19156350.086  
 21  8 14 18 57  0.0000000  0 14G 4G 9G14G 7G 5G 8R 8G20G27G30R 2R10
                                R12R 1
  23894335.664   125565597.390    23894343.625    97843373.4644   23894343.414  
                
  21188611.344   111346939.909    21188619.281    86763899.3424   21188619.227  
                
  23706713.164   124579623.196    23706720.223    97075073.4124   23706720.133  
                
  20592829.312   108216097.276    20592835.270    84324280.5524   20592835.152  
                
  23740296.172   124756095.469    23740303.227    97212581.4354   23740303.105  
                
  23692639.625   124505659.929    23692648.191    97017446.2634   23692648.750  
                
  21392515.195   114555964.673                    89099109.422    21392518.164  
  21392514.684  
  21920865.102   115194927.718    21920871.008    89762317.9474                 
                
  23926364.180   125733895.265    23926373.156    97974505.1104   23926373.160  
                
  21291021.961   111885119.192    21291031.145    87183263.2604   21291031.254  
                
  21609523.609   115312573.940                    89687554.045    21609526.754  
  21609521.391  
  21861510.586   116534184.965                                                  
  21861509.719  
  21329918.242   113940605.139                    88620460.489    21329922.363  
  21329917.867  
  19157399.227   102407295.364                    79650119.980    19157404.590  
  19157398.660  
 21  8 14 18 57 10.0000000  0 14G 4G 9G14G 7G 5G 8R 8G20G27G30R 2R10
                                R12R 1
  23900286.766   125596870.507    23900294.684    97867742.1474   23900294.465  
                
  21192292.422   111366284.096    21192300.352    86778972.7374   21192300.293  
                
  23699667.344   124542596.856    23699674.348    97046221.7184   23699674.262  
                
  20593448.203   108219349.535    20593454.172    84326814.7944   20593454.055  
                
  23735451.352   124730635.842    23735458.379    97192742.7724   23735458.238  
                
  23689083.836   124486974.177    23689092.418    97002885.9514   23689092.965  
                
  21399112.664   114591293.667                    89126587.520    21399115.590  
  21399112.148  
  21919734.297   115188985.282    21919740.246    89757687.4774                 
                
  23925507.281   125729392.360    23925516.289    97970996.3794   23925516.309  
                
  21287915.852   111868796.479    21287925.113    87170544.2744   21287925.180  
                
  21602670.023   115276001.906                    89659109.130    21602673.160  
  21602667.820  
  21868307.117   116570414.311                                                  
  21868306.266  
  21323912.977   113908526.022                    88595510.081    21323917.086  
  21323912.590  
  19158462.836   102412980.936                    79654542.089    19158468.211  
  19158462.250  
 21  8 14 18 57 20.0000000  0 14G 4G 9G14G 7G 5G 8R 8G20G27G30R 2R10
                                R12R 1
  23906241.445   125628162.647    23906249.363    97892125.6294   23906249.141  
                
  21195981.344   111385669.458    21195989.270    86794078.2114   21195989.219  
                
  23692624.461   124505585.949    23692631.410    97017382.0524   23692631.332  
                
  20594072.938   108222632.539    20594078.914    84329372.9814   20594078.789  
                
  23730615.477   124705223.325    23730622.488    97172940.8284   23730622.375  
                
  23685536.859   124468334.835    23685545.465    96988361.8154   23685545.977  
                
  21405718.680   114626668.394                    89154101.202    21405721.574  
  21405718.184  
  21918616.211   115183109.702    21918622.227    89753109.1054                 
                
  23924662.680   125724954.082    23924671.688    97967537.9854   23924671.723  
                
  21284815.797   111852505.601    21284825.098    87157850.0944   21284825.152  
                
  21595821.977   115239459.484                    89630687.258    21595825.102  
  21595819.801  
  21875107.344   116606663.389                                                  
  21875106.488  
  21317916.016   113876491.348                    88570594.206    21317920.125  
  21317915.629  
  19159541.453   102418746.759                    79659026.614    19159546.824  
  19159540.848  
 21  8 14 18 57 30.0000000  0 14G 4G 9G14G 7G 5G 8R 8G20G27G30R 2R10
                                R12R 1
  23912199.656   125659473.838    23912207.695    97916523.9294   23912207.492  
                
  21199678.102   111405096.034    21199686.039    86809215.8014   21199685.984  
                
  23685584.398   124468590.602    23685591.426    96988554.5144   23685591.359  
                
  20594703.531   108225946.363    20594709.500    84331955.1794   20594709.379  
                
  23725788.586   124679858.099    23725795.617    97153175.7314   23725795.508  
                
  23681998.742   124449741.895    23682007.320    96973873.8144   23682007.797  
                
  21412333.234   114662089.027                    89181650.570    21412336.141  
  21412332.711  
  21917510.875   115177301.115    21917516.965    89748582.9324                 
                
  23923830.398   125720580.480    23923839.387    97964129.9834   23923839.434  
                
  21281721.812   111836246.626    21281731.094    87145180.7644   21281731.164  
                
  21588979.570   115202947.057                    89602288.697    21588982.668  
  21588977.398  
  21881911.273   116642932.127                                                  
  21881910.426  
  21311927.375   113844501.142                    88545712.950    21311931.508  
  21311926.977  
  19160635.117   102424593.004                    79663573.691    19160640.512  
  19160634.500  
 21  8 14 18 57 40.0000000  0 14G 4G 9G14G 7G 5G 8R 8G20G27G30R 2R10
                                R12R 1
  23918161.594   125690804.158    23918169.676    97940937.1394   23918169.469  
                
  21203382.727   111424563.963    21203390.672    86824385.6104   21203390.602  
                
  23678547.391   124431611.064    23678554.441    96959739.3004   23678554.391  
                
  20595340.008   108229291.069    20595345.969    84334561.4454   20595345.844  
                
  23720970.742   124654540.332    23720977.801    97133447.6284   23720977.668  
                
  23678469.516   124431195.755    23678478.055    96959422.2774   23678478.508  
                
  21418956.312   114697555.254                    89209235.394    21418959.227  
  21418955.785  
  21916418.305   115171559.620    21916424.457    89744109.0414                 
                
  23923010.461   125716271.753    23923019.469    97960772.5574   23923019.496  
                
  21278633.914   111820019.682    21278643.129    87132536.4024   21278643.234  
                
  21582142.750   115166464.529                    89573913.419    21582145.855  
  21582140.570  
  21888718.867   116679220.300                                                  
  21888718.016  
  21305947.094   113812555.645                    88520866.478    21305951.254  
  21305946.684  
  19161743.828   102430519.694                    79668183.346    19161749.230  
  19161743.199  
 21  8 14 18 57 50.0000000  0 14G 4G 9G14G 7G 5G 8R 8G20G27G30R 2R10
                                R12R 1
  23924127.086   125722153.124    23924135.188    97965364.8834   23924135.000  
                
  21207095.125   111444072.748    21207103.082    86839587.2554   21207103.020  
                
  23671513.297   124394646.986    23671520.422    96930936.1214   23671520.355  
                
  20595982.266   108232666.190    20595988.223    84337191.4094   20595988.102  
                
  23716161.898   124629269.749    23716168.973    97113756.2744   23716168.852  
                
  23674949.102   124412695.802    23674957.617    96945006.7414   23674958.051  
                
  21425587.898   114733067.044                    89236855.668    21425590.801  
  21425587.379  
  21915338.430   115165884.814    21915344.605    89739687.1094                 
                
  23922202.805   125712027.516    23922211.820    97957465.3644   23922211.844  
                
  21275552.039   111803824.353    21275561.172    87119916.6764   21275561.324  
                
  21575311.547   115130011.918                    89545561.398    21575314.660  
  21575309.355  
  21895530.055   116715527.695                                                  
  21895529.203  
  21299975.133   113780654.503                    88496054.487    21299979.305  
  21299974.719  
  19162867.523   102436526.501                    79672855.297    19162872.941  
  19162866.879  
 21  8 14 18 58  0.0000000  0 14G 4G 9G14G 7G 5G 8R 8G20G27G30R 2R10
                                R12R 1
  23930096.188   125753521.010    23930104.281    97989807.3954   23930104.129  
                
  21210815.359   111463622.710    21210823.336    86854820.9884   21210823.266  
                
  23664482.211   124357698.755    23664489.379    96902145.2804   23664489.316  
                
  20596630.375   108236072.029    20596636.332    84339845.3094   20596636.215  
                
  23711362.094   124604046.729    23711369.168    97094101.9924   23711369.078  
                
  23671437.609   124394242.738    23671446.105    96930627.7294   23671446.543  
                
  21432228.000   114768624.416                    89264511.417    21432230.875  
  21432227.465  
  21914271.297   115160276.999    21914277.477    89735317.3824                 
                
  23921407.484   125707848.106    23921416.453    97954208.6844   23921416.508  
                
  21272476.242   111787660.972    21272485.336    87107321.8424   21272485.500  
                
  21568486.047   115093589.790                    89517233.075    21568489.176  
  21568483.855  
  21902344.859   116751854.428                                                  
  21902343.980  
  21294011.516   113748798.020                    88471277.232    21294015.684  
  21294011.117  
  19164006.250   102442613.635                    79677589.737    19164011.656  
  19164005.609  
 21  8 14 18 58 10.0000000  0 14G 4G 9G14G 7G 5G 8R 8G20G27G30R 2R10
                                R12R 1
  23936068.938   125784907.939    23936076.992    98014264.7404   23936076.910  
                
  21214543.445   111483213.911    21214551.434    86870086.8564   21214551.383  
                
  23657454.172   124320766.592    23657461.414    96873366.9664   23657461.340  
                
  20597284.344   108239508.658    20597290.309    84342523.2004   20597290.191  
                
  23706571.352   124578871.421    23706578.402    97074484.8794   23706578.344  
                
  23667935.062   124375836.760    23667943.578    96916285.4284   23667944.023  
                
  21438876.602   114804227.348                    89292202.593    21438879.453  
  21438876.059  
  21913216.938   115154736.301    21913223.109    89730999.9494                 
                
  23920624.531   125703733.676    23920633.480    97951002.6254   23920633.555  
                
  21269406.555   111771529.643    21269415.648    87094751.9834   21269415.797  
                
  21561666.273   115057198.203                    89488928.511    21561669.406  
  21561664.098  
  21909163.242   116788200.202                                                  
  21909162.391  
  21288056.289   113716986.328                    88446534.801    21288060.473  
  21288055.895  
  19165160.055   102448781.338                    79682386.834    19165165.438  
  19165159.395  
 21  8 14 18 58 20.0000000  0 14G 4G 9G14G 7G 5G 8R 8G20G27G30R 2R10
                                R12R 1
  23942045.211   125816313.735    23942053.332    98038736.7754   23942053.320  
                
  21218279.359   111502846.267    21218287.383    86885384.7964   21218287.328  
                
  23650429.133   124283850.433    23650436.527    96844601.1574   23650436.453  
                
  20597944.133   108242975.931    20597950.117    84345224.9714   20597949.992  
                
  23701789.719   124553743.858    23701796.703    97054904.9614   23701796.648  
                
  23664441.438   124357477.724    23664449.980    96901979.7004   23664450.434  
                
  21445533.641   114839875.550                    89319928.967    21445536.492  
  21445533.090  
  21912175.344   115149262.669    21912181.520    89726734.7824                 
                
  23919853.930   125699684.184    23919862.871    97947847.1734   23919862.949  
                
  21266342.953   111755430.291    21266352.086    87082207.0354   21266352.191  
                
  21554852.227   115020837.164                    89460647.698    21554855.363  
  21554850.070  
  21915985.195   116824565.061                                                  
  21915984.371  
  21282109.461   113685219.574                    88421827.357    21282113.668  
  21282109.055  
  19166328.914   102455029.594                    79687246.591    19166334.293  
  19166328.242  
 21  8 14 18 58 30.0000000  0 14G 4G 9G14G 7G 5G 8R 8G20G27G30R 2R10
                                R12R 1
  23948025.117   125847738.224    23948033.266    98063223.3544   23948033.277  
                
  21222023.070   111522519.593    21222031.156    86900714.6544   21222031.074  
                
  23643407.203   124246950.273    23643414.668    96815847.8004   23643414.586  
                
  20598609.734   108246473.702    20598615.746    84347950.5104   20598615.609  
                
  23697017.141   124528663.890    23697024.070    97035362.1334   23697024.035  
                
  23660956.742   124339165.581    23660965.289    96887710.5164   23660965.754  
                
  21452199.102   114875568.804                    89347690.351    21452201.980  
  21452198.543  
  21911146.516   115143856.138    21911152.715    89722521.9104                 
                
  23919095.648   125695699.500    23919104.523    97944742.2184   23919104.605  
                
  21263285.406   111739362.765    21263294.570    87069686.8864   21263294.641  
                
  21548043.828   114984506.263                    89432390.350    21548047.000  
  21548041.695  
  21922810.680   116860948.765                                                  
  21922809.824  
  21276171.023   113653497.596                    88397154.716    21276175.242  
  21276170.605  
  19167512.781   102461358.122                    79692168.770    19167518.176  
  19167512.078  
 21  8 14 18 58 40.0000000  0 14G 4G 9G14G 7G 5G 8R 8G20G27G30R 2R10
                                R12R 1
  23954008.555   125879181.236    23954016.758    98087724.3774   23954016.750  
                
  21225774.547   111542233.715    21225782.684    86916076.3024   21225782.574  
                
  23636388.406   124210066.039    23636395.805    96787106.8444   23636395.742  
                
  20599281.117   108250001.827    20599287.160    84350699.6964   20599286.996  
                
  23692253.609   124503631.544    23692260.512    97015856.4144   23692260.512  
                
  23657481.008   124320900.437    23657489.602    96873477.9444   23657490.027  
                
  21458872.984   114911307.031                    89375486.742    21458875.879  
  21458872.488  
  21910130.398   115138516.369    21910136.621    89718361.0504                 
                
  23918349.695   125691779.542    23918358.473    97941687.7064   23918358.598  
                
  21260233.875   111723326.901    21260243.031    87057191.4214   21260243.102  
                
  21541241.211   114948206.265                    89404157.019    21541244.395  
  21541239.094  
  21929639.672   116897351.111                                                  
  21929638.789  
  21270240.922   113621820.228                    88372516.770    21270245.168  
  21270240.516  
  19168711.688   102467766.939                    79697153.407    19168717.074  
  19168710.969  
 21  8 14 18 58 50.0000000  0 14G 4G 9G14G 7G 5G 8R 8G20G27G30R 2R10
                                R12R 1
  23959995.570   125910643.029    23960003.789    98112240.0544   23960003.789  
                
  21229533.828   111561988.914    21229542.012    86931469.9644   21229541.898  
                
  23629372.781   124173198.123    23629380.008    96758378.5844   23629379.992  
                
  20599958.312   108253560.516    20599964.383    84353472.7064   20599964.199  
                
  23687499.258   124478647.299    23687506.172    96996388.1954   23687506.172  
                
  23654014.266   124302682.549    23654022.883    96859282.1784   23654023.281  
                
  21465555.266   114947090.223                    89403318.115    21465558.156  
  21465554.785  
  21909127.031   115133243.616    21909133.297    89714252.4104                 
                
  23917616.109   125687924.603    23917624.844    97938683.8704   23917624.992  
                
  21257188.438   111707323.027    21257197.500    87044720.8844   21257197.602  
                
  21534444.328   114911936.842                    89375947.471    21534447.523  
  21534442.227  
  21936472.109   116933771.919                                                  
  21936471.207  
  21264319.273   113590187.975                    88347913.931    21264323.527  
  21264318.859  
  19169925.609   102474256.067                    79702200.492    19169930.977  
  19169924.879  
 21  8 14 18 59  0.0000000  0 14G 4G 9G14G 7G 5G 8R 8G20G27G30R 2R10
                                R12R 1
  23965986.211   125942123.323    23965994.359    98136770.1394   23965994.344  
                
  21233300.891   111581784.957    21233309.141    86946895.4444   21233309.012  
                
  23622360.219   124136346.382    23622367.270    96729662.9194   23622367.285  
                
  20600641.297   108257149.652    20600647.398    84356269.4364   20600647.211  
                
  23682753.977   124453710.866    23682760.922    96976957.2324   23682760.914  
                
  23650556.453   124284511.668    23650565.129    96845123.0594   23650565.508  
                
  21472245.898   114982918.231                    89431184.336    21472248.793  
  21472245.434  
  21908136.391   115128037.734    21908142.676    89710195.8774                 
                
  23916894.867   125684134.528    23916903.617    97935730.5754   23916903.758  
                
  21254149.047   111691350.936    21254157.957    87032275.0954   21254158.145  
                
  21527653.305   114875698.566                    89347762.165    21527656.484  
  21527651.195  
  21943308.023   116970211.189                                                  
  21943307.109  
  21258406.023   113558600.614                    88323345.993    21258410.273  
  21258405.594  
  19171154.539   102480825.413                    79707309.988    19171159.875  
  19171153.816  
 21  8 14 18 59 10.0000000  0 14G 4G 9G14G 7G 5G 8R 8G20G27G30R 2R10
                                R12R 1
  23971980.352   125973622.368    23971988.508    98161314.8334   23971988.441  
                
  21237075.773   111601622.082    21237084.098    86962352.9424   21237083.945  
                
  23615350.766   124099511.172    23615357.691    96700960.1374   23615357.746  
                
  20601330.125   108260769.503    20601336.246    84359090.1014   20601336.043  
                
  23678017.859   124428822.669    23678024.840    96957563.8444   23678024.828  
                
  23647107.672   124266388.280    23647116.402    96831000.9544   23647116.773  
                
  21478944.977   115018791.310                    89459085.614    21478947.812  
  21478944.523  
  21907158.523   115122899.027    21907164.809    89706191.6884                 
                
  23916186.039   125680409.600    23916194.773    97932828.0394   23916194.918  
                
  21251115.758   111675410.887    21251124.535    87019854.2804   21251124.781  
                
  21520868.070   114839491.307                    89319600.956    21520871.238  
  21520865.977  
  21950147.430   117006669.112                                                  
  21950146.527  
  21252501.234   113527058.367                    88298813.142    21252505.480  
  21252500.785  
  19172398.578   102487475.517                    79712482.286    19172403.895  
  19172397.863  
 21  8 14 18 59 20.0000000  0 14G 4G 9G14G 7G 5G 8R 8G20G27G30R 2R10
                                R12R 1
  23977977.984   126005140.006    23977986.117    98185874.0014   23977986.047  
                
  21240858.438   111621500.142    21240866.809    86977842.3334   21240866.637  
                
  23608344.398   124062692.430    23608351.332    96672270.2084   23608351.363  
                
  20602024.742   108264419.741    20602030.883    84361934.4474   20602030.680  
                
  23673290.953   124403982.746    23673297.969    96938208.0664   23673297.953  
                
  23643667.938   124248312.458    23643676.656    96816915.9144   23643677.051  
                
  21485652.367   115054708.972                    89487021.590    21485655.168  
  21485651.918  
  21906193.430   115117827.381    21906199.695    89702239.7564                 
                
  23915489.602   125676749.739    23915498.293    97929976.1954   23915498.457  
                
  21248088.547   111659502.769    21248097.258    87007458.3424   21248097.523  
                
  21514088.773   114803315.710                    89291464.375    21514091.957  
  21514086.719  
  21956990.242   117043145.145                                                  
  21956989.363  
  21246604.914   113495561.311                    88274315.451    21246609.137  
  21246604.461  
  19173657.625   102494205.822                    79717716.977    19173662.926  
  19173656.930  
 21  8 14 18 59 30.0000000  0 14G 4G 9G14G 7G 5G 8R 8G20G27G30R 2R10
                                R12R 1
  23983979.117   126036676.369    23983987.289    98210447.7654   23983987.191  
                
  21244648.914   111641419.269    21244657.305    86993363.7244   21244657.121  
                
  23601341.164   124025890.380    23601348.164    96643593.2864   23601348.184  
                
  20602725.180   108268100.565    20602731.328    84364802.6164   20602731.121  
                
  23668573.281   124379191.278    23668580.301    96918890.0654   23668580.281  
                
  23640237.281   124230284.356    23640246.012    96802868.0554   23640246.426  
                
  21492368.156   115090671.602                    89514992.523    21492370.922  
  21492367.688  
  21905241.133   115112823.013    21905247.363    89698340.2434                 
                
  23914805.578   125673155.121    23914814.273    97927175.2044   23914814.422  
                
  21245067.438   111643626.718    21245076.148    86995087.3894   21245076.395  
                
  21507315.375   114767171.541                    89263352.250    21507318.562  
  21507313.305  
  21963836.484   117079639.533                                                  
  21963835.621  
  21240717.062   113464109.491                    88249852.921    21240721.277  
  21240716.598  
  19174931.766   102501016.849                    79723014.443    19174937.047  
  19174931.051  
 21  8 14 18 59 40.0000000  0 14G 4G 9G14G 7G 5G 8R 8G20G27G30R 2R10
                                R12R 1
  23989983.883   126068231.221    23989991.973    98235035.9534   23989991.852  
                
  21248447.180   111661379.277    21248455.586    87008916.9724   21248455.418  
                
  23594341.078   123989105.025    23594348.141    96614929.3664   23594348.168  
                
  20603431.414   108271811.832    20603437.570    84367694.5214   20603437.375  
                
  23663864.820   124354448.143    23663871.832    96899609.6854   23663871.809  
                
  23636815.703   124212303.954    23636824.477    96788857.3744   23636824.906  
                
  21499092.234   115126678.666                    89542998.021    21499094.977  
  21499091.750  
  21904301.617   115107885.722    21904307.836    89694493.0054                 
                
  23914133.945   125669625.638    23914142.676    97924424.9654   23914142.805  
                
  21242052.406   111627782.607    21242061.164    86982741.3494   21242061.363  
                
  21500547.906   114731059.107                    89235264.826    21500551.109  
  21500545.801  
  21970686.109   117116151.950                                                  
  21970685.227  
  21234837.703   113432703.005                    88225425.672    21234841.891  
  21234837.242  
  19176220.938   102507908.217                    79728374.382    19176226.180  
  19176220.203  
 21  8 14 18 59 50.0000000  0 14G 4G 9G14G 7G 5G 8R 8G20G27G30R 2R10
                                R12R 1
  23995992.211   126099804.619    23996000.156    98259638.6314   23996000.027  
                
  21252253.227   111681380.231    21252261.652    87024502.1284   21252261.477  
                
  23587344.242   123952336.470    23587351.262    96586278.5304   23587351.332  
                
  20604143.430   108275553.597    20604149.586    84370610.1814   20604149.391  
                
  23659165.578   124329753.513    23659172.617    96880367.1264   23659172.609  
                
  23633403.266   124194371.552    23633412.082    96774884.0824   23633412.492  
                
  21505824.609   115162730.199                    89571038.093    21505827.324  
  21505824.117  
  21903374.867   115103015.634    21903381.074    89690698.1284                 
                
  23913474.727   125666161.428    23913483.473    97921725.5734   23913483.594  
                
  21239043.453   111611970.505    21239052.238    86970420.2374   21239052.402  
                
  21493786.328   114694978.119                    89207201.834    21493789.539  
  21493784.191  
  21977539.109   117152682.313                                                  
  21977538.211  
  21228966.797   113401341.707                    88201033.556    21228970.953  
  21228966.336  
  19177525.172   102514880.145                    79733796.987    19177530.383  
  19177524.426  
 21  8 14 19  0  0.0000000  0 14G 4G 9G14G 7G 5G 8R 8G20G27G30R 2R10
                                R12R 1
  24002003.977   126131396.346    24002011.867    98284255.5574   24002011.750  
                
  21256067.023   111701421.913    21256075.457    87040119.0184   21256075.277  
                
  23580350.633   123915584.635    23580357.594    96557640.7324   23580357.680  
                
  20604861.219   108279325.629    20604867.371    84373549.4284   20604867.180  
                
  23654475.516   124305107.191    23654482.617    96861162.2264   23654482.582  
                
  23629999.883   124176486.794    23630008.738    96760947.9164   23630009.141  
                
  21512565.242   115198825.943                    89599112.558    21512567.973  
  21512564.762  
  21902460.875   115098212.546    21902467.070    89686955.4614                 
                
  23912827.883   125662762.318    23912836.617    97919076.8954   23912836.758  
                
  21236040.555   111596190.222    21236049.301    86958123.9244   21236049.480  
                
  21487030.734   114658929.077                    89179163.703    21487033.984  
  21487028.590  
  21984395.477   117189230.608                                                  
  21984394.570  
  21223104.359   113370025.677                    88176676.637    21223108.504  
  21223103.902  
  19178844.438   102521932.371                    79739282.059    19178849.617  
  19178843.684  
 21  8 14 19  0 10.0000000  0 14G 4G 9G14G 7G 5G 8R 8G20G27G30R 2R10
                                R12R 1
  24008019.195   126163006.541    24008027.117    98308886.8384   24008027.012  
                
  21259888.617   111721504.477    21259897.055    87055767.7644   21259896.879  
                
  23573360.289   123878849.760    23573367.160    96529016.1424   23573367.246  
                
  20605584.812   108283128.090    20605590.961    84376512.3844   20605590.777  
                
  23649794.727   124280509.538    23649801.875    96841995.2404   23649801.848  
                
  23626605.664   124158650.082    23626614.559    96747049.1914   23626614.938  
                
  21519314.133   115234965.980                    89627221.451    21519316.898  
  21519313.645  
  21901559.672   115093476.613    21901565.859    89683265.1234                 
                
  23912193.492   125659428.476    23912202.184    97916479.0924   23912202.320  
                
  21233043.758   111580441.951    21233052.402    86945852.5494   21233052.633  
                
  21480281.180   114622912.256                    89151150.638    21480284.449  
  21480279.039  
  21991255.195   117225796.668                                                  
  21991254.273  
  21217250.461   113338755.218                    88152355.182    21217254.598  
  21217249.996  
  19180178.773   102529065.163                    79744829.777    19180183.922  
  19180178.020  
 21  8 14 19  0 20.0000000  0 14G 4G 9G14G 7G 5G 8R 8G20G27G30R 2R10
                                R12R 1
  24014037.859   126194635.144    24014045.879    98333532.4554   24014045.758  
                
  21263717.977   111741627.903    21263726.418    87071448.3454   21263726.234  
                
  23566373.219   123842131.953    23566379.969    96500404.8494   23566380.074  
                
  20606314.164   108286960.904    20606320.305    84379498.9964   20606320.125  
                
  23645123.219   124255960.609    23645130.402    96822866.2174   23645130.359  
                
  23623220.594   124140861.462    23623229.504    96733187.9474   23623229.902  
                
  21526071.281   115271150.278                    89655364.785    21526074.074  
  21526070.750  
  21900671.258   115088807.923    21900677.438    89679627.1804                 
                
  23911571.531   125656160.004    23911580.207    97913932.2184   23911580.324  
                
  21230053.055   111564725.693    21230061.590    86933606.1074   21230061.879  
                
  21473537.562   114586927.074                    89123162.152    21473540.840  
  21473535.398  
  21998118.156   117262380.215                                                  
  21998117.234  
  21211405.070   113307530.270                    88128069.129    21211409.223  
  21211404.602  
  19181528.164   102536278.386                    79750440.049    19181533.270  
  19181527.430  
 21  8 14 19  0 30.0000000  0 14G 4G 9G14G 7G 5G 8R 8G20G27G30R 2R10
                                R12R 1
  24020059.984   126226282.027    24020068.090    98358192.3594   24020067.965  
                
  21267555.086   111761792.065    21267563.520    87087160.6784   21267563.332  
                
  23559389.344   123805431.199    23559396.047    96471806.8394   23559396.148  
                
  20607049.281   108290823.988    20607055.414    84382509.1844   20607055.238  
                
  23640460.984   124231460.423    23640468.156    96803775.1654   23640468.117  
                
  23619844.672   124123120.877    23619853.555    96719364.1194   23619853.965  
                
  21532836.664   115307378.537                    89683542.307    21532839.445  
  21532836.125  
  21899795.617   115084206.370    21899801.781    89676041.5534                 
                
  23910961.984   125652956.814    23910970.660    97911436.2104   23910970.781  
                
  21227068.430   111549041.367    21227076.922    86921384.5504   21227077.246  
                
  21466799.977   114550974.101                    89095198.763    21466803.273  
  21466797.793  
  22004984.445   117298981.403                                                  
  22004983.555  
  21205568.203   113276350.838                    88103818.455    21205572.363  
  21205567.754  
  19182892.617   102543572.150                    79756112.976    19182897.699  
  19182891.895  
 21  8 14 19  0 40.0000000  0 14G 4G 9G14G 7G 5G 8R 8G20G27G30R 2R10
                                R12R 1
  24026085.727   126257947.368    24026093.770    98382866.6394   24026093.680  
                
  21271399.977   111781997.118    21271408.391    87102904.8714   21271408.203  
                
  23552408.695   123768747.742    23552415.426    96443222.3244   23552415.527  
                
  20607790.195   108294717.518    20607796.328    84385543.1074   20607796.156  
                
  23635808.094   124207009.305    23635815.234    96784722.3474   23635815.188  
                
  23616477.977   124105428.799    23616486.820    96705578.0824   23616487.266  
                
  21539610.320   115343651.094                    89711754.309    21539613.066  
  21539609.762  
  21898932.789   115079672.187    21898938.938    89672508.4174                 
                
  23910364.891   125649819.085    23910373.527    97908991.2214   23910373.656  
                
  21224089.898   111533389.151    21224098.438    86909188.0224   21224098.742  
                
  21460068.516   114515053.774                    89067260.731    21460071.801  
  21460066.336  
  22011854.016   117335600.100                                                  
  22011853.137  
  21199739.914   113245217.167                    88079603.397    21199744.109  
  21199739.473  
  19184272.141   102550946.530                    79761848.603    19184277.223  
  19184271.422  
 21  8 14 19  0 50.0000000  0 14G 4G 9G14G 7G 5G 8R 8G20G27G30R 2R10
                                R12R 1
  24032114.945   126289631.271    24032123.020    98407555.3864   24032122.961  
                
  21275252.695   111802243.222    21275261.102    87118681.0594   21275260.914  
                
  23545431.375   123732081.862    23545438.156    96414651.5124   23545438.270  
                
  20608536.938   108298641.638    20608543.074    84388600.8644   20608542.906  
                
  23631164.586   124182607.638    23631171.691    96765708.0654   23631171.672  
                
  23613120.523   124087785.357    23613129.379    96691829.9574   23613129.828  
                
  21546392.219   115379967.867                    89740000.694    21546394.949  
  21546391.641  
  21898082.812   115075205.489    21898088.934    89669027.8784                 
                
  23909780.297   125646747.056    23909788.863    97906597.4354   23909789.004  
                
  21221117.516   111517769.212    21221126.172    86897016.6644   21221126.414  
                
  21453343.188   114479166.142                    89039348.134    21453346.441  
  21453341.016  
  22018726.969   117372236.624                                                  
  22018726.109  
  21193920.211   113214129.362                    88055424.013    21193924.430  
  21193919.762  
  19185666.805   102558401.781                    79767647.138    19185671.891  
  19185666.090  
 21  8 14 19  1  0.0000000  0 14G 4G 9G14G 7G 5G 8R 8G20G27G30R 2R10
                                R12R 1
  24038147.586   126321333.322    24038155.758    98432258.2724   24038155.680  
                
  21279113.133   111822529.964    21279121.527    87134488.9094   21279121.340  
                
  23538457.375   123695433.271    23538464.168    96386094.1634   23538464.281  
                
  20609289.406   108302595.912    20609295.543    84391682.1214   20609295.367  
                
  23626530.375   124158254.836    23626537.480    96746731.8784   23626537.457  
                
  23609772.258   124070190.271    23609781.105    96678119.5184   23609781.566  
                
  21553182.281   115416328.336                    89768281.037    21553184.988  
  21553181.703  
  21897245.594   115070805.895    21897251.684    89665599.6204                 
                
  23909208.133   125643740.315    23909216.637    97904254.5514   23909216.773  
                
  21218151.203   111502181.194    21218159.984    86884870.1734   21218160.172  
                
  21446623.969   114443311.154                    89011460.924    21446627.191  
  21446621.820  
  22025603.055   117408889.982                                                  
  22025602.180  
  21188109.047   113183087.202                    88031280.110    21188113.277  
  21188108.602  
  19187076.492   102565937.369                    79773508.146    19187081.562  
  19187075.777  
 21  8 14 19  1 10.0000000  0 14G 4G 9G14G 7G 5G 8R 8G20G27G30R 2R10
                                R12R 1
  24044183.438   126353052.586    24044191.797    98456974.5504   24044191.715  
                
  21282981.141   111842856.411    21282989.508    87150327.6984   21282989.328  
                
  23531486.570   123658801.143    23531493.340    96357549.6484   23531493.465  
                
  20610047.461   108306579.499    20610053.602    84394786.2154   20610053.422  
                
  23621905.328   124133950.114    23621912.461    96727793.1604   23621912.449  
                
  23606433.062   124052642.762    23606441.945    96664446.1424   23606442.391  
                
  21559980.320   115452731.601                    89796594.691    21559983.043  
  21559979.730  
  21896420.977   115066472.459    21896427.035    89662222.9134                 
                
  23908648.258   125640798.087    23908656.688    97901961.9064   23908656.812  
                
  21215190.805   111486624.178    21215199.668    86872747.8354   21215199.820  
                
  21439910.734   114407488.024                    88983598.485    21439913.945  
  21439908.605  
  22032482.172   117445559.517                                                  
  22032481.270  
  21182306.266   113152089.757                    88007170.997    21182310.496  
  21182305.836  
  19188501.062   102573552.468                    79779430.992    19188506.102  
  19188500.367  
 21  8 14 19  1 20.0000000  0 14G 4G 9G14G 7G 5G 8R 8G20G27G30R 2R10
                                R12R 1
  24050222.875   126384790.495    24050231.379    98481705.3674   24050231.285  
                
  21286856.969   111863224.042    21286865.293    87166198.5714   21286865.133  
                
  23524519.164   123622187.037    23524525.902    96329019.1634   23524526.047  
                
  20610811.359   108310593.817    20610817.504    84397914.2564   20610817.324  
                
  23617289.758   124109695.175    23617296.898    96708893.2044   23617296.902  
                
  23603103.227   124035144.432    23603112.164    96650811.0924   23603112.566  
                
  21566786.539   115489178.785                    89824942.475    21566789.297  
  21566785.891  
  21895609.250   115062206.800    21895615.297    89658899.0294                 
                
  23908100.914   125637921.800    23908109.262    97899720.6824   23908109.418  
                
  21212236.578   111471099.642    21212245.457    86860650.7974   21212245.602  
                
  21433203.719   114371698.181                    88955761.944    21433206.914  
  21433201.609  
  22039364.555   117482246.535                                                  
  22039363.621  
  21176512.180   113121138.733                    87983097.969    21176516.438  
  21176511.746  
  19189940.797   102581248.628                    79785416.896    19189945.836  
  19189940.125  
 21  8 14 19  1 30.0000000  0 14G 4G 9G14G 7G 5G 8R 8G20G27G30R 2R10
                                R12R 1
  24056265.945   126416546.830    24056274.449    98506450.5394   24056274.348  
                
  21290740.594   111883632.613    21290748.875    87182101.3574   21290748.723  
                
  23517555.117   123585590.834    23517561.883    96300502.6454   23517562.055  
                
  20611581.055   108314638.605    20611587.199    84401066.0354   20611587.031  
                
  23612683.641   124085489.931    23612690.766    96690031.9724   23612690.801  
                
  23599782.727   124017695.238    23599791.707    96637214.3164   23599792.082  
                
  21573601.000   115525669.872                    89853324.417    21573603.742  
  21573600.367  
  21894810.383   115058008.699    21894816.438    89655627.7864                 
                
  23907566.125   125635111.384    23907574.363    97897530.7484   23907574.559  
                
  21209288.500   111455607.435    21209297.348    86848578.9384   21209297.500  
                
  21426503.000   114335941.784                    88927951.418    21426506.168  
  21426500.914  
  22046250.117   117518950.446                                                  
  22046249.141  
  21170726.719   113090233.833                    87959060.843    21170731.000  
  21170726.320  
  19191395.617   102589025.475                    79791465.544    19191400.648  
  19191394.965  
 21  8 14 19  1 40.0000000  0 14G 4G 9G14G 7G 5G 8R 8G20G27G30R 2R10
                                R12R 1
  24062312.484   126448321.482    24062321.023    98531209.9834   24062320.898  
                
  21294632.000   111904082.034    21294640.246    87198035.9694   21294640.121  
                
  23510594.461   123549012.576    23510601.262    96272000.1124   23510601.457  
                
  20612356.539   108318713.783    20612362.688    84404241.5034   20612362.523  
                
  23608086.961   124061334.269    23608094.062    96671209.3844   23608094.113  
                
  23596471.555   124000295.057    23596480.562    96623655.7534   23596480.934  
                
  21580423.602   115562204.383                    89881740.161    21580426.301  
  21580423.016  
  21894024.359   115053878.136    21894030.402    89652409.1584                 
                
  23907043.859   125632366.763    23907052.000    97895392.0674   23907052.246  
                
  21206346.547   111440147.436    21206355.363    86836532.1814   21206355.531  
                
  21419808.570   114300219.004                    88900167.042    21419811.719  
  21419806.496  
  22053138.922   117555671.624                                                  
  22053137.957  
  21164949.914   113059375.138                    87935059.654    21164954.227  
  21164949.531  
  19192865.562   102596883.127                    79797577.050    19192870.586  
  19192864.945  
 21  8 14 19  1 50.0000000  0 14G 4G 9G14G 7G 5G 8R 8G20G27G30R 2R10
                                R12R 1
  24068362.539   126480114.246    24068371.027    98555983.5704   24068370.879  
                
  21298531.141   111924572.150    21298539.359    87214002.2854   21298539.238  
                
  23503637.242   123512452.173    23503644.043    96243511.5024   23503644.262  
                
  20613137.781   108322819.234    20613143.934    84407440.5544   20613143.773  
                
  23603499.695   124037228.107    23603506.707    96652425.3714   23603506.805  
                
  23593169.734   123982943.935    23593178.719    96610135.4114   23593179.133  
                
  21587254.297   115598782.356                    89910189.704    21587256.941  
  21587253.727  
  21893251.148   115049814.880    21893257.172    89649242.9864                 
                
  23906534.078   125629687.777    23906542.156    97893304.5424   23906542.406  
                
  21203410.695   111424719.539    21203419.531    86824510.4564   21203419.711  
                
  21413120.320   114264529.254                    88872408.369    21413123.461  
  21413118.273  
  22060030.828   117592409.339                                                  
  22060029.859  
  21159181.695   113028562.406                    87911094.206    21159186.008  
  21159181.301  
  19194350.578   102604821.359                    79803751.227    19194355.609  
  19194349.973  
 21  8 14 19  2  0.0000000  0 14G 4G 9G14G 7G 5G 8R 8G20G27G30R 2R10
                                R12R 1
  24074415.953   126511924.998    24074424.469    98580771.1554   24074424.289  
                
  21302438.008   111945102.835    21302446.199    87230000.2184   21302446.102  
                
  23496683.430   123475909.647    23496690.191    96215036.8024   23496690.453  
                
  20613924.758   108326954.806    20613930.922    84410663.0804   20613930.746  
                
  23598921.867   124013171.485    23598928.840    96633679.9634   23598928.938  
                
  23589877.273   123965641.961    23589886.219    96596653.3504   23589886.672  
                
  21594093.070   115635403.475                    89938672.793    21594095.699  
  21594092.504  
  21892490.734   115045818.842    21892496.742    89646129.1894                 
                
  23906036.789   125627074.427    23906044.879    97891268.1464   23906045.105  
                
  21200480.945   111409323.638    21200489.863    86812513.6644   21200490.020  
                
  21406438.414   114228873.275                    88844675.937    21406441.527  
  21406436.379  
  22066925.875   117629163.726                                                  
  22066924.887  
  21153422.125   112997795.807                    87887164.634    21153426.418  
  21153421.711  
  19195850.656   102612840.111                    79809988.029    19195855.699  
  19195850.062  
 21  8 14 19  2 10.0000000  0 14G 4G 9G14G 7G 5G 8R 8G20G27G30R 2R10
                                R12R 1
  24080472.734   126543753.874    24080481.336    98605572.8774   24080481.137  
                
  21306352.609   111965674.210    21306360.793    87246029.8664   21306360.695  
                
  23489733.141   123439385.206    23489739.789    96186576.2054   23489740.082  
                
  20614717.484   108331120.650    20614723.660    84413909.1934   20614723.480  
                
  23594353.531   123989164.733    23594360.496    96614973.4124   23594360.582  
                
  23586594.141   123948389.043    23586603.078    96583209.5414   23586603.523  
                
  21600939.922   115672067.801                    89967189.479    21600942.523  
  21600939.336  
  21891743.133   115041890.202    21891749.137    89643067.9104                 
                
  23905551.992   125624526.839    23905560.172    97889283.0094   23905560.387  
                
  21197557.320   111393959.914    21197566.359    86800541.9414   21197566.477  
                
  21399762.789   114193250.829                    88816969.599    21399765.879  
  21399760.746  
  22073824.008   117665934.641                                                  
  22073823.043  
  21147671.188   112967075.445                    87863271.016    21147675.469  
  21147670.754  
  19197365.820   102620939.483                    79816287.546    19197370.855  
  19197365.230  
 21  8 14 19  2 20.0000000  0 14G 4G 9G14G 7G 5G 8R 8G20G27G30R 2R10
                                R12R 1
  24086532.984   126575600.645    24086541.617    98630388.5224   24086541.395  
                
  21310274.922   111986286.103    21310283.098    87262091.0774   21310283.012  
                
  23482786.234   123402878.808    23482792.773    96158129.6564   23482793.109  
                
  20615515.930   108335316.521    20615522.129    84417178.7014   20615521.930  
                
  23589794.656   123965207.723    23589801.625    96596305.6044   23589801.695  
                
  23583320.352   123931185.243    23583329.242    96569803.9894   23583329.703  
                
  21607794.789   115708775.214                    89995739.673    21607797.414  
  21607794.160  
  21891008.336   115038028.826    21891014.352    89640059.0374                 
                
  23905079.680   125622044.902    23905087.977    97887349.0264   23905088.125  
                
  21194639.797   111378628.237    21194648.934    86788595.1794   21194649.004  
                
  21393093.445   114157661.903                    88789289.343    21393096.504  
  21393091.398  
  22080725.156   117702721.692                                                  
  22080724.184  
  21141928.898   112936401.257                    87839413.321    21141933.184  
  21141928.441  
  19198896.039   102629119.383                    79822649.681    19198901.082  
  19198895.453  
 21  8 14 19  2 30.0000000  0 14G 4G 9G14G 7G 5G 8R 8G20G27G30R 2R10
                                R12R 1
  24092596.648   126607465.321    24092605.258    98655218.1284   24092605.043  
                
  21314204.945   112006938.522    21314213.105    87278183.8704   21314213.016  
                
  23475842.852   123366390.570    23475849.230    96129697.2514   23475849.586  
                
  20616320.109   108339542.487    20616326.328    84420471.6704   20616326.113  
                
  23585245.258   123941300.540    23585252.215    96577676.6444   23585252.289  
                
  23580055.914   123914030.626    23580064.711    96556436.7534   23580065.195  
                
  21614657.641   115745525.496                    90024323.224    21614660.281  
  21614657.016  
  21890286.352   115034234.788    21890292.379    89637102.6444                 
                
  23904619.883   125619628.675    23904628.234    97885466.2704   23904628.340  
                
  21191728.367   111363328.587    21191737.547    86776673.3754   21191737.602  
                
  21386430.430   114122106.798                    88761635.362    21386433.480  
  21386428.410  
  22087629.391   117739525.114                                                  
  22087628.438  
  21136195.266   112905773.305                    87815591.616    21136199.543  
  21136194.777  
  19200441.352   102637379.972                    79829074.579    19200446.410  
  19200440.750  
