     2.11           OBSERVATION DATA    M (MIXED)           RINEX VERSION / TYPE
EFT-CORS.RU                             20210817 144846 UTC PGM / RUN BY / DATE 
MDNG                                                        MARKER NAME         
                                                            MARKER NUMBER       
MDNG                EFT-CORS.RU                             OBSERVER / AGENCY   
0                   TRIMBLE BD970       2.0                 REC # / TYPE / VERS 
0                   UNKNOWN EXT NONE                        ANT # / TYPE        
  3463911.2830  3030468.2400  4402179.3760                  APPROX POSITION XYZ 
        0.0000        0.0000        0.0000                  ANTENNA: DELTA H/E/N
     1     1                                                WAVELENGTH FACT L1/2
     6    C1    L1    P2    L2    C2    P1                  # / TYPES OF OBSERV 
    10.000                                                  INTERVAL            
  2021     8    16    11    30    0.0000000     GPS         TIME OF FIRST OBS   
  2021     8    16    12    30    0.0000000     GPS         TIME OF LAST OBS    
     0                                                      RCV CLOCK OFFS APPL 
                                                            END OF HEADER       
 21  8 16 11 30  0.0000000  0 15R 6R21R22G32G31G 1R23G27G22G 8G21R 8
                                G10G 3R 7
  22703580.023   121150670.701                                                  
  22703577.727  
  23024700.445   123209789.757                    95829818.349    23024705.605  
  23024698.133  
  19661188.727   104952773.924                    81629958.671    19661191.555  
  19661186.977  
  20788162.617   109242566.933    20788170.992    85124134.7524   20788171.477  
                
  24462644.305   128552058.546    24462654.645   100170483.2934   24462654.777  
                
  21943371.469   115313228.229    21943381.785    89854504.9104   21943381.414  
                
  20808663.922   111312338.217                                                  
  20808662.582  
  23616676.719   124106439.477    23616686.609    96706365.1274   23616686.902  
                
  22608125.164   118806524.822    22608129.965    92576542.3294                 
                
  22182120.727   116567817.405    22182130.820    90832119.6334   22182131.332  
                
  21467249.812   112811184.823    21467255.852    87904855.2204                 
                
  20237946.500   108373309.692                    84290364.738    20237949.238  
  20237945.594  
  22613766.945   118836175.257    22613776.594    92599672.7774   22613776.082  
                
  24192360.500   127131713.895    24192370.906    99063722.2444   24192371.375  
                
  19576296.242   104793492.460                    81506048.972    19576300.758  
  19576294.578  
 21  8 16 11 30 10.0000000  0 15R 6R21R22G32G31G 1R23G27G22G 8G21R 8
                                G10G 3R 7
  22710487.883   121187532.317                                                  
  22710485.605  
  23032838.086   123253335.859                    95863687.499    23032843.281  
  23032835.820  
  19664940.656   104972801.986                    81645536.044    19664943.457  
  19664938.895  
  20789829.570   109251326.872    20789837.961    85130960.6874   20789838.438  
                
  24456136.172   128517858.360    24456146.445   100143833.8264   24456146.637  
                
  21937939.719   115284684.213    21937950.020    89832262.8234   21937949.641  
                
  20802890.062   111281451.971                                                  
  20802888.707  
  23623465.141   124142113.145    23623475.102    96734162.7664   23623475.430  
                
  22603715.953   118783354.393    22603720.766    92558487.4644                 
                
  22186610.820   116591412.988    22186620.945    90850505.7854   22186621.453  
                
  21464382.211   112796115.499    21464388.266    87893112.8984                 
                
  20234259.523   108353566.086                    84275008.605    20234262.262  
  20234258.621  
  22618397.578   118860509.370    22618407.246    92618634.4014   22618406.734  
                
  24186706.461   127102001.953    24186716.727    99040570.0404   24186717.273  
                
  19579065.203   104808314.960                    81517577.579    19579069.730  
  19579063.535  
 21  8 16 11 30 20.0000000  0 15R 6R21R22G32G31G 1R23G27G22G 8G21R 8
                                G10G 3R 7
  22717396.789   121224399.327                                                  
  22717394.492  
  23040980.125   123296905.978                    95897575.334    23040985.496  
  23040977.953  
  19668707.117   104992907.634                    81661173.763    19668709.902  
  19668705.371  
  20791507.375   109260143.814    20791515.785    85137831.0294   20791516.246  
                
  24449628.602   128483660.939    24449638.730   100117186.5414   24449639.020  
                
  21932513.211   115256167.724    21932523.477    89810042.1974   21932523.113  
                
  20797126.359   111250620.106                                                  
  20797124.977  
  23630256.352   124177801.520    23630266.438    96761971.8574   23630266.754  
                
  22599310.508   118760203.663    22599315.328    92540447.9554                 
                
  22191109.609   116615054.256    22191119.758    90868927.5474   22191120.258  
                
  21461520.836   112781078.871    21461526.891    87881396.0554                 
                
  20230582.664   108333876.664                    84259694.612    20230585.402  
  20230581.773  
  22623031.141   118884858.860    22623040.809    92637608.0184   22623040.285  
                
  24181054.445   127072301.410    24181064.965    99017426.8334   24181065.516  
                
  19581843.727   104823188.636                    81529145.994    19581848.270  
  19581842.051  
 21  8 16 11 30 30.0000000  0 15R 6R21R22G32G31G 1R23G27G22G 8G21R 8
                                G10G 3R 7
  22724306.555   121261270.923                                                  
  22724304.273  
  23049126.531   123340499.740                    95931481.535    23049132.098  
  23049124.457  
  19672488.070   105013090.642                    81676871.654    19672490.844  
  19672486.312  
  20793195.977   109269017.508    20793204.426    85144745.6004   20793204.855  
                
  24443121.516   128449466.258    24443131.633   100090541.3784   24443131.906  
                
  21927091.930   115227678.701    21927102.156    89787842.9574   21927101.809  
                
  20791372.828   111219842.653                                                  
  20791371.426  
  23637050.258   124213504.319    23637060.500    96789792.1874   23637060.797  
                
  22594908.773   118737072.542    22594913.605    92522423.7134                 
                
  22195617.109   116638741.249    22195627.281    90887384.9344   22195627.777  
                
  21458665.672   112766074.885    21458671.715    87869704.6334                 
                
  20226915.898   108314241.337                    84244422.699    20226918.633  
  20226915.020  
  22627667.586   118909223.528    22627677.238    92656593.4664   22627676.734  
                
  24175404.672   127042612.216    24175415.156    98994292.3704   24175415.762  
                
  19584631.820   104838113.538                    81540754.254    19584636.379  
  19584630.133  
 21  8 16 11 30 40.0000000  0 15R 6R21R22G32G31G 1R23G27G22G 8G21R 8
                                G10G 3R 7
  22731217.242   121298147.733                                                  
  22731214.941  
  23057277.273   123384117.271                    95965406.217    23057283.125  
  23057275.387  
  19676283.523   105033350.998                    81692629.691    19676286.297  
  19676281.754  
  20794895.406   109277948.118    20794903.902    85151704.5174   20794904.301  
                
  24436615.008   128415274.628    24436625.141   100063898.5984   24436625.422  
                
  21921675.922   115199217.418    21921686.137    89765665.3344   21921685.801  
                
  20785629.547   111189119.997                                                  
  20785628.133  
  23643846.984   124249221.662    23643857.320    96817623.8534   23643857.598  
                
  22590510.797   118713961.157    22590515.641    92504414.8534                 
                
  22200133.297   116662473.956    22200143.453    90905877.9384   22200143.938  
                
  21455816.750   112751103.716    21455822.770    87858038.7894                 
                
  20223259.297   108294660.414                    84229193.094    20223262.016  
  20223258.402  
  22632306.961   118933603.596    22632316.578    92675590.9014   22632316.109  
                
  24169757.195   127012934.501    24169767.758    98971166.9484   24169768.344  
                
  19587429.430   104853089.348                    81552402.099    19587433.992  
  19587427.742  
 21  8 16 11 30 50.0000000  0 15R 6R21R22G32G31G 1R23G27G22G 8G21R 8
                                G10G 3R 7
  22738128.773   121335029.014                                                  
  22738126.457  
  23065432.500   123427757.946                    95999348.911    23065438.477  
  23065430.637  
  19680093.367   105053688.233                    81708447.534    19680096.129  
  19680091.594  
  20796605.539   109286934.981    20796614.074    85158707.2704   20796614.445  
                
  24430109.055   128381085.580    24430119.117   100037257.8384   24430119.391  
                
  21916265.078   115170783.330    21916275.281    89743508.9224   21916274.949  
                
  20779896.383   111158451.472                                                  
  20779894.949  
  23650646.375   124284952.794    23650656.770    96845466.2674   23650657.043  
                
  22586116.477   118690868.933    22586121.332    92486420.9234                 
                
  22204658.000   116686251.372    22204668.141    90924405.7904   22204668.621  
                
  21452973.969   112736164.834    21452979.965    87846398.1034                 
                
  20219612.734   108275133.253                    84214005.304    20219615.438  
  20219611.828  
  22636949.133   118957998.354    22636958.754    92694599.7974   22636958.270  
                
  24164111.836   126983267.708    24164122.254    98948049.9654   24164122.883  
                
  19590236.492   104868115.798                    81564089.330    19590241.066  
  19590234.816  
 21  8 16 11 31  0.0000000  0 15R 6R21R22G32G31G 1R23G27G22G 8G21R 8
                                G10G 3R 7
  22745041.266   121371915.007                                                  
  22745038.832  
  23073592.141   123471421.954                    96033309.766    23073598.191  
  23073590.266  
  19683917.664   105074102.561                    81724325.351    19683920.410  
  19683915.867  
  20798326.461   109295978.484    20798335.023    85165754.1554   20798335.383  
                
  24423603.578   128346899.629    24423613.707   100010619.4944   24423613.980  
                
  21910859.531   115142376.967    21910869.703    89721374.0994   21910869.406  
                
  20774173.484   111127837.808                                                  
  20774172.059  
  23657448.461   124320698.077    23657458.914    96873319.7084   23657459.211  
                
  22581725.883   118667796.287    22581730.770    92468442.2474                 
                
  22209191.328   116710074.090    22209201.461    90942968.9394   22209201.926  
                
  21450137.438   112721258.747    21450143.430    87834782.9754                 
                
  20215976.266   108255660.121                    84198859.544    20215978.957  
  20215975.348  
  22641594.195   118982408.263    22641603.812    92713620.4944   22641603.324  
                
  24158468.664   126953612.333    24158479.059    98924941.8854   24158479.691  
                
  19593053.070   104883193.186                    81575816.189    19593057.656  
  19593051.422  
 21  8 16 11 31 10.0000000  0 15R 6R21R22G32G31G 1R23G27G22G 8G21R 8
                                G10G 3R 7
  22751954.375   121408805.438                                                  
  22751951.016  
  23081756.148   123515109.112                    96067288.618    23081762.211  
  23081754.219  
  19687756.438   105094594.148                    81740263.226    19687759.164  
  19687754.629  
  20800058.133   109305078.496    20800066.711    85172845.0724   20800067.070  
                
  24417098.711   128312716.798    24417108.922    99983983.5124   24417109.188  
                
  21905459.250   115113998.352    21905469.414    89699260.8924   21905469.141  
                
  20768460.859   111097279.123                                                  
  20768459.449  
  23664253.297   124356457.294    23664263.715    96901184.0114   23664264.027  
                
  22577339.008   118644743.186    22577343.867    92450478.7894                 
                
  22213733.258   116733942.055    22213743.383    90961567.3424   22213743.832  
                
  21447307.133   112706385.422    21447313.109    87823193.3694                 
                
  20212349.922   108236241.253                    84183755.982    20212352.621  
  20212348.996  
  22646242.109   119006833.180    22646251.711    92732652.8924   22646251.234  
                
  24152827.461   126923968.223    24152837.914    98901842.6404   24152838.586  
                
  19595879.094   104898321.087                    81587582.322    19595883.691  
  19595877.473  
 21  8 16 11 31 20.0000000  0 15R 6R21R22G32G31G 1R23G27G22G 8G21R 8
                                G10G 3R 7
  22758868.375   121445700.233                                                  
  22758865.195  
  23089924.453   123558819.227                    96101285.323    23089930.523  
  23089922.539  
  19691609.547   105115162.361                    81756260.717    19691612.281  
  19691607.750  
  20801800.508   109314234.754    20801809.094    85179979.8254   20801809.465  
                
  24410594.398   128278536.942    24410604.680    99957349.8264   24410604.949  
                
  21900064.227   115085647.330    21900074.430    89677169.2054   21900074.133  
                
  20762758.469   111066775.163                                                  
  20762757.043  
  23671060.688   124392230.185    23671071.125    96929058.9604   23671071.426  
                
  22572955.820   118621709.490    22572960.645    92432530.4694                 
                
  22218283.719   116757854.861    22218293.824    90980200.6784   22218294.309  
                
  21444483.031   112691544.689    21444489.004    87811629.1694                 
                
  20208733.617   108216876.146                    84168694.253    20208736.336  
  20208732.680  
  22650892.844   119031272.946    22650902.438    92751696.8574   22650901.957  
                
  24147188.578   126894335.289    24147199.008    98878752.0644   24147199.652  
                
  19598714.531   104913499.385                    81599387.680    19598719.137  
  19598712.934  
 21  8 16 11 31 30.0000000  0 15R 6R21R22G32G31G 1R23G27G22G 8G21R 8
                                G10G 3R 7
  22765783.336   121482599.490                                                  
  22765780.109  
  23098097.188   123602552.222                    96135299.825    23098103.133  
  23098095.176  
  19695477.047   105135807.325                    81772317.918    19695479.762  
  19695475.258  
  20803553.609   109323447.367    20803562.203    85187158.4874   20803562.582  
                
  24404090.812   128244360.618    24404101.141    99930719.0294   24404101.414  
                
  21894674.492   115057324.147    21894684.707    89655099.2064   21894684.391  
                
  20757066.391   111036326.326                                                  
  20757064.941  
  23677870.664   124428016.739    23677881.137    96956944.5704   23677881.418  
                
  22568576.367   118598695.334    22568581.152    92414597.3724                 
                
  22222842.703   116781812.482    22222852.777    90998868.9464   22222853.301  
                
  21441665.164   112676736.727    21441671.125    87800090.5004                 
                
  20205127.414   108197565.149                    84153674.602    20205130.137  
  20205126.461  
  22655546.430   119055727.612    22655556.043    92770752.4364   22655555.555  
                
  24141551.977   126864713.689    24141562.195    98855670.2894   24141562.805  
                
  19601559.352   104928727.882                    81611232.061    19601563.934  
  19601557.793  
 21  8 16 11 31 40.0000000  0 15R 6R21R22G32G31G 1R23G27G22G 8G21R 8
                                G10G 3R 7
  22772699.266   121519503.172                                                  
  22772696.168  
  23106274.195   123646308.055                    96169332.102    23106280.000  
  23106272.062  
  19699358.984   105156529.306                    81788435.014    19699361.676  
  19699357.188  
  20805317.445   109332716.373    20805326.059    85194381.0964   20805326.426  
                
  24397587.875   128210187.690    24397598.246    99904090.8414   24397598.508  
                
  21889290.086   115029028.981    21889300.289    89633051.0244   21889299.992  
                
  20751384.664   111005932.939                                                  
  20751383.211  
  23684683.195   124463817.001    23684693.750    96984840.8474   23684694.016  
                
  22564200.656   118575700.867    22564205.418    92396679.6114                 
                
  22227410.227   116805814.925    22227420.277    91017572.1364   22227420.828  
                
  21438853.578   112661961.737    21438859.516    87788577.5204                 
                
  20201531.359   108178308.443                    84138697.163    20201534.086  
  20201530.391  
  22660202.859   119080197.293    22660212.523    92789819.7174   22660212.027  
                
  24135917.312   126835103.469    24135927.551    98832597.4144   24135928.152  
                
  19604413.617   104944006.948                    81623115.779    19604418.199  
  19604412.066  
 21  8 16 11 31 50.0000000  0 15R 6R21R22G32G31G 1R23G27G22G 8G21R 8
                                G10G 3R 7
  22779615.844   121556411.054                                                  
  22779612.867  
  23114455.406   123690086.694                    96203382.114    23114461.109  
  23114453.207  
  19703255.281   105177328.011                    81804611.766    19703257.957  
  19703253.496  
  20807092.008   109342041.740    20807100.645    85201647.6204   20807101.004  
                
  24391085.609   128176018.358    24391096.055    99877465.4114   24391096.316  
                
  21883911.047   115000761.939    21883921.238    89611024.7604   21883920.969  
                
  20745713.336   110975595.089                                                  
  20745711.895  
  23691498.320   124499630.826    23691508.918    97012747.6964   23691509.160  
                
  22559828.688   118552726.084    22559833.426    92378777.1884                 
                
  22231986.281   116829862.191    22231996.324    91036310.2564   22231996.863  
                
  21436048.289   112647219.820    21436054.211    87777090.3144                 
                
  20197945.414   108159105.904                    84123761.856    20197948.129  
  20197944.457  
  22664862.156   119104681.992    22664871.848    92808898.6754   22664871.332  
                
  24130284.867   126805504.727    24130295.117    98809533.4784   24130295.684  
                
  19607277.250   104959336.188                    81635038.525    19607281.828  
  19607275.711  
 21  8 16 11 32  0.0000000  0 15R 6R21R22G32G31G 1R23G27G22G 8G21R 8
                                G10G 3R 7
  22786533.227   121593323.150                                                  
  22786530.316  
  23122640.820   123733887.933                    96237449.697    23122646.426  
  23122638.504  
  19707165.977   105198203.571                    81820848.305    19707168.660  
  19707164.199  
  20808877.266   109351423.351    20808885.930    85208957.9664   20808886.285  
                
  24384584.039   128141852.797    24384594.520    99850842.9414   24384594.797  
                
  21878537.352   114972523.020    21878547.535    89589020.4204   21878547.250  
                
  20740052.383   110945312.849                                                  
  20740050.953  
  23698316.031   124535458.073    23698326.645    97040664.9864   23698326.875  
                
  22555460.438   118529770.870    22555465.121    92360890.0144                 
                
  22236570.836   116853954.177    22236580.863    91055083.2214   22236581.402  
                
  21433249.273   112632510.978    21433255.172    87765628.8794                 
                
  20194369.586   108139957.557                    84108868.706    20194372.285  
  20194368.617  
  22669524.281   119129181.570    22669533.980    92827989.2544   22669533.473  
                
  24124654.625   126775917.369    24124664.750    98786478.3804   24124665.293  
                
  19610150.289   104974715.817                    81647000.455    19610154.879  
  19610148.746  
 21  8 16 11 32 10.0000000  0 15R 6R21R22G32G31G 1R23G27G22G 8G21R 8
                                G10G 3R 7
  22793451.422   121630239.601                                                  
  22793448.586  
  23130830.352   123777711.973                    96271535.029    23130836.031  
  23130828.117  
  19711091.109   105219156.097                    81837144.705    19711093.785  
  19711089.340  
  20810673.273   109360861.434    20810681.957    85216312.3174   20810682.289  
                
  24378083.281   128107691.382    24378093.770    99824223.7254   24378094.086  
                
  21873169.086   114944312.580    21873179.242    89567038.2684   21873178.973  
                
  20734401.922   110915086.656                                                  
  20734400.492  
  23705136.359   124571298.883    23705146.977    97068592.8624   23705147.176  
                
  22551095.992   118506835.559    22551100.625    92343018.3554                 
                
  22241163.938   116878091.040    22241173.938    91073891.1524   22241174.477  
                
  21430456.625   112617835.481    21430462.492    87754193.4254                 
                
  20190803.906   108120863.555                    84094017.828    20190806.602  
  20190802.922  
  22674189.281   119153696.298    22674198.996    92847091.6294   22674198.488  
                
  24119026.516   126746341.704    24119036.750    98763432.4484   24119037.254  
                
  19613032.773   104990145.947                    81659001.664    19613037.363  
  19613031.223  
 21  8 16 11 32 20.0000000  0 15R 6R21R22G32G31G 1R23G27G22G 8G21R 8
                                G10G 3R 7
  22800370.359   121667160.428                                                  
  22800367.613  
  23139024.133   123821558.478                    96305637.827    23139029.844  
  23139021.953  
  19715030.547   105240185.056                    81853500.543    19715033.188  
  19715028.789  
  20812479.977   109370355.716    20812488.672    85223710.4614   20812489.000  
                
  24371583.250   128073534.006    24371593.770    99797607.6504   24371594.113  
                
  21867806.203   114916130.514    21867816.359    89545078.2234   21867816.090  
                
  20728761.914   110884916.431                                                  
  20728760.492  
  23711959.273   124607152.924    23711969.797    97096531.0624   23711969.977  
                
  22546735.297   118483920.020    22546739.906    92325162.0924                 
                
  22245765.508   116902272.389    22245775.480    91092733.7544   22245776.035  
                
  21427670.273   112603193.132    21427676.109    87742783.8024                 
                
  20187248.367   108101823.827                    84079209.147    20187251.051  
  20187247.363  
  22678857.125   119178225.957    22678866.871    92866205.6314   22678866.352  
                
  24113400.531   126716777.525    24113410.738    98740395.4224   24113411.301  
                
  19615924.547   105005625.811                    81671041.558    19615929.133  
  19615922.984  
 21  8 16 11 32 30.0000000  0 15R 6R21R22G32G31G 1R23G27G22G 8G21R 8
                                G10G 3R 7
  22807290.008   121704084.929                                                  
  22807287.371  
  23147222.102   123865427.051                    96339757.796    23147227.773  
  23147219.910  
  19718984.328   105261290.489                    81869915.889    19718986.992  
  19718982.578  
  20814297.320   109379905.929    20814306.016    85231152.1834   20814306.348  
                
  24365084.023   128039380.539    24365094.535    99770994.6104   24365094.891  
                
  21862448.688   114887976.660    21862458.840    89523140.1644   21862458.570  
                
  20723132.359   110854802.141                                                  
  20723130.945  
  23718784.594   124643019.936    23718795.047    97124479.3654   23718795.230  
                
  22542378.320   118461023.990    22542382.926    92307321.0374                 
                
  22250375.477   116926497.909    22250385.441    91111610.7674   22250385.992  
                
  21424890.211   112588583.821    21424896.016    87731399.9244                 
                
  20183702.914   108082838.085                    84064442.465    20183705.598  
  20183701.906  
  22683527.758   119202770.297    22683537.508    92885331.0734   22683536.996  
                
  24107776.766   126687224.674    24107787.055    98717367.2614   24107787.605  
                
  19618825.641   105021155.670                    81683120.338    19618830.246  
  19618824.059  
 21  8 16 11 32 40.0000000  0 15R 6R21R22G32G31G 1R23G27G22G 8G21R 8
                                G10G 3R 7
  22814210.484   121741013.448                                                  
  22814207.863  
  23155424.219   123909317.909                    96373895.078    23155429.840  
  23155422.012  
  19722952.453   105282472.567                    81886390.832    19722955.121  
  19722950.715  
  20816125.359   109389512.342    20816134.055    85238637.7004   20816134.391  
                
  24358585.703   128005231.394    24358596.156    99744384.9344   24358596.512  
                
  21857096.633   114859851.451    21857106.785    89501224.4214   21857106.527  
                
  20717513.352   110824744.246                                                  
  20717511.953  
  23725612.406   124678900.088    23725622.816    97152437.8984   23725623.000  
                
  22538025.109   118438147.724    22538029.707    92289495.3864                 
                
  22254993.883   116950767.698    22255003.855    91130522.2794   22255004.406  
                
  21422116.516   112574007.957    21422122.293    87720042.0974                 
                
  20180167.609   108063906.714                    84049718.072    20180170.289  
  20180166.602  
  22688201.258   119227329.606    22688210.992    92904468.1904   22688210.484  
                
  24102155.250   126657683.470    24102165.387    98694348.1214   24102166.000  
                
  19621736.039   105036735.252                    81695237.788    19621740.656  
  19621734.449  
 21  8 16 11 32 50.0000000  0 15R 6R21R22G32G31G 1R23G27G22G 8G21R 8
                                G10G 3R 7
  22821131.641   121777945.723                                                  
  22821128.988  
  23163630.500   123953230.895                    96408049.570    23163636.078  
  23163628.238  
  19726934.930   105303731.210                    81902925.317    19726937.547  
  19726933.191  
  20817964.062   109399174.840    20817972.766    85246166.9134   20817973.102  
                
  24352088.031   127971086.599    24352098.602    99717778.6664   24352098.949  
                
  21851750.023   114831754.884    21851760.191    89479330.9974   21851759.922  
                
  20711904.914   110794742.886                                                  
  20711903.535  
  23732442.656   124714793.243    23732453.059    97180406.5644   23732453.258  
                
  22533675.656   118415291.290    22533680.254    92271685.1764                 
                
  22259620.734   116975081.969    22259630.711    91149468.4514   22259631.254  
                
  21419349.156   112559465.448    21419354.922    87708710.2784                 
                
  20176642.453   108045029.700                    84035035.960    20176645.121  
  20176641.426  
  22692877.586   119251903.808    22692887.309    92923616.9054   22692886.824  
                
  24096535.828   126628153.825    24096546.055    98671338.0424   24096546.637  
                
  19624655.758   105052364.783                    81707394.085    19624660.379  
  19624654.168  
 21  8 16 11 33  0.0000000  0 15R 6R21R22G32G31G 1R23G27G22G 8G21R 8
                                G10G 3R 7
  22828053.578   121814882.055                                                  
  22828050.918  
  23171840.805   123997165.987                    96442221.277    23171846.438  
  23171838.645  
  19730931.695   105325066.181                    81919519.192    19730934.285  
  19730929.969  
  20819813.453   109408893.434    20819822.168    85253739.8474   20819822.504  
                
  24345591.312   127936946.381    24345601.934    99691175.9474   24345602.281  
                
  21846408.898   114803687.103    21846419.094    89457460.0054   21846418.801  
                
  20706307.062   110764798.148                                                  
  20706305.684  
  23739275.406   124750699.320    23739285.793    97208385.3054   23739285.984  
                
  22529330.016   118392454.792    22529334.637    92253890.5174                 
                
  22264256.000   116999440.330    22264265.992    91168448.9824   22264266.527  
                
  21416588.195   112544956.470    21416593.961    87697404.5824                 
                
  20173127.438   108026206.959                    84020396.062    20173130.105  
  20173126.402  
  22697556.758   119276492.946    22697566.480    92942777.2584   22697566.012  
                
  24090918.641   126598635.866    24090928.887    98648337.0774   24090929.523  
                
  19627584.805   105068044.126                    81719589.133    19627589.418  
  19627583.219  
 21  8 16 11 33 10.0000000  0 15R 6R21R22G32G31G 1R23G27G22G 8G21R 8
                                G10G 3R 7
  22834976.125   121851821.749                                                  
  22834973.434  
  23180055.141   124041122.655                    96476409.740    23180060.836  
  23180053.066  
  19734942.750   105346477.430                    81936172.365    19734945.344  
  19734941.012  
  20821673.453   109418667.779    20821682.176    85261356.2214   20821682.508  
                
  24339095.500   127902810.577    24339106.113    99664576.6624   24339106.434  
                
  21841073.211   114775647.905    21841083.430    89435611.2864   21841083.121  
                
  20700719.781   110734909.998                                                  
  20700718.375  
  23746110.586   124786617.918    23746120.918    97236373.7994   23746121.117  
                
  22524988.086   118369637.846    22524992.738    92236111.0984                 
                
  22268899.586   117023842.464    22268909.613    91187463.6174   22268910.117  
                
  21413833.570   112530480.804    21413839.355    87686124.8444                 
                
  20169622.523   108007438.374                    84005798.299    20169625.207  
  20169621.457  
  22702238.703   119301096.675    22702248.441    92961948.9834   22702247.961  
                
  24085303.773   126569129.342    24085313.902    98625344.9564   24085314.539  
                
  19630523.062   105083772.848                    81731822.578    19630527.680  
  19630521.480  
 21  8 16 11 33 20.0000000  0 15R 6R21R22G32G31G 1R23G27G22G 8G21R 8
                                G10G 3R 7
  22841899.227   121888764.638                                                  
  22841896.555  
  23188273.531   124085100.680                    96510614.826    23188279.242  
  23188271.422  
  19738968.000   105367964.505                    81952884.526    19738970.598  
  19738966.266  
  20823544.008   109428497.642    20823552.738    85269015.8504   20823553.070  
                
  24332600.531   127868679.139    24332611.105    99637980.7954   24332611.395  
                
  21835742.930   114747637.181    21835753.152    89413784.7564   21835752.828  
                
  20695143.047   110705078.295                                                  
  20695141.633  
  23752948.000   124822548.774    23752958.371    97264371.8504   23752958.578  
                
  22520649.852   118346840.294    22520654.559    92218346.7794                 
                
  22273551.477   117048288.243    22273561.508    91206512.2634   22273562.000  
                
  21411085.242   112516038.300    21411091.055    87674870.9534                 
                
  20166127.688   107988723.771                    83991242.488    20166130.371  
  20166126.609  
  22706923.398   119325714.797    22706933.137    92981131.9284   22706932.660  
                
  24079691.031   126539634.063    24079701.156    98602361.6584   24079701.770  
                
  19633470.453   105099550.529                    81744094.106    19633475.066  
  19633468.883  
 21  8 16 11 33 30.0000000  0 15R 6R21R22G32G31G 1R23G27G22G 8G21R 8
                                G10G 3R 7
  22848823.102   121925711.303                                                  
  22848820.469  
  23196495.797   124129100.366                    96544836.770    23196501.676  
  23196493.824  
  19743007.539   105389527.749                    81969655.928    19743010.125  
  19743005.809  
  20825425.219   109438383.457    20825433.961    85276719.0874   20825434.285  
                
  24326106.586   127834552.739    24326117.051    99611388.8354   24326117.324  
                
  21830418.180   114719655.502    21830428.391    89391980.8544   21830428.066  
                
  20689576.992   110675303.721                                                  
  20689575.570  
  23759787.867   124858492.267    23759798.227    97292379.7354   23759798.449  
                
  22516315.414   118324062.737    22516320.160    92200598.0404                 
                
  22278211.742   117072778.007    22278221.742    91225595.1784   22278222.250  
                
  21408343.336   112501629.487    21408349.180    87663643.3074                 
                
  20162643.031   107970063.630                    83976729.063    20162645.715  
  20162641.953  
  22711610.922   119350347.807    22711620.680    93000326.4674   22711620.199  
                
  24074080.477   126510150.478    24074090.566    98579387.4624   24074091.180  
                
  19636427.148   105115377.936                    81756404.313    19636431.770  
  19636425.578  
 21  8 16 11 33 40.0000000  0 15R 6R21R22G32G31G 1R23G27G22G 8G21R 8
                                G10G 3R 7
  22855747.594   121962661.254                                                  
  22855744.988  
  23204722.141   124173121.529                    96579075.395    23204728.086  
  23204720.211  
  19747061.352   105411167.210                    81986486.611    19747063.961  
  19747059.633  
  20827317.016   109448324.938    20827325.758    85284465.6924   20827326.090  
                
  24319613.547   127800431.145    24319623.895    99584800.6194   24319624.164  
                
  21825098.922   114691702.706    21825109.109    89370199.4674   21825108.781  
                
  20684021.609   110645586.202                                                  
  20684020.172  
  23766630.031   124894448.029    23766640.422    97320397.1874   23766640.645  
                
  22511984.742   118301304.919    22511989.488    92182864.6984                 
                
  22282880.289   117097311.341    22282890.281    91244712.0584   22282890.797  
                
  21405607.812   112487254.234    21405613.680    87652441.8174                 
                
  20159168.492   107951457.664                    83962257.758    20159171.164  
  20159167.418  
  22716301.219   119374995.408    22716311.008    93019532.3824   22716310.496  
                
  24068472.219   126480678.463    24068482.254    98556422.2754   24068482.820  
                
  19639392.992   105131254.344                    81768752.621    19639397.594  
  19639391.410  
 21  8 16 11 33 50.0000000  0 15R 6R21R22G32G31G 1R23G27G22G 8G21R 8
                                G10G 3R 7
  22862672.672   121999614.487                                                  
  22862670.086  
  23212952.484   124217163.836                    96613330.501    23212958.453  
  23212950.602  
  19751129.359   105432882.541                    82003376.313    19751131.984  
  19751127.652  
  20829219.398   109458321.993    20829228.148    85292255.6134   20829228.469  
                
  24313121.445   127766314.469    24313131.668    99558216.2304   24313131.957  
                
  21819785.188   114663778.896    21819795.375    89348440.6574   21819795.031  
                
  20678476.914   110615925.886                                                  
  20678475.473  
  23773474.469   124930415.985    23773484.949    97348424.1334   23773485.156  
                
  22507657.828   118278566.799    22507662.555    92165146.6904                 
                
  22287557.117   117121888.167    22287567.109    91263862.8094   22287567.621  
                
  21402878.680   112472912.536    21402884.574    87641266.4604                 
                
  20155704.070   107932905.840                    83947828.579    20155706.734  
  20155702.996  
  22720994.305   119399657.592    22721004.102    93038749.6654   22721003.574  
                
  24062866.164   126451218.006    24062876.141    98533466.0694   24062876.656  
                
  19642368.016   105147179.873                    81781139.149    19642372.594  
  19642366.430  
 21  8 16 11 34  0.0000000  0 15R 6R21R22G32G31G 1R23G27G22G 8G21R 8
                                G10G 3R 7
  22869598.336   122036571.131                                                  
  22869595.742  
  23221186.875   124261227.519                    96647602.199    23221192.832  
  23221184.965  
  19755211.586   105454673.739                    82020325.018    19755214.238  
  19755209.891  
  20831132.359   109468374.717    20831141.109    85300088.9064   20831141.422  
                
  24306630.258   127732202.983    24306640.410    99531635.8864   24306640.727  
                
  21814477.008   114635884.264    21814487.211    89326704.5914   21814486.836  
                
  20672942.969   110586322.993                                                  
  20672941.523  
  23780321.242   124966396.115    23780331.754    97376460.5684   23780331.953  
                
  22503334.703   118255848.597    22503339.402    92147444.1974                 
                
  22292242.234   117146508.618    22292252.219    91283047.5604   22292252.750  
                
  21400155.961   112458604.588    21400161.875    87630117.4154                 
                
  20152249.812   107914408.452                    83933441.718    20152252.457  
  20152248.742  
  22725690.172   119424334.450    22725700.000    93057978.3704   22725699.461  
                
  24057262.219   126421769.209    24057272.219    98510518.9644   24057272.711  
                
  19645352.203   105163154.485                    81793563.846    19645356.777  
  19645350.621  
 21  8 16 11 34 10.0000000  0 15R 6R21R22G32G31G 1R23G27G22G 8G21R 8
                                G10G 3R 7
  22876524.656   122073531.137                                                  
  22876522.020  
  23229425.234   124305312.423                    96681890.418    23229431.211  
  23229423.305  
  19759308.086   105476541.113                    82037332.963    19759310.727  
  19759306.406  
  20833055.930   109478483.148    20833064.672    85307965.6074   20833064.992  
                
  24300140.125   127698096.905    24300150.227    99505059.7474   24300150.535  
                
  21809174.406   114608018.972    21809184.605    89304991.3854   21809184.215  
                
  20667419.812   110556777.898                                                  
  20667418.336  
  23787170.305   125002388.466    23787180.836    97404506.5194   23787181.047  
                
  22499015.375   118233150.379    22499020.062    92129757.2824                 
                
  22296935.594   117171172.381    22296945.586    91302266.0644   22296946.121  
                
  21397439.711   112444330.596    21397445.645    87618994.8274                 
                
  20148805.703   107895965.435                    83919097.150    20148808.344  
  20148804.625  
  22730388.844   119449026.055    22730398.668    93077218.5734   22730398.129  
                
  24051660.523   126392332.181    24051670.645    98487581.0754   24051671.078  
                
  19648345.602   105179178.339                    81806026.836    19648350.164  
  19648344.035  
 21  8 16 11 34 20.0000000  0 15R 6R21R22G32G31G 1R23G27G22G 8G21R 8
                                G10G 3R 7
  22883451.555   122110494.185                                                  
  22883448.883  
  23237667.422   124349418.114                    96716194.771    23237673.453  
  23237665.531  
  19763418.781   105498484.175                    82054399.788    19763421.398  
  19763417.086  
  20834990.055   109488647.077    20834998.797    85315885.5504   20834999.113  
                
  24293650.977   127663996.294    24293661.133    99478487.9194   24293661.406  
                
  21803877.391   114580182.967    21803887.574    89283300.9974   21803887.180  
                
  20661907.438   110527290.408                                                  
  20661905.965  
  23794021.688   125038392.685    23794032.164    97432561.7344   23794032.422  
                
  22494699.812   118210471.936    22494704.508    92112085.7754                 
                
  22301637.203   117195879.434    22301647.176    91321518.2994   22301647.715  
                
  21394729.906   112430090.456    21394735.855    87607898.6174                 
                
  20145371.734   107877576.712                    83904794.834    20145374.371  
  20145370.660  
  22735090.281   119473732.223    22735100.047    93096470.1424   22735099.535  
                
  24046061.062   126362906.785    24046071.195    98464652.2114   24046071.641  
                
  19651348.141   105195251.091                    81818527.870    19651352.691  
  19651346.590  
 21  8 16 11 34 30.0000000  0 15R 6R21R22G32G31G 1R23G27G22G 8G21R 8
                                G10G 3R 7
  22890379.062   122147460.720                                                  
  22890376.355  
  23245913.578   124393544.952                    96750515.569    23245919.641  
  23245911.672  
  19767543.695   105520503.219                    82071525.709    19767546.340  
  19767542.000  
  20836934.773   109498866.665    20836943.520    85323848.8564   20836943.828  
                
  24287162.930   127629901.353    24287173.062    99451920.5014   24287173.344  
                
  21798585.992   114552376.554    21798596.191    89261633.6634   21798595.785  
                
  20656405.898   110497860.985                                                  
  20656404.441  
  23800875.398   125074408.912    23800885.797    97460626.2934   23800886.098  
                
  22490388.055   118187813.512    22490392.766    92094429.8564                 
                
  22306347.062   117220629.870    22306356.973    91340804.3364   22306357.547  
                
  21392026.578   112415884.418    21392032.551    87596828.9794                 
                
  20141947.945   107859242.543                    83890534.928    20141950.582  
  20141946.859  
  22739794.531   119498453.168    22739804.277    93115733.1954   22739803.781  
                
  24040463.914   126333493.323    24040474.047    98441732.6224   24040474.441  
                
  19654359.797   105211372.740                    81831066.924    19654364.352  
  19654358.258  
 21  8 16 11 34 40.0000000  0 15R 6R21R22G32G31G 1R23G27G22G 8G21R 8
                                G10G 3R 7
  22897306.992   122184429.707                                                  
  22897304.305  
  23254163.602   124437692.257                    96784852.339    23254169.664  
  23254161.680  
  19771682.719   105542597.492                    82088710.126    19771685.348  
  19771681.016  
  20838889.961   109509141.288    20838898.715    85331855.0594   20838899.031  
                
  24280675.789   127595811.581    24280685.957    99425357.1134   24280686.230  
                
  21793300.141   114524599.224    21793310.387    89239989.0054   21793309.961  
                
  20650915.148   110468489.146                                                  
  20650913.707  
  23807731.312   125110436.518    23807741.605    97488699.7254   23807741.941  
                
  22486080.008   118165174.572    22486084.727    92076789.1434                 
                
  22311065.055   117245423.017    22311074.906    91360123.6674   22311075.516  
                
  21389329.656   112401711.965    21389335.656    87585785.5124                 
                
  20138534.234   107840962.311                    83876316.985    20138536.867  
  20138533.141  
  22744501.469   119523188.286    22744511.258    93135007.2884   22744510.742  
                
  24034868.922   126304091.174    24034879.047    98418821.8684   24034879.414  
                
  19657380.492   105227542.709                    81843643.571    19657385.039  
  19657378.949  
 21  8 16 11 34 50.0000000  0 15R 6R21R22G32G31G 1R23G27G22G 8G21R 8
                                G10G 3R 7
  22904235.602   122221401.836                                                  
  22904232.812  
  23262417.562   124481860.542                    96819205.429    23262423.582  
  23262415.617  
  19775835.945   105564767.659                    82105953.583    19775838.582  
  19775834.227  
  20840855.750   109519471.604    20840864.504    85339904.6584   20840864.820  
                
  24274189.828   127561727.849    24274200.020    99398798.4154   24274200.266  
                
  21788019.969   114496851.777    21788030.277    89218367.6284   21788029.816  
                
  20645435.320   110439175.811                                                  
  20645433.879  
  23814589.484   125146476.055    23814599.715    97516782.4484   23814600.055  
                
  22481775.812   118142555.848    22481780.539    92059164.1694                 
                
  22315791.289   117270259.538    22315801.098    91379476.7934   22315801.719  
                
  21386639.250   112387573.821    21386645.270    87574768.7734                 
                
  20135130.742   107822736.837                    83862141.625    20135133.371  
  20135129.660  
  22749211.234   119547938.252    22749221.070    93154292.9634   22749220.531  
                
  24029276.156   126274701.082    24029286.250    98395920.4874   24029286.621  
                
  19660410.328   105243761.669                    81856258.319    19660414.887  
  19660408.770  
 21  8 16 11 35  0.0000000  0 15R 6R21R22G32G31G 1R23G27G22G 8G21R 8
                                G10G 3R 7
  22911164.609   122258377.226                                                  
  22911161.836  
  23270675.359   124526049.415                    96853574.508    23270681.355  
  23270673.398  
  19780003.391   105587013.769                    82123256.116    19780006.074  
  19780001.672  
  20842832.117   109529857.489    20842840.871    85347997.5574   20842841.191  
                
  24267705.070   127527650.231    24267715.266    99372244.4554   24267715.480  
                
  21782745.500   114469134.262    21782755.844    89196769.5774   21782755.371  
                
  20639966.469   110409921.102                                                  
  20639965.027  
  23821450.000   125182527.393    23821460.059    97544874.3824   23821460.395  
                
  22477475.477   118119957.397    22477480.238    92041554.9994                 
                
  22320525.766   117295139.329    22320535.516    91398863.6314   22320536.172  
                
  21383955.398   112373470.033    21383961.434    87563778.8064                 
                
  20131737.461   107804565.981                    83848008.743    20131740.098  
  20131736.375  
  22753923.820   119572702.999    22753933.688    93173590.1484   22753933.141  
                
  24023685.680   126245323.026    24023695.918    98373028.5514   24023696.234  
                
  19663449.273   105260029.427                    81868911.020    19663453.844  
  19663447.699  
 21  8 16 11 35 10.0000000  0 15R 6R21R22G32G31G 1R23G27G22G 8G21R 8
                                G10G 3R 7
  22918093.961   122295354.823                                                  
  22918091.387  
  23278936.898   124570258.439                    96887959.270    23278942.926  
  23278934.945  
  19784184.906   105609334.963                    82140617.037    19784187.590  
  19784183.195  
  20844818.930   109540298.263    20844827.688    85356133.2264   20844828.023  
                
  24261221.383   127493578.183    24261231.543    99345694.8684   24261231.738  
                
  21777476.617   114441446.096    21777486.977    89175194.3784   21777486.492  
                
  20634508.461   110380724.486                                                  
  20634507.008  
  23828312.547   125218589.762    23828322.473    97572974.9174   23828322.820  
                
  22473178.859   118097378.514    22473183.691    92023961.0754                 
                
  22325268.281   117320061.353    22325278.000    91418283.3754   22325278.680  
                
  21381277.953   112359399.996    21381284.016    87552815.1494                 
                
  20128354.227   107786448.954                    83833917.728    20128356.859  
  20128353.137  
  22758639.078   119597481.807    22758648.973    93192898.3024   22758648.426  
                
  24018097.430   126215956.358    24018107.570    98350145.4204   24018107.918  
                
  19666497.172   105276345.068                    81881600.967    19666501.750  
  19666495.590  
 21  8 16 11 35 20.0000000  0 15R 6R21R22G32G31G 1R23G27G22G 8G21R 8
                                G10G 3R 7
  22925023.812   122332334.897                                                  
  22925019.844  
  23287202.227   124614487.511                    96922359.584    23287208.223  
  23287200.215  
  19788380.500   105631731.322                    82158036.418    19788383.203  
  19788378.777  
  20846816.211   109550794.035    20846824.965    85364311.7524   20846825.309  
                
  24254738.836   127459512.120    24254748.973    99319149.9264   24254749.152  
                
  21772213.359   114413787.537    21772223.730    89153642.2674   21772223.234  
                
  20629061.375   110351586.271                                                  
  20629059.922  
  23835177.141   125254663.231    23835187.016    97601084.0874   23835187.371  
                
  22468886.000   118074819.395    22468890.891    92006382.5394                 
                
  22330018.914   117345026.045    22330028.617    91437736.3794   22330029.312  
                
  21378606.992   112345363.959    21378613.066    87541877.9724                 
                
  20124981.117   107768386.167                    83819868.898    20124983.750  
  20124980.008  
  22763357.062   119622274.912    22763366.977    93212217.5974   22763366.418  
                
  24012511.383   126186601.340    24012521.598    98327271.4054   24012521.898  
                
  19669554.070   105292708.912                    81894328.390    19669558.660  
  19669552.484  
 21  8 16 11 35 30.0000000  0 15R 6R21R22G32G31G 1R23G27G22G 8G21R 8
                                G10G 3R 7
  22931954.453   122369317.966                                                  
  22931950.871  
  23295471.281   124658737.035                    96956775.853    23295477.328  
  23295469.336  
  19792590.289   105654203.421                    82175514.701    19792593.031  
  19792588.566  
  20848824.039   109561345.254    20848832.793    85372533.4824   20848833.137  
                
  24248257.477   127425452.633    24248267.621    99292610.1214   24248267.785  
                
  21766955.852   114386159.188    21766966.227    89132113.6884   21766965.730  
                
  20623625.328   110322507.103                                                  
  20623623.863  
  23842043.898   125290748.200    23842053.773    97629202.2084   23842054.117  
                
  22464597.008   118052280.562    22464601.891    91988819.8194                 
                
  22334777.711   117370033.648    22334787.434    91457222.8194   22334788.125  
                
  21375942.602   112331362.456    21375948.699    87530967.7134                 
                
  20121618.250   107750378.187                    83805862.695    20121620.887  
  20121617.117  
  22768077.844   119647082.760    22768087.754    93231548.3814   22768087.203  
                
  24006927.484   126157258.407    24006937.766    98304406.8054   24006938.109  
                
  19672620.062   105309121.403                    81907093.654    19672624.664  
  19672618.492  
 21  8 16 11 35 40.0000000  0 15R 6R21R22G32G31G 1R23G27G22G 8G21R 8
                                G10G 3R 7
  22938885.602   122406303.751                                                  
  22938882.293  
  23303744.094   124703006.776                    96991207.809    23303750.207  
  23303742.234  
  19796814.211   105676750.948                    82193051.658    19796816.922  
  19796812.484  
  20850842.383   109571951.723    20850851.141    85380798.2654   20850851.480  
                
  24241777.383   127391399.684    24241787.520    99266075.4044   24241787.672  
                
  21761704.086   114358560.973    21761714.465    89110608.5914   21761713.953  
                
  20618200.320   110293487.012                                                  
  20618198.855  
  23848912.789   125326844.460    23848922.676    97657329.1564   23848923.031  
                
  22460311.836   118029761.880    22460316.727    91971272.8084                 
                
  22339544.633   117395083.929    22339554.406    91476742.5014   22339555.078  
                
  21373284.766   112317395.440    21373290.887    87520084.3284                 
                
  20118265.555   107732424.693                    83791898.872    20118268.203  
  20118264.414  
  22772801.398   119671905.190    22772811.285    93250890.5224   22772810.758  
                
  24001345.906   126127927.467    24001356.297    98281551.5514   24001356.641  
                
  19675695.086   105325582.196                    81919896.487    19675699.680  
  19675693.539  
 21  8 16 11 35 50.0000000  0 15R 6R21R22G32G31G 1R23G27G22G 8G21R 8
                                G10G 3R 7
  22945817.133   122443291.796                                                  
  22945814.074  
  23312020.648   124747296.335                    97025655.210    23312026.812  
  23312018.820  
  19801052.164   105699373.454                    82210646.935    19801054.898  
  19801050.422  
  20852871.164   109582613.072    20852879.930    85389105.8094   20852880.258  
                
  24235298.477   127357353.043    24235308.633    99239545.6204   24235308.758  
                
  21756458.000   114330992.661    21756468.367    89089126.8024   21756467.871  
                
  20612786.312   110264525.776                                                  
  20612784.848  
  23855783.828   125362951.513    23855793.637    97685464.5024   23855793.977  
                
  22456030.445   118007263.026    22456035.359    91953741.2394                 
                
  22344319.609   117420176.591    22344329.453    91496295.2094   22344330.109  
                
  21370633.445   112303462.659    21370639.594    87509227.6134                 
                
  20114923.000   107714525.509                    83777977.290    20114925.648  
  20114921.871  
  22777527.664   119696741.841    22777537.492    93270243.7524   22777537.000  
                
  23995766.578   126098608.202    23995777.035    98258705.4014   23995777.352  
                
  19678779.062   105342090.929                    81932736.616    19678783.664  
  19678777.535  
 21  8 16 11 36  0.0000000  0 15R 6R21R22G32G31G 1R23G27G22G 8G21R 8
                                G10G 3R 7
  22952749.078   122480282.392                                                  
  22952746.254  
  23320300.898   124791605.815                    97060118.097    23320307.148  
  23320299.113  
  19805304.203   105722071.114                    82228300.655    19805306.945  
  19805302.441  
  20854910.430   109593329.500    20854919.203    85397456.2714   20854919.535  
                
  24228820.875   127323313.002    24228830.980    99213020.9684   24228831.109  
                
  21751217.664   114303454.593    21751228.023    89067668.5714   21751227.531  
                
  20607383.406   110235623.861                                                  
  20607381.938  
  23862656.875   125399069.582    23862666.680    97713608.4254   23862667.023  
                
  22451752.883   117984784.266    22451757.793    91936225.3304                 
                
  22349102.641   117445311.561    22349112.559    91515880.8774   22349113.207  
                
  21367988.688   112289564.359    21367994.859    87498397.7724                 
                
  20111590.633   107696680.872                    83764098.148    20111593.305  
  20111589.512  
  22782256.672   119721592.962    22782266.469    93289608.2504   22782265.996  
                
  23990189.570   126069300.916    23990199.977    98235868.5634   23990200.312  
                
  19681872.023   105358647.767                    81945614.167    19681876.633  
  19681870.496  
 21  8 16 11 36 10.0000000  0 15R 6R21R22G32G31G 1R23G27G22G 8G21R 8
                                G10G 3R 7
  22959681.695   122517275.452                                                  
  22959678.883  
  23328584.852   124835934.999                    97094596.305    23328591.184  
  23328583.094  
  19809570.312   105744843.910                    82246012.834    19809573.059  
  19809568.527  
  20856960.148   109604100.886    20856968.934    85405849.5624   20856969.266  
                
  24222344.523   127289279.693    24222354.598    99186501.5614   24222354.730  
                
  21745983.094   114275946.781    21745993.457    89046233.9234   21745992.973  
                
  20601991.586   110206781.310                                                  
  20601990.121  
  23869531.875   125435198.465    23869541.785    97741760.7734   23869542.137  
                
  22447479.133   117962325.561    22447484.031    91918725.0574                 
                
  22353893.688   117470488.686    22353903.695    91535499.4044   22353904.320  
                
  21365350.484   112275700.547    21365356.672    87487594.8054                 
                
  20108268.383   107678890.470                    83750261.167    20108271.070  
  20108267.250  
  22786988.414   119746458.477    22786998.219    93308983.9614   22786997.723  
                
  23984614.820   126040005.564    23984625.219    98213041.0294   23984625.570  
                
  19684973.914   105375252.467                    81958528.928    19684978.520  
  19684972.379  
 21  8 16 11 36 20.0000000  0 15R 6R21R22G32G31G 1R23G27G22G 8G21R 8
                                G10G 3R 7
  22966614.672   122554270.675                                                  
  22966611.922  
  23336872.531   124880283.798                    97129089.743    23336878.883  
  23336870.766  
  19813850.461   105767691.646                    82263783.284    19813853.223  
  19813848.668  
  20859020.320   109614927.198    20859029.113    85414285.6444   20859029.438  
                
  24215869.531   127255253.278    24215879.547    99159987.5204   24215879.680  
                
  21740754.312   114248469.354    21740764.703    89024822.9484   21740764.199  
                
  20596610.906   110177998.283                                                  
  20596609.422  
  23876408.938   125471338.090    23876418.953    97769921.4824   23876419.301  
                
  22443209.211   117939886.946    22443214.098    91901240.4264                 
                
  22358692.781   117495708.042    22358702.844    91555150.8404   22358703.453  
                
  21362718.867   112261871.272    21362725.055    87476818.7434                 
                
  20104956.352   107661154.759                    83736466.740    20104959.066  
  20104955.195  
  22791722.891   119771338.326    22791732.684    93328370.8454   22791732.188  
                
  23979042.383   126010722.152    23979052.770    98190222.8234   23979053.121  
                
  19688084.734   105391904.947                    81971480.859    19688089.355  
  19688083.180  
 21  8 16 11 36 30.0000000  0 16R 6R 1R21R22G32G31G 1R23G27G22G 8G21
                                R 8G10G 3R 7
  22973548.000   122591267.826                                                  
  22973545.305  
  23542849.273   125850017.853                    97883341.328    23542856.918  
  23542848.898  
  23345163.758   124924651.553                    97163597.863    23345170.105  
  23345161.961  
  19818144.586   105790613.990                    82281611.760    19818147.336  
  19818142.789  
  20861090.852   109625807.932    20861099.652    85422764.1424   20861099.961  
                
  24209395.773   127221233.410    24209405.719    99133478.5714   24209405.848  
                
  21735531.234   114221021.936    21735541.645    89003435.3504   21735541.133  
                
  20591241.281   110149274.479                                                  
  20591239.797  
  23883287.984   125507487.875    23883298.070    97798090.1214   23883298.426  
                
  22438943.031   117917468.030    22438947.891    91883771.1544                 
                
  22363499.828   117520969.177    22363509.930    91574834.8244   22363510.527  
                
  21360093.742   112248076.181    21360099.922    87466069.3184                 
                
  20101654.344   107643472.760                    83722714.085    20101657.078  
  20101653.164  
  22796460.023   119796232.124    22796469.793    93347768.5924   22796469.328  
                
  23973472.219   125981450.337    23973482.465    98167413.6014   23973482.836  
                
  19691204.391   105408604.737                    81984469.586    19691209.016  
  19691202.809  
 21  8 16 11 36 40.0000000  0 16R 6R 1R21R22G32G31G 1R23G27G22G 8G21
                                R 8G10G 3R 7
  22980481.719   122628267.036                                                  
  22980479.070  
  23536146.164   125814185.902                    97855472.055    23536153.906  
  23536145.730  
  23353458.633   124969039.072                    97198121.466    23353465.039  
  23353456.840  
  19822452.773   105813611.398                    82299498.622    19822455.512  
  19822450.973  
  20863171.844   109636743.628    20863180.652    85431285.4574   20863180.949  
                
  24202923.422   127187220.879    24202933.262    99106975.3354   24202933.418  
                
  21730314.008   114193605.238    21730324.410    88982071.7044   21730323.902  
                
  20585882.883   110120610.715                                                  
  20585881.402  
  23890169.141   125543648.382    23890179.230    97826267.1054   23890179.586  
                
  22434680.711   117895069.398    22434685.531    91866317.6704                 
                
  22368314.891   117546272.445    22368325.012    91594551.6394   22368325.605  
                
  21357475.258   112234315.952    21357481.422    87455347.0614                 
                
  20098362.602   107625845.700                    83709004.154    20098365.340  
  20098361.402  
  22801199.930   119821140.469    22801209.691    93367177.6844   22801209.254  
                
  23967904.219   125952190.671    23967914.586    98144613.9124   23967914.934  
                
  19694333.000   105425352.504                    81997495.610    19694337.637  
  19694331.414  
 21  8 16 11 36 50.0000000  0 16R 6R 1R21R22G32G31G 1R23G27G22G 8G21
                                R 8G10G 3R 7
  22987415.797   122665268.375                                                  
  22987413.168  
  23529447.188   125778375.583                    97827619.595    23529454.879  
  23529446.715  
  23361757.195   125013445.800                    97232659.981    23361763.562  
  23361755.344  
  19826774.961   105836683.523                    82317443.611    19826777.703  
  19826773.160  
  20865263.242   109647734.047    20865272.051    85439849.4204   20865272.344  
                
  24196452.391   127153215.492    24196462.148    99080477.6864   24196462.328  
                
  21725102.602   114166219.100    21725112.992    88960731.8554   21725112.492  
                
  20580535.680   110092006.799                                                  
  20580534.191  
  23897052.305   125579819.213    23897062.355    97854452.1394   23897062.699  
                
  22430422.211   117872690.840    22430427.004    91848879.8374                 
                
  22373137.906   117571617.494    22373148.059    91614301.0184   22373148.621  
                
  21354863.367   112220590.383    21354869.527    87444651.8124                 
                
  20095081.023   107608273.059                    83695336.543    20095083.758  
  20095079.820  
  22805942.547   119846063.033    22805952.332    93386597.8614   22805951.887  
                
  23962338.531   125922942.965    23962348.898    98121823.4964   23962349.254  
                
  19697470.469   105442147.652                    82010558.505    19697475.117  
  19697468.883  
 21  8 16 11 37  0.0000000  0 16R 6R 1R21R22G32G31G 1R23G27G22G 8G21
                                R 8G10G 3R 7
  22994350.242   122702271.758                                                  
  22994347.625  
  23522752.219   125742587.070                    97799784.111    23522759.914  
  23522751.684  
  23370059.273   125057871.509                    97267213.252    23370065.637  
  23370057.395  
  19831111.117   105859830.210                    82335446.585    19831113.859  
  19831109.328  
  20867365.039   109658779.066    20867373.844    85448455.9284   20867374.141  
                
  24189982.695   127119217.314    24189992.438    99053985.6214   24189992.621  
                
  21719897.023   114138863.580    21719907.410    88939415.8664   21719906.926  
                
  20575199.703   110063462.977                                                  
  20575198.211  
  23903937.359   125616000.249    23903947.414    97882645.1364   23903947.750  
                
  22426167.539   117850332.388    22426172.309    91831457.6834                 
                
  22377968.828   117597004.074    22377978.988    91634082.7544   22377979.535  
                
  21352258.086   112206899.520    21352264.246    87433983.6124                 
                
  20091809.609   107590754.823                    83681711.262    20091812.344  
  20091808.406  
  22810687.867   119870999.787    22810697.699    93406029.0744   22810697.246  
                
  23956775.086   125893707.195    23956785.516    98099042.4024   23956785.824  
                
  19700616.805   105458990.224                    82023658.287    19700621.430  
  19700615.207  
 21  8 16 11 37 10.0000000  0 16R 6R 1R21R22G32G31G 1R23G27G22G 8G21
                                R 8G10G 3R 7
  23001285.008   122739276.926                                                  
  23001282.434  
  23516061.211   125706820.450                    97771965.660    23516068.945  
  23516060.719  
  23378364.961   125102316.296                    97301781.380    23378371.277  
  23378362.996  
  19835461.289   105883051.658                    82353507.700    19835464.004  
  19835459.473  
  20869477.227   109669878.634    20869486.035    85457104.9454   20869486.332  
                
  24183514.367   127085226.504    24183524.148    99027499.3194   24183524.340  
                
  21714697.281   114111538.760    21714707.680    88918123.7974   21714707.199  
                
  20569874.977   110034979.332                                                  
  20569873.473  
  23910824.336   125652191.433    23910834.430    97910846.0304   23910834.777  
                
  22421916.688   117827994.045    22421921.453    91814051.1954                 
                
  22382807.664   117622432.253    22382817.828    91653896.9044   22382818.359  
                
  21349659.430   112193243.465    21349665.602    87423342.5314                 
                
  20088548.344   107573290.996                    83668128.293    20088551.074  
  20088547.137  
  22815435.891   119895950.730    22815445.773    93425471.3544   22815445.297  
                
  23951213.992   125864483.407    23951224.375    98076270.6124   23951224.672  
                
  19703771.961   105475880.050                    82036794.813    19703776.574  
  19703770.352  
 21  8 16 11 37 20.0000000  0 16R 6R 1R21R22G32G31G 1R23G27G22G 8G21
                                R 8G10G 3R 7
  23008220.078   122776284.027                                                  
  23008217.547  
  23509374.445   125671075.955                    97744164.396    23509382.156  
  23509373.949  
  23386674.180   125146780.109                    97336364.310    23386680.461  
  23386672.191  
  19839825.430   105906347.676                    82371626.824    19839828.176  
  19839823.625  
  20871599.805   109681032.888    20871608.602    85465796.5714   20871608.902  
                
  24177047.422   127051243.389    24177057.355    99001018.9894   24177057.531  
                
  21709503.438   114084244.890    21709513.832    88896855.8574   21709513.344  
                
  20564561.578   110006556.246                                                  
  20564560.055  
  23917713.266   125688392.819    23917723.371    97939054.8634   23917723.707  
                
  22417669.703   117805675.968    22417674.441    91796660.4814                 
                
  22387654.438   117647902.160    22387664.602    91673743.5734   22387665.121  
                
  21347067.422   112179622.407    21347073.590    87412728.7174                 
                
  20085297.281   107555881.767                    83654587.797    20085300.008  
  20085296.062  
  22820186.625   119920916.024    22820196.512    93444924.8294   22820196.027  
                
  23945655.117   125835271.760    23945665.562    98053508.3094   23945665.836  
                
  19706935.961   105492817.177                    82049968.144    19706940.578  
  19706934.352  
 21  8 16 11 37 30.0000000  0 16R 6R 1R21R22G32G31G 1R23G27G22G 8G21
                                R 8G10G 3R 7
  23015155.555   122813292.829                                                  
  23015153.004  
  23502691.797   125635353.227                    97716380.084    23502699.492  
  23502691.238  
  23394986.852   125191262.557                    97370961.718    23394993.137  
  23394984.840  
  19844203.492   105929718.075                    82389803.795    19844206.223  
  19844201.680  
  20873732.734   109692241.513    20873741.531    85474530.5664   20873741.836  
                
  24170581.922   127017267.778    24170591.969    98974544.5354   24170592.168  
                
  21704315.445   114056981.838    21704325.824    88875611.9194   21704325.348  
                
  20559259.469   109978193.547                                                  
  20559257.957  
  23924604.008   125724604.014    23924614.184    97967271.3534   23924614.492  
                
  22413426.523   117783377.957    22413431.230    91779285.4154                 
                
  22392509.086   117673413.469    22392519.250    91693622.5014   22392519.758  
                
  21344482.055   112166036.194    21344488.207    87402142.0614                 
                
  20082056.383   107538526.979                    83641089.633    20082059.113  
  20082055.168  
  22824940.047   119945895.381    22824949.898    93464389.2514   22824949.434  
                
  23940098.617   125806072.077    23940109.027    98030755.3314   23940109.277  
                
  19710108.766   105509801.462                    82063178.127    19710113.352  
  19710107.156  
 21  8 16 11 37 40.0000000  0 16R 6R 1R21R22G32G31G 1R23G27G22G 8G21
                                R 8G10G 3R 7
  23022091.289   122850302.924                                                  
  23022088.707  
  23496013.156   125599652.197                    97688612.638    23496020.805  
  23496012.566  
  23403302.914   125235763.214                    97405573.295    23403309.145  
  23403300.895  
  19848595.430   105953162.459                    82408038.319    19848598.172  
  19848593.598  
  20875875.938   109703504.131    20875884.711    85483306.6314   20875885.031  
                
  24164117.938   126983299.538    24164127.926    98948075.8324   24164128.160  
                
  21699133.266   114029749.350    21699143.621    88854391.8124   21699143.148  
                
  20553968.617   109949891.101                                                  
  20553967.102  
  23931496.547   125760824.638    23931506.812    97995495.1904   23931507.094  
                
  22409187.117   117761099.741    22409191.812    91761925.7714                 
                
  22397371.500   117698965.633    22397381.645    91713533.2624   22397382.152  
                
  21341903.258   112152484.551    21341909.402    87391582.3454                 
                
  20078825.578   107521226.195                    83627633.468    20078828.289  
  20078824.391  
  22829696.078   119970888.473    22829705.867    93483864.3814   22829705.457  
                
  23934544.312   125776884.016    23934554.629    98008011.3904   23934554.914  
                
  19713290.250   105526832.227                    82076424.288    19713294.832  
  19713288.633  
 21  8 16 11 37 50.0000000  0 16R 6R 1R21R22G32G31G 1R23G27G22G 8G21
                                R 8G10G 3R 7
  23029027.367   122887314.925                                                  
  23029024.777  
  23489338.734   125563973.399                    97660862.489    23489346.324  
  23489338.102  
  23411622.484   125280282.696                    97440199.508    23411628.723  
  23411620.461  
  19853001.297   105976681.364                    82426330.784    19853004.051  
  19852999.465  
  20878029.531   109714821.404    20878038.281    85492125.2834   20878038.621  
                
  24157655.555   126949339.508    24157665.438    98921613.4894   24157665.719  
                
  21693957.055   114002548.214    21693967.371    88833196.1214   21693966.906  
                
  20548689.195   109921649.758                                                  
  20548687.699  
  23938391.031   125797055.270    23938401.332    98023726.8224   23938401.594  
                
  22404951.609   117738842.007    22404956.305    91744582.0964                 
                
  22402241.836   117724559.348    22402251.945    91733476.4084   22402252.473  
                
  21339331.188   112138968.229    21339337.312    87381050.1374                 
                
  20075605.008   107503980.168                    83614219.889    20075607.699  
  20075603.863  
  22834454.867   119995895.960    22834464.617    93503350.7404   22834464.207  
                
  23928992.398   125747708.340    23929002.676    97985277.1014   23929002.957  
                
  19716480.578   105543910.351                    82089707.269    19716485.152  
  19716478.973  
 21  8 16 11 38  0.0000000  0 16R 6R 1R21R22G32G31G 1R23G27G22G 8G21
                                R 8G10G 3R 7
  23035963.742   122924328.510                                                  
  23035961.137  
  23482668.375   125528316.746                    97633129.598    23482675.977  
  23482667.750  
  23419945.461   125324820.586                    97474840.028    23419951.746  
  23419943.438  
  19857421.094   106000274.496                    82444680.995    19857423.871  
  19857419.277  
  20880193.477   109726192.966    20880202.211    85500986.2394   20880202.562  
                
  24151194.727   126915387.454    24151204.512    98895157.3654   24151204.809  
                
  21688786.773   113975378.242    21688797.066    88812024.7144   21688796.613  
                
  20543421.156   109893469.321                                                  
  20543419.676  
  23945287.352   125833295.537    23945297.691    98051965.9634   23945297.949  
                
  22400719.938   117716604.475    22400724.648    91727254.1574                 
                
  22407119.961   117750194.022    22407130.020    91753451.4694   22407130.586  
                
  21336765.789   112125486.970    21336771.898    87370545.2624                 
                
  20072394.602   107486788.585                    83600848.658    20072397.270  
  20072393.484  
  22839216.336   120020917.548    22839226.082    93522848.0824   22839225.660  
                
  23923442.820   125718544.755    23923453.035    97962552.2584   23923453.305  
                
  19719679.648   105561035.223                    82103026.613    19719684.203  
  19719678.055  
 21  8 16 11 38 10.0000000  0 16R 6R 1R21R22G32G31G 1R23G27G22G 8G21
                                R 8G10G 3R 7
  23042900.328   122961343.575                                                  
  23042897.723  
  23476002.180   125492682.274                    97605413.910    23476009.770  
  23476001.535  
  23428271.922   125369376.729                    97509494.737    23428278.164  
  23428269.867  
  19861854.789   106023941.883                    82463088.950    19861857.617  
  19861852.977  
  20882367.727   109737618.771    20882376.457    85509889.4604   20882376.812  
                
  24144735.391   126881443.500    24144745.207    98868707.5614   24144745.484  
                
  21683622.445   113948239.508    21683632.727    88790877.6514   21683632.277  
                
  20538164.547   109865349.980                                                  
  20538163.086  
  23952185.500   125869545.299    23952195.855    98080212.5134   23952196.082  
                
  22396492.117   117694387.158    22396496.844    91709941.9634                 
                
  22412005.906   117775869.832    22412015.930    91773458.5844   22412016.523  
                
  21334207.078   112112040.870    21334213.172    87360067.7844                 
                
  20069194.375   107469651.542                    83587519.859    20069197.039  
  20069193.273  
  22843980.484   120045953.229    22843990.242    93542356.3894   22843989.816  
                
  23917895.430   125689393.266    23917905.660    97939836.8154   23917905.957  
                
  19722887.461   105578206.850                    82116382.325    19722892.000  
  19722885.898  
 21  8 16 11 38 20.0000000  0 16R 6R 1R21R22G32G31G 1R23G27G22G 8G21
                                R 8G10G 3R 7
  23049837.148   122998360.039                                                  
  23049834.523  
  23469340.227   125457069.995                    97577715.506    23469347.773  
  23469339.520  
  23436601.750   125413951.040                    97544163.593    23436607.992  
  23436599.695  
  19866302.328   106047683.143                    82481554.365    19866305.156  
  19866300.535  
  20884552.289   109749098.751    20884561.016    85518834.8954   20884561.375  
                
  24138277.602   126847507.816    24138287.477    98842264.2084   24138287.746  
                
  21678464.062   113921132.079    21678474.348    88769754.9854   21678473.891  
                
  20532919.375   109837291.840                                                  
  20532917.934  
  23959085.375   125905804.478    23959095.805    98108466.3824   23959096.023  
                
  22392268.156   117672190.133    22392272.906    91692645.5914                 
                
  22416899.633   117801586.498    22416909.648    91793497.5264   22416910.254  
                
  21331655.070   112098629.960    21331661.145    87349617.7254                 
                
  20066004.305   107452568.909                    83574233.379    20066006.969  
  20066003.207  
  22848747.289   120071002.950    22848757.043    93561875.6354   22848756.621  
                
  23912350.391   125660253.899    23912360.609    97917130.8414   23912360.930  
                
  19726103.969   105595425.062                    82129774.259    19726108.480  
  19726102.438  
 21  8 16 11 38 30.0000000  0 16R 6R 1R21R22G32G31G 1R23G27G22G 8G21
                                R 8G10G 3R 7
  23056774.219   123035377.766                                                  
  23056771.598  
  23462682.273   125421480.097                    97550034.522    23462689.891  
  23462681.684  
  23444934.867   125458543.415                    97578846.464    23444941.203  
  23444932.891  
  19870763.812   106071498.827                    82500077.666    19870766.648  
  19870762.012  
  20886747.164   109760632.904    20886755.891    85527822.5484   20886756.242  
                
  24131821.422   126813580.587    24131831.328    98815827.4354   24131831.578  
                
  21673311.680   113894056.117    21673321.984    88748656.8434   21673321.508  
                
  20527685.680   109809295.074                                                  
  20527684.246  
  23965987.125   125942072.994    23965997.574    98136727.5334   23965997.762  
                
  22388048.070   117650013.479    22388052.844    91675365.1024                 
                
  22421801.156   117827344.169    22421811.188    91813568.4204   22421811.801  
                
  21329109.773   112085254.350    21329115.836    87339195.1704                 
                
  20062824.438   107435540.867                    83560989.356    20062827.105  
  20062823.332  
  22853516.773   120096066.742    22853526.508    93581405.8674   22853526.105  
                
  23906807.602   125631126.732    23906817.930    97894434.3774   23906818.234  
                
  19729329.195   105612689.875                    82143202.450    19729333.691  
  19729327.691  
 21  8 16 11 38 40.0000000  0 16R 6R 1R21R22G32G31G 1R23G27G22G 8G21
                                R 8G10G 3R 7
  23063711.586   123072396.755                                                  
  23063708.949  
  23456028.570   125385912.369                    97522370.760    23456036.172  
  23456028.000  
  23453271.422   125503153.845                    97613543.423    23453277.789  
  23453269.473  
  19875239.141   106095388.394                    82518658.422    19875241.965  
  19875237.336  
  20888952.320   109772221.088    20888961.035    85536852.3014   20888961.383  
                
  24125366.867   126779661.823    24125376.738    98789397.2664   24125376.996  
                
  21668165.281   113867011.594    21668175.617    88727583.1924   21668175.129  
                
  20522463.477   109781359.797                                                  
  20522462.047  
  23972890.633   125978350.668    23972901.070    98164995.8324   23972901.230  
                
  22383831.836   117627857.003    22383836.602    91658100.3174                 
                
  22426710.438   117853142.542    22426720.488    91833671.0334   22426721.121  
                
  21326571.195   112071914.005    21326577.250    87328800.0974                 
                
  20059654.711   107418567.159                    83547787.598    20059657.387  
  20059653.609  
  22858288.930   120121144.528    22858298.695    93600946.9934   22858298.281  
                
  23901267.109   125602011.682    23901277.582    97871747.3594   23901277.855  
                
  19732563.102   105630001.185                    82156666.794    19732567.594  
  19732561.617  
 21  8 16 11 38 50.0000000  0 16R 6R 1R21R22G32G31G 1R23G27G22G 8G21
                                R 8G10G 3R 7
  23070649.117   123109416.997                                                  
  23070646.551  
  23449379.125   125350367.161                    97494724.519    23449386.672  
  23449378.512  
  23461611.367   125547782.080                    97648254.240    23461617.699  
  23461609.383  
  19879728.281   106119351.650                    82537296.505    19879731.129  
  19879726.461  
  20891167.781   109783863.375    20891176.477    85545924.2124   20891176.816  
                
  24118913.969   126745751.744    24118923.805    98762973.8534   24118924.078  
                
  21663024.914   113839998.764    21663035.277    88706534.2354   21663034.758  
                
  20517252.828   109753486.341                                                  
  20517251.418  
  23979795.891   126014637.527    23979806.301    98193271.2804   23979806.434  
                
  22379619.477   117605720.907    22379624.234    91640851.4264                 
                
  22431627.461   117878981.603    22431637.520    91853805.3494   22431638.168  
                
  21324039.367   112058609.154    21324045.414    87318432.6774                 
                
  20056495.195   107401648.116                    83534628.332    20056497.852  
  20056494.098  
  22863063.758   120146236.405    22863073.559    93620499.0794   22863073.148  
                
  23895728.914   125572908.909    23895739.512    97849069.8724   23895739.797  
                
  19735805.695   105647359.002                    82170167.321    19735810.188  
  19735804.219  
 21  8 16 11 39  0.0000000  0 16R 6R 1R21R22G32G31G 1R23G27G22G 8G21
                                R 8G10G 3R 7
  23077586.852   123146438.354                                                  
  23077584.305  
  23442733.727   125314844.263                    97467095.624    23442741.312  
  23442733.152  
  23469954.562   125592428.001                    97682978.779    23469960.922  
  23469952.582  
  19884231.250   106143388.788                    82555992.041    19884234.105  
  19884229.434  
  20893393.492   109795559.569    20893402.160    85555038.1344   20893402.516  
                
  24112462.719   126711850.405    24112472.520    98736557.2794   24112472.793  
                
  21657890.539   113813017.513    21657900.926    88685509.8974   21657900.383  
                
  20512053.711   109725674.612                                                  
  20512052.301  
  23986702.797   126050933.346    23986713.242    98221553.7024   23986713.355  
                
  22375410.953   117583605.050    22375415.711    91623618.3014                 
                
  22436552.172   117904861.091    22436562.246    91873971.1694   22436562.895  
                
  21321514.273   112045339.710    21321520.328    87308092.8554                 
                
  20053345.805   107384783.378                    83521511.315    20053348.465  
  20053344.703  
  22867841.242   120171342.212    22867851.070    93640062.0274   22867850.645  
                
  23890193.086   125543818.308    23890203.797    97826401.9034   23890204.066  
                
  19739056.922   105664763.082                    82183703.830    19739061.418  
  19739055.449  
 21  8 16 11 39 10.0000000  0 16R 6R 1R21R22G32G31G 1R23G27G22G 8G21
                                R 8G10G 3R 7
  23084524.805   123183460.696                                                  
  23084522.180  
  23436092.586   125279343.794                    97439484.188    23436100.211  
  23436092.000  
  23478301.094   125637091.552                    97717717.009    23478307.414  
  23478299.094  
  19888747.992   106167499.397                    82574744.732    19888750.836  
  19888746.203  
  20895629.469   109807309.674    20895638.102    85564194.0634   20895638.473  
                
  24106013.164   126677957.985    24106022.984    98710147.6404   24106023.254  
                
  21652762.227   113786068.052    21652772.602    88664510.3204   21652772.066  
                
  20506866.188   109697924.850                                                  
  20506864.770  
  23993611.398   126087238.031    23993621.895    98249843.0394   23993621.965  
                
  22371206.305   117561509.507    22371211.055    91606401.0044                 
                
  22441484.586   117930780.987    22441494.672    91894168.4744   22441495.297  
                
  21318995.922   112032105.715    21319001.988    87297780.6544                 
                
  20050206.641   107367973.314                    83508436.839    20050209.309  
  20050205.520  
  22872621.383   120196461.960    22872631.250    93659635.8474   22872630.805  
                
  23884659.602   125514739.938    23884670.379    97803743.4494   23884670.641  
                
  19742316.758   105682213.319                    82197276.236    19742321.262  
  19742315.281  
 21  8 16 11 39 20.0000000  0 16R 6R 1R21R22G32G31G 1R23G27G22G 8G21
                                R 8G10G 3R 7
  23091462.906   123220484.135                                                  
  23091460.309  
  23429455.664   125243865.780                    97411890.178    23429463.285  
  23429455.094  
  23486650.836   125681772.473                    97752468.787    23486657.168  
  23486648.848  
  19893278.508   106191683.575                    82593554.642    19893281.324  
  19893276.738  
  20897875.680   109819113.526    20897884.285    85573391.8704   20897884.664  
                
  24099565.320   126644074.511    24099575.125    98683744.9704   24099575.434  
                
  21647639.961   113759150.337    21647650.332    88643535.4834   21647649.801  
                
  20501690.242   109670237.097                                                  
  20501688.809  
  24000521.648   126123551.447    24000532.184    98278139.1674   24000532.219  
                
  22367005.484   117539434.133    22367010.227    91589199.4274                 
                
  22446424.672   117956741.202    22446434.754    91914397.2114   22446435.387  
                
  21316484.320   112018907.147    21316490.398    87287496.0534                 
                
  20047077.641   107351217.724                    83495404.716    20047080.336  
  20047076.504  
  22877404.172   120221595.582    22877414.066    93679220.4754   22877413.594  
                
  23879128.406   125485673.718    23879139.262    97781094.4674   23879139.523  
                
  19745585.234   105699709.685                    82210884.519    19745589.754  
  19745583.742  
 21  8 16 11 39 30.0000000  0 16R 6R 1R21R22G32G31G 1R23G27G22G 8G21
                                R 8G10G 3R 7
  23098401.141   123257508.338                                                  
  23098397.512  
  23422823.031   125208410.381                    97384313.804    23422830.594  
  23422822.449  
  23495003.875   125726470.771                    97787234.080    23495010.164  
  23495001.867  
  19897822.852   106215941.516                    82612421.926    19897825.668  
  19897821.098  
  20900132.141   109830971.259    20900140.727    85582631.6734   20900141.117  
                
  24093119.219   126610200.200    24093129.004    98657349.4594   24093129.344  
                
  21642523.781   113732264.633    21642534.152    88622585.5934   21642533.625  
                
  20496525.961   109642611.734                                                  
  20496524.520  
  24007433.570   126159873.656    24007444.129    98306442.1514   24007444.141  
                
  22362808.570   117517379.245    22362813.309    91572013.8074                 
                
  22451372.422   117982741.702    22451382.508    91934657.3344   22451383.148  
                
  21313979.508   112005744.252    21313985.598    87277239.2524                 
                
  20043958.828   107334516.720                    83482415.061    20043961.535  
  20043957.680  
  22882189.625   120246743.211    22882199.504    93698816.0274   22882199.020  
                
  23873599.641   125456619.857    23873610.512    97758455.1344   23873610.770  
                
  19748862.305   105717252.154                    82224528.662    19748866.840  
  19748860.801  
 21  8 16 11 39 40.0000000  0 16R 6R 1R21R22G32G31G 1R23G27G22G 8G21
                                R 8G10G 3R 7
  23105339.648   123294533.389                                                  
  23105336.578  
  23416194.773   125172977.605                    97356755.015    23416202.129  
  23416194.059  
  23503360.102   125771186.338                    97822012.807    23503366.371  
  23503358.082  
  19902380.938   106240272.796                    82631346.239    19902383.719  
  19902379.191  
  20902398.805   109842882.656    20902407.379    85591913.2804   20902407.773  
                
  24086674.906   126576335.080    24086684.676    98630961.0934   24086685.012  
                
  21637413.680   113705410.870    21637424.039    88601660.5894   21637423.512  
                
  20491373.328   109615048.678                                                  
  20491371.855  
  24014347.133   126196204.352    24014357.711    98334751.7404   24014357.688  
                
  22358615.531   117495344.730    22358620.273    91554844.0664                 
                
  22456327.820   118008782.384    22456337.941    91954948.7554   22456338.559  
                
  21311481.469   111992616.975    21311487.578    87267010.2044                 
                
  20040850.203   107317870.258                    83469467.817    20040852.930  
  20040849.066  
  22886977.711   120271904.663    22886987.570    93718422.3454   22886987.094  
                
  23868073.242   125427578.268    23868084.070    97735825.3424   23868084.312  
                
  19752147.938   105734840.398                    82238208.401    19752152.473  
  19752146.422  
 21  8 16 11 39 50.0000000  0 16R 6R 1R21R22G32G31G 1R23G27G22G 8G21
                                R 8G10G 3R 7
  23112278.258   123331558.753                                                  
  23112275.840  
  23409570.477   125137566.884                    97329213.385    23409577.785  
  23409569.762  
  23511719.547   125815918.496                    97856804.420    23511725.695  
  23511717.398  
  19906952.672   106264676.983                    82650327.262    19906955.434  
  19906950.941  
  20904675.594   109854847.211    20904684.160    85601236.3104   20904684.555  
                
  24080232.266   126542478.796    24080242.016    98604579.6194   24080242.355  
                
  21632309.594   113678588.711    21632319.934    88580760.2084   21632319.438  
                
  20486232.305   109587547.711                                                  
  20486230.824  
  24021262.164   126232543.026    24021272.773    98363067.5684   24021272.746  
                
  22354426.281   117473330.095    22354431.035    91537689.8134                 
                
  22461290.727   118034862.584    22461300.875    91975270.9764   22461301.488  
                
  21308990.133   111979524.905    21308996.270    87256808.5954                 
                
  20037751.680   107301277.833                    83456562.599    20037754.418  
  20037750.543  
  22891768.328   120297079.480    22891778.184    93738039.0744   22891777.707  
                
  23862549.133   125398548.421    23862559.828    97713204.6974   23862560.078  
                
  19755442.023   105752473.881                    82251923.332    19755446.566  
  19755440.512  
 21  8 16 11 40  0.0000000  0 16R 6R 1R21R22G32G31G 1R23G27G22G 8G21
                                R 8G10G 3R 7
  23119217.070   123368585.200                                                  
  23119214.902  
  23402950.547   125102179.233                    97301689.650    23402957.742  
  23402949.754  
  23520082.031   125860667.941                    97891609.483    23520088.230  
  23520079.902  
  19911538.188   106289154.725                    82669365.504    19911540.934  
  19911536.477  
  20906962.625   109866865.608    20906971.184    85610601.2944   20906971.586  
                
  24073791.336   126508632.223    24073801.207    98578205.6964   24073801.523  
                
  21627211.672   113651798.951    21627221.988    88559885.0744   21627221.492  
                
  20481103.039   109560109.651                                                  
  20481101.551  
  24028178.852   126268890.303    24028189.445    98391390.0964   24028189.410  
                
  22350240.945   117451336.060    22350245.719    91520551.6194                 
                
  22466261.250   118060982.820    22466271.430    91995624.3864   22466272.027  
                
  21306505.633   111966468.796    21306511.801    87246635.0024                 
                
  20034663.344   107284740.023                    83443699.864    20034666.070  
  20034662.211  
  22896561.625   120322268.394    22896571.445    93757666.7924   22896570.980  
                
  23857027.344   125369531.154    23857037.969    97690593.8544   23857038.238  
                
  19758744.719   105770153.507                    82265674.163    19758749.273  
  19758743.203  
 21  8 16 11 40 10.0000000  0 16R 6R 1R21R22G32G31G 1R23G27G22G 8G21
                                R 8G10G 3R 7
  23126156.016   123405612.175                                                  
  23126153.859  
  23396334.758   125066814.254                    97274183.580    23396341.953  
  23396334.012  
  23528447.727   125905434.311                    97926427.714    23528453.945  
  23528445.637  
  19916137.438   106313705.693                    82688460.688    19916140.156  
  19916135.723  
  20909259.875   109878937.655    20909268.430    85620008.0844   20909268.828  
                
  24067352.289   126474795.280    24067362.238    98551839.3004   24067362.547  
                
  21622119.914   113625041.566    21622130.211    88539035.1584   21622129.723  
                
  20475985.547   109532734.525                                                  
  20475984.055  
  24035097.109   126305245.943    24035107.699    98419719.1354   24035107.668  
                
  22346059.531   117429362.532    22346064.324    91503429.4044                 
                
  22471239.398   118087143.103    22471249.621    92016009.0074   22471250.195  
                
  21304027.992   111953448.687    21304034.195    87236489.4694                 
                
  20031585.227   107268256.853                    83430879.622    20031587.949  
  20031584.098  
  22901357.578   120347471.249    22901367.352    93777305.3594   22901366.906  
                
  23851507.922   125340526.339    23851518.520    97667992.7254   23851518.781  
                
  19762055.938   105787878.666                    82279460.403    19762060.504  
  19762054.414  
 21  8 16 11 40 20.0000000  0 16R 6R 1R21R22G32G31G 1R23G27G22G 8G21
                                R 8G10G 3R 7
  23133094.992   123442639.712                                                  
  23133092.777  
  23389723.266   125031472.014                    97246695.198    23389730.430  
  23389722.512  
  23536816.648   125950217.322                    97961258.910    23536822.746  
  23536814.488  
  19920750.352   106338329.704                    82707612.687    19920753.051  
  19920748.633  
  20911567.258   109891063.039    20911575.805    85629456.4324   20911576.211  
                
  24060915.070   126440967.904    24060925.070    98525480.3494   24060925.367  
                
  21617034.273   113598316.341    21617044.574    88518210.3264   21617044.086  
                
  20470879.805   109505422.278                                                  
  20470878.309  
  24042016.914   126341609.605    24042027.492    98448054.4304   24042027.457  
                
  22341881.961   117407409.260    22341886.766    91486322.9684                 
                
  22476225.055   118113342.862    22476235.328    92036424.3914   22476235.875  
                
  21301557.148   111940464.339    21301563.379    87226371.7994                 
                
  20028517.273   107251828.159                    83418101.755    20028519.996  
  20028516.152  
  22906156.117   120372687.742    22906165.848    93796954.5694   22906165.426  
                
  23845990.891   125311533.720    23846001.352    97645401.1004   23846001.633  
                
  19765375.641   105805649.358                    82293282.042    19765380.227  
  19765374.098  
 21  8 16 11 40 30.0000000  0 16R 6R 1R21R22G32G31G 1R23G27G22G 8G21
                                R 8G10G 3R 7
  23140034.055   123479667.296                                                  
  23140031.734  
  23383116.000   124996152.434                    97219224.447    23383123.145  
  23383115.270  
  23545188.586   125995016.789                    97996102.868    23545194.637  
  23545186.430  
  19925376.922   106363026.605                    82726821.384    19925379.621  
  19925375.215  
  20913884.773   109903241.662    20913893.320    85638946.2694   20913893.727  
                
  24054479.781   126407150.235    24054489.746    98499128.9614   24054490.047  
                
  21611954.773   113571623.413    21611965.074    88497410.6424   21611964.594  
                
  20465785.805   109478172.831                                                  
  20465784.305  
  24048938.242   126377981.154    24048948.789    98476395.8594   24048948.762  
                
  22337708.266   117385476.356    22337713.066    91469232.3894                 
                
  22481218.203   118139581.990    22481228.496    92056870.4514   22481229.020  
                
  21299093.117   111927515.732    21299099.375    87216281.9714                 
                
  20025459.453   107235453.724                    83405366.095    20025462.188  
  20025458.340  
  22910957.258   120397917.864    22910966.965    93816614.3974   22910966.570  
                
  23840476.156   125282553.326    23840486.406    97622818.9614   23840486.746  
                
  19768703.820   105823465.356                    82307138.926    19768708.426  
  19768702.258  
 21  8 16 11 40 40.0000000  0 16R 6R 1R21R22G32G31G 1R23G27G22G 8G21
                                R 8G10G 3R 7
  23146973.141   123516695.438                                                  
  23146970.832  
  23376513.031   124960855.682                    97191771.454    23376520.102  
  23376512.262  
  23553563.555   126039832.723                    98030959.654    23553569.609  
  23553561.414  
  19930017.188   106387796.587                    82746086.925    19930019.879  
  19930015.492  
  20916212.445   109915473.634    20916221.000    85648477.6784   20916221.414  
                
  24048046.328   126373342.475    24048056.305    98472785.2944   24048056.594  
                
  21606881.445   113544962.961    21606891.742    88476636.2744   21606891.277  
                
  20460703.633   109450986.693                                                  
  20460702.133  
  24055861.039   126414360.614    24055871.586    98504743.4624   24055871.562  
                
  22333538.445   117363563.855    22333543.234    91452157.7274                 
                
  22486218.898   118165860.784    22486229.215    92077347.4194   22486229.727  
                
  21296635.898   111914603.038    21296642.191    87206220.1344                 
                
  20022411.828   107219133.872                    83392672.875    20022414.574  
  20022410.738  
  22915761.000   120423161.710    22915770.723    93836284.9024   22915770.332  
                
  23834963.758   125253585.303    23834973.922    97600246.4944   23834974.254  
                
  19772040.445   105841326.606                    82321031.000    19772045.066  
  19772038.875  
 21  8 16 11 40 50.0000000  0 16R 6R 1R21R22G32G31G 1R23G27G22G 8G21
                                R 8G10G 3R 7
  23153912.273   123553723.892                                                  
  23153909.930  
  23369914.312   124925581.960                    97164336.371    23369921.328  
  23369913.555  
  23561941.617   126084665.116                    98065829.219    23561947.676  
  23561939.488  
  19934671.102   106412639.435                    82765409.129    19934673.828  
  19934669.426  
  20918550.281   109927758.982    20918558.852    85658050.6844   20918559.254  
                
  24041614.719   126339544.828    24041624.781    98446449.5024   24041625.059  
                
  21601814.336   113518335.187    21601824.633    88455887.3664   21601824.176  
                
  20455633.344   109423864.031                                                  
  20455631.832  
  24062785.328   126450747.989    24062795.859    98533097.2324   24062795.855  
                
  22329372.539   117341671.891    22329377.312    91435099.0544                 
                
  22491227.070   118192178.929    22491237.430    92097855.0454   22491237.930  
                
  21294185.570   111901726.439    21294191.883    87196186.4214                 
                
  20019374.383   107202868.507                    83380022.044    20019377.145  
  20019373.312  
  22920567.391   120448419.369    22920577.141    93855966.1854   22920576.730  
                
  23829453.734   125224629.799    23829463.836    97577683.7574   23829464.164  
                
  19775385.562   105859233.247                    82334958.386    19775390.199  
  19775383.996  
 21  8 16 11 41  0.0000000  0 16R 6R 1R21R22G32G31G 1R23G27G22G 8G21
                                R 8G10G 3R 7
  23160851.570   123590752.587                                                  
  23160849.156  
  23363319.906   124890330.996                    97136918.951    23363326.793  
  23363319.117  
  23570322.797   126129513.678                    98100711.373    23570328.750  
  23570320.594  
  19939338.617   106437554.913                    82784787.829    19939341.340  
  19939336.941  
  20920898.203   109940097.354    20920906.801    85667664.9974   20920907.191  
                
  24035185.094   126305757.170    24035195.191    98420121.5274   24035195.457  
                
  21596753.414   113491739.866    21596763.727    88435163.7414   21596763.266  
                
  20450574.891   109396804.738                                                  
  20450573.367  
  24069711.055   126487142.905    24069721.578    98561456.8634   24069721.586  
                
  22325210.484   117319800.225    22325215.250    91418056.2144                 
                
  22496242.727   118218536.289    22496253.125    92118393.2364   22496253.613  
                
  21291742.070   111888885.753    21291748.410    87186180.6984                 
                
  20016347.078   107186657.434                    83367413.440    20016349.852  
  20016346.020  
  22925376.359   120473690.541    22925386.148    93875657.9964   22925385.703  
                
  23823946.039   125195686.465    23823956.008    97555130.5064   23823956.352  
                
  19778739.086   105877184.924                    82348920.797    19778743.727  
  19778737.531  
 21  8 16 11 41 10.0000000  0 16R 6R 1R21R22G32G31G 1R23G27G22G 8G21
                                R 8G10G 3R 7
  23167790.883   123627781.782                                                  
  23167788.434  
  23356729.805   124855103.243                    97109519.599    23356736.641  
  23356729.016  
  23578706.961   126174378.690                    98135606.351    23578712.910  
  23578704.762  
  19944019.781   106462543.239                    82804223.183    19944022.484  
  19944018.082  
  20923256.273   109952489.109    20923264.902    85677320.9064   20923265.281  
                
  24028757.508   126271980.084    24028767.590    98393801.7554   24028767.859  
                
  21591698.758   113465177.518    21591709.094    88414465.8214   21591708.633  
                
  20445528.367   109369809.247                                                  
  20445526.863  
  24076638.281   126523545.628    24076648.777    98589822.6054   24076648.801  
                
  22321052.383   117297949.303    22321057.125    91401029.5354                 
                
  22501265.828   118244932.877    22501276.277    92138961.9924   22501276.734  
                
  21289305.469   111876081.365    21289311.840    87176203.2584                 
                
  20013329.977   107170501.059                    83354847.382    20013332.727  
  20013328.926  
  22930187.953   120498975.598    22930197.773    93895360.6344   22930197.309  
                
  23818440.664   125166755.777    23818450.617    97532587.1384   23818450.941  
                
  19782101.047   105895181.787                    82362918.363    19782105.699  
  19782099.496  
 21  8 16 11 41 20.0000000  0 16R 6R 1R21R22G32G31G 1R23G27G22G 8G21
                                R 8G10G 3R 7
  23174730.250   123664810.955                                                  
  23174727.730  
  23350143.977   124819898.464                    97082138.139    23350150.824  
  23350143.234  
  23587094.180   126219259.601                    98170513.669    23587100.043  
  23587091.918  
  19948714.523   106487604.036                    82823714.912    19948717.254  
  19948712.824  
  20925624.438   109964933.860    20925633.109    85687018.1114   20925633.469  
                
  24022331.922   126238213.264    24022341.941    98367489.9734   24022342.223  
                
  21586650.328   113438647.860    21586660.668    88393793.3684   21586660.211  
                
  20440493.766   109342877.516                                                  
  20440492.266  
  24083566.898   126559955.729    24083577.434    98618194.0804   24083577.477  
                
  22316898.172   117276118.793    22316902.895    91384018.7584                 
                
  22506296.391   118271368.576    22506306.863    92159561.2264   22506307.309  
                
  21286875.734   111863313.039    21286882.129    87166253.9154                 
                
  20010323.047   107154399.107                    83342323.647    20010325.793  
  20010322.008  
  22935002.133   120524274.215    22935011.965    93915073.8334   22935011.492  
                
  23812937.602   125137837.401    23812947.562    97510053.3584   23812947.895  
                
  19785471.383   105913223.447                    82376950.767    19785476.020  
  19785469.836  
 21  8 16 11 41 30.0000000  0 17R16R 6R 1R21R22G32G31G 1R23G27G22G 8
                                G21R 8G10G 3R 7
  23566228.523   125886566.956                    97911789.628    23566232.461  
  23566227.871  
  23181669.594   123701840.507                                                  
  23181667.062  
  23343562.523   124784717.096                    97054774.871    23343569.410  
  23343561.801  
  23595484.352   126264156.656                    98205433.542    23595490.207  
  23595482.074  
  19953422.906   106512737.662                    82843263.270    19953425.676  
  19953421.188  
  20928002.727   109977431.875    20928011.441    85696756.8254   20928011.785  
                
  24015908.430   126204457.252    24015918.309    98341186.6184   24015918.598  
                
  21581608.211   113412151.366    21581618.551    88373146.7544   21581618.105  
                
  20435471.164   109316009.972                                                  
  20435469.664  
  24090497.023   126596373.501    24090507.543    98646571.5334   24090507.602  
                
  22312747.922   117254309.055    22312752.633    91367024.1624                 
                
  22511334.422   118297843.570    22511344.918    92180191.0804   22511345.355  
                
  21284452.945   111850581.187    21284459.359    87156332.9904                 
                
  20007326.359   107138351.990                    83329842.555    20007329.082  
  20007325.320  
  22939818.945   120549586.687    22939828.789    93934797.8344   22939828.320  
                
  23807436.961   125108931.761    23807446.961    97487529.4904   23807447.270  
                
  19788850.148   105931310.285                    82391018.304    19788854.801  
  19788848.590  
 21  8 16 11 41 40.0000000  0 17R16R 6R 1R21R22G32G31G 1R23G27G22G 8
                                G21R 8G10G 3R 7
  23563489.594   125871936.077                    97900410.091    23563493.488  
  23563489.020  
  23188608.805   123738869.661                                                  
  23188606.305  
  23336985.289   124749558.720                    97027429.480    23336992.324  
  23336984.660  
  23603877.359   126309069.317                    98240365.541    23603883.250  
  23603875.102  
  19958144.852   106537943.718                    82862867.976    19958147.656  
  19958143.137  
  20930391.055   109989982.678    20930399.816    85706536.6694   20930400.141  
                
  24009486.852   126170711.702    24009496.672    98314891.4114   24009496.961  
                
  21576572.328   113385687.696    21576582.664    88352525.7154   21576582.234  
                
  20430460.484   109289206.269                                                  
  20430458.988  
  24097428.461   126632798.371    24097439.004    98674954.5024   24097439.070  
                
  22308601.531   117232519.634    22308606.242    91350045.4024                 
                
  22516379.812   118324357.231    22516390.336    92200851.0694   22516390.750  
                
  21282037.023   111837885.444    21282043.449    87146440.2034                 
                
  20004339.805   107122359.156                    83317403.694    20004342.527  
  20004338.773  
  22944638.320   120574912.609    22944648.211    93954532.2974   22944647.738  
                
  23801938.680   125080038.410    23801948.746    97465015.2124   23801949.051  
                
  19792237.242   105949441.690                    82405120.507    19792241.902  
  19792235.676  
 21  8 16 11 41 50.0000000  0 17R16R 6R 1R21R22G32G31G 1R23G27G22G 8
                                G21R 8G10G 3R 7
  23560764.141   125857376.886                    97889086.297    23560767.887  
  23560763.520  
  23195548.094   123775898.844                                                  
  23195545.570  
  23330412.438   124714423.518                    97000102.154    23330419.613  
  23330411.863  
  23612273.352   126353997.691                    98275309.763    23612279.234  
  23612271.070  
  19962880.352   106563222.119                    82882528.947    19962883.145  
  19962878.613  
  20932789.477   110002586.499    20932798.281    85716357.8274   20932798.598  
                
  24003067.383   126136977.045    24003077.148    98288604.7004   24003077.402  
                
  21571542.766   113359257.193    21571553.094    88331930.5264   21571552.684  
                
  20425461.859   109262467.012                                                  
  20425460.344  
  24104361.258   126669230.526    24104371.840    98703343.1744   24104371.914  
                
  22304459.062   117210750.848    22304463.766    91333082.7224                 
                
  22521432.609   118350909.786    22521443.156    92221541.3524   22521443.559  
                
  21279628.039   111825226.130    21279634.477    87136575.7994                 
                
  20001363.477   107106421.051                    83305007.398    20001366.199  
  20001362.457  
  22949460.289   120600252.212    22949470.203    93974277.4184   22949469.707  
                
  23796442.773   125051157.655    23796452.871    97442510.7454   23796453.191  
                
  19795632.719   105967617.892                    82419257.552    19795637.383  
  19795631.145  
 21  8 16 11 42  0.0000000  0 17R16R 6R 1R21R22G32G31G 1R23G27G22G 8
                                G21R 8G10G 3R 7
  23558052.055   125842889.035                    97877817.974    23558055.641  
  23558051.371  
  23202487.273   123812927.883                                                  
  23202484.746  
  23323844.055   124679311.447                    96972792.802    23323851.195  
  23323843.418  
  23620672.156   126398941.667                    98310266.122    23620678.141  
  23620669.938  
  19967629.352   106588572.596                    82902245.976    19967632.141  
  19967627.621  
  20935197.922   110015243.030    20935206.766    85726220.0594   20935207.074  
                
  23996649.906   126103253.089    23996659.594    98262326.3084   23996659.844  
                
  21566519.484   113332859.740    21566529.812    88311361.0854   21566529.414  
                
  20420475.242   109235791.988                                                  
  20420473.723  
  24111295.406   126705669.613    24111306.000    98731737.2404   24111306.078  
                
  22300320.477   117189002.464    22300325.168    91316135.9314                 
                
  22526492.711   118377500.814    22526503.262    92242261.6224   22526503.660  
                
  21277225.930   111812603.007    21277232.371    87126739.6064                 
                
  19998397.305   107090537.387                    83292653.439    19998400.035  
  19998396.309  
  22954284.820   120625605.218    22954294.734    93994033.0054   22954294.223  
                
  23790949.312   125022289.305    23790959.391    97420015.9324   23790959.703  
                
  19799036.477   105985838.523                    82433429.150    19799041.148  
  19799034.922  
 21  8 16 11 42 10.0000000  0 17R16R 6R 1R21R22G32G31G 1R23G27G22G 8
                                G21R 8G10G 3R 7
  23555353.328   125828473.094                    97866605.616    23555356.875  
  23555352.621  
  23209426.414   123849956.788                                                  
  23209423.945  
  23317279.984   124644222.756                    96945501.598    23317287.078  
  23317279.316  
  23629073.875   126443901.189                    98345234.567    23629079.938  
  23629071.711  
  19972391.922   106613995.436                    82922019.292    19972394.703  
  19972390.184  
  20937616.445   110027952.475    20937625.332    85736123.5234   20937625.621  
                
  23990234.570   126069540.340    23990244.180    98236056.6714   23990244.434  
                
  21561502.555   113306495.622    21561512.910    88290817.6314   21561512.508  
                
  20415500.711   109209181.581                                                  
  20415499.203  
  24118230.859   126742115.849    24118241.500    98760136.8624   24118241.586  
                
  22296185.836   117167274.778    22296190.523    91299205.2794                 
                
  22531560.195   118404130.586    22531570.762    92263012.0844   22531571.152  
                
  21274830.805   111800016.525    21274837.234    87116931.9574                 
                
  19995441.320   107074708.233                    83280341.895    19995444.047  
  19995440.316  
  22959111.953   120650971.915    22959121.840    94013799.2544   22959121.344  
                
  23785458.250   124993433.568    23785468.355    97397530.9894   23785468.660  
                
  19802448.570   106004103.736                    82447635.425    19802453.254  
  19802447.020  
 21  8 16 11 42 20.0000000  0 17R16R 6R 1R21R22G32G31G 1R23G27G22G 8
                                G21R 8G10G 3R 7
  23552668.055   125814128.708                    97855448.870    23552671.504  
  23552667.348  
  23216365.562   123886985.328                                                  
  23216363.086  
  23310720.250   124609157.449                    96918228.633    23310727.332  
  23310719.609  
  23637478.453   126488876.012                    98380214.903    23637484.598  
  23637476.336  
  19977167.969   106639490.278                    82941848.601    19977170.742  
  19977166.230  
  20940045.000   110040714.676    20940053.918    85746068.0804   20940054.195  
                
  23983821.367   126035838.687    23983830.914    98209795.6834   23983831.176  
                
  21556491.969   113280164.868    21556502.344    88270300.1724   21556501.938  
                
  20410538.266   109182635.869                                                  
  20410536.754  
  24125167.664   126778568.973    24125178.309    98788541.8454   24125178.406  
                
  22292055.117   117145567.721    22292059.801    91282290.6984                 
                
  22536634.977   118430798.683    22536645.562    92283792.3944   22536645.949  
                
  21272442.641   111787466.625    21272449.055    87107152.8114                 
                
  19992495.500   107058933.555                    83268072.710    19992498.223  
  19992494.488  
  22963941.656   120676352.159    22963951.492    94033576.0474   22963951.023  
                
  23779969.578   124964590.426    23779979.703    97375055.8444   23779980.004  
                
  19805868.969   106022413.448                    82461876.304    19805873.664  
  19805867.426  
 21  8 16 11 42 30.0000000  0 17R16R 6R 1R21R22G32G31G 1R23G27G22G 8
                                G21R 8G10G 3R 7
  23549996.234   125799856.436                    97844348.231    23549999.652  
  23549995.543  
  23223304.648   123924013.663                                                  
  23223302.207  
  23304165.023   124574115.582                    96890973.843    23304171.996  
  23304164.332  
  23645885.875   126533866.014                    98415207.060    23645892.137  
  23645883.785  
  19981957.531   106665057.298                    82961734.068    19981960.320  
  19981955.773  
  20942483.578   110053529.536    20942492.527    85756053.6874   20942492.797  
                
  23977410.336   126002148.260    23977419.801    98183543.4494   23977420.051  
                
  21551487.758   113253867.555    21551498.148    88249808.7694   21551497.730  
                
  20405587.930   109156154.926                                                  
  20405586.418  
  24132105.781   126815028.883    24132116.418    98816952.1354   24132116.520  
                
  22287928.336   117123881.330    22287932.996    91265392.2234                 
                
  22541717.031   118457505.077    22541727.621    92304602.5764   22541728.008  
                
  21270061.438   111774953.321    21270067.832    87097402.1924                 
                
  19989559.883   107043213.499                    83255846.007    19989562.602  
  19989558.867  
  22968773.938   120701745.936    22968783.762    94053363.3954   22968783.309  
                
  23774483.305   124935759.889    23774493.488    97352590.5114   23774493.746  
                
  19809297.625   106040767.331                    82476151.552    19809302.324  
  19809296.070  
 21  8 16 11 42 40.0000000  0 17R16R 6R 1R21R22G32G31G 1R23G27G22G 8
                                G21R 8G10G 3R 7
  23547337.922   125785656.319                    97833303.690    23547341.289  
  23547337.254  
  23230243.695   123961041.768                                                  
  23230241.262  
  23297614.156   124539097.443                    96863737.521    23297621.125  
  23297613.473  
  23654296.203   126578871.413                    98450211.185    23654302.555  
  23654294.121  
  19986760.617   106690696.501                    82981675.656    19986763.383  
  19986758.852  
  20944932.227   110066397.264    20944941.195    85766080.4864   20944941.465  
                
  23971001.422   125968469.470    23971010.922    98157300.2764   23971011.152  
                
  21546489.969   113227604.002    21546500.359    88229343.6724   21546499.938  
                
  20400649.805   109129739.291                                                  
  20400648.301  
  24139045.211   126851495.695    24139055.859    98845367.8014   24139055.980  
                
  22283805.531   117102215.820    22283810.141    91248510.0094                 
                
  22546806.438   118484250.101    22546817.023    92325442.8334   22546817.402  
                
  21267687.258   111762476.878    21267693.641    87087680.2914                 
                
  19986634.477   107027548.072                    83243661.782    19986637.195  
  19986633.457  
  22973608.820   120727153.432    22973618.668    94073161.4344   22973618.191  
                
  23768999.492   124906942.180    23769009.715    97330135.1754   23769009.949  
                
  19812734.617   106059165.780                    82490461.453    19812739.320  
  19812733.047  
 21  8 16 11 42 50.0000000  0 16R16R 6R 1R22G32G31G 1R23G27G22G 8G21
                                R 8G10G 3R 7
  23544693.016   125771527.706                    97822314.803    23544696.355  
  23544692.348  
  23237182.492   123998068.805                                                  
  23237180.062  
  23291067.438   124504102.191                    96836519.056    23291074.551  
  23291066.875  
  19991577.078   106716407.142                    83001672.805    19991579.848  
  19991575.305  
  20947390.766   110079317.030    20947399.758    85776147.8314   20947400.012  
                
  23964594.664   125934801.691    23964604.141    98131065.6994   23964604.363  
                
  21541498.477   113201373.516    21541508.855    88208904.3354   21541508.441  
                
  20395723.742   109103388.192                                                  
  20395722.230  
  24145985.797   126887968.570    24145996.453    98873788.1894   24145996.582  
                
  22279686.547   117080570.445    22279691.117    91231643.4864                 
                
  22551903.016   118511032.766    22551913.613    92346312.4244   22551913.984  
                
  21265319.945   111750036.606    21265326.316    87077986.5694                 
                
  19983719.164   107011936.691                    83231519.602    19983721.867  
  19983718.160  
  22978446.180   120752573.888    22978456.023    94092969.5734   22978455.555  
                
  23763518.000   124878136.582    23763528.207    97307689.2724   23763528.438  
                
  19816179.734   106077607.810                    82504805.252    19816184.438  
  19816178.172  
 21  8 16 11 43  0.0000000  0 16R16R 6R 1R22G32G31G 1R23G27G22G 8G21
                                R 8G10G 3R 7
  23542061.711   125757471.659                    97811382.315    23542064.969  
  23542061.000  
  23244121.086   124035095.314                                                  
  23244118.762  
  23284525.258   124469130.477                    96809318.835    23284532.363  
  23284524.691  
  19996406.992   106742189.581                    83021725.808    19996409.766  
  19996405.215  
  20949859.305   110092289.358    20949868.309    85786256.1394   20949868.551  
                
  23958190.109   125901145.771    23958199.625    98104840.3474   23958199.852  
                
  21536513.398   113175176.813    21536523.773    88188491.3164   21536523.367  
                
  20390809.875   109077102.374                                                  
  20390808.352  
  24152927.641   126924448.018    24152938.285    98902213.6864   24152938.422  
                
  22275571.516   117058945.870    22275576.090    91214793.1784                 
                
  22557006.867   118537853.695    22557017.488    92367211.8384   22557017.855  
                
  21262959.641   111737633.117    21262965.992    87068321.5124                 
                
  19980814.039   106996379.937                    83219419.914    19980816.738  
  19980813.059  
  22983286.109   120778007.902    22983295.906    94112788.2764   22983295.477  
                
  23758038.969   124849343.720    23758049.102    97285253.2654   23758049.340  
                
  19819633.094   106096093.972                    82519183.381    19819637.789  
  19819631.531  
 21  8 16 11 43 10.0000000  0 16R16R 6R 1R22G32G31G 1R23G27G22G 8G21
                                R 8G10G 3R 7
  23539443.945   125743487.852                    97800506.008    23539447.152  
  23539443.262  
  23251059.742   124072121.656                                                  
  23251056.363  
  23277987.570   124434182.671                    96782137.232    23277994.641  
  23277987.012  
  20001250.391   106768043.997                    83041834.797    20001253.195  
  20001248.609  
  20952337.875   110105314.359    20952346.883    85796405.4864   20952347.125  
                
  23951787.867   125867501.848    23951797.406    98078624.3484   23951797.617  
                
  21531534.797   113149014.090    21531545.176    88168104.7954   21531544.754  
                
  20385908.289   109050882.185                                                  
  20385906.766  
  24159870.727   126960934.055    24159881.391    98930644.3334   24159881.516  
                
  22271460.500   117037342.342    22271465.109    91197959.2764                 
                
  22562117.977   118564712.702    22562128.613    92388140.9174   22562128.973  
                
  21260606.375   111725266.645    21260612.723    87058685.3064                 
                
  19977919.156   106980877.950                    83207362.820    19977921.855  
  19977918.176  
  22988128.641   120803455.575    22988138.410    94132617.6244   22988138.000  
                
  23752562.375   124820563.761    23752572.492    97262827.3364   23752572.715  
                
  19823094.695   106114624.151                    82533595.742    19823099.395  
  19823093.137  
 21  8 16 11 43 20.0000000  0 16R16R 6R 1R22G32G31G 1R23G27G22G 8G21
                                R 8G10G 3R 7
  23536839.867   125729577.416                    97789686.788    23536843.090  
  23536839.195  
  23257998.367   124109148.203                                                  
  23257994.172  
  23271454.477   124399259.311                    96754974.649    23271461.488  
  23271453.918  
  20006107.352   106793970.809                    83062000.086    20006110.203  
  20006105.562  
  20954826.586   110118392.631    20954835.590    85806596.3484   20954835.824  
                
  23945387.938   125833870.708    23945397.578    98052418.3054   23945397.785  
                
  21526562.812   113122886.146    21526573.164    88147745.3564   21526572.742  
                
  20381019.109   109024728.421                                                  
  20381017.586  
  24166815.180   126997427.246    24166825.863    98959080.5484   24166825.977  
                
  22267353.586   117015760.374    22267358.230    91181142.1604                 
                
  22567236.430   118591610.336    22567247.094    92409100.1024   22567247.465  
                
  21258260.305   111712937.949    21258266.648    87049078.5344                 
                
  19975034.609   106965431.370                    83195348.829    19975037.316  
  19975033.598  
  22992973.906   120828917.548    22992983.688    94152458.1134   22992983.273  
                
  23747088.312   124791797.374    23747098.410    97240411.9864   23747098.652  
                
  19826564.672   106133199.227                    82548043.026    19826569.371  
  19826563.121  
 21  8 16 11 43 30.0000000  0 15R16R 1R22G32G31G 1R23G27G22G 8G21R 8
                                G10G 3R 7
  23534249.328   125715739.398                    97778923.881    23534252.590  
  23534248.676  
  23264925.781   124364359.710                    96727830.509    23264932.789  
  23264925.262  
  20010977.711   106819969.121                    83082220.988    20010980.578  
  20010975.891  
  20957325.234   110131523.150    20957334.238    85816827.9244   20957334.477  
                
  23938990.352   125800251.524    23939000.016    98026221.5834   23939000.230  
                
  21521597.273   113096792.105    21521607.594    88127412.3484   21521607.180  
                
  20376142.195   108998640.227                                                  
  20376140.676  
  24173760.766   127033926.572    24173771.473    98987521.5384   24173771.609  
                
  22263250.594   116994199.024    22263255.285    91164341.1244                 
                
  22572362.086   118618545.731    22572372.797    92430088.7144   22572373.156  
                
  21255921.250   111700646.096    21255927.586    87039500.4714                 
                
  19972160.242   106950039.282                    83183377.209    19972162.953  
  19972159.234  
  22997821.727   120854392.877    22997831.527    94172309.0164   22997831.109  
                
  23741616.672   124763043.648    23741626.676    97218006.4834   23741626.945  
                
  19830042.844   106151818.139                    82562524.396    19830047.547  
  19830041.305  
 21  8 16 11 43 40.0000000  0 16R16R 6R 1R22G32G31G 1R23G27G22G 8G21
                                R 8G10G 3R 7
  23531672.148   125701972.745                    97768216.485    23531675.410  
  23531671.527  
  23271874.969   124183197.744                                                  
  23271872.586  
  23258401.391   124329482.532                    96700703.838    23258408.258  
  23258400.773  
  20015861.227   106846037.745                    83102496.572    20015864.125  
  20015859.398  
  20959833.578   110144704.674    20959842.566    85827099.2424   20959842.809  
                
  23932594.711   125766643.190    23932604.473    98000033.3154   23932604.727  
                
  21516637.961   113070730.815    21516648.246    88107104.8554   21516647.844  
                
  20371277.352   108972616.651                                                  
  20371275.824  
  24180707.266   127070430.695    24180717.930    99015966.2894   24180718.098  
                
  22259151.305   116972657.168    22259156.023    91147555.2744                 
                
  22577494.672   118645517.686    22577505.426    92451105.8014   22577505.781  
                
  21253588.969   111688389.948    21253595.297    87029950.2254                 
                
  19969295.805   106934700.434                    83171446.985    19969298.508  
  19969294.801  
  23002671.828   120879880.332    23002681.648    94192169.3524   23002681.211  
                
  23736147.141   124734301.363    23736157.148    97195609.9214   23736157.422  
                
  19833528.891   106170479.212                    82577038.556    19833533.582  
  19833527.367  
 21  8 16 11 43 50.0000000  0 16R16R 6R 1R22G32G31G 1R23G27G22G 8G21
                                R 8G10G 3R 7
  23529108.523   125688278.410                    97757565.337    23529111.805  
  23529107.871  
  23278813.023   124220220.242                                                  
  23278810.797  
  23251881.203   124294628.659                    96673595.306    23251888.145  
  23251880.652  
  20020758.016   106872177.142                    83122827.208    20020760.918  
  20020756.180  
  20962351.789   110157937.971    20962360.762    85837410.9094   20962361.004  
                
  23926201.500   125733046.728    23926211.234    97973854.2924   23926211.520  
                
  21511685.086   113044703.259    21511695.355    88086823.6474   21511694.965  
                
  20366424.766   108946658.598                                                  
  20366423.227  
  24187654.883   127106940.414    24187665.449    99044415.3934   24187665.652  
                
  22255055.891   116951135.633    22255060.625    91130785.2504                 
                
  22582634.359   118672526.820    22582645.156    92472151.8664   22582645.512  
                
  21251263.688   111676170.468    21251270.004    87020428.5514                 
                
  19966441.484   106919415.657                    83159558.842    19966444.184  
  19966440.484  
  23007524.414   120905380.736    23007534.258    94212039.7854   23007533.820  
                
  23730679.953   124705571.424    23730689.988    97173222.9624   23730690.285  
                
  19837023.016   106189183.525                    82591586.362    19837027.707  
  19837021.477  
 21  8 16 11 44  0.0000000  0 16R16R 6R 1R22G32G31G 1R23G27G22G 8G21
                                R 8G10G 3R 7
  23526558.625   125674657.179                    97746971.070    23526561.883  
  23526557.941  
  23285751.039   124257242.221                                                  
  23285748.758  
  23245365.461   124259798.986                    96646505.565    23245372.531  
  23245365.043  
  20025668.258   106898388.370                    83143213.709    20025671.184  
  20025666.406  
  20964880.000   110171223.849    20964888.953    85847763.5364   20964889.195  
                
  23919810.695   125699463.109    23919820.441    97947685.2584   23919820.746  
                
  21506738.781   113018710.354    21506749.031    88066569.4434   21506748.656  
                
  20361584.609   108920767.044                                                  
  20361583.086  
  24194603.734   127143456.407    24194614.160    99072869.3964   24194614.414  
                
  22250964.516   116929635.341    22250969.250    91114031.7874                 
                
  22587781.227   118699573.767    22587792.066    92493227.3924   22587792.414  
                
  21248945.539   111663988.544    21248951.844    87010936.1444                 
                
  19963597.414   106904185.795                    83147713.396    19963600.102  
  19963596.438  
  23012379.602   120930894.943    23012389.461    94231920.9684   23012389.039  
                
  23725215.195   124676854.674    23725225.262    97150846.2914   23725225.609  
                
  19840525.344   106207931.720                    82606168.284    19840530.020  
  19840523.801  
 21  8 16 11 44 10.0000000  0 16R16R 6R 1R22G32G31G 1R23G27G22G 8G21
                                R 8G10G 3R 7
  23524022.422   125661108.814                    97736433.457    23524025.566  
  23524021.672  
  23292688.766   124294263.127                                                  
  23292686.387  
  23238854.359   124224993.142                    96619434.388    23238861.387  
  23238853.895  
  20030591.844   106924670.746                    83163655.551    20030594.754  
  20030589.992  
  20967418.117   110184561.755    20967427.059    85858156.7134   20967427.301  
                
  23913422.258   125665891.979    23913432.035    97921525.9874   23913432.328  
                
  21501799.023   112992751.714    21501809.277    88046341.9324   21501808.898  
                
  20356756.836   108894941.719                                                  
  20356755.320  
  24201553.617   127179978.125    24201563.988    99101327.8494   24201564.289  
                
  22246877.094   116908155.826    22246881.816    91097294.5084                 
                
  22592935.180   118726657.910    22592946.055    92514331.9074   22592946.406  
                
  21246634.461   111651843.739    21246640.746    87001472.6604                 
                
  19960763.531   106889010.515                    83135910.408    19960766.211  
  19960762.559  
  23017237.344   120956422.439    23017247.246    94251812.4984   23017246.812  
                
  23719752.891   124648150.659    23719762.969    97128479.5444   23719763.336  
                
  19844035.766   106226723.284                    82620783.945    19844040.426  
  19844034.234  
 21  8 16 11 44 20.0000000  0 16R16R 6R 1R22G32G31G 1R23G27G22G 8G21
                                R 8G10G 3R 7
  23521499.773   125647633.360                    97725952.562    23521502.840  
  23521498.977  
  23299626.266   124331282.981                                                  
  23299623.906  
  23232347.742   124190211.133                    96592381.742    23232354.680  
  23232347.227  
  20035528.719   106951024.098                    83184152.576    20035531.656  
  20035526.871  
  20969966.102   110197951.484    20969975.020    85868590.2714   20969975.270  
                
  23907036.234   125632333.298    23907045.992    97895376.4204   23907046.281  
                
  21496865.766   112966827.290    21496876.035    88026141.0884   21496875.625  
                
  20351941.430   108869182.525                                                  
  20351939.914  
  24208504.586   127216505.324    24208514.906    99129790.5574   24208515.242  
                
  22242793.602   116886696.948    22242798.324    91080573.3134                 
                
  22598096.234   118753779.327    22598107.168    92535465.4614   22598107.488  
                
  21244330.422   111639735.949    21244336.691    86992038.0214                 
                
  19957939.773   106873889.446                    83124149.583    19957942.457  
  19957938.793  
  23022097.570   120981963.030    23022107.516    94271714.2584   23022107.059  
                
  23714293.039   124619459.303    23714303.156    97106122.6574   23714303.512  
                
  19847554.273   106245558.078                    82635433.228    19847558.910  
  19847552.754  
 21  8 16 11 44 30.0000000  0 16R16R 6R 1R22G32G31G 1R23G27G22G 8G21
                                R 8G10G 3R 7
  23518990.766   125634231.057                    97715528.560    23518993.812  
  23518990.004  
  23306563.602   124368301.872                                                  
  23306561.324  
  23225845.539   124155453.319                    96565347.929    23225852.496  
  23225845.090  
  20040478.914   106977448.536                    83204704.920    20040481.863  
  20040477.074  
  20972524.008   110211393.330    20972532.891    85879064.4334   20972533.152  
                
  23900652.766   125598787.495    23900662.402    97869236.8884   23900662.680  
                
  21491939.102   112940937.496    21491949.363    88005967.2224   21491948.938  
                
  20347138.500   108843490.110                                                  
  20347136.992  
  24215456.578   127253038.248    24215466.930    99158257.7354   24215467.289  
                
  22238714.102   116865259.062    22238718.816    91063868.4754                 
                
  22603264.367   118780937.903    22603275.320    92556627.9754   22603275.617  
                
  21242033.500   111627665.512    21242039.746    86982632.4844                 
                
  19955126.281   106858823.326                    83112431.485    19955128.961  
  19955125.289  
  23026960.375   121007517.117    23026970.328    94291626.5054   23026969.855  
                
  23708835.719   124590780.969    23708845.828    97083775.9194   23708846.188  
                
  19851080.867   106264436.213                    82650116.226    19851085.480  
  19851079.359  
 21  8 16 11 44 40.0000000  0 16R16R 6R 1R22G32G31G 1R23G27G22G 8G21
                                R 8G10G 3R 7
  23516495.477   125620901.575                    97705161.226    23516498.398  
  23516494.645  
  23313500.695   124405319.147                                                  
  23313498.395  
  23219347.773   124120719.096                    96538332.444    23219354.734  
  23219347.352  
  20045442.328   107003943.581                    83225312.161    20045445.336  
  20045440.500  
  20975091.711   110224886.712    20975100.559    85889578.7624   20975100.828  
                
  23894271.711   125565254.215    23894281.133    97843107.0864   23894281.418  
                
  21487018.938   112915081.932    21487029.191    87985820.0314   21487028.770  
                
  20342347.977   108817864.046                                                  
  20342346.473  
  24222409.500   127289576.298    24222419.902    99186728.9074   24222420.293  
                
  22234638.500   116843841.655    22234643.203    91047179.5914                 
                
  22608439.477   118808133.224    22608450.453    92577819.1174   22608450.734  
                
  21239743.602   111615632.007    21239749.840    86973255.7334                 
                
  19952322.867   106843811.180                    83100755.380    19952325.551  
  19952321.887  
  23031825.609   121033084.154    23031835.605    94311548.8534   23031835.117  
                
  23703380.781   124562115.128    23703390.934    97061438.9254   23703391.293  
                
  19854615.430   106283357.031                    82664832.414    19854620.031  
  19854613.953  
 21  8 16 11 44 50.0000000  0 16R16R 6R 1R22G32G31G 1R23G27G22G 8G21
                                R 8G10G 3R 7
  23514013.875   125607645.323                    97694850.807    23514016.695  
  23514013.043  
  23320437.578   124442335.342                                                  
  23320435.211  
  23212854.484   124086008.797                    96511335.554    23212861.445  
  23212854.074  
  20050418.977   107030509.322                    83245974.404    20050422.031  
  20050417.168  
  20977669.258   110238431.768    20977678.066    85900133.3574   20977678.355  
                
  23887893.062   125531733.833    23887902.320    97816987.3394   23887902.613  
                
  21482105.352   112889260.850    21482115.602    87965699.7234   21482115.172  
                
  20337569.914   108792304.649                                                  
  20337568.406  
  24229363.484   127326119.533    24229373.863    99215204.1344   24229374.266  
                
  22230566.859   116822445.061    22230571.566    91030506.9334                 
                
  22613621.609   118835365.457    22613632.578    92599039.0154   22613632.848  
                
  21237460.789   111603635.755    21237467.016    86963908.0054                 
                
  19949529.609   106828853.414                    83089121.576    19949532.309  
  19949528.625  
  23036693.344   121058664.286    23036703.367    94331481.4134   23036702.883  
                
  23697928.281   124533462.020    23697938.410    97039111.8324   23697938.789  
                
  19858158.016   106302320.735                    82679581.954    19858162.598  
  19858156.562  
 21  8 16 11 45  0.0000000  0 16R16R 6R 1R22G32G31G 1R23G27G22G 8G21
                                R 8G10G 3R 7
  23511546.039   125594462.460                    97684597.461    23511548.750  
  23511545.172  
  23327374.133   124479350.184                                                  
  23327371.793  
  23206365.656   124051322.513                    96484357.344    23206372.680  
  23206365.254  
  20055408.922   107057145.950                    83266691.764    20055412.020  
  20055407.137  
  20980256.656   110252028.586    20980265.422    85910728.2854   20980265.727  
                
  23881516.914   125498226.601    23881526.043    97790877.8364   23881526.332  
                
  21477198.375   112863474.522    21477208.625    87945606.4844   21477208.184  
                
  20332804.383   108766812.278                                                  
  20332802.887  
  24236318.453   127362668.042    24236328.824    99243683.4424   24236329.250  
                
  22226499.227   116801069.537    22226503.934    91013850.6894                 
                
  22618810.711   118862634.285    22618821.633    92620287.4304   22618821.910  
                
  21235185.102   111591676.946    21235191.309    86954589.4524                 
                
  19946746.531   106813950.176                    83077530.170    19946749.230  
  19946745.535  
  23041563.594   121084257.657    23041573.645    94351424.2914   23041573.160  
                
  23692478.234   124504821.797    23692488.328    97016794.7924   23692488.742  
                
  19861708.641   106321327.471                    82694364.977    19861713.203  
  19861707.199  
 21  8 16 11 45 10.0000000  0 16R16R 6R 1R22G32G31G 1R23G27G22G 8G21
                                R 8G10G 3R 7
  23509091.945   125581353.332                    97674401.458    23509094.621  
  23509091.066  
  23334310.383   124516363.720                                                  
  23334308.113  
  23199881.484   124016660.714                    96457398.218    23199888.496  
  23199881.031  
  20060412.125   107083853.331                    83287464.164    20060415.215  
  20060410.371  
  20982853.938   110265677.361    20982862.668    85921363.6944   20982862.980  
                
  23875143.367   125464732.844    23875152.312    97764778.8184   23875152.625  
                
  21472298.078   112837723.263    21472308.340    87925540.5714   21472307.883  
                
  20328051.414   108741387.126                                                  
  20328049.926  
  24243274.453   127399221.984    24243284.805    99272166.9804   24243285.227  
                
  22222435.586   116779715.010    22222440.289    90997210.8044                 
                
  22624006.891   118889940.278    22624017.766    92641564.8234   22624018.047  
                
  21232916.578   111579755.785    21232922.762    86945300.2374                 
                
  19943973.656   106799101.603                    83065981.278    19943976.363  
  19943972.668  
  23046436.414   121109864.503    23046446.492    94371377.6584   23046445.980  
                
  23687030.703   124476194.733    23687040.785    96994487.9994   23687041.199  
                
  19865267.297   106340377.205                    82709181.434    19865271.848  
  19865265.871  
 21  8 16 11 45 20.0000000  0 16R16R 6R 1R22G32G31G 1R23G27G22G 8G21
                                R 8G10G 3R 7
  23506651.500   125568317.252                    97664262.305    23506654.242  
  23506650.703  
  23341246.477   124553375.764                                                  
  23341244.023  
  23193401.680   123982022.882                    96430457.689    23193408.773  
  23193401.293  
  20065428.508   107110631.036                    83308291.260    20065431.602  
  20065426.766  
  20985461.008   110279377.592    20985469.719    85932039.2014   20985470.047  
                
  23868772.195   125431252.281    23868781.082    97738690.0924   23868781.383  
                
  21467404.398   112812006.751    21467414.680    87905501.7324   21467414.191  
                
  20323311.008   108716029.132                                                  
  20323309.520  
  24250231.391   127435780.749    24250241.742    99300654.3144   24250242.156  
                
  22218375.906   116758381.222    22218380.602    90980587.0794                 
                
  22629210.016   118917282.783    22629220.840    92662870.6574   22629221.117  
                
  21230655.164   111567871.948    21230661.316    86936040.1084                 
                
  19941210.945   106784307.450                    83054474.726    19941213.660  
  19941209.941  
  23051311.719   121135484.367    23051321.816    94391341.1644   23051321.281  
                
  23681585.625   124447580.443    23681595.676    96972191.1634   23681596.102  
                
  19868833.891   106359469.443                    82724030.950    19868838.438  
  19868832.469  
 21  8 16 11 45 30.0000000  0 16R16R 6R 1R22G32G31G 1R23G27G22G 8G21
                                R 8G10G 3R 7
  23504224.914   125555354.956                    97654180.529    23504227.648  
  23504224.086  
  23348182.125   124590386.214                                                  
  23348179.523  
  23186926.445   123947409.207                    96403535.982    23186933.559  
  23186926.047  
  20070458.070   107137479.143                    83329173.115    20070461.188  
  20070456.355  
  20988077.859   110293129.230    20988086.551    85942754.7574   20988086.883  
                
  23862403.531   125397785.106    23862412.410    97712611.8214   23862412.715  
                
  21462517.328   112786325.050    21462527.617    87885490.0234   21462527.117  
                
  20318583.141   108690738.276                                                  
  20318581.660  
  24257189.234   127472344.333    24257199.602    99329145.3924   24257200.020  
                
  22214320.172   116737068.256    22214324.848    90963979.5824                 
                
  22634420.047   118944661.608    22634430.812    92684204.7994   22634431.094  
                
  21228400.867   111556025.542    21228406.988    86926809.1424                 
                
  19938458.383   106769567.647                    83043010.426    19938461.102  
  19938457.367  
  23056189.508   121161117.263    23056199.609    94411314.8444   23056199.047  
                
  23676142.914   124418978.917    23676153.000    96949904.2934   23676153.441  
                
  19872408.438   106378604.259                    82738913.578    19872412.977  
  19872406.996  
 21  8 16 11 45 40.0000000  0 16R16R 6R 1R22G32G31G 1R23G27G22G 8G21
                                R 8G10G 3R 7
  23501812.219   125542466.694                    97644156.328    23501814.938  
  23501811.359  
  23355117.672   124627395.667                                                  
  23355115.285  
  23180455.820   123912820.188                    96376633.448    23180462.965  
  23180455.410  
  20075500.906   107164398.068                    83350110.060    20075504.008  
  20075499.215  
  20990704.609   110306932.860    20990713.266    85953510.8344   20990713.609  
                
  23856037.594   125364332.056    23856046.441    97686544.5384   23856046.770  
                
  21457637.023   112760678.907    21457647.301    87865506.0234   21457646.809  
                
  20313867.992   108665515.431                                                  
  20313866.527  
  24264148.039   127508913.244    24264158.500    99357640.6014   24264158.922  
                
  22210268.523   116715776.717    22210273.172    90947388.7754                 
                
  22639637.109   118972077.330    22639647.801    92705567.6844   22639648.102  
                
  21226153.828   111544217.282    21226159.918    86917607.9004                 
                
  19935716.062   106754882.681                    83031588.795    19935718.789  
  19935715.035  
  23061069.891   121186763.794    23061079.980    94431299.1444   23061079.402  
                
  23670702.773   124390390.857    23670712.859    96927627.9074   23670713.309  
                
  19875991.039   106397782.170                    82753829.729    19875995.582  
  19875989.586  
 21  8 16 11 45 50.0000000  0 16R16R 6R 1R22G32G31G 1R23G27G22G 8G21
                                R 8G10G 3R 7
  23499413.180   125529651.223                    97634188.726    23499415.840  
  23499412.199  
  23362052.773   124664402.290                                                  
  23362050.270  
  23173989.547   123878254.333                    96349748.927    23173996.660  
  23173989.117  
  20080556.672   107191386.028                    83371100.668    20080559.730  
  20080554.980  
  20993340.906   110320786.654    20993349.527    85964306.0044   20993349.887  
                
  23849674.094   125330891.599    23849682.898    97660487.0784   23849683.250  
                
  21452763.195   112735066.738    21452773.465    87845548.4914   21452772.969  
                
  20309165.289   108640359.108                                                  
  20309163.844  
  24271107.586   127545485.684    24271118.066    99386138.5524   24271118.469  
                
  22206220.656   116694504.996    22206225.289    90930813.4124                 
                
  22644860.898   118999528.382    22644871.527    92726958.1054   22644871.844  
                
  21223913.758   111532445.560    21223919.820    86908435.1264                 
                
  19932983.742   106740251.227                    83020208.794    19932986.492  
  19932982.715  
  23065952.555   121212422.292    23065962.648    94451292.7664   23065962.070  
                
  23665264.883   124361814.604    23665274.930    96905360.6944   23665275.410  
                
  19879581.320   106417001.214                    82768777.876    19879585.871  
  19879579.867  
 21  8 16 11 46  0.0000000  0 16R16R 6R 1R22G32G31G 1R23G27G22G 8G21
                                R 8G10G 3R 7
  23497027.969   125516910.054                    97624278.981    23497030.695  
  23497026.984  
  23368987.625   124701407.480                                                  
  23368985.105  
  23167527.953   123843713.402                    96322883.785    23167535.059  
  23167527.504  
  20085625.695   107218444.760                    83392146.355    20085628.727  
  20085624.004  
  20995987.062   110334692.300    20995995.652    85975141.5694   20995996.031  
                
  23843313.266   125297465.431    23843322.094    97634440.7574   23843322.434  
                
  21447896.148   112709490.237    21447906.430    87825618.7524   21447905.934  
                
  20304475.312   108615270.915                                                  
  20304473.863  
  24278068.055   127582063.173    24278078.578    99414640.4624   24278078.961  
                
  22202176.852   116673254.697    22202181.512    90914254.7454                 
                
  22650091.609   119027015.894    22650102.230    92748376.9294   22650102.539  
                
  21221680.930   111520712.000    21221686.969    86899292.0914                 
                
  19930261.633   106725674.516                    83008871.348    19930264.422  
  19930260.594  
  23070837.789   121238094.283    23070847.902    94471296.8994   23070847.305  
                
  23659829.523   124333251.770    23659839.547    96883103.9434   23659840.055  
                
  19883179.594   106436263.049                    82783759.294    19883184.156  
  19883178.152  
 21  8 16 11 46 10.0000000  0 16R16R 6R 1R22G32G31G 1R23G27G22G 8G21
                                R 8G10G 3R 7
  23494656.305   125504240.930                    97614425.194    23494659.004  
  23494655.285  
  23375921.797   124738408.921                                                  
  23375919.293  
  23161070.453   123809194.618                    96296035.849    23161077.574  
  23161070.020  
  20090707.453   107245571.416                    83413244.856    20090710.488  
  20090705.762  
  20998642.602   110348647.206    20998651.164    85986015.5254   20998651.559  
                
  23836954.656   125264051.092    23836963.527    97608403.6544   23836963.898  
                
  21443035.422   112683946.975    21443045.703    87805714.9234   21443045.195  
                
  20299797.648   108590248.571                                                  
  20299796.191  
  24285028.953   127618643.107    24285039.559    99443144.2624   24285039.949  
                
  22198136.641   116652023.269    22198141.336    90897710.7934                 
                
  22655328.789   119054537.352    22655339.398    92769822.2084   22655339.703  
                
  21219454.914   111509014.187    21219460.938    86890176.9114                 
                
  19927549.297   106711150.125                    82997574.612    19927552.105  
  19927548.258  
  23075725.125   121263777.301    23075735.234    94491309.6394   23075734.625  
                
  23654396.258   124304699.847    23654406.242    96860855.7154   23654406.773  
                
  19886785.375   106455565.072                    82798771.979    19886789.938  
  19886783.926  
 21  8 16 11 46 20.0000000  0 16R16R 6R 1R22G32G31G 1R23G27G22G 8G21
                                R 8G10G 3R 7
  23492298.695   125491646.961                    97604629.912    23492301.395  
  23492297.707  
  23382855.750   124775409.961                                                  
  23382853.215  
  23154617.742   123774701.420                    96269207.829    23154624.883  
  23154617.316  
  20095802.531   107272769.287                    83434398.748    20095805.578  
  20095800.859  
  21001308.102   110362654.472    21001316.656    85996930.2764   21001317.059  
                
  23830598.938   125230652.043    23830607.891    97582378.4664   23830608.266  
                
  21438181.656   112658440.277    21438191.934    87785839.5794   21438191.426  
                
  20295132.914   108565295.457                                                  
  20295131.461  
  24291991.047   127655228.617    24292001.594    99471652.4194   24292001.984  
                
  22194100.648   116630814.037    22194105.359    90881184.1284                 
                
  22660573.023   119082095.938    22660583.602    92791296.4194   22660583.945  
                
  21217236.312   111497355.326    21217242.336    86881092.0904                 
                
  19924847.367   106696681.455                    82986321.203    19924850.172  
  19924846.316  
  23080615.172   121289474.542    23080625.234    94511333.4604   23080624.652  
                
  23648965.688   124276162.125    23648975.633    96838618.5404   23648976.180  
                
  19890399.242   106474910.356                    82813818.308    19890403.801  
  19890397.781  
 21  8 16 11 46 30.0000000  0 16R16R 6R 1R22G32G31G 1R23G27G22G 8G21
                                R 8G10G 3R 7
  23489955.102   125479127.878                    97594892.894    23489957.754  
  23489954.137  
  23389789.477   124812409.484                                                  
  23389786.977  
  23148169.758   123740233.504                    96242399.465    23148176.953  
  23148169.320  
  20100910.852   107300037.795                    83455607.578    20100913.859  
  20100909.188  
  21003983.469   110376713.567    21003992.012    86007885.4204   21003992.414  
                
  23824246.000   125197267.828    23824255.105    97556364.8534   23824255.496  
                
  21433334.766   112632969.734    21433345.055    87765992.4134   21433344.551  
                
  20290481.070   108540411.250                                                  
  20290479.633  
  24298954.062   127691819.105    24298964.582    99500164.4674   24298964.961  
                
  22190068.789   116609626.508    22190073.523    90864674.3754                 
                
  22665824.203   119109691.007    22665834.801    92812799.0594   22665835.145  
                
  21215025.039   111485735.042    21215031.070    86872037.3234                 
                
  19922155.750   106682268.013                    82975110.762    19922158.551  
  19922154.688  
  23085507.812   121315185.493    23085517.875    94531367.9764   23085517.293  
                
  23643537.719   124247638.120    23643547.645    96816392.0514   23643548.180  
                
  19894021.117   106494298.508                    82828897.971    19894025.664  
  19894019.668  
 21  8 16 11 46 40.0000000  0 16R16R 6R 1R22G32G31G 1R23G27G22G 8G21
                                R 8G10G 3R 7
  23487625.477   125466683.414                    97585213.862    23487628.121  
  23487624.535  
  23396722.891   124849407.943                                                  
  23396720.453  
  23141726.531   123705790.680                    96215610.653    23141733.730  
  23141726.043  
  20106032.344   107327376.625                    83476871.114    20106035.301  
  20106030.688  
  21006668.664   110390824.346    21006677.215    86018880.8354   21006677.605  
                
  23817896.031   125163898.542    23817905.137    97530362.8484   23817905.527  
                
  21428494.758   112607535.355    21428505.051    87746173.4184   21428504.559  
                
  20285842.102   108515595.928                                                  
  20285840.652  
  24305917.914   127728414.374    24305928.461    99528680.2134   24305928.844  
                
  22186041.039   116588460.573    22186045.777    90848181.4474                 
                
  22671082.328   119137322.569    22671092.945    92834330.1254   22671093.273  
                
  21212821.109   111474153.298    21212827.145    86863012.5864                 
                
  19919474.383   106667909.452                    82963942.983    19919477.176  
  19919473.320  
  23090403.031   121340910.008    23090413.090    94551413.0484   23090412.516  
                
  23638112.352   124219127.762    23638122.266    96794176.2174   23638122.812  
                
  19897650.938   106513729.209                    82844010.739    19897655.465  
  19897649.488  
 21  8 16 11 46 50.0000000  0 16R16R 6R 1R22G32G31G 1R23G27G22G 8G21
                                R 8G10G 3R 7
  23485309.719   125454313.191                    97575592.587    23485312.477  
  23485308.828  
  23403655.773   124886403.936                                                  
  23403652.012  
  23135287.750   123671372.124                    96188840.685    23135295.008  
  23135287.301  
  20111166.805   107354784.711                    83498188.494    20111169.727  
  20111165.145  
  21009363.500   110404985.790    21009372.055    86029915.7294   21009372.453  
                
  23811548.703   125130543.457    23811557.887    97504371.9384   23811558.277  
                
  21423661.469   112582136.283    21423671.770    87726381.9324   21423671.277  
                
  20281215.867   108490848.683                                                  
  20281214.410  
  24312882.391   127765013.413    24312893.059    99557198.9084   24312893.445  
                
  22182017.242   116567315.405    22182021.953    90831704.6864                 
                
  22676347.188   119164989.614    22676357.801    92855888.8374   22676358.141  
                
  21210624.344   111462609.199    21210630.383    86854017.1834                 
                
  19916803.125   106653605.020                    82952817.316    19916805.910  
  19916802.066  
  23095300.672   121366647.244    23095310.734    94571468.0014   23095310.188  
                
  23632689.398   124190630.101    23632699.367    96771970.2584   23632699.902  
                
  19901288.508   106533201.392                    82859155.770    19901293.031  
  19901287.055  
 21  8 16 11 47  0.0000000  0 15R16R 1R22G32G31G 1R23G27G22G 8G21R 8
                                G10G 3R 7
  23483007.906   125442017.491                    97566029.259    23483010.746  
  23483007.027  
  23128853.641   123636978.347                    96162089.992    23128860.926  
  23128853.215  
  20116314.359   107382262.609                    83519560.169    20116317.266  
  20116312.691  
  21012068.062   110419198.323    21012076.629    86040990.4304   21012077.020  
                
  23805204.195   125097203.034    23805213.422    97478392.4244   23805213.793  
                
  21418835.008   112556773.055    21418845.312    87706618.3884   21418844.816  
                
  20276602.469   108466170.121                                                  
  20276601.004  
  24319847.711   127801616.542    24319858.453    99585720.7714   24319858.824  
                
  22177997.469   116546191.379    22178002.145    90815244.4244                 
                
  22681618.781   119192691.996    22681629.402    92877475.0994   22681629.754  
                
  21208434.828   111451103.213    21208440.879    86845051.4844                 
                
  19914142.094   106639355.299                    82941734.212    19914144.875  
  19914141.031  
  23100200.789   121392397.565    23100210.887    94591533.1614   23100210.348  
                
  23627269.000   124162145.662    23627278.965    96749774.6184   23627279.508  
                
  19904933.938   106552715.648                    82874333.520    19904938.457  
  19904932.469  
 21  8 16 11 47 10.0000000  0 16R16R 6R 1R22G32G31G 1R23G27G22G 8G21
                                R 8G10G 3R 7
  23480720.023   125429796.062                    97556523.702    23480722.922  
  23480719.160  
  23417520.672   124960389.875                                                  
  23417518.688  
  23122424.102   123602609.032                    96135358.305    23122431.461  
  23122423.719  
  20121474.898   107409809.889                    83540985.839    20121477.867  
  20121473.223  
  21014782.281   110433461.566    21014790.863    86052104.6414   21014791.250  
                
  23798862.508   125063877.133    23798871.688    97452424.2374   23798872.043  
                
  21414015.328   112531445.466    21414025.617    87686882.6024   21414025.129  
                
  20272001.891   108441560.205                                                  
  20272000.418  
  24326813.844   127838223.360    24326824.562    99614245.5354   24326824.926  
                
  22173981.680   116525088.309    22173986.316    90798800.4714                 
                
  22686897.141   119220429.917    22686907.805    92899089.0494   22686908.160  
                
  21206252.531   111439635.144    21206258.602    86836115.3224                 
                
  19911491.117   106625159.498                    82930693.040    19911493.895  
  19911490.055  
  23105103.328   121418160.632    23105113.488    94611608.2604   23105112.945  
                
  23621851.086   124133674.172    23621861.023    96727589.0614   23621861.566  
                
  19908587.109   106572271.361                    82889543.517    19908591.633  
  19908585.617  
 21  8 16 11 47 20.0000000  0 16R16R 6R 1R22G32G31G 1R23G27G22G 8G21
                                R 8G10G 3R 7
  23478446.055   125417648.890                    97547075.930    23478448.996  
  23478445.195  
  23424452.484   124997379.241                                                  
  23424451.316  
  23115999.109   123568264.200                    96108645.708    23116006.535  
  23115998.766  
  20126648.375   107437426.239                    83562465.201    20126651.371  
  20126646.688  
  21017506.102   110447775.399    21017514.707    86063258.2744   21017515.098  
                
  23792523.578   125030565.900    23792532.703    97426467.4504   23792533.055  
                
  21409202.422   112506153.517    21409212.699    87667174.6004   21409212.227  
                
  20267414.133   108417018.842                                                  
  20267412.656  
  24333780.594   127874833.771    24333791.324    99642773.0844   24333791.703  
                
  22169969.875   116504006.199    22169974.504    90782372.8624                 
                
  22692182.164   119248202.843    22692192.875    92920730.2684   22692193.219  
                
  21204077.438   111428204.930    21204083.523    86827208.6664                 
                
  19908850.289   106611018.066                    82919694.151    19908853.070  
  19908849.219  
  23110008.297   121443936.418    23110018.500    94631693.2644   23110017.965  
                
  23616435.625   124105215.571    23616445.484    96705413.5104   23616446.043  
                
  19912248.008   106591868.482                    82904785.723    19912252.543  
  19912246.500  
 21  8 16 11 47 30.0000000  0 17R16R 6R 1R24R22G32G31G 1R23G27G22G 8
                                G21R 8G10G 3R 7
  23476186.047   125405576.282                    97537686.122    23476189.000  
  23476185.184  
  23431383.914   125034365.812                                                  
  23431383.219  
  23109578.742   123533943.630                    96081951.974    23109586.117  
  23109578.367  
  23583306.789   126110551.705                    98085978.017    23583311.746  
  23583306.258  
  20131834.773   107465111.592                    83583998.248    20131837.777  
  20131833.086  
  21020239.531   110462139.629    21020248.168    86074451.1794   21020248.551  
                
  23786187.500   124997269.239    23786196.508    97400522.0174   23786196.855  
                
  21404396.312   112480897.243    21404406.594    87647494.3884   21404406.117  
                
  20262839.227   108392546.121                                                  
  20262837.746  
  24340747.898   127911447.483    24340758.727    99671303.2134   24340759.105  
                
  22165962.016   116482944.753    22165966.652    90765961.3564                 
                
  22697473.828   119276010.617    22697484.574    92942398.6484   22697484.914  
                
  21201909.555   111416812.623    21201915.664    86818331.5424                 
                
  19906219.562   106596930.643                    82908737.275    19906222.336  
  19906218.484  
  23114915.672   121469724.748    23114925.938    94651788.0544   23114925.395  
                
  23611022.586   124076769.751    23611032.418    96683247.9404   23611032.969  
                
  19915916.555   106611506.517                    82920059.737    19915921.098  
  19915915.031  
 21  8 16 11 47 40.0000000  0 17R16R 6R 1R24R22G32G31G 1R23G27G22G 8
                                G21R 8G10G 3R 7
  23473939.977   125393578.182                    97528354.286    23473942.922  
  23473939.148  
  23438314.922   125071350.109                                                  
  23438313.391  
  23103162.961   123499647.819                    96055277.456    23103170.355  
  23103162.578  
  23575417.594   126068365.433                    98053166.515    23575422.758  
  23575417.012  
  20137034.133   107492866.123                    83605585.101    20137037.172  
  20137032.457  
  21022982.594   110476554.513    21022991.273    86085683.5524   21022991.637  
                
  23779854.234   124963987.529    23779863.141    97374588.2224   23779863.480  
                
  21399597.055   112455676.974    21399607.328    87627842.2314   21399606.848  
                
  20258277.250   108368142.623                                                  
  20258275.789  
  24347715.922   127948064.736    24347726.793    99699836.1004   24347727.176  
                
  22161958.148   116461904.337    22161962.785    90749566.2374                 
                
  22702772.148   119303853.450    22702782.918    92964094.3474   22702783.250  
                
  21199748.953   111405458.580    21199755.082    86809484.2364                 
                
  19903598.977   106582897.539                    82897822.625    19903601.711  
  19903597.906  
  23119825.492   121495525.907    23119835.840    94671892.8484   23119835.254  
                
  23605612.023   124048337.043    23605621.883    96661092.6004   23605622.434  
                
  19919592.875   106631186.113                    82935366.096    19919597.418  
  19919591.344  
 21  8 16 11 47 50.0000000  0 17R16R 6R 1R24R22G32G31G 1R23G27G22G 8
                                G21R 8G10G 3R 7
  23471708.047   125381655.498                    97519081.097    23471710.949  
  23471707.219  
  23445245.445   125108332.497                                                  
  23445243.559  
  23096751.891   123465377.231                    96028622.581    23096759.301  
  23096751.512  
  23567531.594   126026196.192                    98020368.252    23567536.938  
  23567531.000  
  20142246.531   107520690.204                    83627226.042    20142249.570  
  20142244.859  
  21025735.375   110491020.465    21025744.109    86096955.7244   21025744.457  
                
  23773523.969   124930721.454    23773532.707    97348666.6304   23773533.055  
                
  21394804.766   112430493.321    21394815.035    87608218.6104   21394814.547  
                
  20253728.289   108343808.696                                                  
  20253726.848  
  24354684.727   127984685.898    24354695.570    99728372.0384   24354695.973  
                
  22157958.398   116440885.509    22157963.023    90733187.9324                 
                
  22708077.227   119331731.737    22708087.980    92985817.6764   22708088.328  
                
  21197595.727   111394143.300    21197601.871    86800667.1304                 
                
  19900988.609   106568919.142                    82886950.540    19900991.309  
  19900987.570  
  23124737.859   121521340.418    23124748.238    94692008.0454   23124747.641  
                
  23600204.062   124019917.990    23600213.977    96638947.9054   23600214.508  
                
  19923276.945   106650907.220                    82950704.736    19923281.488  
  19923275.418  
 21  8 16 11 48  0.0000000  0 17R16R 6R 1R24R22G32G31G 1R23G27G22G 8
                                G21R 8G10G 3R 7
  23469490.070   125369807.516                    97509865.999    23469492.945  
  23469489.242  
  23452175.539   125145312.367                                                  
  23452173.473  
  23090345.508   123431131.457                    96001987.005    23090352.883  
  23090345.109  
  23559648.617   125984043.638                    97987582.963    23559654.199  
  23559648.074  
  20147471.844   107548583.232                    83648920.627    20147474.926  
  20147470.172  
  21028497.734   110505536.833    21028506.527    86108267.1794   21028506.867  
                
  23767196.562   124897470.627    23767205.160    97322756.8954   23767205.535  
                
  21390019.336   112405345.754    21390029.617    87588623.1074   21390029.117  
                
  20249192.250   108319543.966                                                  
  20249190.836  
  24361654.156   128021310.307    24361664.973    99756910.5044   24361665.371  
                
  22153962.641   116419887.710    22153967.262    90716826.0104                 
                
  22713388.930   119359644.866    22713399.668    93007568.1524   22713400.016  
                
  21195449.773   111382866.253    21195455.930    86791879.8224                 
                
  19898388.375   106554995.031                    82876120.682    19898391.035  
  19898387.332  
  23129652.633   121547167.645    23129662.984    94712133.1494   23129662.406  
                
  23594798.578   123991511.974    23594808.531    96616813.3544   23594809.035  
                
  19926968.711   106670669.542                    82966075.418    19926973.242  
  19926967.168  
 21  8 16 11 48 10.0000000  0 17R16R 6R 1R24R22G32G31G 1R23G27G22G 8
                                G21R 8G10G 3R 7
  23467286.188   125358034.673                    97500709.346    23467289.039  
  23467285.328  
  23459105.203   125182289.881                                                  
  23459103.125  
  23083943.711   123396910.663                    95975370.839    23083951.156  
  23083943.379  
  23551768.883   125941907.975                    97954810.826    23551774.664  
  23551768.312  
  20152710.102   107576545.396                    83670668.953    20152713.172  
  20152708.449  
  21031269.727   110520103.752    21031278.586    86119618.0234   21031278.910  
                
  23760872.039   124864235.312    23760880.645    97296859.2934   23760881.008  
                
  21385240.844   112380234.584    21385251.164    87569055.9754   21385250.641  
                
  20244669.258   108295348.969                                                  
  20244667.859  
  24368624.227   128057938.035    24368635.023    99785451.5424   24368635.410  
                
  22149970.938   116398911.150    22149975.562    90700480.6484                 
                
  22718707.273   119387592.859    22718718.004    93029345.7954   22718718.355  
                
  21193311.148   111371627.681    21193317.328    86783122.5024                 
                
  19895798.312   106541125.418                    82865333.230    19895800.977  
  19895797.254  
  23134569.867   121573007.752    23134580.219    94732268.2854   23134579.637  
                
  23589395.625   123963119.235    23589405.598    96594689.1634   23589406.086  
                
  19930668.164   106690472.976                    82981478.088    19930672.703  
  19930666.613  
 21  8 16 11 48 20.0000000  0 17R16R 6R 1R24R22G32G31G 1R23G27G22G 8
                                G21R 8G10G 3R 7
  23465096.430   125346336.992                    97491611.161    23465099.207  
  23465095.500  
  23466034.273   125219264.568                                                  
  23466032.172  
  23077546.641   123362714.813                    95948774.101    23077554.105  
  23077546.332  
  23543892.359   125899789.352                    97922051.918    23543898.316  
  23543891.789  
  20157961.234   107604576.213                    83692470.683    20157964.297  
  20157959.586  
  21034051.312   110534721.052    21034060.234    86131008.1334   21034060.531  
                
  23754550.406   124831015.513    23754559.078    97270973.7644   23754559.430  
                
  21380469.281   112355159.815    21380479.629    87549517.1954   21380479.082  
                
  20240159.273   108271223.596                                                  
  20240157.871  
  24375594.867   128094568.915    24375605.703    99813995.0464   24375606.062  
                
  22145983.266   116377955.767    22145987.898    90684151.7944                 
                
  22724032.227   119415575.633    22724042.906    93051150.5334   22724043.293  
                
  21191179.828   111360427.495    21191186.031    86774395.0884                 
                
  19893218.398   106527310.175                    82854588.053    19893221.059  
  19893217.324  
  23139489.523   121598860.620    23139499.906    94752413.3554   23139499.293  
                
  23583995.148   123934739.703    23584005.184    96572575.2664   23584005.648  
                
  19934375.281   106710317.455                    82996912.680    19934379.828  
  19934373.723  
 21  8 16 11 48 30.0000000  0 17R16R 6R 1R24R22G32G31G 1R23G27G22G 8
                                G21R 8G10G 3R 7
  23462920.750   125334714.909                    97482571.775    23462923.527  
  23462919.820  
  23472963.117   125256237.201                                                  
  23472960.840  
  23071154.352   123328544.409                    95922197.130    23071161.789  
  23071154.027  
  23536019.109   125857688.250                    97889306.622    23536025.219  
  23536018.551  
  20163225.328   107632676.291                    83714326.297    20163228.406  
  20163223.676  
  21036842.555   110549389.166    21036851.527    86142437.8264   21036851.793  
                
  23748231.852   124797811.872    23748240.570    97245100.8184   23748240.941  
                
  21375704.727   112330121.955    21375715.074    87530007.1754   21375714.523  
                
  20235662.430   108247168.533                                                  
  20235661.039  
  24382566.117   128131203.290    24382577.039    99842541.2614   24382577.371  
                
  22141999.695   116357022.022    22142004.340    90667839.7874                 
                
  22729363.820   119443593.221    22729374.457    93072982.4144   22729374.852  
                
  21189055.914   111349266.264    21189062.137    86765698.0254                 
                
  19890648.734   106513549.744                    82843885.487    19890651.387  
  19890647.672  
  23144411.711   121624726.740    23144422.062    94772568.7584   23144421.438  
                
  23578597.258   123906373.829    23578607.367    96550472.0194   23578607.805  
                
  19938090.141   106730203.414                    83012379.532    19938094.668  
  19938088.594  
 21  8 16 11 48 40.0000000  0 17R16R 6R 1R24R22G32G31G 1R23G27G22G 8
                                G21R 8G10G 3R 7
  23460759.141   125323168.403                    97473591.168    23460761.988  
  23460758.219  
  23479891.398   125293207.581                                                  
  23479889.121  
  23064766.812   123294399.373                    95895639.912    23064774.215  
  23064766.465  
  23528149.180   125815604.707                    97856575.012    23528155.363  
  23528148.598  
  20168502.359   107660845.360                    83736235.578    20168505.457  
  20168500.695  
  21039643.438   110564107.932    21039652.453    86153906.9964   21039652.703  
                
  23741916.336   124764624.332    23741925.180    97219240.4414   23741925.559  
                
  21370947.203   112305121.049    21370957.547    87510525.9604   21370957.000  
                
  20231178.719   108223183.739                                                  
  20231177.340  
  24389538.117   128167840.970    24389549.027    99871090.0604   24389549.355  
                
  22138020.242   116336109.894    22138024.902    90651544.6384                 
                
  22734702.039   119471645.655    22734712.660    93094841.4434   22734713.043  
                
  21186939.406   111338143.954    21186945.652    86757031.2884                 
                
  19888089.273   106499843.971                    82833225.447    19888091.891  
  19888088.234  
  23149336.398   121650606.000    23149346.688    94792734.4244   23149346.078  
                
  23573202.016   123878021.646    23573212.180    96528379.4244   23573212.605  
                
  19941812.688   106750130.483                    83027878.361    19941817.211  
  19941811.156  
 21  8 16 11 48 50.0000000  0 16R16R 1R24R22G32G31G 1R23G27G22G 8G21
                                R 8G10G 3R 7
  23458611.586   125311696.874                    97464668.881    23458614.578  
  23458610.656  
  23058383.844   123260278.837                    95869101.751    23058391.258  
  23058383.484  
  23520282.508   125773538.241                    97823856.682    23520288.695  
  23520281.879  
  20173792.164   107689082.595                    83758197.852    20173795.234  
  20173790.496  
  21042453.805   110578876.429    21042462.844    86165414.9154   21042463.086  
                
  23735603.797   124731452.233    23735612.766    97193392.1234   23735613.133  
                
  21366196.578   112280156.333    21366206.910    87491072.9294   21366206.371  
                
  20226708.023   108199268.515                                                  
  20226706.656  
  24396510.570   128204481.005    24396521.457    99899640.7084   24396521.777  
                
  22134044.758   116315218.590    22134049.402    90635265.7064                 
                
  22740046.727   119499732.069    22740057.359    93116726.9414   22740057.738  
                
  21184830.164   111327059.761    21184836.445    86748394.2624                 
                
  19885539.891   106486192.125                    82822607.339    19885542.484  
  19885538.852  
  23154263.430   121676497.535    23154273.664    94812909.6284   23154273.074  
                
  23567809.211   123849682.229    23567819.441    96506296.7724   23567819.840  
                
  19945542.766   106770097.847                    83043408.538    19945547.309  
  19945541.230  
 21  8 16 11 49  0.0000000  0 16R16R 1R24R22G32G31G 1R23G27G22G 8G21
                                R 8G10G 3R 7
  23456477.906   125300300.015                    97455804.685    23456481.051  
  23456475.402  
  23052005.500   123226182.767                    95842582.593    23052012.891  
  23052005.090  
  23512419.062   125731488.680                    97791151.498    23512425.199  
  23512418.344  
  20179094.625   107717387.453                    83780212.739    20179097.664  
  20179092.953  
  21045273.539   110593694.307    21045282.602    86176961.3144   21045282.840  
                
  23729294.203   124698295.445    23729303.227    97167555.7084   23729303.590  
                
  21361452.789   112255227.595    21361463.125    87471647.9464   21361462.590  
                
  20222250.305   108175422.747                                                  
  20222248.938  
  24403483.445   128241123.043    24403494.254    99928192.9134   24403494.570  
                
  22130073.172   116294347.773    22130077.809    90619002.7364                 
                
  22745397.820   119527852.205    22745408.453    93138638.7184   22745408.828  
                
  21182728.125   111316013.501    21182734.426    86739786.7904                 
                
  19883000.461   106472593.701                    82812030.800    19883003.039  
  19882999.398  
  23159192.711   121702401.037    23159202.961    94833094.1504   23159202.359  
                
  23562418.750   123821355.352    23562429.062    96484223.9044   23562429.430  
                
  19949280.289   106790105.092                    83058969.721    19949284.828  
  19949278.766  
 21  8 16 11 49 10.0000000  0 16R16R 1R24R22G32G31G 1R23G27G22G 8G21
                                R 8G10G 3R 7
  23454358.430   125288979.079                    97446999.529    23454361.773  
  23454355.664  
  23045631.883   123192112.092                    95816083.208    23045639.266  
  23045631.445  
  23504558.969   125689457.062                    97758460.254    23504565.062  
  23504558.238  
  20184409.930   107745760.919                    83802280.977    20184412.934  
  20184408.254  
  21048102.891   110608562.637    21048111.965    86188547.0274   21048112.203  
                
  23722987.773   124665155.221    23722996.820    97141732.1844   23722997.203  
                
  21356716.086   112230336.054    21356726.406    87452251.9534   21356725.883  
                
  20217805.828   108151647.790                                                  
  20217804.445  
  24410456.820   128277768.116    24410467.613    99956747.4584   24410467.926  
                
  22126105.703   116273498.585    22126110.352    90602756.6334                 
                
  22750755.469   119556006.698    22750766.105    93160577.2774   22750766.477  
                
  21180633.531   111305006.338    21180639.844    86731209.7784                 
                
  19880471.266   106459050.046                    82801496.857    19880473.844  
  19880470.176  
  23164124.492   121728317.602    23164134.730    94853288.8694   23164134.141  
                
  23557030.906   123793042.178    23557041.281    96462161.7344   23557041.625  
                
  19953025.477   106810153.320                    83074562.781    19953030.012  
  19953023.957  
 21  8 16 11 49 20.0000000  0 17R16R 6R 1R24R22G32G31G 1R23G27G22G 8
                                G21R 8G10G 3R 7
  23452252.953   125277732.796                    97438252.416    23452256.500  
  23452250.465  
  23507598.000   125441056.609                                                  
  23507595.070  
  23039262.805   123158065.811                    95789602.798    23039270.188  
  23039262.395  
  23496702.070   125647442.397                    97725782.184    23496708.055  
  23496701.359  
  20189737.867   107774201.765                    83824401.627    20189740.871  
  20189736.184  
  21050941.594   110623480.130    21050950.684    86200171.0484   21050950.918  
                
  23716684.328   124632030.437    23716693.371    97115920.6914   23716693.758  
                
  21351986.234   112205480.580    21351996.512    87432884.0504   21351996.023  
                
  20213374.336   108127942.345                                                  
  20213372.961  
  24417430.477   128314414.845    24417441.293    99985303.3254   24417441.590  
                
  22122142.125   116252669.874    22122146.773    90586526.4644                 
                
  22756119.406   119584194.334    22756130.051    93182541.6474   22756130.422  
                
  21178546.164   111294037.149    21178552.484    86722662.3614                 
                
  19877952.047   106445559.811                    82791004.458    19877954.637  
  19877950.953  
  23169058.523   121754246.004    23169068.742    94873492.8044   23169068.152  
                
  23551645.445   123764741.495    23551655.797    96440109.2684   23551656.145  
                
  19956778.016   106830240.925                    83090186.474    19956782.531  
  19956776.504  
 21  8 16 11 49 30.0000000  0 17R16R 6R 1R24R22G32G31G 1R23G27G22G 8
                                G21R 8G10G 3R 7
  23450161.695   125266562.211                    97429564.254    23450165.395  
  23450159.383  
  23514523.266   125478010.995                                                  
  23514520.625  
  23032898.492   123124044.952                    95763142.132    23032905.883  
  23032898.055  
  23488848.586   125605445.932                    97693118.270    23488854.480  
  23488847.871  
  20195078.570   107802710.834                    83846575.341    20195081.578  
  20195076.879  
  21053789.820   110638447.722    21053798.930    86211834.0944   21053799.160  
                
  23710384.039   124598922.183    23710393.062    97090122.0964   23710393.445  
                
  21347263.453   112180662.240    21347273.695    87413545.0894   21347273.223  
                
  20208956.078   108104307.637                                                  
  20208954.723  
  24424404.656   128351064.143    24424415.469   100013861.1824   24424415.723  
                
  22118182.625   116231862.588    22118187.273    90570313.0034                 
                
  22761489.836   119612416.094    22761500.488    93204532.6094   22761500.863  
                
  21176466.227   111283107.012    21176472.566    86714145.3764                 
                
  19875443.016   106432124.053                    82780554.428    19875445.605  
  19875441.953  
  23173994.969   121780187.242    23174005.184    94893706.7294   23174004.602  
                
  23546262.562   123736454.310    23546272.863    96418067.2934   23546273.184  
                
  19960538.148   106850369.175                    83105841.786    19960542.660  
  19960536.656  
 21  8 16 11 49 40.0000000  0 17R16R 6R 1R24R22G32G31G 1R23G27G22G 8
                                G21R 8G10G 3R 7
  23448084.711   125255468.072                    97420935.520    23448088.535  
  23448082.566  
  23521447.984   125514962.597                                                  
  23521445.211  
  23026538.938   123090049.736                    95736701.451    23026546.410  
  23026538.512  
  23480998.578   125563468.089                    97660468.837    23481004.406  
  23480997.863  
  20200432.109   107831288.353                    83868802.292    20200435.184  
  20200430.414  
  21056647.625   110653465.582    21056656.758    86223536.3284   21056656.984  
                
  23704086.977   124565830.888    23704096.008    97064336.7134   23704096.379  
                
  21342547.828   112155881.432    21342558.051    87394235.3684   21342557.594  
                
  20204551.133   108080744.125                                                  
  20204549.773  
  24431379.344   128387716.218    24431390.219   100042421.1954   24431390.430  
                
  22114227.266   116211077.030    22114231.918    90554116.4694                 
                
  22766866.789   119640672.056    22766877.441    93226550.2314   22766877.816  
                
  21174393.773   111272216.163    21174400.125    86705659.0024                 
                
  19872944.188   106418742.886                    82770146.855    19872946.766  
  19872943.137  
  23178933.922   121806141.522    23178944.152    94913930.8304   23178943.562  
                
  23540882.312   123708180.927    23540892.543    96396036.0844   23540892.875  
                
  19964305.891   106870538.120                    83121528.743    19964310.398  
  19964304.418  
 21  8 16 11 49 50.0000000  0 17R16R 6R 1R24R22G32G31G 1R23G27G22G 8
                                G21R 8G10G 3R 7
  23446021.875   125244449.590                    97412365.569    23446025.852  
  23446020.043  
  23528372.133   125551911.121                                                  
  23528369.473  
  23020184.078   123056079.773                    95710280.385    23020191.617  
  23020183.695  
  23473151.875   125521508.104                    97627833.314    23473157.621  
  23473151.184  
  20205798.352   107859933.741                    83891082.034    20205801.445  
  20205796.645  
  21059514.867   110668533.092    21059524.023    86235277.2444   21059524.234  
                
  23697793.094   124532756.114    23697802.070    97038564.1824   23697802.449  
                
  21337839.219   112131137.615    21337849.441    87374954.4884   21337848.992  
                
  20200159.406   108057251.401                                                  
  20200158.023  
  24438354.383   128424370.370    24438365.355   100070982.8224   24438365.520  
                
  22110275.922   116190312.597    22110280.590    90537936.4044                 
                
  22772250.117   119668961.547    22772260.766    93248593.9694   22772261.133  
                
  21172328.672   111261364.023    21172335.023    86697202.7984                 
                
  19870455.430   106405415.807                    82759781.354    19870457.988  
  19870454.363  
  23183875.242   121832108.276    23183885.500    94934164.6624   23183884.895  
                
  23535504.578   123679920.749    23535514.766    96374015.1954   23535515.078  
                
  19968081.086   106890747.012                    83137246.768    19968085.594  
  19968079.621  
 21  8 16 11 50  0.0000000  0 17R16R 6R 1R24R22G32G31G 1R23G27G22G 8
                                G21R 8G10G 3R 7
  23443973.438   125233507.114                    97403854.760    23443977.379  
  23443971.754  
  23535295.688   125588856.443                                                  
  23535293.211  
  23013833.945   123022134.971                    95683878.907    23013841.508  
  23013833.609  
  23465308.555   125479566.338                    97595211.965    23465314.246  
  23465307.895  
  20211177.297   107888646.915                    83913414.487    20211180.371  
  20211175.562  
  21062391.562   110683650.234    21062400.727    86247056.8364   21062400.934  
                
  23691502.445   124499698.048    23691511.297    97012804.6904   23691511.691  
                
  21333137.688   112106430.960    21333147.930    87355702.5514   21333147.488  
                
  20195780.922   108033829.472                                                  
  20195779.527  
  24445329.828   128461026.540    24445340.875   100099546.0164   24445340.992  
                
  22106328.633   116169569.487    22106333.312    90521772.9504                 
                
  22777639.852   119697284.631    22777650.480    93270663.8914   22777650.844  
                
  21170270.984   111250550.793    21170277.328    86688776.9024                 
                
  19867976.773   106392142.783                    82749457.896    19867979.336  
  19867975.672  
  23188818.938   121858087.541    23188829.176    94954408.2274   23188828.586  
                
  23530129.430   123651673.922    23530139.574    96352004.6854   23530139.855  
                
  19971863.750   106910995.921                    83152995.917    19971868.262  
  19971862.281  
 21  8 16 11 50 10.0000000  0 17R16R 6R 1R24R22G32G31G 1R23G27G22G 8
                                G21R 8G10G 3R 7
  23441939.164   125222640.744                    97395403.161    23441943.141  
  23441937.574  
  23542218.602   125625798.697                                                  
  23542216.223  
  23007488.648   122988215.819                    95657497.361    23007496.188  
  23007488.332  
  23457468.742   125437643.402                    97562605.230    23457474.398  
  23457468.129  
  20216568.977   107917428.035                    83935799.801    20216572.062  
  20216567.254  
  21065277.758   110698817.263    21065286.934    86258875.3014   21065287.137  
                
  23685215.023   124466657.089    23685223.762    96987058.5184   23685224.168  
                
  21328443.320   112081761.864    21328453.578    87336479.8844   21328453.121  
                
  20191415.789   108010478.982                                                  
  20191414.395  
  24452305.734   128497684.954    24452316.812   100128110.9694   24452316.906  
                
  22102385.461   116148847.964    22102390.168    90505626.3184                 
                
  22783036.000   119725641.462    22783046.594    93292760.1124   22783046.965  
                
  21168220.766   111239776.813    21168227.109    86680381.5954                 
                
  19865508.344   106378924.484                    82739176.987    19865510.891  
  19865507.250  
  23193765.070   121884079.604    23193775.262    94974661.7774   23193774.707  
                
  23524756.852   123623440.723    23524766.996    96330004.7784   23524767.258  
                
  19975653.938   106931285.100                    83168776.382    19975658.465  
  19975652.441  
 21  8 16 11 50 20.0000000  0 17R16R 6R 1R24R22G32G31G 1R23G27G22G 8
                                G21R 8G10G 3R 7
  23439919.211   125211850.433                    97387010.699    23439923.078  
  23439917.699  
  23549140.992   125662737.526                                                  
  23549138.652  
  23001148.109   122954322.004                    95631135.522    23001155.664  
  23001147.789  
  23449632.383   125395739.034                    97530012.955    23449638.000  
  23449631.777  
  20221973.297   107946276.744                    83958237.689    20221976.383  
  20221971.555  
  21068173.367   110714033.820    21068182.562    86270732.3624   21068182.750  
                
  23678930.789   124433633.064    23678939.434    96961325.5414   23678939.848  
                
  21323756.031   112057130.083    21323766.297    87317286.2944   21323765.836  
                
  20187063.953   107987199.691                                                  
  20187062.559  
  24459281.977   128534345.179    24459293.078   100156677.3214   24459293.137  
                
  22098446.328   116128147.717    22098451.039    90489496.2624                 
                
  22788438.492   119754031.655    22788449.062    93314882.3254   22788449.434  
                
  21166177.953   111229041.798    21166184.301    86672016.6484                 
                
  19863050.023   106365760.322                    82728938.198    19863052.602  
  19863048.969  
  23198713.586   121910084.161    23198723.758    94994925.0424   23198723.238  
                
  23519386.781   123595220.877    23519396.988    96308015.3204   23519397.215  
                
  19979451.555   106951614.068                    83184587.801    19979456.082  
  19979450.039  
 21  8 16 11 50 30.0000000  0 17R16R 6R 1R24R22G32G31G 1R23G27G22G 8
                                G21R 8G10G 3R 7
  23437913.523   125201136.451                    97378677.607    23437917.348  
  23437912.121  
  23556062.742   125699673.289                                                  
  23556060.402  
  22994812.398   122920453.970                    95604793.744    22994819.934  
  22994812.066  
  23441799.578   125353853.619                    97497435.442    23441805.180  
  23441798.996  
  20227390.328   107975193.244                    83980728.281    20227393.410  
  20227388.566  
  21071078.453   110729300.152    21071087.652    86282628.2074   21071087.828  
                
  23672649.750   124400626.451    23672658.359    96935606.1214   23672658.789  
                
  21319075.953   112032536.098    21319086.227    87298122.1614   21319085.770  
                
  20182725.523   107963992.046                                                  
  20182724.105  
  24466258.602   128571007.512    24466269.727   100185245.3534   24466269.777  
                
  22094511.328   116107469.149    22094516.031    90473383.1014                 
                
  22793847.383   119782455.458    22793857.941    93337030.7324   22793858.312  
                
  21164142.633   111218346.127    21164148.977    86663682.3634                 
                
  19860601.867   106352650.584                    82718741.752    19860604.484  
  19860600.844  
  23203664.539   121936101.535    23203674.730    95015198.3034   23203674.215  
                
  23514019.320   123567014.758    23514029.574    96286036.5544   23514029.781  
                
  19983256.672   106971983.212                    83200430.458    19983261.230  
  19983255.133  
 21  8 16 11 50 40.0000000  0 17R16R 6R 1R24R22G32G31G 1R23G27G22G 8
                                G21R 8G10G 3R 7
  23435922.133   125190498.852                    97370403.924    23435925.938  
  23435920.789  
  23562983.891   125736605.686                                                  
  23562981.512  
  22988481.477   122886611.453                    95578471.802    22988488.945  
  22988481.109  
  23433970.344   125311987.193                    97464872.632    23433975.898  
  23433969.758  
  20232819.992   108004177.103                    84003271.269    20232823.086  
  20232818.215  
  21073992.969   110744615.997    21074002.152    86294562.6254   21074002.316  
                
  23666372.000   124367637.198    23666380.559    96909900.2364   23666381.012  
                
  21314403.039   112007979.729    21314413.312    87278987.3304   21314412.855  
                
  20178400.484   107940856.024                                                  
  20178399.047  
  24473235.602   128607671.620    24473246.648   100213814.7384   24473246.715  
                
  22090580.414   116086812.065    22090585.121    90457286.6744                 
                
  22799262.578   119810912.392    22799273.125    93359204.9584   22799273.484  
                
  21162114.781   111207689.664    21162121.129    86655378.6204                 
                
  19858163.844   106339595.030                    82708587.436    19858166.508  
  19858162.805  
  23208617.891   121962131.480    23208628.059    95035481.3694   23208627.566  
                
  23508654.445   123538822.167    23508664.707    96264068.3154   23508664.898  
                
  19987069.211   106992392.006                    83216303.966    19987073.777  
  19987067.664  
 21  8 16 11 50 50.0000000  0 16R16R 1R24R22G32G31G 1R23G27G22G 8G21
                                R 8G10G 3R 7
  23433945.039   125179937.292                    97362189.395    23433948.742  
  23433943.719  
  22982155.227   122852794.400                    95552169.698    22982162.758  
  22982154.918  
  23426144.609   125270139.466                    97432324.419    23426150.125  
  23426144.020  
  20238262.242   108033228.250                    84025866.590    20238265.336  
  20238260.457  
  21076916.836   110759980.946    21076925.992    86306535.3124   21076926.160  
                
  23660097.578   124334665.047    23660106.020    96884207.6884   23660106.508  
                
  21309737.234   111983460.774    21309747.500    87259881.6534   21309747.043  
                
  20174088.797   107917791.441                                                  
  20174087.348  
  24480212.844   128644337.048    24480223.832   100242385.1674   24480223.922  
                
  22086653.523   116066176.105    22086658.230    90441206.7124                 
                
  22804684.008   119839402.142    22804694.523    93381404.7464   22804694.875  
                
  21160094.344   111197072.150    21160100.699    86647105.2314                 
                
  19855735.875   106326593.442                    82698475.103    19855738.570  
  19855734.805  
  23213573.570   121988173.646    23213583.684    95055773.9474   23213583.230  
                
  23503292.078   123510642.803    23503302.336    96242110.3864   23503302.531  
                
  19990889.086   107012840.082                    83232208.017    19990893.664  
  19990887.527  
 21  8 16 11 51  0.0000000  0 16R16R 1R24R22G32G31G 1R23G27G22G 8G21
                                R 8G10G 3R 7
  23431981.977   125169450.676                    97354033.174    23431985.574  
  23431980.727  
  22975833.562   122819001.435                    95525886.284    22975841.039  
  22975833.230  
  23418322.180   125228309.612                    97399790.127    23418327.695  
  23418321.598  
  20243716.844   108062345.243                    84048513.145    20243719.945  
  20243715.043  
  21079849.805   110775393.855    21079858.918    86318545.3744   21079859.109  
                
  23653826.156   124301709.067    23653834.598    96858527.7414   23653835.094  
                
  21305078.344   111958978.197    21305088.617    87240804.3294   21305088.164  
                
  20169790.273   107894797.281                                                  
  20169788.820  
  24487190.094   128681002.604    24487201.059   100270955.6924   24487201.164  
                
  22082730.430   116045560.179    22082735.129    90425142.3674                 
                
  22810111.438   119867923.436    22810121.922    93403629.1224   22810122.301  
                
  21158081.094   111186492.509    21158087.465    86638861.3634                 
                
  19853317.758   106313644.586                    82688403.756    19853320.457  
  19853316.703  
  23218531.352   122014226.914    23218541.414    95076075.1864   23218540.980  
                
  23497931.992   123482475.544    23497942.277    96220161.8894   23497942.488  
                
  19994716.086   107033326.314                    83248141.756    19994720.672  
  19994714.543  
 21  8 16 11 51 10.0000000  0 16R16R 1R24R22G32G31G 1R23G27G22G 8G21
                                R 8G10G 3R 7
  23430033.367   125159041.547                    97345937.178    23430036.914  
  23430032.211  
  22969516.734   122785234.937                    95499623.497    22969524.309  
  22969516.473  
  23410503.523   125186499.922                    97367271.493    23410509.051  
  23410502.922  
  20249184.156   108091530.154                    84071212.511    20249187.266  
  20249182.340  
  21082792.336   110790856.944    21082801.402    86330594.5374   21082801.613  
                
  23647558.250   124268771.671    23647566.762    96832862.2814   23647567.254  
                
  21300426.836   111934534.387    21300437.129    87221757.2144   21300436.664  
                
  20165505.367   107871875.956                                                  
  20165503.898  
  24494167.758   128717670.541    24494178.742   100299528.0574   24494178.883  
                
  22078811.609   116024966.659    22078816.289    90409095.4664                 
                
  22815545.336   119896478.725    22815555.832    93425879.9784   22815556.215  
                
  21156075.516   111175953.113    21156081.895    86630648.8414                 
                
  19850909.945   106300750.789                    82678375.243    19850912.641  
  19850908.945  
  23223491.688   122040293.595    23223501.742    95096386.8834   23223501.332  
                
  23492574.695   123454322.781    23492585.020    96198224.7164   23492585.223  
                
  19998550.641   107053853.017                    83264106.976    19998555.238  
  19998549.109  
 21  8 16 11 51 20.0000000  0 16R16R 1R24R22G32G31G 1R23G27G22G 8G21
                                R 8G10G 3R 7
  23428099.203   125148709.259                    97337900.978    23428102.652  
  23428098.105  
  22963204.805   122751494.600                    95473381.009    22963212.441  
  22963204.605  
  23402688.555   125144709.952                    97334768.213    23402694.129  
  23402687.973  
  20254664.109   108120782.454                    84093964.276    20254667.227  
  20254662.305  
  21085744.281   110806369.487    21085753.301    86342682.2324   21085753.531  
                
  23641293.789   124235852.320    23641302.387    96807210.8844   23641302.867  
                
  21295782.609   111910128.812    21295792.918    87202739.8824   21295792.445  
                
  20161233.992   107849026.982                                                  
  20161232.523  
  24501145.773   128754340.059    24501156.727   100328101.6594   24501156.891  
                
  22074896.930   116004394.859    22074901.602    90393065.5014                 
                
  22820985.516   119925066.990    22820996.055    93448156.5314   22820996.430  
                
  21154077.484   111165453.377    21154083.871    86622467.2274                 
                
  19848512.312   106287911.510                    82668389.141    19848515.043  
  19848511.352  
  23228454.469   122066373.013    23228464.539    95116708.4754   23228464.125  
                
  23487220.047   123426183.879    23487230.418    96176298.2994   23487230.625  
                
  20002392.602   107074419.308                    83280102.974    20002397.211  
  20002391.074  
 21  8 16 11 51 30.0000000  0 16R16R 1R24R22G32G31G 1R23G27G22G 8G21
                                R 8G10G 3R 7
  23426179.312   125138453.558                    97329924.315    23426182.715  
  23426178.262  
  22956897.867   122717779.907                    95447158.494    22956905.367  
  22956897.555  
  23394877.250   125102939.489                    97302280.103    23394882.824  
  23394876.625  
  20260156.578   108150101.631                    84116768.078    20260159.746  
  20260154.781  
  21088705.555   110821931.118    21088714.551    86354808.1764   21088714.789  
                
  23635032.844   124202950.864    23635041.457    96781573.4344   23635041.922  
                
  21291145.594   111885761.219    21291155.906    87183752.1624   21291155.430  
                
  20156976.102   107826250.183                                                  
  20156974.637  
  24508123.945   128791010.757    24508134.953   100356676.1944   24508135.148  
                
  22070986.320   115983844.508    22070990.996    90377052.2434                 
                
  22826431.906   119953687.889    22826442.484    93470458.5074   22826442.848  
                
  21152086.953   111154993.094    21152093.348    86614316.3614                 
                
  19846124.797   106275126.495                    82658445.263    19846127.602  
  19846123.852  
  23233419.570   122092464.827    23233429.664    95137039.7404   23233429.215  
                
  23481867.914   123398058.466    23481878.363    96154382.4284   23481878.562  
                
  20006241.898   107095024.917                    83296129.561    20006246.527  
  20006240.363  
 21  8 16 11 51 40.0000000  0 16R16R 1R24R22G32G31G 1R23G27G22G 8G21
                                R 8G10G 3R 7
  23424273.758   125128274.583                    97322007.349    23424277.141  
  23424272.785  
  22950595.516   122684090.807                    95420955.863    22950603.102  
  22950595.270  
  23387069.609   125061188.768                    97269807.332    23387075.219  
  23387069.012  
  20265661.547   108179487.516                    84139623.766    20265664.727  
  20265659.754  
  21091676.164   110837541.723    21091685.141    86366972.2854   21091685.379  
                
  23628775.359   124170067.375    23628783.938    96755949.9714   23628784.379  
                
  21286515.836   111861431.660    21286526.141    87164794.0644   21286525.660  
                
  20152731.742   107803545.714                                                  
  20152730.277  
  24515102.414   128827682.480    24515113.402   100385251.5284   24515113.605  
                
  22067079.844   115963315.845    22067084.523    90361055.8844                 
                
  22831884.484   119982341.332    22831895.062    93492785.8424   22831895.449  
                
  21150103.945   111144572.275    21150110.340    86606196.2404                 
                
  19843747.383   106262395.568                    82648543.446    19843750.270  
  19843746.402  
  23238387.047   122118568.997    23238397.137    95157380.6364   23238396.680  
                
  23476518.359   123369946.617    23476528.863    96132477.1424   23476529.074  
                
  20010098.477   107115669.483                    83312186.438    20010103.117  
  20010096.941  
 21  8 16 11 51 50.0000000  0 16R16R 1R24R22G32G31G 1R23G27G22G 8G21
                                R 8G10G 3R 7
  23422382.664   125118172.334                    97314150.059    23422385.922  
  23422381.754  
  22944298.180   122650427.521                    95394773.355    22944305.645  
  22944297.844  
  23379265.727   125019458.011                    97237350.079    23379271.336  
  23379265.121  
  20271179.031   108208940.209                    84162531.397    20271182.238  
  20271177.246  
  21094656.078   110853201.298    21094665.027    86379174.5514   21094665.277  
                
  23622521.344   124137202.017    23622529.910    96730340.6314   23622530.328  
                
  21281893.336   111837140.277    21281903.648    87145865.7214   21281903.176  
                
  20148500.898   107780913.627                                                  
  20148499.422  
  24522081.016   128864355.172    24522092.031   100413827.6004   24522092.234  
                
  22063177.430   115942808.548    22063182.105    90345076.1884                 
                
  22837343.219   120011027.090    22837353.805    93515138.3704   22837354.203  
                
  21148128.453   111134190.989    21148134.844    86598106.9264                 
                
  19841380.039   106249718.611                    82638683.600    19841382.965  
  19841379.047  
  23243356.883   122144685.550    23243366.977    95177731.1884   23243366.500  
                
  23471171.430   123341848.348    23471181.934    96110582.3964   23471182.129  
                
  20013962.328   107136353.042                    83328273.650    20013966.992  
  20013960.793  
 21  8 16 11 52  0.0000000  0 16R16R 1R24R22G32G31G 1R23G27G22G 8G21
                                R 8G10G 3R 7
  23420505.875   125108146.881                    97306352.452    23420509.121  
  23420505.012  
  22938005.695   122616790.043                    95368610.905    22938013.047  
  22938005.238  
  23371465.531   124977746.885                    97204908.125    23371471.160  
  23371464.891  
  20276708.969   108238459.350                    84185490.723    20276712.176  
  20276707.207  
  21097645.281   110868909.645    21097654.203    86391414.8254   21097654.457  
                
  23616270.766   124104354.800    23616279.332    96704745.4424   23616279.727  
                
  21277278.086   111812887.025    21277288.410    87126967.0884   21277287.934  
                
  20144283.617   107758354.038                                                  
  20144282.125  
  24529059.836   128901028.618    24529070.793   100442404.2764   24529071.012  
                
  22059279.086   115922322.611    22059283.758    90329113.1224                 
                
  22842808.062   120039744.920    22842818.668    93537515.8904   22842819.059  
                
  21146160.461   111123849.139    21146166.840    86590048.3474                 
                
  19839022.812   106237095.757                    82628865.811    19839025.738  
  19839021.840  
  23248329.047   122170814.355    23248339.094    95198091.2774   23248338.617  
                
  23465827.086   123313763.590    23465837.531    96088698.1564   23465837.738  
                
  20017833.445   107157075.393                    83344391.030    20017838.113  
  20017831.910  
 21  8 16 11 52 10.0000000  0 16R16R 1R24R22G32G31G 1R23G27G22G 8G21
                                R 8G10G 3R 7
  23418643.531   125098198.254                    97298614.652    23418646.715  
  23418642.676  
  22931717.852   122583178.260                    95342468.425    22931725.227  
  22931717.422  
  23363669.109   124936055.952                    97172481.855    23363674.715  
  23363668.441  
  20282251.328   108268044.796                    84208501.612    20282254.570  
  20282249.566  
  21100643.766   110884666.740    21100652.664    86403693.0814   21100652.938  
                
  23610023.602   124071525.826    23610032.211    96679164.4494   23610032.590  
                
  21272670.133   111788672.040    21272680.445    87108098.2724   21272679.973  
                
  20140079.891   107735867.014                                                  
  20140078.383  
  24536038.820   128937702.783    24536049.707   100470981.4964   24536049.922  
                
  22055384.828   115901858.225    22055389.496    90313166.8614                 
                
  22848279.062   120068495.072    22848289.688    93559918.5864   22848290.082  
                
  21144200.000   111113546.851    21144206.379    86582020.5984                 
                
  19836675.680   106224526.922                    82619090.044    19836678.598  
  19836674.727  
  23253303.531   122196955.426    23253313.523    95218460.9084   23253313.047  
                
  23460485.312   123285692.362    23460495.703    96066824.4754   23460495.926  
                
  20021711.805   107177836.570                    83360538.610    20021716.477  
  20021710.289  
 21  8 16 11 52 20.0000000  0 16R16R 1R24R22G32G31G 1R23G27G22G 8G21
                                R 8G10G 3R 7
  23416795.578   125088326.733                    97290936.792    23416798.742  
  23416794.754  
  22925434.945   122549592.467                    95316346.165    22925442.293  
  22925434.484  
  23355876.453   124894385.322                    97140071.370    23355882.027  
  23355875.789  
  20287806.164   108297696.824                    84231564.285    20287809.422  
  20287804.410  
  21103651.547   110900472.700    21103660.422    86416009.4214   21103660.707  
                
  23603779.938   124038715.396    23603788.652    96653597.9374   23603789.012  
                
  21268069.516   111764495.608    21268079.820    87089259.4984   21268079.352  
                
  20135889.828   107713453.023                                                  
  20135888.316  
  24543017.906   128974377.764    24543028.777   100499559.3624   24543028.980  
                
  22051494.711   115881415.524    22051499.363    90297237.4934                 
                
  22853756.172   120097277.286    22853766.828    93582346.2704   22853767.219  
                
  21142247.109   111103284.324    21142253.473    86574023.8154                 
                
  19834338.664   106212012.278                    82609356.442    19834341.590  
  19834337.723  
  23258280.398   122223108.937    23258290.359    95238840.2664   23258289.891  
                
  23455146.156   123257634.917    23455156.508    96044961.5324   23455156.738  
                
  20025597.453   107198636.736                    83376716.515    20025602.129  
  20025595.949  
 21  8 16 11 52 30.0000000  0 16R16R 1R24R22G32G31G 1R23G27G22G 8G21
                                R 8G10G 3R 7
  23414962.031   125078532.218                    97283318.835    23414965.141  
  23414961.215  
  22919156.891   122516032.735                    95290244.171    22919164.207  
  22919156.398  
  23348087.594   124852735.097                    97107676.784    23348093.160  
  23348086.961  
  20293373.391   108327415.041                    84254678.453    20293376.672  
  20293371.629  
  21106668.578   110916327.266    21106677.438    86428363.6344   21106677.727  
                
  23597539.758   124005923.491    23597548.590    96628045.8554   23597548.934  
                
  21263476.195   111740357.619    21263486.492    87070450.6834   21263486.031  
                
  20131713.383   107691111.856                                                  
  20131711.879  
  24549997.109   129011053.245    24550007.930   100528137.6344   24550008.133  
                
  22047608.680   115860994.333    22047613.336    90281324.8844                 
                
  22859239.359   120126091.546    22859250.059    93604798.9224   22859250.438  
                
  21140301.750   111093061.417    21140308.105    86566057.9204                 
                
  19832011.703   106199551.527                    82599664.762    19832014.672  
  19832010.734  
  23263259.594   122249274.690    23263269.520    95259229.1504   23263269.043  
                
  23449809.555   123229591.062    23449819.914    96023109.2204   23449820.141  
                
  20029490.281   107219475.317                    83392924.292    20029494.965  
  20029488.793  
 21  8 16 11 52 40.0000000  0 16R16R 1R24R22G32G31G 1R23G27G22G 8G21
                                R 8G10G 3R 7
  23413142.969   125068814.940                    97275760.910    23413145.992  
  23413142.145  
  22912883.688   122482499.114                    95264162.490    22912890.988  
  22912883.254  
  23340302.664   124811105.600                    97075298.288    23340308.199  
  23340302.027  
  20298953.062   108357199.669                    84277844.267    20298956.359  
  20298951.297  
  21109694.875   110932230.550    21109703.727    86440755.8034   21109704.023  
                
  23591303.164   123973150.460    23591312.094    96602508.4744   23591312.414  
                
  21258890.250   111716258.321    21258900.531    87051672.0074   21258900.070  
                
  20127550.617   107668843.882                                                  
  20127549.133  
  24556976.352   129047729.344    24556987.160   100556716.3794   24556987.387  
                
  22043726.789   115840594.857    22043731.469    90265429.1994                 
                
  22864728.641   120154937.800    22864739.363    93627276.5074   22864739.727  
                
  21138363.992   111082878.427    21138370.340    86558123.1204                 
                
  19829694.836   106187144.918                    82590015.195    19829697.871  
  19829693.844  
  23268241.133   122275452.815    23268251.051    95279627.6744   23268250.562  
                
  23444475.602   123201560.994    23444485.973    96001267.6414   23444486.199  
                
  20033390.336   107240352.619                    83409162.197    20033395.023  
  20033388.852  
 21  8 16 11 52 50.0000000  0 16R16R 1R24R22G32G31G 1R23G27G22G 8G21
                                R 8G10G 3R 7
  23411338.344   125059174.688                    97268262.967    23411341.336  
  23411337.535  
  22906615.375   122448991.468                    95238101.023    22906622.664  
  22906614.906  
  23332521.570   124769496.638                    97042935.771    23332527.059  
  23332520.984  
  20304545.086   108387050.289                    84301061.416    20304548.348  
  20304543.340  
  21112730.406   110948182.368    21112739.242    86453185.7954   21112739.531  
                
  23585070.188   123940396.307    23585079.156    96576985.7984   23585079.469  
                
  21254311.664   111692197.708    21254321.941    87032923.4814   21254321.477  
                
  20123401.539   107646649.111                                                  
  20123400.051  
  24563955.695   129084405.791    24563966.457   100585295.3834   24563966.715  
                
  22039848.984   115820216.919    22039853.688    90249550.2944                 
                
  22870223.953   120183815.840    22870234.668    93649778.8604   22870235.027  
                
  21136433.820   111072735.299    21136440.164    86550219.3914                 
                
  19827388.109   106174792.491                    82580407.766    19827391.180  
  19827387.137  
  23273225.016   122301643.185    23273234.945    95300035.7634   23273234.457  
                
  23439144.289   123173544.628    23439154.605    95979436.7234   23439154.832  
                
  20037297.586   107261268.478                    83425430.081    20037302.289  
  20037296.105  
 21  8 16 11 53  0.0000000  0 16R16R 1R24R22G32G31G 1R23G27G22G 8G21
                                R 8G10G 3R 7
  23409548.172   125049611.695                    97260825.077    23409551.074  
  23409547.383  
  22900351.883   122415509.773                    95212059.720    22900359.250  
  22900351.434  
  23324744.414   124727908.439                    97010589.381    23324749.816  
  23324743.848  
  20310149.445   108416966.731                    84324329.737    20310152.707  
  20310147.680  
  21115775.133   110964182.507    21115783.945    86465653.4324   21115784.238  
                
  23578840.883   123907661.020    23578849.793    96551477.8014   23578850.105  
                
  21249740.422   111668175.712    21249750.695    87014205.0474   21249750.230  
                
  20119266.148   107624527.561                                                  
  20119264.664  
  24570934.984   129121082.385    24570945.801   100613874.4864   24570946.082  
                
  22035975.281   115799860.462    22035979.984    90233688.1184                 
                
  22875725.250   120212725.361    22875735.938    93672305.7374   22875736.301  
                
  21134511.203   111062631.897    21134517.531    86542346.6034                 
                
  19825091.438   106162493.894                    82570842.182    19825094.512  
  19825090.496  
  23278211.188   122327845.644    23278221.125    95320453.2454   23278220.609  
                
  23433815.562   123145541.895    23433825.805    95957616.4014   23433826.043  
                
  20041211.984   107282222.548                    83441727.698    20041216.699  
  20041210.500  
 21  8 16 11 53 10.0000000  0 16R16R 1R24R22G32G31G 1R23G27G22G 8G21
                                R 8G10G 3R 7
  23407772.492   125040126.139                    97253447.410    23407775.324  
  23407771.758  
  22894093.305   122382054.212                    95186038.755    22894100.691  
  22894092.820  
  23316971.148   124686341.132                    96978259.279    23316976.508  
  23316970.609  
  20315766.172   108446949.201                    84347649.432    20315769.434  
  20315764.398  
  21118829.094   110980231.195    21118837.879    86478158.8994   21118838.184  
                
  23572615.211   123874944.957    23572624.062    96525984.8054   23572624.387  
                
  21245176.602   111644192.687    21245186.863    86995516.9844   21245186.402  
                
  20115144.531   107602479.670                                                  
  20115143.062  
  24577914.352   129157759.280    24577925.215   100642453.8454   24577925.516  
                
  22032105.711   115779525.777    22032110.430    90217842.9254                 
                
  22881232.555   120241666.525    22881243.219    93694857.2764   22881243.590  
                
  21132596.219   111052568.603    21132602.531    86534505.0814                 
                
  19822804.828   106150249.249                    82561318.564    19822807.887  
  19822803.902  
  23283199.719   122354060.486    23283209.652    95340880.3814   23283209.160  
                
  23428489.414   123117552.982    23428499.590    95935806.8734   23428499.844  
                
  20045133.555   107303215.066                    83458055.199    20045138.277  
  20045132.055  
 21  8 16 11 53 20.0000000  0 16R16R 1R24R22G32G31G 1R23G27G22G 8G21
                                R 8G10G 3R 7
  23406011.344   125030718.156                    97246130.056    23406014.137  
  23406010.613  
  22887839.703   122348624.929                    95160038.232    22887847.059  
  22887839.188  
  23309201.836   124644794.995                    96945945.663    23309207.191  
  23309201.305  
  20321395.227   108476997.460                    84371020.291    20321398.457  
  20321393.453  
  21121892.242   110996328.154    21121901.000    86490701.9814   21121901.316  
                
  23566393.125   123842248.126    23566402.031    96500506.7804   23566402.336  
                
  21240620.188   111620248.589    21240630.434    86976859.2454   21240629.965  
                
  20111036.664   107580505.320                                                  
  20111035.219  
  24584893.750   129194436.216    24584904.672   100671033.2334   24584904.969  
                
  22028240.258   115759212.705    22028244.988    90202014.5694                 
                
  22886745.836   120270639.012    22886756.465    93717433.2274   22886756.824  
                
  21130688.836   111042545.258    21130695.129    86526694.6874                 
                
  19820528.289   106138058.535                    82551836.915    19820531.336  
  19820527.332  
  23288190.555   122380287.508    23288200.547    95361317.0024   23288200.043  
                
  23423165.883   123089577.802    23423176.008    95914008.0454   23423176.293  
                
  20049062.281   107324245.866                    83474412.493    20049067.016  
  20049060.773  
 21  8 16 11 53 30.0000000  0 16R16R 1R24R22G32G31G 1R23G27G22G 8G21
                                R 8G10G 3R 7
  23404264.648   125021387.494                    97238872.890    23404267.402  
  23404263.938  
  22881590.953   122315221.745                    95134057.982    22881598.227  
  22881590.426  
  23301436.477   124603270.087                    96913648.521    23301441.828  
  23301435.953  
  20327036.523   108507111.101                    84394442.006    20327039.770  
  20327034.762  
  21124964.570   111012473.337    21124973.305    86503282.6444   21124973.625  
                
  23560174.766   123809570.594    23560183.660    96475043.8094   23560183.973  
                
  21236071.188   111596343.447    21236081.418    86958231.8674   21236080.949  
                
  20106942.586   107558604.699                                                  
  20106941.145  
  24591873.133   129231113.122    24591884.117   100699612.5664   24591884.402  
                
  22024378.914   115738921.236    22024383.660    90186203.0434                 
                
  22892265.078   120299642.855    22892275.633    93740033.6034   22892275.996  
                
  21128789.062   111032561.914    21128795.340    86518915.4574                 
                
  19818261.875   106125922.040                    82542397.416    19818264.922  
  19818260.891  
  23293183.727   122406526.690    23293193.758    95381763.1094   23293193.262  
                
  23417844.992   123061616.362    23417855.082    95892219.9194   23417855.375  
                
  20052998.078   107345314.500                    83490799.203    20053002.840  
  20052996.566  
 21  8 16 11 53 40.0000000  0 16R16R 1R24R22G32G31G 1R23G27G22G 8G21
                                R 8G10G 3R 7
  23402532.492   125012134.517                    97231676.147    23402535.281  
  23402531.805  
  22875347.078   122281844.663                    95108098.050    22875354.309  
  22875346.496  
  23293675.062   124561766.379                    96881367.872    23293680.418  
  23293674.500  
  20332690.102   108537290.393                    84417914.780    20332693.379  
  20332688.332  
  21128046.047   111028666.629    21128054.773    86515900.7934   21128055.098  
                
  23553960.148   123776912.458    23553968.988    96449595.9394   23553969.281  
                
  21231529.602   111572477.338    21231539.816    86939634.9044   21231539.359  
                
  20102862.289   107536777.881                                                  
  20102860.852  
  24598852.414   129267789.760    24598863.527   100728191.7214   24598863.805  
                
  22020521.680   115718651.401    22020526.441    90170408.3764                 
                
  22897790.234   120328677.864    22897800.668    93762658.2724   22897801.098  
                
  21126896.914   111022618.613    21126903.172    86511167.4274                 
                
  19816005.484   106113839.236                    82532999.691    19816008.543  
  19816004.520  
  23298179.164   122432777.941    23298189.227    95402218.6104   23298188.738  
                
  23412526.719   123033668.659    23412536.812    95870442.5084   23412537.098  
                
  20056940.992   107366421.246                    83507215.559    20056945.770  
  20056939.488  
 21  8 16 11 53 50.0000000  0 16R16R 1R24R22G32G31G 1R23G27G22G 8G21
                                R 8G10G 3R 7
  23400814.875   125002959.279                    97224539.856    23400817.648  
  23400814.207  
  22869108.062   122248493.775                    95082158.517    22869115.336  
  22869107.461  
  23285917.656   124520284.292                    96849104.051    23285923.051  
  23285917.105  
  20338355.977   108567535.158                    84441438.474    20338359.254  
  20338354.191  
  21131136.703   111044908.109    21131145.426    86528556.4924   21131145.758  
                
  23547749.281   123744274.043    23547758.055    96424163.4554   23547758.367  
                
  21226995.508   111548650.503    21227005.715    86921068.5504   21227005.254  
                
  20098795.852   107515025.123                                                  
  20098794.418  
  24605831.742   129304466.281    24605842.938   100756770.7874   24605843.203  
                
  22016668.617   115698403.372    22016673.371    90154630.6954                 
                
  22903321.383   120357744.205    22903331.727    93785307.3634   22903332.207  
                
  21125012.406   111012715.491    21125018.645    86503450.7134                 
                
  19813759.211   106101810.515                    82523644.027    19813762.270  
  19813758.250  
  23303176.953   122459041.448    23303187.055    95422683.6604   23303186.566  
                
  23407211.117   123005734.845    23407221.184    95848675.9044   23407221.461  
                
  20060890.992   107387565.837                    83523661.355    20060895.785  
  20060889.508  
 21  8 16 11 54  0.0000000  0 16R16R 1R24R22G32G31G 1R23G27G22G 8G21
                                R 8G10G 3R 7
  23399111.844   124993861.903                    97217464.141    23399114.637  
  23399111.184  
  22862873.914   122215169.509                    95056239.657    22862881.305  
  22862873.398  
  23278164.305   124478823.689                    96816856.929    23278169.672  
  23278163.715  
  20344034.062   108597845.144                    84465012.900    20344037.344  
  20344032.277  
  21134236.508   111061197.665    21134245.258    86541249.6504   21134245.570  
                
  23541542.156   123711655.389    23541550.902    96398746.3534   23541551.199  
                
  21222468.883   111524862.965    21222479.074    86902532.8084   21222478.621  
                
  20094743.250   107493346.489                                                  
  20094741.812  
  24612810.961   129341142.511    24612822.242   100785349.5904   24612822.508  
                
  22012819.680   115678177.136    22012824.402    90138869.9984                 
                
  22908858.445   120386841.679    22908868.699    93807980.7164   22908869.238  
                
  21123135.555   111002852.539    21123141.766    86495765.2924                 
                
  19811523.016   106089835.810                    82514330.386    19811526.066  
  19811522.055  
  23308177.055   122485317.106    23308187.172    95443158.1784   23308186.664  
                
  23401898.117   122977814.876    23401908.145    95826920.0954   23401908.422  
                
  20064848.047   107408748.249                    83540136.559    20064852.840  
  20064846.578  
 21  8 16 11 54 10.0000000  0 16R16R 1R24R22G32G31G 1R23G27G22G 8G21
                                R 8G10G 3R 7
  23397423.359   124984842.211                    97210448.833    23397426.156  
  23397422.703  
  22856644.734   122181871.393                    95030341.149    22856652.184  
  22856644.250  
  23270415.062   124437385.111                    96784626.948    23270420.438  
  23270414.418  
  20349724.398   108628220.523                    84488638.186    20349727.727  
  20349722.625  
  21137345.438   111077535.202    21137354.219    86553980.2064   21137354.512  
                
  23535338.836   123679056.635    23535347.488    96373344.7574   23535347.797  
                
  21217949.758   111501114.803    21217959.918    86884027.7524   21217959.473  
                
  20090704.562   107471742.200                                                  
  20090703.113  
  24619790.117   129377818.268    24619801.457   100813928.0794   24619801.727  
                
  22008974.898   115657972.720    22008979.594    90123126.3104                 
                
  22914401.359   120415969.799    22914411.559    93830677.9404   22914412.152  
                
  21121266.352   110993029.847    21121272.531    86488111.2494                 
                
  19809296.883   106077915.032                    82505058.669    19809299.910  
  19809295.898  
  23313179.461   122511604.897    23313189.590    95463642.1564   23313189.090  
                
  23396587.742   122949908.775    23396597.719    95805175.0974   23396598.016  
                
  20068812.180   107429968.508                    83556641.206    20068816.984  
  20068810.715  
 21  8 16 11 54 20.0000000  0 16R16R 1R24R22G32G31G 1R23G27G22G 8G21
                                R 8G10G 3R 7
  23395749.422   124975900.271                    97203494.011    23395752.277  
  23395748.797  
  22850420.602   122148599.736                    95004463.226    22850428.035  
  22850420.082  
  23262669.867   124395968.279                    96752413.878    23262675.254  
  23262669.160  
  20355426.906   108658660.895                    84512314.011    20355430.250  
  20355425.141  
  21140463.461   111093920.523    21140472.270    86566747.9874   21140472.543  
                
  23529139.242   123646477.737    23529147.891    96347958.6394   23529148.215  
                
  21213438.117   111477405.980    21213448.254    86865553.3414   21213447.812  
                
  20086679.734   107450212.101                                                  
  20086678.281  
  24626769.188   129414493.420    24626780.543   100842506.0694   24626780.820  
                
  22005134.234   115637789.912    22005138.906    90107399.4544                 
                
  22919950.141   120445128.682    22919960.348    93853399.1384   22919960.941  
                
  21119404.797   110983247.331    21119410.953    86480488.5034                 
                
  19807080.789   106066048.026                    82495828.775    19807083.777  
  19807079.781  
  23318184.125   122537904.688    23318194.270    95484135.4784   23318193.762  
                
  23391279.977   122922016.420    23391289.953    95783440.8244   23391290.234  
                
  20072783.320   107451226.328                    83573175.052    20072788.125  
  20072781.867  
 21  8 16 11 54 30.0000000  0 16R16R 1R24R22G32G31G 1R23G27G22G 8G21
                                R 8G10G 3R 7
  23394090.094   124967036.306                    97196599.823    23394093.004  
  23394089.496  
  22844201.359   122115354.363                    94978605.748    22844208.762  
  22844200.785  
  23254928.742   124354573.457                    96720217.923    23254934.223  
  23254928.012  
  20361141.578   108689166.193                    84536040.347    20361144.902  
  20361139.820  
  21143590.578   111110353.638    21143599.395    86579553.0094   21143599.656  
                
  23522943.523   123613918.881    23522952.121    96322588.1394   23522952.441  
                
  21208933.992   111453736.637    21208944.125    86847109.7064   21208943.684  
                
  20082668.828   107428756.496                                                  
  20082667.379  
  24633748.141   129451167.870    24633759.496   100871083.4944   24633759.777  
                
  22001297.711   115617628.906    22001302.367    90091689.5814                 
                
  22925504.727   120474318.093    22925514.965    93876144.1144   22925515.555  
                
  21117550.914   110973505.118    21117557.059    86472897.1704                 
                
  19804874.766   106054234.904                    82486640.799    19804877.730  
  19804873.746  
  23323191.094   122564216.490    23323201.234    95504638.1454   23323200.734  
                
  23385974.852   122894137.940    23385984.824    95761717.3324   23385985.082  
                
  20076761.469   107472521.622                    83589738.062    20076766.273  
  20076760.016  
 21  8 16 11 54 40.0000000  0 16R16R 1R24R22G32G31G 1R23G27G22G 8G21
                                R 8G10G 3R 7
  23392445.359   124958250.292                    97189766.248    23392448.305  
  23392444.801  
  22837987.000   122082135.579                    94952768.940    22837994.500  
  22837986.461  
  23247191.758   124313200.776                    96688039.211    23247197.320  
  23247190.996  
  20366868.469   108719736.621                    84559817.331    20366871.785  
  20366866.719  
  21146726.812   111126834.621    21146735.633    86592395.3284   21146735.895  
                
  23516751.609   123581380.323    23516760.191    96297233.4504   23516760.523  
                
  21204437.422   111430107.007    21204447.574    86828697.0124   21204447.117  
                
  20078671.898   107407375.607                                                  
  20078670.445  
  24640726.992   129487841.677    24640738.344   100899660.4664   24640738.629  
                
  21997465.344   115597489.737    21997470.008    90075996.7344                 
                
  22931065.211   120503538.427    22931075.465    93898913.1944   22931076.070  
                
  21115704.727   110963803.346    21115710.859    86465337.3534                 
                
  19802678.820   106042475.745                    82477494.790    19802681.758  
  19802677.801  
  23328200.383   122590540.460    23328210.543    95525150.3174   23328210.031  
                
  23380672.414   122866273.459    23380682.391    95740004.7524   23380682.641  
                
  20080746.633   107493854.472                    83606330.276    20080751.430  
  20080745.168  
 21  8 16 11 54 50.0000000  0 16R16R 1R24R22G32G31G 1R23G27G22G 8G21
                                R 8G10G 3R 7
  23390815.211   124949542.257                    97182993.345    23390818.195  
  23390814.648  
  22831777.648   122048943.072                    94926952.566    22831785.129  
  22831777.051  
  23239458.953   124271850.488                    96655877.895    23239464.598  
  23239458.176  
  20372607.453   108750371.657                    84583644.589    20372610.719  
  20372605.723  
  21149872.086   111143363.194    21149880.902    86605274.7374   21149881.172  
                
  23510563.656   123548862.078    23510572.152    96271894.5974   23510572.477  
                
  21199948.383   111406516.975    21199958.551    86810315.1734   21199958.078  
                
  20074688.922   107386069.391                                                  
  20074687.465  
  24647705.656   129524514.591    24647717.031   100928236.6984   24647717.301  
                
  21993637.102   115577372.240    21993641.734    90060320.7704                 
                
  22936631.445   120532789.134    22936641.734    93921705.9434   22936642.340  
                
  21113866.203   110954141.847    21113872.328    86457808.9114                 
                
  19800492.859   106030770.129                    82468390.437    19800495.789  
  19800491.836  
  23333211.938   122616876.383    23333222.082    95545671.8024   23333221.586  
                
  23375372.594   122838422.797    23375382.594    95718302.9514   23375382.828  
                
  20084738.766   107515224.701                    83622951.560    20084743.551  
  20084737.285  
 21  8 16 11 55  0.0000000  0 16R16R 1R24R22G32G31G 1R23G27G22G 8G21
                                R 8G10G 3R 7
  23389199.688   124940912.381                    97176281.251    23389202.703  
  23389199.145  
  22825573.227   122015777.185                    94901156.908    22825580.758  
  22825572.633  
  23231730.438   124230522.631                    96623734.010    23231736.059  
  23231729.676  
  20378358.547   108781071.249                    84607522.028    20378361.828  
  20378356.848  
  21153026.422   111159939.352    21153035.227    86618191.2164   21153035.488  
                
  23504379.586   123516364.239    23504388.004    96246571.6254   23504388.328  
                
  21195466.922   111382966.704    21195477.094    86791964.3064   21195476.609  
                
  20070719.938   107364837.990                                                  
  20070718.469  
  24654684.125   129561186.500    24654695.527   100956812.1644   24654695.793  
                
  21989813.008   115557276.551    21989817.586    90044661.7934                 
                
  22942203.438   120562069.942    22942213.762    93944522.1324   22942214.352  
                
  21112035.375   110944520.775    21112041.492    86450311.9704                 
                
  19798316.992   106019118.489                    82459328.056    19798319.902  
  19798315.945  
  23338225.781   122643224.284    23338235.887    95566202.6264   23338235.406  
                
  23370075.414   122810586.058    23370085.480    95696612.0124   23370085.707  
                
  20088737.836   107536632.050                    83639601.720    20088742.621  
  20088736.332  
 21  8 16 11 55 10.0000000  0 16R16R 1R24R22G32G31G 1R23G27G22G 8G21
                                R 8G10G 3R 7
  23387598.805   124932360.753                    97169629.976    23387601.805  
  23387598.281  
  22819373.727   121982637.787                    94875381.830    22819381.340  
  22819373.164  
  23224006.117   124189217.256                    96591607.616    23224011.723  
  23224005.387  
  20384121.727   108811835.475                    84631449.749    20384125.027  
  20384120.035  
  21156189.797   111176563.011    21156198.582    86631144.7184   21156198.844  
                
  23498199.391   123483887.000    23498207.758    96221264.7114   23498208.059  
                
  21190993.031   111359456.255    21191003.207    86773644.4844   21191002.699  
                
  20066764.984   107343681.682                                                  
  20066763.508  
  24661662.383   129597857.361    24661673.828   100985386.8034   24661674.086  
                
  21985993.062   115537202.646    21985997.578    90029019.7964                 
                
  22947781.219   120591381.294    22947791.566    93967362.1374   22947792.145  
                
  21110212.242   110934940.213    21110218.355    86442846.5984                 
                
  19796151.156   106007520.655                    82450307.516    19796154.027  
  19796150.090  
  23343241.898   122669584.168    23343251.961    95586742.7774   23343251.496  
                
  23364780.867   122782763.233    23364791.008    95674931.9104   23364791.223  
                
  20092743.836   107558076.534                    83656280.763    20092748.637  
  20092742.324  
 21  8 16 11 55 20.0000000  0 16R16R 1R24R22G32G31G 1R23G27G22G 8G21
                                R 8G10G 3R 7
  23386012.578   124923887.316                    97163039.543    23386015.578  
  23386012.078  
  22813179.273   121949525.078                    94849627.523    22813186.875  
  22813178.711  
  23216286.102   124147934.710                    96559498.978    23216291.684  
  23216285.426  
  20389896.984   108842664.126                    84655427.583    20389900.332  
  20389895.297  
  21159362.203   111193234.119    21159370.949    86644135.1884   21159371.230  
                
  23492023.062   123451430.416    23492031.445    96195973.8924   23492031.730  
                
  21186526.742   111335985.728    21186536.910    86755355.7594   21186536.398  
                
  20062824.086   107322600.521                                                  
  20062822.609  
  24668640.461   129634527.052    24668651.914   101013960.5464   24668652.172  
                
  21982177.273   115517150.577    21982181.734    90013394.8174                 
                
  22953364.734   120620722.721    22953375.145    93990225.5704   22953375.715  
                
  21108396.859   110925400.280    21108402.969    86435412.8834                 
                
  19793995.375   105995976.528                    82441328.745    19793998.199  
  19793994.316  
  23348260.305   122695956.009    23348270.344    95607292.2614   23348269.891  
                
  23359489.008   122754954.392    23359499.215    95653262.7064   23359499.434  
                
  20096756.766   107579558.068                    83672988.618    20096761.566  
  20096755.258  
 21  8 16 11 55 30.0000000  0 16R16R 1R24R22G32G31G 1R23G27G22G 8G21
                                R 8G10G 3R 7
  23384441.000   124915492.268                    97156510.072    23384443.957  
  23384440.438  
  22806989.797   121916438.984                    94823893.913    22806997.402  
  22806989.246  
  23208570.414   124106675.056                    96527408.155    23208575.930  
  23208569.750  
  20395684.305   108873557.247                    84679455.555    20395687.641  
  20395682.609  
  21162543.641   111209952.703    21162552.348    86657162.6644   21162552.652  
                
  23485850.727   123418994.783    23485859.125    96170699.3984   23485859.363  
                
  21182068.086   111312555.338    21182078.238    86737098.3164   21182077.738  
                
  20058897.242   107301594.585                                                  
  20058895.777  
  24675618.344   129671195.568    24675629.754   101042533.3564   24675630.020  
                
  21978365.664   115497120.483    21978370.062    89997786.9514                 
                
  22958953.922   120650094.167    22958964.406    94013112.3814   22958964.941  
                
  21106589.227   110915901.100    21106595.328    86428010.9244                 
                
  19791849.656   105984486.374                    82432391.959    19791852.445  
  19791848.598  
  23353280.992   122722339.916    23353291.039    95627851.1574   23353290.578  
                
  23354199.836   122727159.622    23354210.105    95631604.4504   23354210.305  
                
  20100776.648   107601076.841                    83689725.439    20100781.457  
  20100775.133  
 21  8 16 11 55 40.0000000  0 16R16R 1R24R22G32G31G 1R23G27G22G 8G21
                                R 8G10G 3R 7
  23382884.039   124907175.373                    97150041.410    23382887.031  
  23382883.453  
  22800805.344   121883379.339                    94798180.883    22800812.895  
  22800804.777  
  23200859.000   124065438.282                    96495335.119    23200864.426  
  23200858.344  
  20401483.625   108904514.352                    84703533.278    20401486.980  
  20401481.922  
  21165734.047   111226718.379    21165742.715    86670226.8234   21165743.043  
                
  23479682.266   123386579.851    23479690.742    96145441.0324   23479690.961  
                
  21177617.023   111289164.824    21177627.148    86718871.9394   21177626.664  
                
  20054984.461   107280663.796                                                  
  20054982.996  
  24682595.969   129707862.539    24682607.324   101071104.9664   24682607.578  
                
  21974558.195   115477112.108    21974562.547    89982196.0224                 
                
  22964548.773   120679495.318    22964559.316    94036022.3434   22964559.832  
                
  21104789.281   110906442.295    21104795.379    86420640.4274                 
                
  19789713.945   105973049.784                    82423496.846    19789716.719  
  19789712.895  
  23358303.922   122748735.522    23358313.980    95648419.1304   23358313.496  
                
  23348913.281   122699378.627    23348923.598    95609956.9374   23348923.801  
                
  20104803.375   107622632.196                    83706490.711    20104808.176  
  20104801.875  
 21  8 16 11 55 50.0000000  0 16R16R 1R24R22G32G31G 1R23G27G22G 8G21
                                R 8G10G 3R 7
  23381341.844   124898937.113                    97143633.863    23381344.859  
  23381341.223  
  22794625.883   121850346.557                    94772488.749    22794633.418  
  22794625.312  
  23193151.875   124024224.549                    96463280.027    23193157.230  
  23193151.242  
  20407294.953   108935535.645                    84727660.956    20407298.309  
  20407293.266  
  21168933.438   111243531.300    21168942.070    86683327.8004   21168942.414  
                
  23473517.773   123354186.007    23473526.363    96120199.1144   23473526.555  
                
  21173173.602   111265814.508    21173183.711    86700676.8934   21173183.234  
                
  20051085.766   107259808.444                                                  
  20051084.289  
  24689573.273   129744528.033    24689584.586   101099675.4434   24689584.836  
                
  21970754.883   115457125.600    21970759.215    89966622.1264                 
                
  22970149.281   120708926.246    22970159.852    94058955.5174   22970160.355  
                
  21102997.070   110897024.210    21103003.172    86413301.6564                 
                
  19787588.242   105961666.781                    82414643.404    19787590.988  
  19787587.199  
  23363329.117   122775143.075    23363339.203    95668996.4234   23363338.707  
                
  23343629.383   122671611.681    23343639.742    95588320.3784   23343639.969  
                
  20108836.961   107644224.296                    83723284.571    20108841.750  
  20108835.473  
 21  8 16 11 56  0.0000000  0 16R16R 1R24R22G32G31G 1R23G27G22G 8G21
                                R 8G10G 3R 7
  23379814.305   124890777.388                    97137287.460    23379817.355  
  23379813.617  
  22788451.414   121817340.616                    94746817.477    22788458.949  
  22788450.844  
  23185449.172   123983034.357                    96431243.209    23185454.418  
  23185448.535  
  20413118.297   108966620.969                    84751838.424    20413121.633  
  20413116.613  
  21172141.844   111260391.609    21172150.453    86696465.7024   21172150.805  
                
  23467357.414   123321813.677    23467366.113    96094973.9644   23467366.281  
                
  21168737.898   111242504.693    21168747.992    86682513.4034   21168747.512  
                
  20047201.281   107239029.034                                                  
  20047199.789  
  24696550.328   129781192.189    24696561.621   101128244.8804   24696561.867  
                
  21966955.789   115437161.231    21966960.113    89951065.4824                 
                
  22975755.477   120738387.041    22975766.074    94081911.9644   22975766.574  
                
  21101212.688   110887647.179    21101218.797    86405994.8844                 
                
  19785472.633   105950337.778                    82405831.970    19785475.352  
  19785471.605  
  23368356.609   122801562.732    23368366.688    95689583.1494   23368366.180  
                
  23338348.219   122643858.953    23338358.617    95566694.9074   23338358.840  
                
  20112877.469   107665853.452                    83740107.252    20112882.246  
  20112875.980  
 21  8 16 11 56 10.0000000  0 16R16R 1R24R22G32G31G 1R23G27G22G 8G21
                                R 8G10G 3R 7
  23378301.430   124882696.016                    97131001.974    23378304.500  
  23378300.688  
  22782281.750   121784360.985                    94721166.687    22782289.395  
  22782281.293  
  23177750.750   123941867.157                    96399224.300    23177755.938  
  23177750.090  
  20418953.562   108997770.057                    84776065.479    20418956.910  
  20418951.867  
  21175359.133   111277298.581    21175367.727    86709639.9704   21175368.082  
                
  23461201.070   123289462.300    23461209.832    96069765.1224   23461209.988  
                
  21164309.781   111219234.810    21164319.863    86664381.0264   21164319.387  
                
  20043330.867   107218324.983                                                  
  20043329.363  
  24703526.945   129817854.317    24703538.246   101156812.7214   24703538.492  
                
  21963160.789   115417218.396    21963165.082    89935525.6214                 
                
  22981367.227   120767877.040    22981377.867    94104891.1474   22981378.324  
                
  21099435.992   110878310.569    21099442.102    86398719.5994                 
                
  19783366.984   105939062.155                    82397062.036    19783369.664  
  19783365.977  
  23373386.297   122827993.833    23373396.332    95710178.8144   23373395.836  
                
  23333069.656   122616119.894    23333080.070    95545080.0814   23333080.285  
                
  20116924.711   107687518.646                    83756957.940    20116929.465  
  20116923.230  
 21  8 16 11 56 20.0000000  0 16R16R 1R24R22G32G31G 1R23G27G22G 8G21
                                R 8G10G 3R 7
  23376803.258   124874693.045                    97124777.437    23376806.324  
  23376802.449  
  22776117.156   121751408.125                    94695536.714    22776124.844  
  22776116.738  
  23170056.727   123900723.605                    96367223.770    23170061.855  
  23170056.039  
  20424800.766   109028982.747                    84800342.001    20424804.078  
  20424799.047  
  21178585.375   111294252.563    21178593.953    86722850.8684   21178594.309  
                
  23455048.859   123257132.297    23455057.605    96044572.9344   23455057.738  
                
  21159889.359   111196005.375    21159899.434    86646280.1704   21159898.980  
                
  20039474.617   107197696.691                                                  
  20039473.102  
  24710503.258   129854514.624    24710514.543   101185379.1514   24710514.758  
                
  21959369.984   115397297.603    21959374.242    89920002.9214                 
                
  22986984.625   120797396.649    22986995.266    94127893.4354   22986995.715  
                
  21097667.055   110869014.784    21097673.172    86391476.1324                 
                
  19781271.328   105927840.079                    82388333.758    19781273.980  
  19781270.336  
  23378418.250   122854436.790    23378428.219    95730783.7244   23378427.758  
                
  23327793.789   122588394.926    23327804.184    95523476.2154   23327804.398  
                
  20120978.797   107709220.504                    83773837.163    20120983.539  
  20120977.309  
 21  8 16 11 56 30.0000000  0 16R16R 1R24R22G32G31G 1R23G27G22G 8G21
                                R 8G10G 3R 7
  23375319.867   124866769.091                    97118614.395    23375322.949  
  23375319.039  
  22769957.680   121718482.307                    94669927.766    22769965.312  
  22769957.242  
  23162367.086   123859603.653                    96335241.628    23162372.203  
  23162366.383  
  20430659.906   109060259.141                    84824668.069    20430663.184  
  20430658.188  
  21181820.570   111311253.606    21181829.133    86736098.4354   21181829.488  
                
  23448900.812   123224823.921    23448909.496    96019397.5984   23448909.602  
                
  21155476.656   111172816.554    21155486.730    86628210.9624   21155486.285  
                
  20035632.586   107177144.438                                                  
  20035631.066  
  24717479.188   129891173.212    24717490.500   101213944.2424   24717490.684  
                
  21955583.375   115377398.907    21955587.621    89904497.4564                 
                
  22992607.602   120826945.562    22992618.215    94150918.5354   22992618.656  
                
  21095905.938   110859760.048    21095912.070    86384264.6514                 
                
  19779185.758   105916671.932                    82379647.411    19779188.383  
  19779184.777  
  23383452.477   122880891.703    23383462.430    95751397.9204   23383461.977  
                
  23322520.617   122560684.166    23322530.961    95501883.4014   23322531.199  
                
  20125039.695   107730958.808                    83790744.733    20125044.422  
  20125038.191  
 21  8 16 11 56 40.0000000  0 16R16R 1R24R22G32G31G 1R23G27G22G 8G21
                                R 8G10G 3R 7
  23373851.211   124858924.310                    97112512.918    23373854.395  
  23373850.367  
  22763803.375   121685583.756                    94644340.024    22763810.910  
  22763802.871  
  23154682.008   123818508.233                    96303278.539    23154687.113  
  23154681.281  
  20436531.023   109091599.544                    84849043.934    20436534.277  
  20436529.301  
  21185064.742   111328301.913    21185073.293    86749382.8304   21185073.656  
                
  23442756.930   123192537.600    23442765.566    95994239.4414   23442765.660  
                
  21151071.773   111149668.741    21151081.848    86610173.7124   21151081.402  
                
  20031804.875   107156668.776                                                  
  20031803.348  
  24724454.766   129927830.204    24724466.145   101242508.0814   24724466.301  
                
  21951801.016   115357522.531    21951805.250    89889009.3774                 
                
  22998236.203   120856523.948    22998246.773    94173966.6224   22998247.207  
                
  21094152.688   110850546.642    21094158.824    86377085.3694                 
                
  19777110.273   105905557.801                    82371003.099    19777112.895  
  19777109.316  
  23388489.023   122907358.831    23388498.992    95772021.6464   23388498.543  
                
  23317250.180   122532987.862    23317260.457    95480301.8844   23317260.723  
                
  20129107.461   107752733.923                    83807680.927    20129112.164  
  20129105.930  
 21  8 16 11 56 50.0000000  0 16R16R 1R24R22G32G31G 1R23G27G22G 8G21
                                R 8G10G 3R 7
  23372397.336   124851158.381                    97106472.765    23372400.539  
  23372396.500  
  22757654.117   121652712.258                    94618773.340    22757661.613  
  22757653.562  
  23147001.422   123777436.800                    96271334.116    23147006.516  
  23147000.672  
  20442414.047   109123003.466                    84873469.190    20442417.270  
  20442412.320  
  21188317.852   111345397.089    21188326.395    86762703.7444   21188326.766  
                
  23436617.227   123160273.152    23436625.789    95969098.3244   23436625.871  
                
  21146674.641   111126561.675    21146684.730    86592168.2134   21146684.281  
                
  20027991.430   107136269.420                                                  
  20027989.902  
  24731429.984   129964485.231    24731441.430   101271070.3824   24731441.566  
                
  21948022.859   115337668.179    21948027.078    89873538.4554                 
                
  23003870.406   120886131.698    23003880.895    94197037.5674   23003881.352  
                
  21092407.250   110841374.292    21092413.406    86369938.0894                 
                
  19775044.805   105894497.278                    82362400.472    19775047.434  
  19775043.875  
  23393527.836   122933837.810    23393537.852    95792654.5954   23393537.406  
                
  23311982.453   122505305.760    23311992.641    95458731.4244   23311992.930  
                
  20133181.992   107774545.215                    83824645.267    20133186.691  
  20133180.434  
 21  8 16 11 57  0.0000000  0 16R16R 1R24R22G32G31G 1R23G27G22G 8G21
                                R 8G10G 3R 7
  23370958.234   124843471.243                    97100493.875    23370961.488  
  23370957.402  
  22751509.805   121619867.508                    94593227.442    22751517.301  
  22751509.262  
  23139325.305   123736389.454                    96239408.424    23139330.469  
  23139324.551  
  20448308.914   109154470.600                    84897943.628    20448312.180  
  20448307.203  
  21191579.820   111362538.869    21191588.367    86776060.9714   21191588.754  
                
  23430481.734   123128030.560    23430490.188    95943974.2564   23430490.273  
                
  21142285.242   111103495.280    21142295.355    86574194.4054   21142294.898  
                
  20024192.258   107115946.414                                                  
  20024190.723  
  24738404.867   130001137.948    24738416.262   101299630.9324   24738416.395  
                
  21944248.844   115317835.691    21944253.074    89858084.5854                 
                
  23009510.070   120915768.113    23009520.465    94220130.8794   23009520.949  
                
  21090669.602   110832242.899    21090675.777    86362822.7184                 
                
  19772989.328   105883490.280                    82353839.491    19772991.965  
  19772988.426  
  23398568.852   122960328.476    23398578.918    95813296.6564   23398578.457  
                
  23306717.406   122477637.743    23306727.480    95437171.9254   23306727.789  
                
  20137263.227   107796392.417                    83841637.530    20137267.922  
  20137261.660  
 21  8 16 11 57 10.0000000  0 16R16R 1R24R22G32G31G 1R23G27G22G 8G21
                                R 8G10G 3R 7
  23369533.914   124835863.092                    97094576.433    23369537.199  
  23369533.082  
  22745370.648   121587049.870                    94567702.631    22745378.047  
  22745370.059  
  23131653.727   123695366.320                    96207501.548    23131658.938  
  23131652.957  
  20454215.648   109186001.081                    84922467.297    20454218.906  
  20454213.945  
  21194850.680   111379727.389    21194859.227    86789454.6204   21194859.613  
                
  23424350.367   123095810.152    23424358.801    95918867.4554   23424358.879  
                
  21137903.641   111080469.824    21137913.766    86556252.4974   21137913.301  
                
  20020407.367   107095699.844                                                  
  20020405.832  
  24745379.305   130037788.516    24745390.676   101328189.7494   24745390.801  
                
  21940479.047   115298025.245    21940483.289    89842647.8764                 
                
  23015155.273   120945433.617    23015165.590    94243246.8524   23015166.094  
                
  21088939.805   110823152.740    21088945.992    86355739.4754                 
                
  19770943.906   105872537.112                    82345320.357    19770946.543  
  19770943.023  
  23403612.133   122986830.956    23403622.242    95833947.9254   23403621.754  
                
  23301455.047   122449983.921    23301465.074    95415623.4864   23301465.398  
                
  20141351.258   107818275.945                    83858658.059    20141355.941  
  20141349.676  
 21  8 16 11 57 20.0000000  0 16R16R 1R24R22G32G31G 1R23G27G22G 8G21
                                R 8G10G 3R 7
  23368124.516   124828334.228                    97088720.637    23368127.797  
  23368123.668  
  22739236.562   121554259.487                    94542199.008    22739243.910  
  22739235.949  
  23123986.742   123654367.863                    96175613.869    23123992.004  
  23123985.961  
  20460134.219   109217594.752                    84947040.153    20460137.508  
  20460132.523  
  21198130.453   111396962.678    21198139.008    86802884.7164   21198139.379  
                
  23418223.172   123063612.096    23418231.746    95893778.1054   23418231.801  
                
  21133529.867   111057485.526    21133540.012    86538342.6614   21133539.539  
                
  20016636.852   107075530.148                                                  
  20016635.309  
  24752353.305   130074436.870    24752364.703   101356746.8664   24752364.809  
                
  21936713.477   115278237.050    21936717.734    89827228.5004                 
                
  23020806.008   120975128.147    23020816.238    94266385.4484   23020816.773  
                
  21087217.875   110814103.952    21087224.082    86348688.4714                 
                
  19768908.516   105861637.702                    82336843.045    19768911.164  
  19768907.641  
  23408657.688   123013345.380    23408667.852    95854608.4844   23408667.332  
                
  23296195.453   122422344.523    23296205.438    95394086.3164   23296205.758  
                
  20145446.023   107840195.562                    83875706.652    20145450.707  
  20145444.434  
 21  8 16 11 57 30.0000000  0 16R16R 1R24R22G32G31G 1R23G27G22G 8G21
                                R 8G10G 3R 7
  23366729.844   124820884.324                    97082926.310    23366733.180  
  23366728.992  
  22733107.453   121521496.143                    94516716.427    22733114.832  
  22733106.891  
  23116324.320   123613393.952                    96143745.298    23116329.660  
  23116323.535  
  20466064.656   109249251.657                    84971662.183    20466067.926  
  20466062.957  
  21201419.070   111414244.464    21201427.629    86816351.0404   21201428.004  
                
  23412100.141   123031436.313    23412108.906    95868706.1084   23412108.949  
                
  21129163.906   111034542.253    21129174.059    86520464.7964   21129173.586  
                
  20012880.672   107055437.104                                                  
  20012879.129  
  24759326.844   130111082.799    24759338.258   101385302.1004   24759338.375  
                
  21932952.094   115258470.888    21932956.367    89811826.3174                 
                
  23026462.234   121004851.584    23026472.441    94289546.5554   23026473.000  
                
  21085503.805   110805096.405    21085510.020    86341669.6044                 
                
  19766883.109   105850791.752                    82328407.304    19766885.770  
  19766882.234  
  23413705.484   123039871.553    23413715.703    95875278.2294   23413715.152  
                
  23290938.523   122394719.275    23290948.461    95372560.1554   23290948.801  
                
  20149547.500   107862151.072                    83892783.157    20149552.184  
  20149545.914  
 21  8 16 11 57 40.0000000  0 16R16R 1R24R22G32G31G 1R23G27G22G 8G21
                                R 8G10G 3R 7
  23365349.938   124813513.467                    97077193.436    23365353.340  
  23365349.059  
  22726983.453   121488759.695                    94491254.788    22726990.801  
  22726982.871  
  23108666.492   123572444.517                    96111895.754    23108671.887  
  23108665.691  
  20472006.781   109280971.096                    84996332.838    20472010.016  
  20472005.094  
  21204716.484   111431572.540    21204725.043    86829853.4404   21204725.422  
                
  23405981.383   122999282.843    23405990.305    95843651.4964   23405990.344  
                
  21124805.742   111011639.946    21124815.887    86502618.8424   21124815.422  
                
  20009138.812   107035420.699                                                  
  20009137.262  
  24766299.875   130147725.997    24766311.305   101413855.1904   24766311.426  
                
  21929194.883   115238726.650    21929199.176    89796441.2024                 
                
  23032123.844   121034603.365    23032134.066    94312729.7524   23032134.621  
                
  21083797.555   110796129.990    21083803.770    86334682.7824                 
                
  19764867.688   105839999.281                    82320013.168    19764870.371  
  19764866.836  
  23418755.461   123066409.277    23418765.668    95895956.9474   23418765.117  
                
  23285684.266   122367108.144    23285694.184    95351044.9964   23285694.539  
                
  20153655.609   107884142.206                    83909887.373    20153660.301  
  20153654.027  
 21  8 16 11 57 50.0000000  0 16R16R 1R24R22G32G31G 1R23G27G22G 8G21
                                R 8G10G 3R 7
  23363984.922   124806221.784                    97071522.135    23363988.285  
  23363984.031  
  22720864.523   121456050.470                    94465814.301    22720871.871  
  22720863.938  
  23101013.367   123531519.931                    96080065.527    23101018.754  
  23101012.535  
  20477960.672   109312753.333                    85021052.359    20477963.895  
  20477959.008  
  21208022.727   111448946.941    21208031.293    86843391.9314   21208031.676  
                
  23399867.016   122967151.906    23399876.000    95818614.4364   23399876.027  
                
  21120455.406   110988778.775    21120465.543    86484804.9494   21120465.078  
                
  20005411.352   107015481.381                                                  
  20005409.805  
  24773272.391   130184366.499    24773283.836   101442406.1894   24773283.945  
                
  21925441.875   115219004.483    21925446.211    89781073.2814                 
                
  23037790.836   121064383.459    23037801.074    94335935.0054   23037801.645  
                
  21082099.133   110787204.737    21082105.352    86327728.0414                 
                
  19762862.250   105829260.254                    82311660.601    19762864.953  
  19762861.406  
  23423807.641   123092958.685    23423817.828    95916644.7694   23423817.305  
                
  23280432.703   122339511.181    23280442.652    95329540.8884   23280443.004  
                
  20157770.406   107906169.044                    83927019.340    20157775.094  
  20157768.820  
 21  8 16 11 58  0.0000000  0 16R16R 1R24R22G32G31G 1R23G27G22G 8G21
                                R 8G10G 3R 7
  23362634.633   124799009.274                    97065912.385    23362638.102  
  23362633.785  
  22714750.680   121423368.288                    94440394.839    22714757.980  
  22714750.035  
  23093364.984   123490620.396                    96048254.772    23093370.301  
  23093364.125  
  20483926.289   109344598.119                    85045820.507    20483929.512  
  20483924.637  
  21211337.766   111466367.566    21211346.348    86856966.4464   21211346.734  
                
  23393757.078   122935043.582    23393765.973    95793594.9854   23393766.020  
                
  21116112.922   110965958.853    21116123.051    86467023.2004   21116122.594  
                
  20001698.289   106995619.008                                                  
  20001696.742  
  24780244.312   130221004.208    24780255.836   101470954.9924   24780255.941  
                
  21921693.062   115199304.377    21921697.438    89765722.5644                 
                
  23043463.250   121094192.064    23043473.543    94359162.4694   23043474.125  
                
  21080408.562   110778320.720    21080414.785    86320805.4294                 
                
  19760866.789   105818574.640                    82303349.569    19760869.512  
  19760865.945  
  23428862.062   123119519.682    23428872.234    95937341.6514   23428871.723  
                
  23275183.844   122311928.432    23275193.836    95308047.8714   23275194.184  
                
  20161891.820   107928231.281                    83944178.855    20161896.500  
  20161890.238  
 21  8 16 11 58 10.0000000  0 16R16R 1R24R22G32G31G 1R23G27G22G 8G21
                                R 8G10G 3R 7
  23361299.188   124791876.295                    97060364.551    23361302.773  
  23361298.387  
  22708641.883   121390713.435                    94414996.634    22708649.234  
  22708641.254  
  23085721.281   123449745.959                    96016463.571    23085726.566  
  23085720.441  
  20489903.648   109376505.651                    85070637.465    20489906.836  
  20489901.996  
  21214661.625   111483834.551    21214670.230    86870577.0814   21214670.605  
                
  23387651.500   122902958.203    23387660.320    95768593.4134   23387660.371  
                
  21111778.328   110943180.430    21111788.457    86449273.7824   21111788.008  
                
  19997999.672   106975833.907                                                  
  19997998.133  
  24787215.703   130257639.137    24787227.293   101499501.6454   24787227.398  
                
  21917948.500   115179626.561    21917952.879    89750389.2034                 
                
  23049141.031   121124028.916    23049151.375    94382411.9444   23049151.969  
                
  21078725.891   110769478.205    21078732.117    86313915.1624                 
                
  19758881.344   105807942.683                    82295080.281    19758884.078  
  19758880.492  
  23433918.719   123146092.465    23433928.887    95958047.6894   23433928.379  
                
  23269937.758   122284360.096    23269947.762    95286566.0634   23269948.105  
                
  20166019.922   107950329.366                    83961366.258    20166024.609  
  20166018.332  
 21  8 16 11 58 20.0000000  0 16R16R 1R24R22G32G31G 1R23G27G22G 8G21
                                R 8G10G 3R 7
  23359978.648   124784822.650                    97054878.400    23359982.332  
  23359977.895  
  22702538.086   121358085.944                    94389619.732    22702545.531  
  22702537.582  
  23078082.273   123408896.752                    95984691.978    23078087.551  
  23078081.480  
  20495892.719   109408475.631                    85095503.004    20495895.918  
  20495891.078  
  21217994.266   111501347.725    21218002.902    86884223.7034   21218003.266  
                
  23381550.297   122870895.804    23381559.020    95743609.7524   23381559.094  
                
  21107451.641   110920443.522    21107461.758    86431556.7134   21107461.305  
                
  19994315.539   106956126.280                                                  
  19994314.000  
  24794186.516   130294271.252    24794198.207   101528046.0914   24794198.328  
                
  21914208.156   115159970.966    21914212.543    89735073.1574                 
                
  23054824.188   121153894.090    23054834.594    94405683.4844   23054835.180  
                
  21077051.133   110760677.283    21077057.371    86307057.2984                 
                
  19756905.859   105797364.016                    82286852.426    19756908.609  
  19756905.000  
  23438977.594   123172676.928    23438987.766    95978762.8554   23438987.289  
                
  23264694.406   122256806.148    23264704.406    95265095.4654   23264704.742  
                
  20170154.625   107972462.813                    83978581.146    20170159.320  
  20170153.027  
 21  8 16 11 58 30.0000000  0 16R16R 1R24R22G32G31G 1R23G27G22G 8G21
                                R 8G10G 3R 7
  23358673.070   124777848.555                    97049454.139    23358676.762  
  23358672.340  
  22696439.562   121325485.925                    94364264.163    22696446.973  
  22696439.047  
  23070448.055   123368073.204                    95952940.326    23070453.320  
  23070447.305  
  20501893.500   109440508.163                    85120417.172    20501896.742  
  20501891.852  
  21221335.711   111518907.163    21221344.379    86897906.3884   21221344.734  
                
  23375453.516   122838856.628    23375462.125    95718644.1834   23375462.219  
                
  21103132.891   110897748.334    21103142.996    86413872.1554   21103142.547  
                
  19990645.898   106936496.205                                                  
  19990644.367  
  24801156.703   130330900.486    24801168.582   101556588.2984   24801168.711  
                
  21910472.062   115140337.719    21910476.469    89719774.5404                 
                
  23060512.680   121183787.341    23060523.172    94428976.9084   23060523.766  
                
  21075384.305   110751918.026    21075390.547    86300231.9044                 
                
  19754940.406   105786839.149                    82278666.428    19754943.180  
  19754939.531  
  23444038.711   123199273.246    23444048.906    95999487.2094   23444048.426  
                
  23259453.820   122229266.665    23259463.824    95243636.1574   23259464.152  
                
  20174295.969   107994631.743                    83995823.647    20174300.668  
  20174294.371  
 21  8 16 11 58 40.0000000  0 16R16R 1R24R22G32G31G 1R23G27G22G 8G21
                                R 8G10G 3R 7
  23357382.453   124770953.993                    97044091.701    23357386.094  
  23357381.660  
  22690346.062   121292912.992                    94338929.677    22690353.496  
  22690345.582  
  23062818.555   123327274.960                    95921208.379    23062823.836  
  23062817.855  
  20507905.891   109472602.708                    85145379.596    20507909.145  
  20507904.246  
  21224685.875   111536512.404    21224694.562    86911624.7564   21224694.918  
                
  23369361.055   122806840.410    23369369.535    95693696.4944   23369369.676  
                
  21098822.031   110875094.576    21098832.129    86396219.8764   21098831.684  
                
  19986990.742   106916943.533                                                  
  19986989.219  
  24808126.258   130367526.345    24808138.305   101585127.8644   24808138.422  
                
  21906740.164   115120726.481    21906744.578    89704493.0484                 
                
  23066206.453   121213708.396    23066217.043    94452291.9824   23066217.621  
                
  21073725.336   110743200.111    21073731.578    86293438.7224                 
                
  19752984.891   105776367.474                    82270521.810    19752987.707  
  19752984.012  
  23449102.000   123225880.943    23449112.238    96020220.4824   23449111.754  
                
  23254215.945   122201741.372    23254225.926    95222187.8824   23254226.246  
                
  20178443.859   108016835.745                    84013093.428    20178448.555  
  20178442.273  
 21  8 16 11 58 50.0000000  0 16R16R 1R24R22G32G31G 1R23G27G22G 8G21
                                R 8G10G 3R 7
  23356106.648   124764138.849                    97038791.028    23356110.285  
  23356105.887  
  22684257.781   121260367.479                    94313616.527    22684265.180  
  22684257.254  
  23055193.875   123286502.419                    95889496.399    23055199.152  
  23055193.207  
  20513929.922   109504759.410                    85170390.343    20513933.199  
  20513928.309  
  21228044.773   111554163.557    21228053.484    86925378.8944   21228053.844  
                
  23363273.039   122774847.460    23363281.375    95668766.9334   23363281.543  
                
  21094519.094   110852482.516    21094529.184    86378600.0964   21094528.750  
                
  19983350.086   106897468.535                                                  
  19983348.586  
  24815095.312   130404148.981    24815107.398   101613664.9414   24815107.523  
                
  21903012.477   115101137.433    21903016.914    89689228.8624                 
                
  23071905.516   121243657.251    23071916.219    94475628.7214   23071916.750  
                
  21072074.297   110734523.810    21072080.543    86286677.9684                 
                
  19751039.344   105765949.243                    82262418.748    19751042.203  
  19751038.441  
  23454167.500   123252500.236    23454177.766    96040962.7644   23454177.281  
                
  23248980.805   122174230.415    23248990.754    95200750.7684   23248991.055  
                
  20182598.312   108039074.866                    84030390.529    20182603.020  
  20182596.738  
 21  8 16 11 59  0.0000000  0 16R16R 1R24R22G32G31G 1R23G27G22G 8G21
                                R 8G10G 3R 7
  23354845.695   124757403.098                    97033552.139    23354849.332  
  23354844.945  
  22678174.586   121227849.157                    94288324.518    22678181.922  
  22678174.055  
  23047574.023   123245755.667                    95857804.514    23047579.301  
  23047573.379  
  20519965.523   109536977.804                    85195449.085    20519968.793  
  20519963.922  
  21231412.383   111571860.419    21231421.121    86939168.6554   21231421.480  
                
  23357189.430   122742877.892    23357197.664    95643855.5994   23357197.855  
                
  21090224.086   110829912.119    21090234.168    86361012.7734   21090233.746  
                
  19979723.969   106878071.214                                                  
  19979722.492  
  24822063.789   130440768.073    24822075.828   101642199.2294   24822075.941  
                
  21899288.992   115081570.435    21899293.473    89673981.8704                 
                
  23077609.828   121273633.701    23077620.625    94498986.9724   23077621.141  
                
  21070431.156   110725889.058    21070437.402    86279949.5884                 
                
  19749103.734   105755584.182                    82254357.036    19749106.621  
  19749102.824  
  23459235.172   123279130.985    23459245.508    96061713.9754   23459245.000  
                
  23243748.359   122146733.685    23243758.309    95179324.7584   23243758.613  
                
  20186759.289   108061348.885                    84047714.763    20186764.004  
  20186757.727  
 21  8 16 11 59 10.0000000  0 16R16R 1R24R22G32G31G 1R23G27G22G 8G21
                                R 8G10G 3R 7
  23353599.711   124750747.323                    97028375.451    23353603.320  
  23353598.977  
  22672096.562   121195358.395                    94263053.975    22672103.801  
  22672095.992  
  23039959.000   123205034.976                    95826132.890    23039964.332  
  23039958.379  
  20526012.734   109569258.121                    85220555.994    20526015.961  
  20526011.137  
  21234788.711   111589603.147    21234797.484    86952994.1544   21234797.828  
                
  23351110.281   122710932.029    23351118.500    95618962.7254   23351118.707  
                
  21085937.062   110807383.687    21085947.145    86343458.1654   21085946.734  
                
  19976112.445   106858751.972                                                  
  19976110.957  
  24829031.539   130477383.814    24829043.633   101670730.9414   24829043.727  
                
  21895569.758   115062025.763    21895574.273    89658752.2584                 
                
  23083319.398   121303637.764    23083330.246    94522366.7444   23083330.742  
                
  21068795.961   110717296.019    21068802.207    86273253.7134                 
                
  19747178.125   105745272.648                    82246336.961    19747181.023  
  19747177.203  
  23464305.047   123305773.366    23464315.438    96082474.2404   23464314.922  
                
  23238518.688   122119251.467    23238528.641    95157910.0574   23238528.957  
                
  20190926.844   108083658.108                    84065066.378    20190931.570  
  20190925.301  
 21  8 16 11 59 20.0000000  0 16R16R 1R24R22G32G31G 1R23G27G22G 8G21
                                R 8G10G 3R 7
  23352368.664   124744171.176                    97023260.680    23352372.219  
  23352367.918  
  22666023.664   121162895.219                    94237804.854    22666030.871  
  22666023.078  
  23032348.875   123164340.392                    95794481.587    23032354.242  
  23032348.273  
  20532071.547   109601600.395                    85245711.084    20532074.727  
  20532069.969  
  21238173.750   111607391.602    21238182.562    86966855.2894   21238182.887  
                
  23345035.688   122679009.823    23345043.844    95594088.2984   23345044.059  
                
  21081658.039   110784897.247    21081668.125    86325936.2624   21081667.715  
                
  19972515.508   106839510.793                                                  
  19972514.035  
  24835998.703   130513996.036    24836010.773   101699259.8984   24836010.844  
                
  21891854.773   115042503.403    21891859.297    89643540.0444                 
                
  23089034.258   121333669.429    23089045.121    94545768.0204   23089045.609  
                
  21067168.711   110708744.707    21067174.945    86266590.3564                 
                
  19745262.484   105735014.513                    82238358.421    19745265.391  
  19745261.547  
  23469377.148   123332427.300    23469387.531    96103243.5414   23469387.020  
                
  23233291.758   122091783.702    23233301.711    95136506.6224   23233302.031  
                
  20195100.875   108106002.021                    84082444.971    20195105.598  
  20195099.359  
 21  8 16 11 59 30.0000000  0 16R16R 1R24R22G32G31G 1R23G27G22G 8G21
                                R 8G10G 3R 7
  23351152.516   124737674.626                    97018207.810    23351156.027  
  23351151.750  
  22659955.891   121130459.505                    94212577.083    22659963.035  
  22659955.285  
  23024743.656   123123672.163                    95762850.738    23024749.059  
  23024743.051  
  20538141.859   109634004.159                    85270913.989    20538145.062  
  20538140.285  
  21241567.461   111625225.628    21241576.293    86980751.9364   21241576.602  
                
  23338965.617   122647111.385    23338973.711    95569232.3794   23338973.949  
                
  21077387.000   110762452.801    21077397.098    86308447.0904   21077396.684  
                
  19968933.180   106820347.760                                                  
  19968931.711  
  24842965.133   130550604.550    24842977.172   101727785.9704   24842977.254  
                
  21888144.031   115023003.341    21888148.551    89628345.2004                 
                
  23094754.266   121363728.271    23094765.137    94569190.4764   23094765.625  
                
  21065549.383   110700235.106    21065555.613    86259959.4954                 
                
  19743356.758   105724809.530                    82230421.224    19743359.691  
  19743355.797  
  23474451.406   123359092.735    23474461.777    96124021.7634   23474461.258  
                
  23228067.555   122064330.322    23228077.496    95115114.3664   23228077.809  
                
  20199281.430   108128380.815                    84099850.689    20199286.137  
  20199279.938  
