     2.11           OBSERVATION DATA    M (MIXED)           RINEX VERSION / TYPE
EFT-CORS.RU                             20210817 144832 UTC PGM / RUN BY / DATE 
MDNG                                                        MARKER NAME         
                                                            MARKER NUMBER       
MDNG                EFT-CORS.RU                             OBSERVER / AGENCY   
0                   TRIMBLE BD970       2.0                 REC # / TYPE / VERS 
0                   UNKNOWN EXT NONE                        ANT # / TYPE        
  3463911.2830  3030468.2400  4402179.3760                  APPROX POSITION XYZ 
        0.0000        0.0000        0.0000                  ANTENNA: DELTA H/E/N
     1     1                                                WAVELENGTH FACT L1/2
     6    C1    L1    P2    L2    C2    P1                  # / TYPES OF OBSERV 
    10.000                                                  INTERVAL            
  2021     8    16     8    30    0.0000000     GPS         TIME OF FIRST OBS   
  2021     8    16     9    30    0.0000000     GPS         TIME OF LAST OBS    
     0                                                      RCV CLOCK OFFS APPL 
                                                            END OF HEADER       
 21  8 16  8 30  0.0000000  0 15R12G26R 6R21R22R 5G16G18G27R20G 8G15
                                G10G23R 7
  22988776.906   122801924.638                    95512599.199    22988781.531  
  22988776.438  
  23914323.555   125670601.595    23914335.160    97925174.6694   23914334.844  
                
  19878159.734   106073697.527                                                  
  19878157.238  
  19787937.570   105889268.270                    82358313.206    19787940.988  
  19787935.723  
  22709069.953   121222564.267                    94284238.580    22709072.754  
  22709067.906  
  20594313.078   110088439.822                    85624338.245    20594317.531  
  20594312.766  
  22576338.594   118639464.729    22576345.332    92446362.6354                 
                
  21450625.250   112723826.129    21450632.688    87836764.0884   21450632.656  
                
  21291854.617   111889448.599    21291863.227    87186639.8114   21291863.207  
                
  21043448.234   112528779.333                    87522404.452    21043455.203  
  21043447.406  
  23704157.875   124566177.747    23704167.719    97064608.6954   23704168.246  
                
  23069734.281   121232306.534    23069741.938    94466768.3064   23069741.758  
                
  20769339.250   109143650.307    20769348.457    85047058.3284   20769347.930  
                
  20387134.297   107135151.151    20387141.492    83481971.9914   20387141.426  
                
  23466962.297   125620493.305                    97704817.535    23466969.164  
  23466960.543  
 21  8 16  8 30 10.0000000  0 15R12G26R 6R21R22R 5G16G18G27R20G 8G15
                                G10G23R 7
  22991036.492   122813994.941                    95521987.174    22991041.176  
  22991036.004  
  23920275.398   125701878.875    23920287.031    97949546.5584   23920286.723  
                
  19873509.008   106048880.457                                                  
  19873506.457  
  19785285.867   105875078.496                    82347276.718    19785289.285  
  19785284.027  
  22702769.328   121188931.218                    94258079.577    22702772.195  
  22702767.301  
  20598673.141   110111746.840                    85642465.922    20598677.582  
  20598672.820  
  22580347.094   118660529.515    22580353.820    92462776.7484                 
                
  21454346.008   112743378.862    21454353.402    87851999.9774   21454353.395  
                
  21288087.070   111869649.998    21288095.648    87171212.3354   21288095.652  
                
  21047637.648   112551181.933                    87539828.704    21047644.621  
  21047636.824  
  23698000.492   124533820.356    23698010.336    97039395.1404   23698010.844  
                
  23073194.367   121250489.453    23073202.012    94480936.7954   23073201.824  
                
  20766739.578   109129989.005    20766748.809    85036413.1594   20766748.277  
                
  20388899.242   107144425.989    20388906.438    83489199.1364   20388906.383  
                
  23458499.992   125575194.160                    97669584.892    23458506.848  
  23458498.320  
 21  8 16  8 30 20.0000000  0 15R12G26R 6R21R22R 5G16G18G27R20G 8G15
                                G10G23R 7
  22993310.242   122826140.855                    95531434.026    22993314.895  
  22993309.770  
  23926229.602   125733168.109    23926241.148    97973927.7614   23926240.871  
                
  19868872.219   106024137.783                                                  
  19868869.637  
  19782641.633   105860928.637                    82336271.271    19782645.047  
  19782639.793  
  22696469.172   121155301.344                    94231922.994    22696472.180  
  22696467.320  
  20603046.852   110135126.813                    85660650.336    20603051.289  
  20603046.523  
  22584365.086   118681644.156    22584371.801    92479229.7054                 
                
  21458071.359   112762955.707    21458078.711    87867254.6524   21458078.750  
                
  21284328.555   111849898.899    21284337.121    87155821.8674   21284337.129  
                
  21051834.133   112573622.385                    87557282.357    21051841.098  
  21051833.281  
  23691846.773   124501482.381    23691856.613    97014196.7294   23691857.102  
                
  23076666.242   121268734.213    23076673.859    94495153.4824   23076673.656  
                
  20764149.344   109116377.226    20764158.574    85025806.5794   20764158.039  
                
  20390674.070   107153752.795    20390681.270    83496466.7664   20390681.219  
                
  23450039.867   125529906.375                    97634361.096    23450046.672  
  23450038.219  
 21  8 16  8 30 30.0000000  0 15R12G26R 6R21R22R 5G16G18G27R20G 8G15
                                G10G23R 7
  22995598.141   122838362.344                    95540939.613    22995602.727  
  22995597.664  
  23932185.984   125764469.072    23932197.527    97998318.0934   23932197.266  
                
  19864249.398   105999469.606                                                  
  19864246.797  
  19780004.891   105846818.914                    82325297.045    19780008.305  
  19780003.066  
  22690169.719   121121674.298                    94205768.656    22690172.723  
  22690167.836  
  20607434.164   110158579.508                    85678891.326    20607438.617  
  20607433.840  
  22588392.547   118702808.526    22588399.266    92495721.4064                 
                
  21461801.273   112782556.566    21461808.609    87882528.0424   21461808.656  
                
  21280579.086   111830195.346    21280587.656    87140468.4514   21280587.645  
                
  21056037.695   112596100.740                    87574765.524    21056044.676  
  21056036.832  
  23685696.773   124469163.962    23685706.586    96989013.5474   23685707.059  
                
  23080149.836   121287040.558    23080157.438    94509418.1734   23080157.238  
                
  20761568.523   109102814.918    20761577.738    85015238.5524   20761577.207  
                
  20392458.758   107163131.417    20392465.961    83503774.7754   20392465.914  
                
  23441581.867   125484630.112                    97599146.261    23441588.641  
  23441580.285  
 21  8 16  8 30 40.0000000  0 15R12G26R 6R21R22R 5G16G18G27R20G 8G15
                                G10G23R 7
  22997900.227   122850659.503                    95550504.111    22997904.750  
  22997899.828  
  23938144.656   125795781.993    23938156.172    98022717.7464   23938155.949  
                
  19859640.578   105974876.174                                                  
  19859637.980  
  19777375.695   105832749.550                    82314354.199    19777379.105  
  19777373.879  
  22683870.930   121088050.566                    94179616.864    22683873.832  
  22683869.008  
  20611835.125   110182105.162                    85697189.040    20611839.574  
  20611834.805  
  22592429.492   118724022.746    22592436.215    92512251.9584                 
                
  21465535.820   112802181.715    21465543.137    87897820.3584   21465543.191  
                
  21276838.742   111810539.711    21276847.312    87125152.3724   21276847.301  
                
  21060248.367   112618617.174                    87592278.295    21060255.359  
  21060247.453  
  23679550.578   124436865.464    23679560.332    96963845.8854   23679560.816  
                
  23083645.164   121305408.625    23083652.734    94523730.9464   23083652.551  
                
  20758997.172   109089302.397    20759006.359    85004709.3144   20759005.836  
                
  20394253.352   107172562.104    20394260.562    83511123.3534   20394260.523  
                
  23433126.047   125439366.072                    97563940.923    23433132.902  
  23433124.613  
 21  8 16  8 30 50.0000000  0 15R12G26R 6R21R22R 5G16G18G27R20G 8G15
                                G10G23R 7
  23000216.516   122863032.595                    95560127.614    23000221.027  
  23000216.180  
  23944105.703   125827107.080    23944117.141    98047126.8854   23944116.930  
                
  19855045.852   105950357.883                                                  
  19855043.258  
  19774754.141   105818721.063                    82303443.171    19774757.547  
  19774752.328  
  22677572.688   121054430.601                    94153468.016    22677575.621  
  22677570.863  
  20616249.789   110205704.027                    85715543.722    20616254.250  
  20616249.496  
  22596475.961   118745287.057    22596482.711    92528821.5404                 
                
  21469275.039   112821831.460    21469282.355    87913131.8404   21469282.414  
                
  21273107.578   111790932.353    21273116.145    87109873.9234   21273116.141  
                
  21064466.242   112641172.060                    87609820.966    21064473.234  
  21064465.332  
  23673408.242   124404587.291    23673417.992    96938694.0854   23673418.473  
                
  23087152.289   121323838.723    23087159.844    94538092.0554   23087159.652  
                
  20756435.352   109075839.975    20756444.516    84994219.1194   20756444.004  
                
  20396057.914   107182045.114    20396065.121    83518512.7124   20396065.074  
                
  23424672.609   125394114.453                    97528745.246    23424679.484  
  23424671.223  
 21  8 16  8 31  0.0000000  0 15R12G26R 6R21R22R 5G16G18G27R20G 8G15
                                G10G23R 7
  23002546.969   122875481.412                    95569810.013    23002551.504  
  23002546.637  
  23950068.961   125858444.008    23950080.355    98071545.2564   23950080.141  
                
  19850465.211   105925914.710                                                  
  19850462.621  
  19772140.180   105804733.235                    82292563.748    19772143.578  
  19772138.371  
  22671275.133   121020814.059                    94127321.810    22671278.090  
  22671273.344  
  20620678.070   110229375.652                    85733954.988    20620682.539  
  20620677.805  
  22600531.922   118766601.157    22600538.715    92545429.9134                 
                
  21473018.898   112841505.566    21473026.234    87928462.3084   21473026.277  
                
  21269385.602   111771373.193    21269394.148    87094633.0114   21269394.156  
                
  21068691.242   112663765.129                    87627393.362    21068698.266  
  21068690.340  
  23667269.750   124372329.423    23667279.531    96913558.0924   23667280.008  
                
  23090671.180   121342330.617    23090678.730    94552501.3364   23090678.527  
                
  20753883.039   109062427.470    20753892.188    84983767.8164   20753891.684  
                
  20397872.383   107191580.174    20397879.594    83525942.6264   20397879.539  
                
  23416221.469   125348875.137                    97493559.163    23416228.375  
  23416220.176  
 21  8 16  8 31 10.0000000  0 15R12G26R 6R21R22R 5G16G18G27R20G 8G15
                                G10G23R 7
  23004891.531   122888005.570                    95579550.988    23004896.121  
  23004891.176  
  23956034.445   125889792.557    23956045.773    98095972.6764   23956045.574  
                
  19845898.648   105901546.641                                                  
  19845896.078  
  19769533.836   105790786.138                    82281716.015    19769537.230  
  19769532.039  
  22664978.273   120987200.779                    94101178.148    22664981.148  
  22664976.449  
  20625119.930   110253119.913                    85752422.733    20625124.398  
  20625119.703  
  22604597.312   118787964.827    22604604.117    92562076.9144                 
                
  21476767.367   112861203.900    21476774.738    87943811.6474   21476774.758  
                
  21265672.781   111751862.166    21265681.320    87079429.6094   21265681.320  
                
  21072923.367   112686396.283                    87644995.364    21072930.430  
  21072922.465  
  23661135.094   124340091.799    23661144.883    96888437.9064   23661145.402  
                
  23094201.812   121360884.184    23094209.336    94566958.6514   23094209.125  
                
  20751340.195   109049064.762    20751349.320    84973355.3214   20751348.820  
                
  20399696.719   107201167.120    20399703.934    83533412.9714   20399703.879  
                
  23407772.625   125303648.404                    97458382.838    23407779.613  
  23407771.414  
 21  8 16  8 31 20.0000000  0 15R12G26R 6R21R22R 5G16G18G27R20G 8G15
                                G10G23R 7
  23007250.234   122900605.253                    95589350.741    23007254.906  
  23007249.863  
  23962002.102   125921152.805    23962013.402    98120409.2154   23962013.230  
                
  19841346.164   105877253.748                                                  
  19841343.602  
  19766935.117   105776879.870                    82270900.034    19766938.504  
  19766933.320  
  22658682.094   120953591.364                    94075037.520    22658684.945  
  22658680.246  
  20629575.375   110276936.772                    85770946.952    20629579.840  
  20629575.156  
  22608672.156   118809378.189    22608678.953    92578762.6444                 
                
  21480520.484   112880926.637    21480527.867    87959180.0074   21480527.902  
                
  21261969.164   111732399.541    21261977.699    87064263.9344   21261977.695  
                
  21077162.664   112709065.694                    87662627.114    21077169.750  
  21077161.703  
  23655004.344   124307874.692    23655014.113    96863333.6744   23655014.660  
                
  23097744.164   121379499.427    23097751.652    94581464.0414   23097751.457  
                
  20748806.867   109035752.074    20748815.973    84962981.7984   20748815.480  
                
  20401530.953   107210806.084    20401538.160    83540923.8544   20401538.109  
                
  23399326.195   125258434.379                    97423216.392    23399333.207  
  23399325.020  
 21  8 16  8 31 30.0000000  0 15R12G26R 6R21R22R 5G16G18G27R20G 8G15
                                G10G23R 7
  23009623.031   122913280.253                    95599209.031    23009627.809  
  23009622.648  
  23967971.922   125952524.545    23967983.258    98144854.7024   23967983.078  
                
  19836807.820   105853036.222                                                  
  19836805.285  
  19764344.047   105763014.511                    82260115.864    19764347.438  
  19764342.246  
  22652386.547   120919985.541                    94048899.651    22652389.402  
  22652384.727  
  20634044.352   110300825.967                    85789527.445    20634048.809  
  20634044.172  
  22612756.406   118830841.008    22612763.168    92595486.9024                 
                
  21484278.219   112900673.670    21484285.617    87974567.2884   21484285.664  
                
  21258274.758   111712985.314    21258283.289    87049135.9624   21258283.297  
                
  21081409.070   112731773.236                    87680288.531    21081416.199  
  21081408.062  
  23648877.492   124275677.950    23648887.234    96838245.2984   23648887.773  
                
  23101298.242   121398176.220    23101305.711    94596017.3894   23101305.531  
                
  20746283.039   109022489.297    20746292.125    84952647.1684   20746291.645  
                
  20403375.062   107220496.916    20403382.262    83548475.1474   20403382.211  
                
  23390882.211   125213233.047                    97388059.808    23390889.172  
  23390881.012  
 21  8 16  8 31 40.0000000  0 15R12G26R 6R21R22R 5G16G18G27R20G 8G15
                                G10G23R 7
  23012009.875   122926030.216                    95609125.650    23012014.715  
  23012009.488  
  23973943.844   125983907.326    23973955.191    98169308.7894   23973955.004  
                
  19832283.562   105828893.933                                                  
  19832281.051  
  19761760.555   105749189.756                    82249363.269    19761763.934  
  19761758.754  
  22646091.656   120886382.999                    94022764.359    22646094.488  
  22646089.828  
  20638526.781   110324787.090                    85808163.865    20638531.223  
  20638526.637  
  22616849.992   118852352.889    22616856.723    92612249.3934                 
                
  21488040.508   112920444.648    21488047.922    87989973.2354   21488047.973  
                
  21254589.516   111693619.203    21254598.031    87034045.4914   21254598.051  
                
  21085662.594   112754518.700                    87697979.430    21085669.746  
  21085661.562  
  23642754.516   124243501.488    23642764.266    96813172.7404   23642764.789  
                
  23104863.953   121416914.149    23104871.426    94610618.3764   23104871.230  
                
  20743768.641   109009276.109    20743777.715    84942351.1824   20743777.230  
                
  20405228.961   107230239.222    20405236.145    83556066.5504   20405236.098  
                
  23382440.586   125168044.238                    97352912.977    23382447.461  
  23382439.367  
 21  8 16  8 31 50.0000000  0 15R12G26R 6R21R22R 5G16G18G27R20G 8G15
                                G10G23R 7
  23014410.781   122938855.327                    95619100.770    23014415.629  
  23014410.363  
  23979917.969   126015301.394    23979929.262    98193771.6884   23979929.090  
                
  19827773.398   105804826.855                                                  
  19827770.883  
  19759184.734   105735405.999                    82238642.571    19759188.105  
  19759182.934  
  22639797.492   120852784.421                    93996632.169    22639800.316  
  22639795.664  
  20643022.719   110348820.345                    85826856.390    20643027.133  
  20643022.598  
  22620952.961   118873914.038    22620959.676    92629050.2714                 
                
  21491807.414   112940239.885    21491814.859    88005398.0934   21491814.902  
                
  21250913.508   111674301.672    21250922.020    87018992.8684   21250922.031  
                
  21089923.227   112777302.368                    87715700.031    21089930.418  
  21089922.203  
  23636635.461   124211345.656    23636645.254    96788116.2714   23636645.750  
                
  23108441.367   121435713.554    23108448.855    94625267.2504   23108448.660  
                
  20741263.758   108996112.885    20741272.820    84932094.1254   20741272.332  
                
  20407092.711   107240033.287    20407099.867    83563698.2814   20407099.836  
                
  23374001.484   125122868.481                    97317776.273    23374008.211  
  23374000.152  
 21  8 16  8 32  0.0000000  0 15R12G26R 6R21R22R 5G16G18G27R20G 8G15
                                G10G23R 7
  23016825.742   122951755.626                    95629134.338    23016830.590  
  23016825.309  
  23985894.188   126046706.634    23985905.430    98218243.2794   23985905.285  
                
  19823277.484   105780835.796                                                  
  19823274.969  
  19756616.609   105721663.463                    82227953.934    19756619.973  
  19756614.801  
  22633504.031   120819189.617                    93970502.880    22633506.871  
  22633502.207  
  20647532.125   110372925.640                    85845604.958    20647536.512  
  20647532.035  
  22625065.281   118895524.364    22625071.965    92645889.4794                 
                
  21495578.938   112960059.362    21495586.402    88020841.8334   21495586.449  
                
  21247246.758   111655032.779    21247255.273    87003978.1444   21247255.289  
                
  21094190.992   112800124.051                    87733450.229    21094198.180  
  21094190.012  
  23630520.359   124179210.634    23630530.184    96763076.0104   23630530.660  
                
  23112030.438   121454574.268    23112037.945    94639963.9354   23112037.758  
                
  20738768.367   108982999.621    20738777.410    84921876.0014   20738776.926  
                
  20408966.289   107249879.034    20408973.422    83571370.2964   20408973.410  
                
  23365564.719   125077705.818                    97282649.768    23365571.422  
  23365563.363  
 21  8 16  8 32 10.0000000  0 15R12G26R 6R21R22R 5G16G18G27R20G 8G15
                                G10G23R 7
  23019254.727   122964730.766                    95639226.090    23019259.562  
  23019254.328  
  23991872.578   126078122.860    23991883.711    98242723.4414   23991883.578  
                
  19818795.719   105756920.322                                                  
  19818793.191  
  19754056.172   105707962.020                    82217297.253    19754059.535  
  19754054.371  
  22627211.289   120785598.503                    93944376.463    22627214.109  
  22627209.473  
  20652054.953   110397102.668                    85864409.300    20652059.320  
  20652054.895  
  22629186.938   118917183.731    22629193.590    92662766.9094                 
                
  21499355.055   112979902.982    21499362.547    88036304.3904   21499362.594  
                
  21243589.266   111635812.499    21243597.785    86989001.3124   21243597.805  
                
  21098465.898   112822983.940                    87751230.153    21098473.105  
  21098464.914  
  23624409.211   124147096.425    23624419.078    96738051.9674   23624419.527  
                
  23115631.172   121473496.183    23115638.656    94654708.2944   23115638.465  
                
  20736282.484   108969936.237    20736291.500    84911696.7394   20736291.031  
                
  20410849.688   107259776.352    20410856.785    83579082.4864   20410856.805  
                
  23357130.453   125032556.383                    97247533.555    23357137.105  
  23357129.016  
 21  8 16  8 32 20.0000000  0 15R12G26R 6R21R22R 5G16G18G27R20G 8G15
                                G10G23R 7
  23021697.734   122977780.755                    95649376.084    23021702.566  
  23021697.367  
  23997853.008   126109550.048    23997864.062    98267212.1464   23997863.945  
                
  19814328.195   105733080.789                                                  
  19814325.664  
  19751503.438   105694301.790                    82206672.630    19751506.785  
  19751501.645  
  22620919.273   120752011.316                    93918253.083    22620922.113  
  22620917.477  
  20656591.203   110421351.407                    85883269.422    20656595.547  
  20656591.164  
  22633317.891   118938892.018    22633324.523    92679682.4424                 
                
  21503135.781   112999770.805    21503143.336    88051785.8044   21503143.359  
                
  21239941.055   111616641.039    21239949.578    86974062.5134   21239949.594  
                
  21102747.922   112845881.819                    87769039.573    21102755.129  
  21102746.910  
  23618302.000   124115002.908    23618311.875    96713044.0564   23618312.324  
                
  23119243.547   121492479.295    23119251.020    94669500.3294   23119250.824  
                
  20733806.102   108956922.810    20733815.098    84901556.4134   20733814.648  
                
  20412742.898   107269725.240    20412749.984    83586834.8644   20412750.012  
                
  23348698.688   124987420.290                    97212427.712    23348705.305  
  23348697.168  
 21  8 16  8 32 30.0000000  0 15R12G26R 6R21R22R 5G16G18G27R20G 8G15
                                G10G23R 7
  23024154.766   122990905.651                    95659584.316    23024159.586  
  23024154.418  
  24003835.469   126140988.159    24003846.527    98291709.3584   24003846.426  
                
  19809874.930   105709317.310                                                  
  19809872.395  
  19748958.469   105680683.100                    82196080.301    19748961.789  
  19748956.684  
  22614628.109   120718428.314                    93892132.995    22614630.859  
  22614626.254  
  20661140.883   110445671.911                    85902185.360    20661145.207  
  20661140.844  
  22637458.156   118960649.176    22637464.781    92696636.0614                 
                
  21506921.133   113019662.901    21506928.734    88067286.1284   21506928.738  
                
  21236302.172   111597518.526    21236310.695    86959161.8464   21236310.719  
                
  21107037.102   112868818.006                    87786878.849    21107044.336  
  21107036.125  
  23612198.844   124082930.582    23612208.703    96688052.6264   23612209.148  
                
  23122867.570   121511523.609    23122875.027    94684340.0544   23122874.855  
                
  20731339.250   108943959.465    20731348.223    84891455.1054   20731347.781  
                
  20414645.938   107279725.727    20414653.020    83594627.4524   20414653.047  
                
  23340269.352   124942297.875                    97177332.505    23340276.051  
  23340267.875  
 21  8 16  8 32 40.0000000  0 15R12G26R 6R21R22R 5G16G18G27R20G 8G15
                                G10G23R 7
  23026625.805   123004105.447                    95669850.793    23026630.645  
  23026625.469  
  24009819.945   126172437.126    24009831.105    98316215.0134   24009830.980  
                
  19805435.891   105685629.824                                                  
  19805433.355  
  19746421.234   105667105.889                    82185520.263    19746424.551  
  19746419.461  
  22608337.703   120684849.416                    93866016.104    22608340.336  
  22608335.793  
  20665703.922   110470063.923                    85921156.923    20665708.230  
  20665703.891  
  22641607.719   118982455.188    22641614.363    92713627.7514                 
                
  21510711.102   113039579.289    21510718.738    88082805.3894   21510718.742  
                
  21232672.609   111578445.080    21232681.125    86944299.4284   21232681.156  
                
  21111333.422   112891792.344                    87804747.748    21111340.656  
  21111332.465  
  23606099.695   124050879.338    23606109.523    96663077.6424   23606109.984  
                
  23126503.219   121530629.066    23126510.656    94699227.4354   23126510.500  
                
  20728881.938   108931046.239    20728890.898    84881392.8524   20728890.457  
                
  20416558.781   107289777.795    20416565.875    83602460.2374   20416565.879  
                
  23331842.492   124897189.137                    97142247.945    23331849.375  
  23331841.152  
 21  8 16  8 32 50.0000000  0 16R12G26R 6R21R22G32R 5G16G18G27R20G 8
                                G15G10G23R 7
  23029110.773   123017379.619                    95680175.139    23029115.645  
  23029110.465  
  24015806.461   126203896.668    24015817.691    98340728.9074   24015817.551  
                
  19801011.125   105662018.463                                                  
  19801008.578  
  19743891.758   105653570.070                    82174992.398    19743895.055  
  19743890.000  
  22602047.977   120651274.553                    93839902.287    22602050.562  
  22602046.070  
  24695765.289   129777117.867    24695776.387   101125073.8134   24695776.465  
                
  20670280.305   110494527.281                    85940183.975    20670284.621  
  20670280.273  
  22645766.539   119004309.888    22645773.203    92730657.3774                 
                
  21514505.656   113059519.761    21514513.348    88098343.4054   21514513.320  
                
  21229052.375   111559420.598    21229060.883    86929475.1554   21229060.918  
                
  21115636.852   112914804.729                    87822646.251    21115644.102  
  21115635.926  
  23600004.562   124018849.042    23600014.359    96638118.9654   23600014.848  
                
  23130150.484   121549795.460    23130157.934    94714162.2964   23130157.762  
                
  20726434.133   108918182.948    20726443.094    84871369.5124   20726442.652  
                
  20418481.406   107299881.210    20418488.504    83610333.0234   20418488.500  
                
  23323418.359   124852094.054                    97107174.001    23323425.234  
  23323417.000  
 21  8 16  8 33  0.0000000  0 16R12G26R 6R21R22G32R 5G16G18G27R20G 8
                                G15G10G23R 7
  23031609.734   123030728.543                    95690557.642    23031614.613  
  23031609.434  
  24021795.070   126235366.807    24021806.254    98365251.0824   24021806.129  
                
  19796600.625   105638483.227                                                  
  19796598.082  
  19741370.070   105640076.020                    82164497.033    19741373.363  
  19741368.297  
  22595759.039   120617703.953                    93813791.832    22595761.633  
  22595757.105  
  24689024.781   129741696.471    24689035.922   101097472.7344   24689036.023  
                
  20674870.039   110519062.046                    85959266.558    20674874.363  
  20674870.000  
  22649934.625   119026213.235    22649941.305    92747724.9124                 
                
  21518304.812   113079484.445    21518312.531    88113900.2994   21518312.480  
                
  21225441.484   111540445.292    21225449.973    86914689.2014   21225450.012  
                
  21119947.414   112937855.247                    87840574.438    21119954.703  
  21119946.520  
  23593913.477   123986840.203    23593923.305    96613177.0234   23593923.797  
                
  23133809.352   121569022.890    23133816.812    94729144.7124   23133816.648  
                
  20723995.844   108905369.730    20724004.809    84861385.1984   20724004.355  
                
  20420413.805   107310036.022    20420420.898    83618245.8714   20420420.883  
                
  23314996.820   124807013.108                    97072111.060    23315003.750  
  23314995.477  
 21  8 16  8 33 10.0000000  0 16R12G26R 6R21R22G32R 5G16G18G27R20G 8
                                G15G10G23R 7
  23034122.570   123044151.679                    95700997.867    23034127.449  
  23034122.270  
  24027785.531   126266847.176    24027796.781    98389781.2164   24027796.680  
                
  19792204.430   105615024.252                                                  
  19792201.898  
  19738856.125   105626623.357                    82154033.852    19738859.406  
  19738854.352  
  22589470.961   120584137.442                    93787684.574    22589473.527  
  22589469.008  
  24682283.719   129706272.388    24682294.910   101069869.5494   24682295.035  
                
  20679473.039   110543667.661                    85978404.252    20679477.355  
  20679473.000  
  22654111.883   119048164.864    22654118.570    92764830.0644                 
                
  21522108.531   113099473.074    21522116.258    88129475.8474   21522116.207  
                
  21221839.930   111521518.984    21221848.395    86899941.4374   21221848.457  
                
  21124265.086   112960943.801                    87858532.196    21124272.395  
  21124264.207  
  23587826.398   123954852.449    23587836.230    96588251.5224   23587836.738  
                
  23137479.766   121588311.008    23137487.262    94744174.4074   23137487.113  
                
  20721567.055   108892606.370    20721576.031    84851439.7224   20721575.578  
                
  20422355.930   107320241.952    20422363.004    83626198.5394   20422362.996  
                
  23306578.008   124761945.994                    97037058.867    23306584.863  
  23306576.551  
 21  8 16  8 33 20.0000000  0 16R12G26R 6R21R22G32R 5G16G18G27R20G 8
                                G15G10G23R 7
  23036649.305   123057648.985                    95711495.727    23036654.156  
  23036649.012  
  24033778.031   126298337.716    24033789.207    98414319.2724   24033789.156  
                
  19787822.516   105591641.488                                                  
  19787819.996  
  19736349.961   105613212.366                    82143603.082    19736353.250  
  19736348.188  
  22583183.562   120550574.959                    93761580.419    22583186.172  
  22583181.676  
  24675542.258   129670845.776    24675553.406   101042264.3954   24675553.551  
                
  20684089.281   110568344.066                    85997596.992    20684093.617  
  20684089.254  
  22658298.336   119070164.745    22658305.027    92781972.8074                 
                
  21525916.812   113119485.670    21525924.531    88145070.0654   21525924.465  
                
  21218247.719   111502641.822    21218256.168    86885231.9584   21218256.258  
                
  21128589.867   112984070.282                    87876519.437    21128597.191  
  21128589.023  
  23581743.375   123922886.002    23581753.223    96563342.6234   23581753.719  
                
  23141161.711   121607659.738    23141169.266    94759251.3374   23141169.121  
                
  20719147.758   108879892.905    20719156.754    84841533.1284   20719156.289  
                
  20424307.789   107330498.971    20424314.824    83634191.0224   20424314.844  
                
  23298161.758   124716892.985                    97002017.660    23298168.609  
  23298160.258  
 21  8 16  8 33 30.0000000  0 16R12G26R 6R21R22G32R 5G16G18G27R20G 8
                                G15G10G23R 7
  23039189.930   123071220.464                    95722051.331    23039194.797  
  23039189.621  
  24039772.383   126329838.333    24039783.586    98438865.1844   24039783.570  
                
  19783454.898   105568335.033                                                  
  19783452.387  
  19733851.562   105599842.941                    82133204.636    19733854.840  
  19733849.797  
  22576896.930   120517016.901                    93735479.710    22576899.602  
  22576895.094  
  24668800.273   129635416.701    24668811.438   101014657.3294   24668811.625  
                
  20688718.742   110593091.175                    86016844.742    20688723.102  
  20688718.699  
  22662493.953   119092212.792    22662500.676    92799153.0944                 
                
  21529729.648   113139522.202    21529737.359    88160682.9394   21529737.297  
                
  21214664.883   111483813.860    21214673.316    86870560.8244   21214673.410  
                
  21132921.734   113007234.643                    87894536.162    21132929.082  
  21132920.945  
  23575664.453   123890941.057    23575674.297    96538450.4654   23575674.770  
                
  23144855.172   121627069.036    23144862.789    94774375.4614   23144862.629  
                
  20716737.961   108867229.343    20716746.980    84831665.4214   20716746.496  
                
  20426269.352   107340807.014    20426276.352    83642223.2624   20426276.395  
                
  23289748.141   124671854.193                    96966987.512    23289755.004  
  23289746.586  
 21  8 16  8 33 40.0000000  0 16R12G26R 6R21R22G32R 5G16G18G27R20G 8
                                G15G10G23R 7
  23041744.414   123084866.032                    95732664.544    23041749.270  
  23041744.086  
  24045768.680   126361349.015    24045779.922    98463418.9334   24045779.914  
                
  19779101.641   105545105.184                                                  
  19779099.145  
  19731361.016   105586515.496                    82122838.846    19731364.293  
  19731359.254  
  22570611.070   120483463.111                    93709382.376    22570613.832  
  22570609.273  
  24662057.875   129599985.423    24662069.051   100987048.5394   24662069.273  
                
  20693361.438   110617909.037                    86036147.510    20693365.828  
  20693361.395  
  22666698.727   119114309.009    22666705.484    92816370.9214                 
                
  21533547.055   113159582.827    21533554.758    88176314.5794   21533554.695  
                
  21211091.445   111465035.354    21211099.875    86855928.2214   21211099.984  
                
  21137260.742   113030437.173                    87912582.563    21137268.109  
  21137259.969  
  23569589.602   123859017.535    23569599.438    96513574.9894   23569599.871  
                
  23148560.172   121646538.978    23148567.855    94789546.8334   23148567.688  
                
  20714337.688   108854615.846    20714346.738    84821836.7254   20714346.242  
                
  20428240.633   107351166.189    20428247.602    83650295.3384   20428247.668  
                
  23281337.281   124626829.773                    96931968.540    23281344.078  
  23281335.645  
 21  8 16  8 33 50.0000000  0 16R12G26R 6R21R22G32R 5G16G18G27R20G 8
                                G15G10G23R 7
  23044312.727   123098585.529                    95743335.251    23044317.590  
  23044312.336  
  24051766.867   126392869.542    24051778.102    98487980.3664   24051778.094  
                
  19774762.750   105521952.068                                                  
  19774760.246  
  19728878.273   105573229.836                    82112505.555    19728881.551  
  19728876.531  
  22564326.117   120449913.582                    93683288.291    22564328.891  
  22564324.309  
  24655315.102   129564551.882    24655326.262   100959437.9874   24655326.539  
                
  20698017.305   110642797.290                    86055505.022    20698021.711  
  20698017.242  
  22670912.641   119136453.197    22670919.422    92833626.1234                 
                
  21537369.023   113179667.354    21537376.715    88191964.8524   21537376.652  
                
  21207527.398   111446306.169    21207535.828    86841334.0564   21207535.941  
                
  21141606.844   113053677.624                    87930658.446    21141614.203  
  21141606.102  
  23563518.820   123827115.385    23563528.652    96488716.1754   23563529.098  
                
  23152276.672   121666069.280    23152284.426    94804765.2554   23152284.242  
                
  20711946.922   108842052.249    20711956.000    84812046.9184   20711955.492  
                
  20430221.609   107361576.254    20430228.566    83658407.0744   20430228.637  
                
  23272929.094   124581819.800                    96896960.786    23272935.824  
  23272927.395  
 21  8 16  8 34  0.0000000  0 16R12G26R 6R21R22G32R 5G16G18G27R20G 8
                                G15G10G23R 7
  23046894.906   123112379.020                    95754063.514    23046899.746  
  23046894.480  
  24057766.977   126424399.931    24057778.188    98512549.4844   24057778.172  
                
  19770438.195   105498875.486                                                  
  19770435.684  
  19726403.398   105559986.223                    82102204.967    19726406.676  
  19726401.652  
  22558042.102   120416368.711                    93657197.839    22558044.836  
  22558040.246  
  24648571.977   129529116.355    24648583.078   100931825.8804   24648583.387  
                
  20702686.367   110667756.033                    86074917.367    20702690.797  
  20702686.305  
  22675135.695   119158645.458    22675142.508    92850918.7764                 
                
  21541195.562   113199775.898    21541203.250    88207633.8384   21541203.195  
                
  21203972.797   111427626.592    21203981.223    86826778.5394   21203981.332  
                
  21145960.047   113076956.144                    87948763.953    21145967.410  
  21145959.348  
  23557452.195   123795235.104    23557462.012    96463874.4114   23557462.469  
                
  23156004.672   121685660.066    23156012.488    94820030.8094   23156012.273  
                
  20709565.672   108829538.730    20709574.766    84802296.1264   20709574.242  
                
  20432212.281   107372037.304    20432219.238    83666558.5484   20432219.297  
                
  23264523.617   124536824.375                    96861964.361    23264530.289  
  23264521.863  
 21  8 16  8 34 10.0000000  0 16R12G26R 6R21R22G32R 5G16G18G27R20G 8
                                G15G10G23R 7
  23049490.883   123126246.307                    95764849.160    23049495.738  
  23049490.352  
  24063768.797   126455940.076    24063780.121    98537126.1904   24063780.105  
                
  19766128.062   105475875.859                                                  
  19766125.570  
  19723936.367   105546784.674                    82091937.103    19723939.637  
  19723934.621  
  22551758.852   120382828.285                    93631110.867    22551761.547  
  22551757.020  
  24641828.398   129493678.832    24641839.488   100904212.2214   24641839.836  
                
  20707368.555   110692784.996                    86094384.335    20707372.992  
  20707368.492  
  22679367.875   119180885.635    22679374.695    92868248.7724                 
                
  21545026.664   113219908.442    21545034.363    88223321.5294   21545034.293  
                
  21200427.633   111408996.631    21200436.051    86812261.6894   21200436.160  
                
  21150320.391   113100272.744                    87966899.073    21150327.766  
  21150319.727  
  23551389.727   123763376.645    23551399.512    96439049.6354   23551399.949  
                
  23159744.180   121705311.250    23159752.043    94835343.4134   23159751.836  
                
  20707193.945   108817075.247    20707203.059    84792584.3264   20707202.523  
                
  20434212.641   107382549.252    20434219.602    83674749.6804   20434219.660  
                
  23256120.852   124491843.799                    96826979.490    23256127.512  
  23256119.105  
 21  8 16  8 34 20.0000000  0 16R12G26R 6R21R22G32R 5G16G18G27R20G 8
                                G15G10G23R 7
  23052100.680   123140187.477                    95775692.256    23052105.555  
  23052100.059  
  24069772.508   126487490.016    24069783.898    98561710.5384   24069783.891  
                
  19761832.367   105452953.243                                                  
  19761829.906  
  19721477.266   105533625.479                    82081702.172    19721480.531  
  19721475.523  
  22545476.641   120349292.808                    93605027.717    22545479.129  
  22545474.727  
  24635084.492   129458239.646    24635095.574   100876597.2664   24635095.953  
                
  20712063.906   110717884.282                    86113905.992    20712068.359  
  20712063.828  
  22683609.172   119203173.765    22683615.992    92885616.1394                 
                
  21548862.359   113240065.115    21548870.078    88239028.0204   21548869.969  
                
  21196891.953   111390416.517    21196900.359    86797783.6834   21196900.480  
                
  21154687.836   113123627.293                    87985063.727    21154695.203  
  21154687.199  
  23545331.477   123731540.295    23545341.246    96414242.0994   23545341.668  
                
  23163495.172   121725022.856    23163503.098    94850703.1084   23163502.902  
                
  20704831.781   108804661.967    20704840.914    84782911.6454   20704840.371  
                
  20436222.711   107393112.190    20436229.684    83682980.5414   20436229.734  
                
  23247720.867   124446878.306                    96792006.363    23247727.531  
  23247719.176  
 21  8 16  8 34 30.0000000  0 16R12G26R 6R21R22G32R 5G16G18G27R20G 8
                                G15G10G23R 7
  23054724.289   123154202.330                    95786592.700    23054729.137  
  23054723.676  
  24075778.156   126519049.471    24075789.480    98586302.3084   24075789.500  
                
  19757551.078   105430107.565                                                  
  19757548.637  
  19719026.047   105520508.521                    82071500.093    19719029.309  
  19719024.312  
  22539195.211   120315761.897                    93578948.130    22539197.582  
  22539193.223  
  24628340.203   129422798.681    24628351.312   100848980.9204   24628351.723  
                
  20716772.359   110743053.613                    86133482.133    20716776.812  
  20716772.297  
  22687859.508   119225509.386    22687866.316    92903020.5044                 
                
  21552702.609   113260245.742    21552710.324    88254753.1724   21552710.207  
                
  21193365.758   111371886.220    21193374.145    86783344.4904   21193374.273  
                
  21159062.398   113147019.974                    88003258.010    21159069.777  
  21159061.766  
  23539277.375   123699725.876    23539287.160    96389451.6634   23539287.574  
                
  23167257.617   121744794.735    23167265.598    94866109.7454   23167265.414  
                
  20702479.141   108792298.760    20702488.289    84773277.9824   20702487.738  
                
  20438242.445   107403725.926    20438249.418    83691250.9774   20438249.453  
                
  23239323.750   124401927.787                    96757044.880    23239330.344  
  23239322.059  
 21  8 16  8 34 40.0000000  0 16R12G26R 6R21R22G32R 5G16G18G27R20G 8
                                G15G10G23R 7
  23057361.641   123168290.692                    95797550.332    23057366.418  
  23057361.004  
  24081785.578   126550618.357    24081796.836    98610901.4334   24081796.871  
                
  19753284.281   105407339.176                                                  
  19753281.859  
  19716582.734   105507433.821                    82061330.888    19716586.004  
  19716580.996  
  22532914.539   120282235.614                    93552872.148    22532916.926  
  22532912.598  
  24621595.672   129387356.099    24621606.734   100821363.3154   24621607.195  
                
  20721493.883   110768292.864                    86153112.653    20721498.340  
  20721493.812  
  22692118.875   119247892.511    22692125.691    92920461.8994                 
                
  21556547.422   113280450.342    21556555.121    88270497.0074   21556555.008  
                
  21189849.055   111353405.805    21189857.426    86768944.1674   21189857.566  
                
  21163444.078   113170450.650                    88021481.865    21163451.445  
  21163443.430  
  23533227.477   123667933.558    23533237.293    96364678.4424   23533237.699  
                
  23171031.500   121764626.775    23171039.520    94881563.2694   23171039.359  
                
  20700136.039   108779985.657    20700145.207    84763683.3584   20700144.652  
                
  20440271.828   107414390.395    20440278.801    83699560.9544   20440278.840  
                
  23230929.422   124356992.551                    96722095.293    23230936.023  
  23230927.789  
 21  8 16  8 34 50.0000000  0 16R12G26R 6R21R22G32R 5G16G18G27R20G 8
                                G15G10G23R 7
  23060012.734   123182452.356                    95808564.914    23060017.434  
  23060012.047  
  24087794.750   126582196.402    24087805.961    98635507.6804   24087806.004  
                
  19749031.914   105384647.722                                                  
  19749029.480  
  19714147.320   105494401.448                    82051194.586    19714150.582  
  19714145.598  
  22526634.867   120248714.050                    93526799.841    22526637.223  
  22526632.895  
  24614850.750   129351911.793    24614861.820   100793744.3704   24614862.332  
                
  20726228.438   110793601.713                    86172797.302    20726232.891  
  20726228.355  
  22696387.258   119270322.989    22696394.074    92937940.1814                 
                
  21560396.758   113300678.688    21560404.434    88286259.3504   21560404.320  
                
  21186341.820   111334975.184    21186350.188    86754582.6474   21186350.324  
                
  21167832.797   113193919.050                    88039735.065    21167840.152  
  21167832.129  
  23527181.773   123636163.205    23527191.605    96339922.3394   23527192.008  
                
  23174816.789   121784518.675    23174824.836    94897063.4594   23174824.676  
                
  20697802.438   108767722.466    20697811.633    84754127.6314   20697811.062  
                
  20442310.836   107425105.383    20442317.801    83707910.2954   20442317.844  
                
  23222537.867   124312072.546                    96687157.565    23222544.555  
  23222536.348  
 21  8 16  8 35  0.0000000  0 16R12G26R 6R21R22G32R 5G16G18G27R20G 8
                                G15G10G23R 7
  23062677.578   123196687.361                    95819636.600    23062682.223  
  23062676.918  
  24093805.664   126613783.621    24093816.855    98660121.0844   24093816.879  
                
  19744794.023   105362033.557                                                  
  19744791.574  
  19711719.820   105481411.372                    82041091.207    19711723.078  
  19711718.094  
  22520356.109   120215197.310                    93500731.271    22520358.410  
  22520354.090  
  24608105.594   129316465.980    24608116.652   100766124.2584   24608117.191  
                
  20730975.992   110818980.082                    86192536.032    20730980.426  
  20730975.918  
  22700664.641   119292800.780    22700671.461    92955455.3274                 
                
  21564250.633   113320930.923    21564258.266    88302040.3054   21564258.172  
                
  21182844.102   111316594.546    21182852.457    86740260.0734   21182852.594  
                
  21172228.617   113217425.485                    88058017.826    21172235.988  
  21172227.926  
  23521140.281   123604414.883    23521150.074    96315183.3844   23521150.492  
                
  23178613.516   121804470.652    23178621.586    94912610.4504   23178621.453  
                
  20695478.352   108755509.328    20695487.570    84744610.9024   20695486.980  
                
  20444359.453   107435870.944    20444366.406    83716299.0374   20444366.469  
                
  23214149.242   124267167.807                    96652231.692    23214155.922  
  23214147.762  
 21  8 16  8 35 10.0000000  0 16R12G26R 6R21R22G32R 5G16G18G27R20G 8
                                G15G10G23R 7
  23065356.125   123210995.667                    95830765.303    23065360.727  
  23065355.535  
  24099818.352   126645380.045    24099829.453    98684741.6624   24099829.508  
                
  19740570.641   105339496.802                                                  
  19740568.188  
  19709300.305   105468464.025                    82031021.047    19709303.555  
  19709298.578  
  22514078.234   120181685.444                    93474666.505    22514080.523  
  22514076.145  
  24601360.281   129281018.939    24601371.262   100738503.1764   24601371.816  
                
  20735736.570   110844428.080                    86212328.913    20735740.984  
  20735736.484  
  22704951.031   119315325.882    22704957.867    92973007.3494                 
                
  21568109.070   113341207.150    21568116.641    88317839.9594   21568116.586  
                
  21179355.930   111298264.114    21179364.277    86725976.6204   21179364.406  
                
  21176631.562   113240970.076                    88076330.284    21176638.941  
  21176630.852  
  23515103.047   123572689.064    23515112.816    96290461.9824   23515113.242  
                
  23182421.641   121824482.596    23182429.730    94928204.1594   23182429.609  
                
  20693163.820   108743346.392    20693173.074    84735133.2924   20693172.473  
                
  20446417.703   107446687.149    20446424.652    83724727.2494   20446424.730  
                
  23205763.484   124222278.782                    96617318.051    23205770.215  
  23205762.102  
 21  8 16  8 35 20.0000000  0 16R12G26R 6R21R22G32R 5G16G18G27R20G 8
                                G15G10G23R 7
  23068048.391   123225377.264                    95841950.970    23068052.992  
  23068047.777  
  24105832.633   126676985.534    24105843.820    98709369.2874   24105843.898  
                
  19736361.805   105317037.582                                                  
  19736359.359  
  19706888.781   105455559.464                    82020984.163    19706892.027  
  19706887.051  
  22507801.172   120148178.645                    93448605.680    22507803.641  
  22507799.145  
  24594614.734   129245570.693    24594625.648   100710881.1564   24594626.203  
                
  20740510.148   110869945.548                    86232175.822    20740514.535  
  20740510.055  
  22709246.406   119337898.146    22709253.242    92990596.1194                 
                
  21571972.070   113361507.299    21571979.586    88333658.2564   21571979.547  
                
  21175877.328   111279983.923    21175885.672    86711732.3204   21175885.793  
                
  21181041.609   113264552.703                    88094672.305    21181049.027  
  21181040.902  
  23509070.086   123540985.825    23509079.844    96265758.1714   23509080.273  
                
  23186241.156   121844554.398    23186249.293    94943844.5184   23186249.133  
                
  20690858.844   108731233.621    20690868.117    84725694.7694   20690867.496  
                
  20448485.586   107457553.898    20448492.535    83733194.8444   20448492.617  
                
  23197380.695   124177405.449                    96582416.616    23197387.430  
  23197379.352  
 21  8 16  8 35 30.0000000  0 16R12G26R 6R21R22G32R 5G16G18G27R20G 8
                                G15G10G23R 7
  23070754.320   123239831.785                    95853193.338    23070758.957  
  23070753.730  
  24111848.609   126708599.751    24111859.859    98734003.7004   24111859.930  
                
  19732167.469   105294655.821                                                  
  19732165.020  
  19704485.172   105442697.285                    82010980.241    19704488.418  
  19704483.422  
  22501525.109   120114676.808                    93422548.692    22501527.629  
  22501523.086  
  24587868.961   129210121.126    24587879.809   100683258.1054   24587880.352  
                
  20745296.625   110895531.937                    86252076.353    20745300.996  
  20745296.512  
  22713550.703   119360517.325    22713557.543    93008221.4404                 
                
  21575839.578   113381831.166    21575847.047    88349495.0214   21575847.039  
                
  21172408.258   111261753.830    21172416.594    86697527.0534   21172416.715  
                
  21185458.727   113288173.097                    88113043.715    21185466.176  
  21185458.023  
  23503041.367   123509304.835    23503051.113    96241071.6784   23503051.574  
                
  23190072.016   121864685.799    23190080.172    94959531.3254   23190080.000  
                
  20688563.367   108719170.794    20688572.648    84716295.1694   20688572.020  
                
  20450563.023   107468470.921    20450569.969    83741701.6084   20450570.062  
                
  23189000.883   124132547.893                    96547527.443    23189007.594  
  23188999.555  
 21  8 16  8 35 40.0000000  0 16R12G26R 6R21R22G32R 5G16G18G27R20G 8
                                G15G10G23R 7
  23073473.906   123254359.232                    95864492.470    23073478.586  
  23073473.324  
  24117866.320   126740222.828    24117877.543    98758645.0374   24117877.609  
                
  19727987.688   105272351.727                                                  
  19727985.254  
  19702089.594   105429878.055                    82001009.735    19702092.832  
  19702087.816  
  22495250.078   120081180.220                    93396495.812    22495252.621  
  22495248.051  
  24581122.898   129174670.565    24581133.812   100655634.2864   24581134.367  
                
  20750096.039   110921187.562                    86272030.726    20750100.398  
  20750095.914  
  22717863.922   119383183.456    22717870.762    93025883.3664                 
                
  21579711.625   113402178.950    21579719.066    88365350.4244   21579719.078  
                
  21168948.773   111243574.141    21168957.105    86683361.0654   21168957.230  
                
  21189882.922   113311831.573                    88131444.737    21189890.438  
  21189882.238  
  23497016.984   123477646.576    23497026.754    96216402.9234   23497027.215  
                
  23193914.266   121884877.011    23193922.422    94975264.7264   23193922.242  
                
  20686277.430   108707158.153    20686286.707    84706934.6754   20686286.094  
                
  20452650.055   107479438.385    20452656.996    83750247.6784   20452657.102  
                
  23180624.172   124087706.376                    96512650.751    23180630.785  
  23180622.785  
 21  8 16  8 35 50.0000000  0 16R12G26R 6R21R22G32R 5G16G18G27R20G 8
                                G15G10G23R 7
  23076207.094   123268959.423                    95875848.133    23076211.816  
  23076206.504  
  24123885.664   126771854.446    24123896.879    98783293.0454   24123896.906  
                
  19723822.500   105250125.443                                                  
  19723820.074  
  19699702.008   105417101.601                    81991072.497    19699705.246  
  19699700.211  
  22488976.008   120047688.558                    93370446.752    22488978.488  
  22488973.961  
  24574376.672   129139218.939    24574387.633   100628009.6474   24574388.184  
                
  20754908.344   110946912.039                    86292038.649    20754912.695  
  20754908.223  
  22722186.047   119405896.293    22722192.883    93043581.6614                 
                
  21583588.203   113422550.460    21583595.648    88381224.3264   21583595.668  
                
  21165498.867   111225444.783    21165507.188    86669234.3004   21165507.309  
                
  21194314.250   113335527.769                    88149875.095    21194321.770  
  21194313.586  
  23490996.906   123446010.945    23491006.676    96191751.7934   23491007.145  
                
  23197767.844   121905127.752    23197775.953    94991044.5144   23197775.773  
                
  20684001.023   108695195.553    20684010.285    84697613.1724   20684009.684  
                
  20454746.656   107490456.059    20454753.605    83758832.8794   20454753.711  
                
  23172250.438   124042880.763                    96477786.420    23172256.953  
  23172248.996  
 21  8 16  8 36  0.0000000  0 16R12G26R 6R21R22G32R 5G16G18G27R20G 8
                                G15G10G23R 7
  23078953.922   123283632.361                    95887260.423    23078958.605  
  23078953.344  
  24129906.617   126803494.533    24129917.832    98807947.6294   24129917.820  
                
  19719671.828   105227976.709                                                  
  19719669.406  
  19697322.414   105404367.941                    81981168.534    19697325.637  
  19697320.602  
  22482702.875   120014202.017                    93344401.673    22482705.375  
  22482700.793  
  24567630.242   129103766.338    24567641.230   100600384.2404   24567641.777  
                
  20759733.508   110972705.276                    86312100.042    20759737.844  
  20759733.379  
  22726517.047   119428655.775    22726523.902    93061316.3214                 
                
  21587469.281   113442945.673    21587476.730    88397116.6834   21587476.738  
                
  21162058.555   111207365.815    21162066.863    86655146.7914   21162066.984  
                
  21198752.648   113359261.890                    88168334.948    21198760.156  
  21198751.969  
  23484981.148   123414398.030    23484990.926    96167118.3674   23484991.406  
                
  23201632.719   121925437.909    23201640.789    95006870.6004   23201640.633  
                
  20681734.133   108683282.961    20681743.375    84688330.6354   20681742.789  
                
  20456852.781   107501523.877    20456859.734    83767457.1474   20456859.844  
                
  23163879.633   123998071.270                    96442934.643    23163886.133  
  23163878.227  
 21  8 16  8 36 10.0000000  0 16R12G26R 6R21R22G32R 5G16G18G27R20G 8
                                G15G10G23R 7
  23081714.352   123298377.929                    95898729.220    23081718.961  
  23081713.816  
  24135929.211   126835143.121    24135940.367    98832608.8574   24135940.324  
                
  19715535.742   105205905.842                                                  
  19715533.324  
  19694950.859   105391677.286                    81971298.024    19694954.074  
  19694949.031  
  22476430.648   119980720.769                    93318360.707    22476433.145  
  22476428.652  
  24560883.656   129068312.990    24560894.668   100572758.2634   24560895.211  
                
  20764571.516   110998567.170                    86332214.845    20764575.836  
  20764571.387  
  22730856.930   119451461.970    22730863.805    93079087.3754                 
                
  21591354.906   113463364.725    21591362.355    88413027.6224   21591362.371  
                
  21158627.867   111189337.453    21158636.176    86641098.7204   21158636.301  
                
  21203198.062   113383033.890                    88186824.288    21203205.617  
  21203197.430  
  23478969.734   123382807.884    23478979.527    96142502.6794   23478980.008  
                
  23205508.922   121945807.524    23205516.988    95022743.0294   23205516.855  
                
  20679476.789   108671420.549    20679486.027    84679087.2064   20679485.441  
                
  20458968.477   107512641.915    20458975.449    83776120.5484   20458975.535  
                
  23155511.781   123953278.274                    96408095.673    23155518.387  
  23155510.516  
 21  8 16  8 36 20.0000000  0 16R12G26R 6R21R22G32R 5G16G18G27R20G 8
                                G15G10G23R 7
  23084488.336   123313195.898                    95910254.298    23084492.914  
  23084487.828  
  24141953.328   126866799.874    24141964.461    98857276.4394   24141964.402  
                
  19711414.250   105183912.753                                                  
  19711411.844  
  19692587.320   105379029.534                    81961460.886    19692590.520  
  19692585.473  
  22470159.422   119947244.590                    93292323.690    22470161.824  
  22470157.500  
  24554136.977   129032858.811    24554147.914   100545131.6084   24554148.473  
                
  20769422.328   111024497.531                    86352382.906    20769426.648  
  20769422.203  
  22735205.648   119474314.583    22735212.520    93096894.5844                 
                
  21595245.000   113483807.331    21595252.449    88428956.9304   21595252.461  
                
  21155206.789   111171359.540    21155215.094    86627089.9604   21155215.223  
                
  21207650.641   113406843.614                    88205342.957    21207658.141  
  21207649.930  
  23472962.672   123351240.673    23472972.473    96117904.8564   23472972.961  
                
  23209396.398   121966236.384    23209404.496    95038661.6054   23209404.344  
                
  20677228.945   108659608.100    20677238.172    84669882.6944   20677237.586  
                
  20461093.656   107523809.885    20461100.656    83784822.8584   20461100.734  
                
  23147147.070   123908501.536                    96373269.354    23147153.664  
  23147145.809  
 21  8 16  8 36 30.0000000  0 16R12G26R 6R21R22G32R 5G16G18G27R20G 8
                                G15G10G23R 7
  23087275.953   123328086.790                    95921836.072    23087280.504  
  23087275.441  
  24147979.086   126898465.287    24147990.238    98881950.7654   24147990.160  
                
  19707307.500   105161998.313                                                  
  19707305.098  
  19690231.938   105366425.349                    81951657.624    19690235.129  
  19690230.090  
  22463889.336   119913774.496                    93266291.415    22463891.719  
  22463887.465  
  24547390.328   128997404.500    24547401.188   100517504.8674   24547401.738  
                
  20774286.023   111050496.674                    86372604.445    20774290.352  
  20774285.895  
  22739563.281   119497214.075    22739570.152    93114738.3394                 
                
  21599139.719   113504274.165    21599147.176    88444905.1024   21599147.172  
                
  21151795.438   111153432.795    21151803.738    86613121.0644   21151803.855  
                
  21212110.352   113430691.692                    88223891.456    21212117.840  
  21212109.645  
  23466960.109   123319697.003    23466969.926    96093325.3744   23466970.422  
                
  23213295.266   121986725.059    23213303.375    95054626.7834   23213303.203  
                
  20674990.734   108647846.227    20674999.941    84660717.6054   20674999.363  
                
  20463228.469   107535028.359    20463235.500    83793564.5254   20463235.562  
                
  23138785.430   123863741.768                    96338456.250    23138792.164  
  23138784.230  
 21  8 16  8 36 40.0000000  0 16R12G26R 6R21R22G32R 5G16G18G27R20G 8
                                G15G10G23R 7
  23090077.008   123343049.418                    95933473.655    23090081.555  
  23090076.477  
  24154006.289   126930138.327    24154017.492    98906631.0404   24154017.375  
                
  19703215.289   105140161.523                                                  
  19703212.895  
  19687884.531   105353863.932                    81941887.626    19687887.719  
  19687882.707  
  22457620.180   119880309.352                    93240262.967    22457622.613  
  22457618.336  
  24540643.445   128961949.207    24540654.297   100489877.3654   24540654.840  
                
  20779162.375   111076563.562                    86392878.684    20779166.699  
  20779162.230  
  22743929.625   119520159.409    22743936.496    93132617.8084                 
                
  21603038.852   113524764.236    21603046.320    88460871.3784   21603046.336  
                
  21148393.664   111135556.347    21148401.973    86599191.3634   21148402.094  
                
  21216577.062   113454577.053                    88242468.967    21216584.535  
  21216576.348  
  23460961.789   123288175.714    23460971.660    96068763.3374   23460972.121  
                
  23217205.305   122007272.418    23217213.410    95070637.7184   23217213.215  
                
  20672761.961   108636133.996    20672771.137    84651591.1984   20672770.566  
                
  20465372.688   107546296.339    20465379.750    83802344.7654   20465379.781  
                
  23130426.828   123818998.116                    96303655.695    23130433.688  
  23130425.645  
 21  8 16  8 36 50.0000000  0 16R12G26R 6R21R22G32R 5G16G18G27R20G 8
                                G15G10G23R 7
  23092891.617   123358084.526                    95945167.586    23092896.168  
  23092891.082  
  24160035.125   126961819.550    24160046.277    98931317.6914   24160046.141  
                
  19699137.781   105118403.138                                                  
  19699135.391  
  19685545.258   105341345.973                    81932151.435    19685548.434  
  19685543.438  
  22451352.000   119846849.670                    93214238.788    22451354.531  
  22451350.195  
  24533896.500   128926493.673    24533907.352   100462249.6724   24533907.895  
                
  20784051.516   111102698.769                    86413206.079    20784055.836  
  20784051.375  
  22748304.805   119543151.116    22748311.672    93150533.4134                 
                
  21606942.523   113545278.147    21606950.004    88476856.2344   21606950.039  
                
  21145001.594   111117730.909    21145009.910    86585301.4124   21145010.027  
                
  21221050.914   113478500.517                    88261076.061    21221058.328  
  21221050.160  
  23454967.945   123256677.880    23454977.883    96044219.5964   23454978.316  
                
  23221126.625   122027879.063    23221134.715    95086694.8374   23221134.520  
                
  20670542.766   108624472.062    20670551.902    84642503.9834   20670551.348  
                
  20467526.438   107557614.385    20467533.527    83811164.0104   20467533.547  
                
  23122071.375   123774271.379                    96268868.279    23122078.355  
  23122070.219  
 21  8 16  8 37  0.0000000  0 16R12G26R 6R21R22G32R 5G16G18G27R20G 8
                                G15G10G23R 7
  23095719.734   123373191.790                    95956917.694    23095724.309  
  23095719.219  
  24166065.406   126993508.631    24166076.520    98956010.4674   24166076.383  
                
  19695074.906   105096722.873                                                  
  19695072.527  
  19683214.078   105328871.398                    81922448.987    19683217.250  
  19683212.254  
  22445084.914   119813395.479                    93188218.893    22445087.430  
  22445083.086  
  24527149.461   128891037.835    24527160.352   100434621.7584   24527160.902  
                
  20788953.367   111128901.970                    86433586.344    20788957.691  
  20788953.215  
  22752688.750   119566188.911    22752695.621    93168484.9404                 
                
  21610850.695   113565815.725    21610858.207    88492859.5424   21610858.242  
                
  21141619.203   111099956.368    21141627.539    86571451.1304   21141627.656  
                
  21225531.773   113502461.712                    88279712.551    21225539.203  
  21225531.094  
  23448978.555   123225203.476    23448988.516    96019694.1004   23448988.926  
                
  23225059.188   122048544.773    23225067.223    95102797.9764   23225067.043  
                
  20668333.102   108612860.257    20668342.195    84633455.8244   20668341.672  
                
  20469689.664   107568982.272    20469696.777    83820022.1014   20469696.801  
                
  23113719.203   123729561.753                    96234094.164    23113726.223  
  23113718.020  
 21  8 16  8 37 10.0000000  0 16R12G26R 6R21R22G32R 5G16G18G27R20G 8
                                G15G10G23R 7
  23098561.344   123388371.079                    95968723.790    23098565.879  
  23098560.809  
  24172097.086   127025205.593    24172108.277    98980709.3764   24172108.152  
                
  19691026.750   105075121.171                                                  
  19691024.379  
  19680891.016   105316440.251                    81912780.318    19680894.176  
  19680889.168  
  22438818.945   119779946.982                    93162203.392    22438821.379  
  22438817.098  
  24520402.391   128855581.845    24520413.316   100406993.7194   24520413.887  
                
  20793867.930   111155173.157                    86454019.472    20793872.254  
  20793867.770  
  22757081.484   119589272.765    22757088.371    93186472.3484                 
                
  21614763.383   113586377.043    21614770.930    88508881.3324   21614770.965  
                
  21138246.539   111082232.913    21138254.883    86557640.6494   21138255.004  
                
  21230019.742   113526460.939                    88298378.603    21230027.168  
  21230019.090  
  23442993.586   123193752.307    23443003.539    95995186.6994   23443003.941  
                
  23229003.000   122069269.529    23229010.996    95118947.1354   23229010.820  
                
  20666132.992   108601298.655    20666142.059    84624446.7914   20666141.547  
                
  20471862.383   107580400.028    20471869.512    83828919.0454   20471869.535  
                
  23105370.297   123684869.278                    96199333.390    23105377.285  
  23105369.062  
 21  8 16  8 37 20.0000000  0 16R12G26R 6R21R22G32R 5G16G18G27R20G 8
                                G15G10G23R 7
  23101416.422   123403622.274                    95980585.875    23101420.906  
  23101415.902  
  24178130.297   127056910.245    24178141.500    99005414.2884   24178141.387  
                
  19686993.273   105053597.830                                                  
  19686990.906  
  19678576.094   105304052.655                    81903145.518    19678579.254  
  19678574.238  
  22432554.055   119746504.304                    93136192.427    22432556.438  
  22432552.164  
  24513655.305   128820125.804    24513666.262   100379365.6304   24513666.844  
                
  20798795.156   111181511.958                    86474505.212    20798799.492  
  20798795.000  
  22761482.953   119612402.571    22761489.844    93204495.5684                 
                
  21618680.570   113606962.012    21618688.152    88524921.5554   21618688.168  
                
  21134883.594   111064560.545    21134891.938    86543869.9784   21134892.059  
                
  21234514.750   113550497.800                    88317073.924    21234522.188  
  21234514.082  
  23437013.062   123162324.521    23437023.020    95970697.5324   23437023.410  
                
  23232958.016   122090053.206    23232965.988    95135142.1954   23232965.781  
                
  20663942.438   108589787.235    20663951.473    84615476.8544   20663950.980  
                
  20474044.578   107591867.529    20474051.730    83837854.7594   20474051.742  
                
  23097024.656   123640194.084                    96164586.061    23097031.555  
  23097023.324  
 21  8 16  8 37 30.0000000  0 16R12G26R 6R21R22G32R 5G16G18G27R20G 8
                                G15G10G23R 7
  23104284.930   123418945.247                    95992503.707    23104289.457  
  23104284.461  
  24184164.930   127088622.518    24184176.180    99030125.1344   24184176.074  
                
  19682974.578   105032153.309                                                  
  19682972.203  
  19676269.336   105291708.725                    81893544.679    19676272.488  
  19676267.477  
  22426290.172   119713067.446                    93110185.981    22426292.523  
  22426288.289  
  24506908.219   128784669.772    24506919.215   100351737.5694   24506919.781  
                
  20803735.023   111207918.357                    86495043.521    20803739.348  
  20803734.836  
  22765893.148   119635578.205    22765900.016    93222554.4924                 
                
  21622602.273   113627570.673    21622609.891    88540980.2404   21622609.879  
                
  21131530.398   111046939.373    21131538.750    86530139.1984   21131538.867  
                
  21239016.891   113574572.571                    88335798.762    21239024.301  
  21239016.219  
  23431037.039   123130920.382    23431047.008    95946226.7874   23431047.398  
                
  23236924.227   122110895.727    23236932.180    95151383.1004   23236931.953  
                
  20661761.438   108578326.006    20661770.449    84606546.0264   20661769.973  
                
  20476236.219   107603384.733    20476243.398    83846829.2014   20476243.406  
                
  23088682.227   123595536.254                    96129852.234    23088689.078  
  23088680.848  
 21  8 16  8 37 40.0000000  0 16R12G26R 6R21R22G32R 5G16G18G27R20G 8
                                G15G10G23R 7
  23107166.906   123434340.127                    96004477.481    23107171.473  
  23107166.449  
  24190201.000   127120342.255    24190212.289    99054841.7904   24190212.191  
                
  19678970.578   105010787.295                                                  
  19678968.203  
  19673970.734   105279408.464                    81883977.810    19673973.871  
  19673968.859  
  22420027.398   119679636.334                    93084184.012    22420029.691  
  22420025.453  
  24500161.133   128749213.868    24500172.172   100324109.5964   24500172.730  
                
  20808687.508   111234392.227                    86515634.307    20808691.801  
  20808687.309  
  22770312.039   119658799.544    22770318.902    93240649.0294                 
                
  21626528.461   113648202.930    21626536.086    88557057.3204   21626536.078  
                
  21128186.945   111029369.455    21128195.297    86516448.3514   21128195.430  
                
  21243526.055   113598685.114                    88354552.942    21243533.445  
  21243525.352  
  23425065.477   123099539.801    23425075.480    95921774.4004   23425075.883  
                
  23240901.602   122131796.982    23240909.543    95167669.8004   23240909.312  
                
  20659589.977   108566914.937    20659598.965    84597654.2894   20659598.496  
                
  20478437.320   107614951.562    20478444.523    83855842.3064   20478444.512  
                
  23080343.086   123550895.831                    96095131.945    23080349.848  
  23080341.605  
 21  8 16  8 37 50.0000000  0 16R12G26R 6R21R22G32R 5G16G18G27R20G 8
                                G15G10G23R 7
  23110062.258   123449806.474                    96016506.857    23110066.844  
  23110061.832  
  24196238.422   127152069.384    24196249.766    99079564.2054   24196249.695  
                
  19674981.352   104989500.067                                                  
  19674978.961  
  19671680.305   105267151.920                    81874444.929    19671683.422  
  19671678.434  
  22413765.711   119646211.144                    93058186.669    22413768.098  
  22413763.754  
  24493414.109   128713758.145    24493425.176   100296481.7914   24493425.707  
                
  20813652.594   111260933.440                    86536277.475    20813656.859  
  20813652.402  
  22774739.602   119682066.446    22774746.488    93258779.0644                 
                
  21630459.148   113668858.825    21630466.793    88573152.8004   21630466.781  
                
  21124853.266   111011850.848    21124861.609    86502797.4874   21124861.754  
                
  21248042.344   113622835.473                    88373336.541    21248049.664  
  21248041.605  
  23419098.477   123068183.128    23419108.500    95897340.6364   23419108.914  
                
  23244890.164   122152756.972    23244898.062    95184002.2564   23244897.855  
                
  20657428.062   108555554.051    20657437.031    84588801.6554   20657436.570  
                
  20480647.852   107626567.986    20480655.082    83864894.0674   20480655.047  
                
  23072007.148   123506273.018                    96060425.339    23072013.898  
  23072005.617  
 21  8 16  8 38  0.0000000  0 16R12G26R 6R21R22G32R 5G16G18G27R20G 8
                                G15G10G23R 7
  23112971.094   123465344.809                    96028592.224    23112975.688  
  23112970.645  
  24202277.266   127183804.128    24202288.672    99104292.5624   24202288.641  
                
  19671006.969   104968291.995                                                  
  19671004.570  
  19669398.141   105254939.624                    81864946.488    19669401.262  
  19669396.281  
  22407505.234   119612792.246                    93032194.231    22407507.660  
  22407503.238  
  24486667.195   128678303.109    24486678.301   100268854.4924   24486678.805  
                
  20818630.305   111287542.159                    86556973.156    20818634.543  
  20818630.121  
  22779175.883   119705379.146    22779182.781    93276944.8024                 
                
  21634394.398   113689538.650    21634402.055    88589266.9434   21634402.023  
                
  21121529.430   110994384.002    21121537.781    86489186.9584   21121537.930  
                
  21252565.734   113647023.977                    88392149.812    21252573.027  
  21252564.992  
  23413136.047   123036850.294    23413146.094    95872925.4674   23413146.504  
                
  23248889.938   122173775.903    23248897.801    95200380.6484   23248897.609  
                
  20655275.766   108544243.673    20655284.715    84579988.3834   20655284.266  
                
  20482867.867   107638234.239    20482875.125    83873984.6574   20482875.078  
                
  23063674.445   123461668.344                    96025732.850    23063681.316  
  23063673.023  
 21  8 16  8 38 10.0000000  0 16R12G26R 6R21R22G32R 5G16G18G27R20G 8
                                G15G10G23R 7
  23115893.242   123480954.409                    96040733.035    23115897.859  
  23115892.781  
  24208317.477   127215545.941    24208328.969    99129026.4174   24208328.945  
                
  19667047.359   104947162.778                                                  
  19667044.941  
  19667124.156   105242771.049                    81855482.024    19667127.273  
  19667122.301  
  22401245.867   119579379.162                    93006206.260    22401248.223  
  22401243.824  
  24479920.336   128642848.323    24479931.477   100241227.4054   24479931.945  
                
  20823620.570   111314217.967                    86577721.007    20823624.785  
  20823620.367  
  22783620.773   119728737.138    22783627.668    93295145.8174                 
                
  21638334.109   113710241.945    21638341.762    88605399.3694   21638341.727  
                
  21118215.367   110976968.495    21118223.715    86475616.4384   21118223.859  
                
  21257096.156   113671250.198                    88410992.433    21257103.430  
  21257095.406  
  23407178.148   123005541.338    23407188.191    95848528.8844   23407188.594  
                
  23252900.828   122194853.261    23252908.621    95216804.5694   23252908.449  
                
  20653133.008   108532983.382    20653141.934    84571214.1334   20653141.488  
                
  20485097.266   107649949.791    20485104.555    83883113.6474   20485104.480  
                
  23055345.133   123417081.454                    95991054.204    23055352.066  
  23055343.781  
 21  8 16  8 38 20.0000000  0 16R12G26R 6R21R22G32R 5G16G18G27R20G 8
                                G15G10G23R 7
  23118828.719   123496635.159                    96052929.164    23118833.355  
  23118828.234  
  24214359.062   127247294.684    24214370.598    99153765.6754   24214370.570  
                
  19663102.547   104926112.552                                                  
  19663100.117  
  19664858.359   105230646.352                    81846051.719    19664861.473  
  19664856.492  
  22394987.547   119545972.144                    92980223.023    22394989.906  
  22394985.531  
  24473173.609   128607393.975    24473184.699   100213600.6484   24473185.156  
                
  20828623.312   111340960.479                    86598520.724    20828627.512  
  20828623.078  
  22788074.266   119752140.359    22788081.133    93313382.0904                 
                
  21642278.297   113730968.713    21642285.961    88621550.0944   21642285.922  
                
  21114911.102   110959604.458    21114919.457    86462086.0184   21114919.602  
                
  21261633.633   113695514.017                    88429864.274    21261640.883  
  21261632.863  
  23401224.828   122974256.390    23401234.855    95824151.0124   23401235.281  
                
  23256922.828   122215988.970    23256930.555    95233273.9564   23256930.395  
                
  20650999.773   108521773.184    20651008.680    84562478.9184   20651008.230  
                
  20487336.039   107661714.604    20487343.355    83892281.0324   20487343.266  
                
  23047019.242   123372512.622                    95956389.594    23047026.184  
  23047017.914  
 21  8 16  8 38 30.0000000  0 16R12G26R 6R21R22G32R 5G16G18G27R20G 8
                                G15G10G23R 7
  23121777.516   123512387.009                    96065180.603    23121782.176  
  23121777.062  
  24220401.953   127279050.273    24220413.516    99178510.2784   24220413.512  
                
  19659172.469   104905140.973                                                  
  19659170.027  
  19662600.797   105218565.678                    81836655.637    19662603.918  
  19662598.930  
  22388730.328   119512571.061                    92954244.394    22388732.742  
  22388728.344  
  24466427.023   128571940.100    24466438.039   100185974.2784   24466438.488  
                
  20833638.516   111367769.641                    86619372.279    20833642.719  
  20833638.270  
  22792536.352   119775588.687    22792543.215    93331653.5014                 
                
  21646226.945   113751718.927    21646234.633    88637719.0804   21646234.566  
                
  21111616.641   110942291.947    21111625.004    86448595.7524   21111625.156  
                
  21266178.117   113719815.541                    88448765.446    21266185.375  
  21266177.391  
  23395276.039   122942995.254    23395286.055    95799791.7044   23395286.488  
                
  23260955.922   122237182.938    23260963.625    95249788.7394   23260963.469  
                
  20648876.078   108510613.073    20648884.969    84553782.7294   20648884.508  
                
  20489584.172   107673528.622    20489591.512    83901486.7674   20489591.398  
                
  23038696.594   123327961.624                    95921738.864    23038703.660  
  23038695.391  
 21  8 16  8 38 40.0000000  0 16R12G26R 6R21R22G32R 5G16G18G27R20G 8
                                G15G10G23R 7
  23124739.602   123528209.791                    96077487.184    23124744.316  
  23124739.176  
  24226446.078   127310812.519    24226457.680    99203260.0534   24226457.672  
                
  19655257.234   104884248.536                                                  
  19655254.793  
  19660351.445   105206528.968                    81827293.740    19660354.562  
  19660349.578  
  22382474.312   119479176.000                    92928270.459    22382476.781  
  22382472.336  
  24459680.461   128536486.721    24459691.480   100158348.2814   24459691.930  
                
  20838666.148   111394645.188                    86640275.474    20838670.359  
  20838665.887  
  22797006.969   119799081.868    22797013.824    93349959.8674                 
                
  21650180.016   113772492.438    21650187.703    88653906.2284   21650187.621  
                
  21108331.969   110925030.909    21108340.336    86435145.5914   21108340.492  
                
  21270729.656   113744154.507                    88467695.755    21270736.898  
  21270728.910  
  23389331.828   122911758.191    23389341.789    95775451.1194   23389342.234  
                
  23265000.055   122258434.940    23265007.766    95266348.7364   23265007.637  
                
  20646761.891   108499502.930    20646770.777    84545125.4774   20646770.312  
                
  20491841.641   107685391.686    20491849.004    83910730.7014   20491848.867  
                
  23030377.297   123283428.661                    95887102.152    23030384.477  
  23030376.195  
 21  8 16  8 38 50.0000000  0 16R12G26R 6R21R22G32R 5G16G18G27R20G 8
                                G15G10G23R 7
  23127714.961   123544103.683                    96089849.046    23127719.777  
  23127714.496  
  24232491.523   127342581.563    24232503.168    99228015.1184   24232503.164  
                
  19651356.828   104863435.263                                                  
  19651354.379  
  19658110.359   105194536.463                    81817966.243    19658113.484  
  19658108.500  
  22376219.477   119445787.302                    92902301.472    22376221.918  
  22376217.520  
  24452934.078   128501034.221    24452945.129   100130722.9804   24452945.555  
                
  20843706.219   111421587.297                    86661230.456    20843710.449  
  20843705.961  
  22801486.172   119822620.180    22801493.008    93368301.4034                 
                
  21654137.594   113793289.557    21654145.242    88670111.7624   21654145.172  
                
  21105057.172   110907821.723    21105065.547    86421735.8344   21105065.695  
                
  21275288.242   113768531.253                    88486655.445    21275295.496  
  21275287.488  
  23383392.195   122880545.213    23383402.105    95751129.3034   23383402.551  
                
  23269055.266   122279745.175    23269062.977    95282954.1194   23269062.867  
                
  20644657.266   108488443.075    20644666.145    84536507.4074   20644665.680  
                
  20494108.477   107697304.013    20494115.863    83920013.0264   20494115.699  
                
  23022061.492   123238914.018                    95852479.691    23022068.711  
  23022060.426  
 21  8 16  8 39  0.0000000  0 16R12G26R 6R21R22G32R 5G16G18G27R20G 8
                                G15G10G23R 7
  23130703.609   123560068.482                    96102266.077    23130708.496  
  23130703.125  
  24238538.195   127374357.348    24238549.941    99252775.4544   24238549.930  
                
  19647471.320   104842701.389                                                  
  19647468.875  
  19655877.578   105182588.413                    81808673.317    19655880.719  
  19655875.723  
  22369965.844   119412405.112                    92876337.570    22369968.297  
  22369963.859  
  24446187.883   128465582.758    24446198.965   100103098.4884   24446199.391  
                
  20848758.734   111448595.932                    86682237.155    20848762.973  
  20848758.438  
  22805973.938   119846203.438    22805980.750    93386677.9594                 
                
  21658099.648   113814110.284    21658107.246    88686335.7064   21658107.195  
                
  21101792.258   110890664.527    21101800.641    86408366.5944   21101800.785  
                
  21279853.867   113792945.949                    88505644.635    21279861.188  
  21279853.137  
  23377457.227   122849356.808    23377467.078    95726826.6584   23377467.539  
                
  23273121.562   122301113.644    23273129.266    95299604.8774   23273129.176  
                
  20642562.227   108477433.528    20642571.109    84527928.5454   20642570.637  
                
  20496384.695   107709265.585    20496392.117    83929333.7314   20496391.941  
                
  23013749.312   123194418.237                    95817871.893    23013756.469  
  23013748.168  
 21  8 16  8 39 10.0000000  0 16R12G26R 6R21R22G32R 5G16G18G27R20G 8
                                G15G10G23R 7
  23133705.523   123576104.242                    96114738.325    23133710.512  
  23133705.020  
  24244586.234   127406139.830    24244597.992    99277541.0024   24244597.961  
                
  19643600.727   104822047.139                                                  
  19643598.309  
  19653653.125   105170684.895                    81799415.027    19653656.273  
  19653651.297  
  22363713.375   119379029.419                    92850378.715    22363715.930  
  22363711.465  
  24439441.867   128430132.437    24439453.027   100075474.9004   24439453.465  
                
  20853823.680   111475670.961                    86703295.497    20853827.941  
  20853823.371  
  22810470.227   119869831.528    22810477.027    93405089.4384                 
                
  21662066.211   113834954.660    21662073.754    88702578.0714   21662073.715  
                
  21098537.266   110873559.416    21098545.648    86395037.9364   21098545.793  
                
  21284426.617   113817398.568                    88524663.332    21284433.949  
  21284425.898  
  23371526.953   122818193.018    23371536.758    95702543.2144   23371537.227  
                
  23277198.930   122322540.289    23277206.699    95316300.9674   23277206.605  
                
  20640476.773   108466474.379    20640485.664    84519388.9504   20640485.195  
                
  20498670.281   107721276.383    20498677.734    83938692.7904   20498677.535  
                
  23005440.695   123149941.377                    95783278.797    23005447.762  
  23005439.484  
 21  8 16  8 39 20.0000000  0 16R12G26R 6R21R22G32R 5G16G18G27R20G 8
                                G15G10G23R 7
  23136720.664   123592210.656                    96127265.513    23136725.695  
  23136720.137  
  24250635.492   127437928.608    24250647.223    99302311.4534   24250647.156  
                
  19639745.008   104801472.345                                                  
  19639742.602  
  19651436.961   105158825.723                    81790191.222    19651440.098  
  19651435.145  
  22357462.180   119345659.992                    92824424.710    22357464.719  
  22357460.219  
  24432696.062   128394683.082    24432707.258   100047852.0584   24432707.707  
                
  20858900.969   111502811.982                    86724405.175    20858905.266  
  20858900.645  
  22814974.984   119893504.122    22814981.789    93423535.6054                 
                
  21666037.211   113855822.368    21666044.719    88718838.6274   21666044.688  
                
  21095292.141   110856506.175    21095300.531    86381749.6974   21095300.664  
                
  21289006.359   113841888.561                    88543711.105    21289013.680  
  21289005.617  
  23365601.344   122787053.722    23365611.109    95678278.8274   23365611.578  
                
  23281287.289   122344024.723    23281295.168    95333042.0844   23281295.094  
                
  20638400.852   108455565.298    20638409.754    84510888.3684   20638409.273  
                
  20500965.164   107733336.050    20500972.648    83948089.9344   20500972.430  
                
  22997135.508   123105483.083                    95748700.141    22997142.535  
  22997134.277  
 21  8 16  8 39 30.0000000  0 16R12G26R 6R21R22G32R 5G16G18G27R20G 8
                                G15G10G23R 7
  23139749.000   123608387.484                    96139847.487    23139754.055  
  23139748.449  
  24256685.984   127469723.554    24256697.625    99327086.7324   24256697.551  
                
  19635904.180   104780976.921                                                  
  19635901.777  
  19649229.086   105147010.923                    81781001.930    19649232.227  
  19649227.254  
  22351212.188   119312297.166                    92798475.857    22351214.789  
  22351210.215  
  24425950.492   128359234.822    24425961.680   100020230.0714   24425962.133  
                
  20863990.523   111530018.625                    86745565.895    20863994.844  
  20863990.188  
  22819488.211   119917221.213    22819495.020    93442016.4464                 
                
  21670012.648   113876713.421    21670020.117    88735117.3464   21670020.109  
                
  21092056.906   110839504.889    21092065.309    86368501.9484   21092065.430  
                
  21293593.148   113866416.274                    88562788.187    21293600.508  
  21293592.363  
  23359680.359   122755938.716    23359690.102    95654033.3734   23359690.574  
                
  23285386.656   122365566.924    23285394.609    95349828.2244   23285394.566  
                
  20636334.461   108444706.311    20636343.371    84502426.8274   20636342.879  
                
  20503269.344   107745444.540    20503276.859    83957525.1164   20503276.621  
                
  22988833.773   123061043.484                    95714136.048    22988840.801  
  22988832.586  
 21  8 16  8 39 40.0000000  0 16R12G26R 6R21R22G32R 5G16G18G27R20G 8
                                G15G10G23R 7
  23142790.500   123624634.583                    96152484.100    23142795.586  
  23142789.949  
  24262737.594   127501524.560    24262749.223    99351866.7314   24262749.148  
                
  19632078.242   104760560.952                                                  
  19632075.852  
  19647029.516   105135240.607                    81771847.245    19647032.656  
  19647027.684  
  22344963.344   119278940.545                    92772531.842    22344965.953  
  22344961.379  
  24419205.164   128323787.685    24419216.293    99992608.9654   24419216.746  
                
  20869092.391   111557291.053                    86766777.766    20869096.742  
  20869092.055  
  22824009.852   119940982.600    22824016.695    93460531.8094                 
                
  21673992.508   113897627.742    21673999.949    88751414.2204   21673999.969  
                
  21088831.562   110822555.618    21088839.980    86355294.7304   21088840.102  
                
  21298186.953   113890981.348                    88581894.369    21298194.316  
  21298186.180  
  23353764.039   122724848.262    23353773.762    95629807.0514   23353774.242  
                
  23289496.992   122387166.841    23289505.008    95366659.3284   23289504.961  
                
  20634277.594   108433897.397    20634286.520    84494004.2974   20634286.016  
                
  20505582.789   107757601.747    20505590.328    83966998.2654   20505590.082  
                
  22980535.539   123016622.808                    95679586.665    22980542.617  
  22980534.422  
 21  8 16  8 39 50.0000000  0 16R12G26R 6R21R22G32R 5G16G18G27R20G 8
                                G15G10G23R 7
  23145845.188   123640952.255                    96165175.606    23145850.301  
  23145844.629  
  24268790.289   127533331.788    24268802.020    99376651.5554   24268801.906  
                
  19628267.273   104740224.888                                                  
  19628264.898  
  19644838.305   105123515.012                    81762727.345    19644841.453  
  19644836.469  
  22338715.930   119245590.815                    92746593.146    22338718.363  
  22338713.930  
  24412460.219   128288342.097    24412471.188    99964989.0424   24412471.645  
                
  20874206.586   111584629.365                    86788040.876    20874210.973  
  20874206.215  
  22828539.953   119964788.440    22828546.840    93479081.7994                 
                
  21677976.852   113918565.612    21677984.297    88767729.4324   21677984.316  
                
  21085616.188   110805658.695    21085624.617    86342128.2944   21085624.738  
                
  21302787.812   113915584.264                    88601029.962    21302795.203  
  21302787.004  
  23347852.422   122693782.576    23347862.164    95605600.0314   23347862.621  
                
  23293618.336   122408824.560    23293626.395    95383535.4664   23293626.352  
                
  20632230.312   108423138.810    20632239.266    84485620.9894   20632238.754  
                
  20507905.547   107769807.899    20507913.109    83976509.5444   20507912.836  
                
  22972241.031   122972221.384                    95645052.247    22972248.027  
  22972239.844  
 21  8 16  8 40  0.0000000  0 16R12G26R 6R21R22G32R 5G16G18G27R20G 8
                                G15G10G23R 7
  23148913.039   123657340.189                    96177921.767    23148918.145  
  23148912.500  
  24274844.156   127565145.099    24274855.941    99401441.1214   24274855.828  
                
  19624471.227   104719968.446                                                  
  19624468.863  
  19642655.484   105111834.304                    81753642.348    19642658.664  
  19642653.645  
  22332469.719   119212247.974                    92720659.830    22332472.078  
  22332467.688  
  24405715.523   128252898.063    24405726.355    99937370.3214   24405726.789  
                
  20879333.055   111612033.292                    86809355.057    20879337.461  
  20879332.699  
  22833078.500   119988638.620    22833085.402    93497666.3364                 
                
  21681965.656   113939526.920    21681973.137    88784062.9044   21681973.133  
                
  21082410.773   110788814.121    21082419.199    86329002.6514   21082419.320  
                
  21307395.758   113940224.908                    88620194.876    21307403.141  
  21307394.945  
  23341945.594   122662741.958    23341955.332    95581412.5464   23341955.781  
                
  23297750.656   122430539.972    23297758.758    95400456.5714   23297758.727  
                
  20630192.594   108412430.502    20630201.578    84477276.8554   20630201.047  
                
  20510237.594   107782062.847    20510245.164    83986058.8544   20510244.883  
                
  22963950.141   122927839.401                    95610532.951    22963957.066  
  22963948.926  
 21  8 16  8 40 10.0000000  0 16R12G26R 6R21R22G32R 5G16G18G27R20G 8
                                G15G10G23R 7
  23151994.023   123673798.273                    96190722.449    23151999.191  
  23151993.449  
  24280899.117   127596964.335    24280910.965    99426235.3144   24280910.852  
                
  19620690.180   104699792.067                                                  
  19620687.848  
  19640481.031   105100198.396                    81744592.195    19640484.223  
  19640479.176  
  22326224.695   119178911.853                    92694731.743    22326227.105  
  22326222.637  
  24398971.070   128217455.642    24398981.836    99909752.8834   24398982.266  
                
  20884471.758   111639502.562                    86830720.043    20884476.172  
  20884471.418  
  22837625.461   120012533.012    22837632.363    93516285.3404                 
                
  21685958.922   113960511.662    21685966.406    88800414.6414   21685966.406  
                
  21079215.336   110772021.995    21079223.758    86315917.8784   21079223.875  
                
  21312010.719   113964903.142                    88639389.047    21312018.082  
  21312009.875  
  23336043.516   122631726.223    23336053.203    95557244.4334   23336053.648  
                
  23301893.953   122452313.005    23301902.098    95417422.5734   23301902.102  
                
  20628164.438   108401772.460    20628173.453    84468971.8924   20628172.906  
                
  20512578.906   107794366.521    20512586.477    83995646.1334   20512586.184  
                
  22955662.922   122883476.918                    95576028.830    22955669.781  
  22955661.695  
 21  8 16  8 40 20.0000000  0 16R12G26R 6R21R22G32R 5G16G18G27R20G 8
                                G15G10G23R 7
  23155088.133   123690326.330                    96203577.539    23155093.410  
  23155087.531  
  24286955.242   127628789.359    24286967.117    99451034.0084   24286966.980  
                
  19616924.102   104679695.535                                                  
  19616921.758  
  19638314.992   105088607.452                    81735577.007    19638318.195  
  19638313.125  
  22319980.922   119145582.507                    92668808.928    22319983.391  
  22319978.855  
  24392226.867   128182014.932    24392237.680    99882136.7714   24392238.094  
                
  20889622.664   111667037.105                    86852135.781    20889627.082  
  20889622.312  
  22842180.805   120036471.455    22842187.695    93534938.6734                 
                
  21689956.641   113981519.772    21689964.137    88816784.5914   21689964.133  
                
  21076029.883   110755282.303    21076038.316    86302873.9644   21076038.434  
                
  21316632.719   113989619.130                    88658612.594    21316640.098  
  21316631.867  
  23330146.203   122600735.581    23330155.820    95533095.8754   23330156.285  
                
  23306048.172   122474143.496    23306056.328    95434433.3434   23306056.355  
                
  20626145.836   108391164.640    20626154.883    84460706.0644   20626154.328  
                
  20514929.477   107806718.834    20514937.035    84005271.3044   20514936.750  
                
  22947379.328   122839133.965                    95541539.903    22947386.121  
  22947378.109  
 21  8 16  8 40 30.0000000  0 16R12G26R 6R21R22G32R 5G16G18G27R20G 8
                                G15G10G23R 7
  23158195.336   123706924.302                    96216487.129    23158200.629  
  23158194.805  
  24293012.406   127660620.056    24293024.320    99475837.1374   24293024.191  
                
  19613173.000   104659678.985                                                  
  19613170.668  
  19636157.344   105077061.518                    81726596.833    19636160.555  
  19636155.477  
  22313738.453   119112260.227                    92642891.602    22313741.035  
  22313736.453  
  24385483.086   128146576.010    24385493.887    99854522.0664   24385494.266  
                
  20894785.742   111694636.722                    86873602.153    20894790.172  
  20894785.391  
  22846744.500   120060453.853    22846751.383    93553626.2334                 
                
  21693958.797   114002551.221    21693966.320    88833172.7304   21693966.293  
                
  21072854.422   110738595.146    21072862.867    86289870.9844   21072862.973  
                
  21321261.836   114014372.754                    88677865.398    21321269.152  
  21321260.957  
  23324253.664   122569770.047    23324263.230    95508966.8964   23324263.707  
                
  23310213.336   122496031.421    23310221.500    95451488.8514   23310221.523  
                
  20624136.797   108380607.063    20624145.875    84452479.3844   20624145.305  
                
  20517289.289   107819119.699    20517296.828    84014934.3194   20517296.551  
                
  22939099.430   122794810.700                    95507066.297    22939106.133  
  22939098.199  
 21  8 16  8 40 40.0000000  0 16R12G26R 6R21R22G32R 5G16G18G27R20G 8
                                G15G10G23R 7
  23161315.617   123723592.189                    96229451.036    23161320.840  
  23161315.094  
  24299070.586   127692456.407    24299082.570    99500644.6544   24299082.465  
                
  19609436.969   104639742.753                                                  
  19609434.660  
  19634008.141   105065560.635                    81717651.706    19634011.371  
  19634006.258  
  22307497.352   119078944.937                    92616979.739    22307499.988  
  22307495.363  
  24378739.641   128111139.064    24378750.496    99826908.8964   24378750.848  
                
  20899961.000   111722301.424                    86895119.140    20899965.441  
  20899960.680  
  22851316.578   120084480.232    22851323.461    93572348.0774                 
                
  21697965.414   114023606.123    21697972.922    88849579.1324   21697972.891  
                
  21069688.992   110721960.701    21069697.441    86276909.0734   21069697.539  
                
  21325897.945   114039163.966                    88697147.468    21325905.250  
  21325897.043  
  23318365.938   122538829.836    23318375.492    95484857.6424   23318375.953  
                
  23314389.414   122517976.691    23314397.578    95468589.0554   23314397.582  
                
  20622137.336   108370099.793    20622146.445    84444291.9024   20622145.871  
                
  20519658.344   107831569.150    20519665.855    84024635.1824   20519665.598  
                
  22930823.195   122750507.235                    95472608.101    22930829.852  
  22930821.949  
 21  8 16  8 40 50.0000000  0 16R12G26R 6R21R22G32R 5G16G18G27R20G 8
                                G15G10G23R 7
  23164448.930   123740329.767                    96242469.125    23164454.172  
  23164448.430  
  24305129.922   127724298.176    24305141.895    99525456.4054   24305141.797  
                
  19605715.930   104619886.539                                                  
  19605713.629  
  19631867.352   105054104.866                    81708741.652    19631870.578  
  19631865.473  
  22301257.516   119045636.507                    92591073.177    22301260.195  
  22301255.582  
  24371996.484   128075704.060    24372007.445    99799297.2394   24372007.797  
                
  20905148.367   111750030.854                    86916686.466    20905152.820  
  20905148.047  
  22855896.953   120108550.237    22855903.832    93591103.9144                 
                
  21701976.461   114044684.284    21701983.945    88866003.6574   21701983.930  
                
  21066533.570   110705378.852    21066542.023    86263988.1514   21066542.117  
                
  21330541.008   114063992.600                    88716458.597    21330548.355  
  21330540.125  
  23312483.008   122507914.826    23312492.617    95460768.0334   23312493.039  
                
  23318576.375   122539979.147    23318584.531    95485733.8154   23318584.504  
                
  20620147.414   108359642.695    20620156.551    84436143.5204   20620155.973  
                
  20522036.609   107844066.984    20522044.090    84034373.7574   20522043.844  
                
  22922550.562   122706223.602                    95438165.307    22922557.270  
  22922549.371  
 21  8 16  8 41  0.0000000  0 16R12G26R 6R21R22G32R 5G16G18G27R20G 8
                                G15G10G23R 7
  23167595.242   123757136.672                    96255541.120    23167600.523  
  23167594.754  
  24311190.250   127756145.192    24311202.191    99550272.2444   24311202.098  
                
  19602009.867   104600110.339                                                  
  19602007.570  
  19629735.000   105042694.217                    81699866.707    19629738.227  
  19629733.125  
  22295019.023   119012335.169                    92565172.139    22295021.742  
  22295017.098  
  24365253.719   128040271.025    24365264.770    99771687.1194   24365265.133  
                
  20910347.828   111777824.951                    86938304.086    20910352.312  
  20910347.527  
  22860485.578   120132663.683    22860492.449    93609893.6034                 
                
  21705991.922   114065785.621    21705999.371    88882446.2594   21705999.375  
                
  21063388.164   110688849.641    21063396.629    86251108.2494   21063396.723  
                
  21335191.109   114088858.782                    88735798.950    21335198.484  
  21335190.258  
  23306604.883   122477025.124    23306614.535    95436698.1464   23306614.914  
                
  23322774.180   122562038.635    23322782.344    95502923.0274   23322782.289  
                
  20618167.023   108349235.712    20618176.188    84428034.1914   20618175.582  
                
  20524424.047   107856613.061    20524431.496    84044149.9224   20524431.262  
                
  22914281.617   122661960.090                    95403738.165    22914288.453  
  22914280.508  
 21  8 16  8 41 10.0000000  0 16R12G26R 6R21R22G32R 5G16G18G27R20G 8
                                G15G10G23R 7
  23170754.547   123774012.933                    96268667.105    23170759.801  
  23170754.094  
  24317251.539   127787997.322    24317263.473    99575092.0614   24317263.391  
                
  19598318.867   104580414.457                                                  
  19598316.574  
  19627611.070   105031328.664                    81691026.829    19627614.305  
  19627609.207  
  22288781.836   118979040.919                    92539276.612    22288784.664  
  22288779.945  
  24358511.406   128004840.027    24358522.484    99744078.5774   24358522.844  
                
  20915559.344   111805683.424                    86959971.769    20915563.867  
  20915559.062  
  22865082.469   120156820.483    22865089.324    93628717.0774                 
                
  21710011.781   114086910.105    21710019.207    88898906.8864   21710019.234  
                
  21060252.789   110672373.106    21060261.277    86238269.3944   21060261.355  
                
  21339848.211   114113762.444                    88755168.466    21339855.621  
  21339847.383  
  23300731.555   122446160.581    23300741.242    95412647.8624   23300741.598  
                
  23326982.836   122584155.076    23326990.988    95520156.6144   23326990.922  
                
  20616196.172   108338878.803    20616205.359    84419963.8804   20616204.746  
                
  20526820.656   107869207.285    20526828.066    84053963.6064   20526827.848  
                
  22906016.539   122617716.674                    95369326.640    22906023.371  
  22906015.422  
 21  8 16  8 41 20.0000000  0 16R12G26R 6R21R22G32R 5G16G18G27R20G 8
                                G15G10G23R 7
  23173926.844   123790958.686                    96281847.202    23173931.965  
  23173926.371  
  24323313.789   127819854.687    24323325.781    99599915.9604   24323325.711  
                
  19594642.953   104560799.023                                                  
  19594640.652  
  19625495.648   105020008.577                    81682222.327    19625498.879  
  19625493.785  
  22282546.117   118945754.047                    92513386.820    22282548.984  
  22282544.207  
  24351769.500   127969411.430    24351780.660    99716471.9144   24351781.000  
                
  20920782.938   111833606.458                    86981689.685    20920787.480  
  20920782.711  
  22869687.648   120181020.789    22869694.484    93647574.4464                 
                
  21714036.102   114108057.955    21714043.516    88915385.7254   21714043.551  
                
  21057127.492   110655949.556    21057135.984    86225471.8314   21057136.062  
                
  21344512.359   114138703.655                    88774567.180    21344519.824  
  21344511.543  
  23294863.148   122415321.903    23294872.867    95388617.7284   23294873.219  
                
  23331202.336   122606328.615    23331210.457    95537434.6824   23331210.344  
                
  20614234.891   108328572.241    20614244.102    84411932.7984   20614243.484  
                
  20529226.461   107881849.860    20529233.844    84063814.9554   20529233.621  
                
  22897755.273   122573493.539                    95334930.913    22897762.090  
  22897754.121  
 21  8 16  8 41 30.0000000  0 16R12G26R 6R21R22G32R 5G16G18G27R20G 8
                                G15G10G23R 7
  23177112.141   123807973.766                    96295081.134    23177117.145  
  23177111.637  
  24329376.898   127851717.247    24329389.074    99624743.8854   24329389.016  
                
  19590982.133   104541264.182                                                  
  19590979.816  
  19623388.742   105008734.115                    81673453.295    19623391.984  
  19623386.879  
  22276311.789   118912474.423                    92487502.694    22276314.605  
  22276309.824  
  24345028.109   127933985.349    24345039.289    99688867.2144   24345039.625  
                
  20926018.555   111861593.767                    87003457.582    20926023.117  
  20926018.355  
  22874301.078   120205264.498    22874307.891    93666465.6424                 
                
  21718064.859   114129229.186    21718072.285    88931882.7834   21718072.324  
                
  21054012.305   110639579.116    21054020.789    86212715.6394   21054020.867  
                
  21349183.578   114163682.576                    88793995.220    21349191.062  
  21349182.762  
  23288999.656   122384509.021    23289009.418    95364607.7024   23289009.762  
                
  23335432.680   122628559.128    23335440.754    95554757.1534   23335440.625  
                
  20612283.195   108318316.029    20612292.430    84403940.9494   20612291.820  
                
  20531641.461   107894540.737    20531648.809    84073703.9514   20531648.605  
                
  22889497.805   122529290.989                    95300551.188    22889504.641  
  22889496.609  
 21  8 16  8 41 40.0000000  0 16R12G26R 6R21R22G32R 5G16G18G27R20G 8
                                G15G10G23R 7
  23180310.352   123825057.849                    96308368.746    23180315.312  
  23180309.895  
  24335440.992   127883584.575    24335453.262    99649575.5414   24335453.191  
                
  19587336.359   104521809.650                                                  
  19587334.023  
  19621290.312   104997504.990                    81664719.539    19621293.559  
  19621288.449  
  22270078.727   118879202.100                    92461624.240    22270081.555  
  22270076.742  
  24338287.203   127898561.584    24338298.344    99661264.2984   24338298.699  
                
  20931266.156   111889645.129                    87025275.305    20931270.719  
  20931265.992  
  22878922.703   120229551.231    22878929.508    93685390.3634                 
                
  21722098.008   114150423.479    21722105.441    88948397.8054   21722105.484  
                
  21050907.164   110623261.538    21050915.645    86200000.6474   21050915.730  
                
  21353861.773   114188698.939                    88813452.354    21353869.297  
  21353860.914  
  23283141.008   122353721.620    23283150.828    95340617.5414   23283151.168  
                
  23339673.797   122650846.294    23339681.844    95572123.7744   23339681.711  
                
  20610341.023   108308109.884    20610350.281    84395988.1144   20610349.672  
                
  20534065.578   107907279.546    20534072.891    84083630.2974   20534072.707  
                
  22881244.164   122485108.877                    95266187.357    22881251.027  
  22881242.926  
 21  8 16  8 41 50.0000000  0 16R12G26R 6R21R22G32R 5G16G18G27R20G 8
                                G15G10G23R 7
  23183521.453   123842210.857                    96321709.985    23183526.328  
  23183520.988  
  24341506.102   127915456.654    24341518.348    99674410.9144   24341518.277  
                
  19583705.656   104502435.528                                                  
  19583703.328  
  19619200.391   104986321.416                    81656021.189    19619203.633  
  19619198.527  
  22263847.039   118845937.074                    92435751.446    22263849.852  
  22263845.074  
  24331546.727   127863140.351    24331557.848    99633663.3514   24331558.219  
                
  20936525.711   111917760.370                    87047142.717    20936530.270  
  20936525.570  
  22883552.500   120253880.964    22883559.297    93704348.5874                 
                
  21726135.570   114171640.922    21726143.012    88964930.8724   21726143.055  
                
  21047812.125   110606997.024    21047820.590    86187327.0024   21047820.680  
                
  21358546.961   114213752.488                    88832938.446    21358554.465  
  21358546.086  
  23277287.266   122322959.990    23277297.109    95316647.4534   23277297.457  
                
  23343925.688   122673190.161    23343933.730    95589534.5594   23343933.562  
                
  20608408.398   108297953.901    20608417.676    84388074.3724   20608417.059  
                
  20536498.828   107920066.353    20536506.098    84093594.0364   20536505.930  
                
  22872994.453   122440947.612                    95231839.734    22873001.320  
  22872993.156  
 21  8 16  8 42  0.0000000  0 16R12G26R 6R21R22G32R 5G16G18G27R20G 8
                                G15G10G23R 7
  23186745.461   123859432.756                    96335104.814    23186750.258  
  23186744.988  
  24347572.117   127947333.430    24347584.316    99699249.9454   24347584.238  
                
  19580090.102   104483142.250                                                  
  19580087.754  
  19617118.992   104975183.418                    81647358.308    19617122.238  
  19617117.129  
  22257616.758   118812679.550                    92409884.511    22257619.543  
  22257614.832  
  24324806.781   127827721.787    24324817.863    99606064.4794   24324818.230  
                
  20941797.211   111945939.504                    87069059.818    20941801.770  
  20941797.078  
  22888190.461   120278253.601    22888197.258    93723340.2414                 
                
  21730177.531   114192881.537    21730185.004    88981481.9914   21730185.023  
                
  21044727.203   110590785.652    21044735.652    86174694.7654   21044735.758  
                
  21363239.172   114238843.593                    88852453.725    21363246.660  
  21363238.293  
  23271438.430   122292224.220    23271448.305    95292697.5124   23271448.664  
                
  23348188.336   122695590.592    23348196.379    95606989.4204   23348196.211  
                
  20606485.320   108287848.112    20606494.598    84380199.7404   20606493.996  
                
  20538941.203   107932901.095    20538948.430    84103595.1384   20538948.285  
                
  22864748.617   122396806.994                    95197508.178    22864755.430  
  22864747.250  
 21  8 16  8 42 10.0000000  0 16R12G26R 6R21R22G32R 5G16G18G27R20G 8
                                G15G10G23R 7
  23189982.391   123876723.657                    96348553.263    23189987.137  
  23189981.898  
  24353638.969   127979214.974    24353651.203    99724092.6914   24353651.109  
                
  19576489.688   104463929.809                                                  
  19576487.320  
  19615046.172   104964091.346                    81638731.138    19615049.422  
  19615044.316  
  22251387.953   118779429.849                    92384023.638    22251390.727  
  22251386.059  
  24318067.367   127792306.152    24318078.430    99578467.8934   24318078.793  
                
  20947080.656   111974182.493                    87091026.579    20947085.223  
  20947080.543  
  22892836.594   120302669.242    22892843.395    93742365.4144                 
                
  21734223.938   114214145.499    21734231.441    88998051.2954   21734231.438  
                
  21041652.438   110574627.672    21041660.871    86162104.1354   21041660.980  
                
  21367938.406   114263972.357                    88871998.329    21367945.914  
  21367937.547  
  23265594.570   122261514.645    23265604.469    95268767.9774   23265604.840  
                
  23352461.766   122718047.737    23352469.766    95624488.4804   23352469.586  
                
  20604571.828   108277792.711    20604581.098    84372364.3674   20604580.508  
                
  20541392.719   107945783.921    20541399.906    84113633.6964   20541399.770  
                
  22856506.812   122352687.552                    95163193.082    22856513.516  
  22856505.336  
 21  8 16  8 42 20.0000000  0 16R12G26R 6R21R22G32R 5G16G18G27R20G 8
                                G15G10G23R 7
  23193232.156   123894083.283                    96362055.205    23193236.910  
  23193231.668  
  24359706.789   128011101.169    24359718.973    99748939.0354   24359718.848  
                
  19572904.461   104444798.370                                                  
  19572902.102  
  19612981.930   104953045.168                    81630139.670    19612985.203  
  19612980.086  
  22245160.625   118746187.817                    92358168.719    22245163.438  
  22245158.723  
  24311328.500   127756893.496    24311339.578    99550873.6424   24311339.957  
                
  20952376.008   112002489.138                    87113042.856    20952380.559  
  20952375.910  
  22897490.891   120327127.733    22897497.699    93761423.9534                 
                
  21738274.773   114235432.728    21738282.309    89014638.7364   21738282.277  
                
  21038587.844   110558523.140    21038596.262    86149555.1554   21038596.387  
                
  21372644.688   114289138.605                    88891572.074    21372652.168  
  21372643.809  
  23259755.711   122230831.270    23259765.613    95244858.8574   23259765.992  
                
  23356745.953   122740561.455    23356753.906    95642031.6334   23356753.734  
                
  20602667.922   108267787.653    20602677.176    84364568.2214   20602676.594  
                
  20543853.367   107958714.684    20543860.512    84123709.6214   20543860.387  
                
  22848268.820   122308589.261                    95128894.454    22848275.562  
  22848267.391  
 21  8 16  8 42 30.0000000  0 16R12G26R 6R21R22G32R 5G16G18G27R20G 8
                                G15G10G23R 7
  23196494.766   123911511.381                    96375610.403    23196499.418  
  23196494.289  
  24365775.352   128042991.624    24365787.543    99773788.7204   24365787.418  
                
  19569334.359   104425747.603                                                  
  19569331.988  
  19610926.242   104942044.770                    81621583.807    19610929.531  
  19610924.387  
  22238934.688   118712953.359                    92332319.726    22238937.520  
  22238932.812  
  24304590.195   127721483.703    24304601.270    99523281.6264   24304601.664  
                
  20957683.234   112030859.200                    87135108.445    20957687.770  
  20957683.156  
  22902153.297   120351628.802    22902160.098    93780515.6954                 
                
  21742329.992   114256742.976    21742337.555    89031244.1164   21742337.508  
                
  21035533.398   110542471.892    21035541.809    86137047.6874   21035541.930  
                
  21377357.930   114314342.198                    88911174.846    21377365.371  
  21377357.000  
  23253921.820   122200173.993    23253931.730    95220970.0774   23253932.113  
                
  23361040.852   122763131.407    23361048.785    95659618.5924   23361048.598  
                
  20600773.547   108257832.678    20600782.793    84356811.1004   20600782.219  
                
  20546323.086   107971693.112    20546330.172    84133822.6804   20546330.082  
                
  22840034.750   122264512.137                    95094612.288    22840041.566  
  22840033.406  
 21  8 16  8 42 40.0000000  0 16R12G26R 6R21R22G32R 5G16G18G27R20G 8
                                G15G10G23R 7
  23199770.180   123929008.055                    96389218.883    23199774.852  
  23199769.711  
  24371844.750   128074886.391    24371856.934    99798641.7774   24371856.816  
                
  19565779.445   104406777.904                                                  
  19565777.078  
  19608879.148   104931090.398                    81613063.759    19608882.461  
  19608877.277  
  22232710.219   118679726.809                    92306476.854    22232713.043  
  22232708.359  
  24297852.539   127686076.991    24297863.555    99495691.9994   24297863.945  
                
  20963002.273   112059292.449                    87157223.199    20963006.797  
  20963002.215  
  22906823.797   120376172.472    22906830.574    93799640.6244                 
                
  21746389.609   114278076.370    21746397.199    89047867.5424   21746397.137  
                
  21032489.117   110526474.110    21032497.523    86124581.8884   21032497.648  
                
  21382078.148   114339583.256                    88930806.778    21382085.594  
  21382077.242  
  23248092.922   122169542.980    23248102.832    95197101.7744   23248103.215  
                
  23365346.445   122785757.674    23365354.406    95677249.4504   23365354.176  
                
  20598888.734   108247927.956    20598897.973    84349093.1384   20598897.395  
                
  20548801.875   107984719.206    20548808.898    84143972.8864   20548808.848  
                
  22831804.641   122220456.355                    95060346.714    22831811.562  
  22831803.387  
 21  8 16  8 42 50.0000000  0 16R12G26R 6R21R22G32R 5G16G18G27R20G 8
                                G15G10G23R 7
  23203058.367   123946572.844                    96402880.357    23203062.988  
  23203057.871  
  24377914.969   128106785.205    24377927.109    99823497.9874   24377927.004  
                
  19562239.688   104387889.088                                                  
  19562237.316  
  19606840.625   104920181.853                    81604579.322    19606843.941  
  19606838.746  
  22226487.180   118646507.852                    92280639.906    22226490.066  
  22226485.332  
  24291115.438   127650673.347    24291126.426    99468104.7614   24291126.816  
                
  20968333.109   112087788.736                    87179386.971    20968337.625  
  20968333.062  
  22911502.352   120400758.437    22911509.121    93818798.4984                 
                
  21750453.609   114299432.764    21750461.207    89064508.8744   21750461.141  
                
  21029455.000   110510529.757    21029463.402    86112157.7164   21029463.531  
                
  21386805.297   114364861.540                    88950467.668    21386812.762  
  21386804.414  
  23242269.016   122138938.098    23242278.883    95173253.8064   23242279.262  
                
  23369662.734   122808440.113    23369670.715    95694924.0444   23369670.465  
                
  20597013.453   108238073.321    20597022.660    84341414.2044   20597022.102  
                
  20551289.703   107997792.829    20551296.664    84154160.1264   20551296.652  
                
  22823578.523   122176421.897                    95026097.720    22823585.520  
  22823577.324  
 21  8 16  8 43  0.0000000  0 16R12G26R 6R21R22G32R 5G16G18G27R20G 8
                                G15G10G23R 7
  23206359.305   123964205.752                    96416594.891    23206363.840  
  23206358.809  
  24383985.945   128138688.018    24383998.039    99848357.2984   24383997.914  
                
  19558715.086   104369081.145                                                  
  19558712.703  
  19604810.711   104909319.391                    81596130.740    19604814.027  
  19604808.828  
  22220265.594   118613296.722                    92254809.050    22220268.543  
  22220263.766  
  24284378.906   127615272.874    24284389.922    99440520.0024   24284390.293  
                
  20973675.695   112116347.909                    87201599.640    20973680.207  
  20973675.613  
  22916188.930   120425386.627    22916195.727    93837989.2894                 
                
  21754521.977   114320812.133    21754529.570    89081168.1254   21754529.504  
                
  21026431.070   110494638.916    21026439.465    86099775.2474   21026439.590  
                
  21391539.430   114390177.192                    88970157.605    21391546.957  
  21391538.555  
  23236450.164   122108359.805    23236459.984    95149426.5584   23236460.379  
                
  23373989.695   122831178.590    23373997.703    95712642.3204   23373997.461  
                
  20595147.711   108228268.804    20595156.879    84333774.3274   20595156.336  
                
  20553786.578   108010913.973    20553793.496    84164384.3944   20553793.516  
                
  22815356.430   122132409.056                    94991865.554    22815363.547  
  22815355.297  
 21  8 16  8 43 10.0000000  0 16R12G26R 6R21R22G32R 5G16G18G27R20G 8
                                G15G10G23R 7
  23209673.008   123981906.977                    96430362.455    23209677.566  
  23209672.504  
  24390057.672   128170595.037    24390069.766    99873219.8844   24390069.641  
                
  19555205.742   104350354.694                                                  
  19555203.359  
  19602789.461   104898503.279                    81587718.215    19602792.793  
  19602787.578  
  22214045.633   118580093.797                    92228984.554    22214048.496  
  22214043.754  
  24277643.039   127579875.990    24277654.082    99412938.0314   24277654.434  
                
  20979030.094   112144970.209                    87223861.439    20979034.590  
  20979030.016  
  22920883.594   120450057.227    22920890.434    93857213.1174                 
                
  21758594.781   114342214.801    21758602.367    89097845.5114   21758602.305  
                
  21023417.398   110478801.957    21023425.777    86087434.7634   21023425.910  
                
  21396280.594   114415530.500                    88989876.822    21396288.180  
  21396279.719  
  23230636.352   122077808.175    23230646.188    95125620.1134   23230646.609  
                
  23378327.359   122853973.234    23378335.379    95730404.3794   23378335.168  
                
  20593291.562   108218514.707    20593300.684    84326173.7364   20593300.160  
                
  20556292.531   108024082.862    20556299.430    84174645.8634   20556299.469  
                
  22807138.500   122088418.073                    94957650.387    22807145.656  
  22807137.371  
 21  8 16  8 43 20.0000000  0 16R12G26R 6R21R22G32R 5G16G18G27R20G 8
                                G15G10G23R 7
  23212999.469   123999676.324                    96444183.029    23213004.109  
  23212998.949  
  24396130.148   128202506.052    24396142.270    99898085.5954   24396142.129  
                
  19551711.664   104331709.616                                                  
  19551709.281  
  19600776.906   104887733.657                    81579341.836    19600780.242  
  19600775.031  
  22207827.180   118546899.076                    92203166.437    22207829.949  
  22207825.254  
  24270907.867   127544482.749    24270918.953    99385358.8914   24270919.281  
                
  20984396.242   112173655.336                    87246172.091    20984400.719  
  20984396.156  
  22925586.297   120474770.106    22925593.188    93876469.8974                 
                
  21762672.000   114363640.680    21762679.578    89114540.9964   21762679.512  
                
  21020413.984   110463018.911    21020422.355    86075136.2784   21020422.488  
                
  21401028.766   114440921.180                    89009625.103    21401036.383  
  21401027.867  
  23224827.617   122047283.164    23224837.500    95101834.4064   23224837.910  
                
  23382675.680   122876823.946    23382683.711    95748210.1124   23382683.504  
                
  20591445.000   108208810.986    20591454.066    84318612.3944   20591453.566  
                
  20558807.547   108037299.355    20558814.445    84184944.4284   20558814.496  
                
  22798924.734   122044449.328                    94923452.515    22798931.891  
  22798923.598  
 21  8 16  8 43 30.0000000  0 16R12G26R 6R21R22G32R 5G16G18G27R20G 8
                                G15G10G23R 7
  23216338.609   124017513.426                    96458056.367    23216343.277  
  23216338.043  
  24402203.344   128234420.859    24402215.520    99922954.2494   24402215.363  
                
  19548232.812   104313145.776                                                  
  19548230.438  
  19598773.000   104877010.344                    81571001.481    19598776.344  
  19598771.137  
  22201610.203   118513712.482                    92177354.638    22201613.008  
  22201608.246  
  24264173.430   127509093.104    24264184.484    99357782.5674   24264184.777  
                
  20989774.102   112202403.019                    87268531.374    20989778.547  
  20989774.000  
  22930297.000   120499524.986    22930303.934    93895759.4034                 
                
  21766753.602   114385089.620    21766761.172    89131254.4454   21766761.098  
                
  21017420.812   110447289.711    21017429.184    86062879.7614   21017429.309  
                
  21405783.922   114466349.178                    89029402.431    21405791.562  
  21405783.047  
  23219023.977   122016784.878    23219033.883    95078069.5294   23219034.289  
                
  23387034.641   122899730.541    23387042.672    95766059.3834   23387042.461  
                
  20589608.000   108199157.482    20589617.000    84311090.1924   20589616.523  
                
  20561331.578   108050563.262    20561338.500    84195279.9364   20561338.539  
                
  22790715.164   122000502.484                    94889271.663    22790722.211  
  22790713.934  
 21  8 16  8 43 40.0000000  0 16R12G26R 6R21R22G32R 5G16G18G27R20G 8
                                G15G10G23R 7
  23219690.438   124035418.404                    96471982.434    23219695.156  
  23219689.855  
  24408277.234   128266339.372    24408289.469    99947825.7914   24408289.285  
                
  19544769.219   104294663.392                                                  
  19544766.836  
  19596777.781   104866333.510                    81562697.279    19596781.125  
  19596775.949  
  22195394.734   118480534.061                    92151549.198    22195397.539  
  22195392.777  
  24257439.664   127473707.183    24257450.727    99330209.1274   24257451.004  
                
  20995163.648   112231213.176                    87290939.264    20995168.066  
  20995163.539  
  22935015.680   120524321.773    22935022.656    93915081.5554                 
                
  21770839.602   114406561.613    21770847.148    89147985.8704   21770847.098  
                
  21014437.914   110431614.438    21014446.301    86050665.2714   21014446.414  
                
  21410546.070   114491814.710                    89049208.935    21410553.730  
  21410545.188  
  23213225.453   121986313.466    23213235.348    95054325.5844   23213235.746  
                
  23391404.227   122922692.998    23391412.246    95783952.1894   23391412.027  
                
  20587780.562   108189554.233    20587789.488    84303607.1434   20587789.039  
                
  20563864.633   108063874.513    20563871.594    84205652.3384   20563871.621  
                
  22782509.727   121956577.587                    94855107.862    22782516.629  
  22782508.438  
 21  8 16  8 43 50.0000000  0 16R12G26R 6R21R22G32R 5G16G18G27R20G 8
                                G15G10G23R 7
  23223054.945   124053391.019                    96485961.083    23223059.777  
  23223054.367  
  24414351.859   128298261.461    24414364.078    99972700.1294   24414363.887  
                
  19541320.875   104276262.402                                                  
  19541318.488  
  19594791.250   104855703.137                    81554429.204    19594794.590  
  19594789.445  
  22189180.797   118447363.902                    92125750.220    22189183.621  
  22189178.836  
  24250706.633   127438325.045    24250717.691    99302638.6464   24250717.973  
                
  21000564.844   112260085.612                    87313395.604    21000569.246  
  21000564.734  
  22939742.328   120549160.382    22939749.348    93934436.3094                 
                
  21774929.984   114428056.652    21774937.484    89164735.2464   21774937.453  
                
  21011465.281   110415993.159    21011473.688    86038492.8464   21011473.785  
                
  21415315.203   114517317.366                    89069044.328    21415322.867  
  21415314.289  
  23207432.008   121955868.779    23207441.871    95030602.4534   23207442.277  
                
  23395784.414   122945711.112    23395792.438    95801888.3784   23395792.211  
                
  20585962.688   108180001.230    20585971.539    84296163.2454   20585971.121  
                
  20566406.672   108077233.048    20566413.668    84216061.5784   20566413.676  
                
  22774308.445   121912675.055                    94820961.482    22774315.238  
  22774307.098  
 21  8 16  8 44  0.0000000  0 16R12G26R 6R21R22G32R 5G16G18G27R20G 8
                                G15G10G23R 7
  23226432.078   124071431.214                    96499992.287    23226436.980  
  23226431.461  
  24420427.062   128330186.951    24420439.301    99997577.1134   24420439.109  
                
  19537887.844   104257943.139                                                  
  19537885.480  
  19592813.445   104845119.462                    81546197.464    19592816.797  
  19592811.652  
  22182968.414   118414202.127                    92099957.718    22182971.242  
  22182966.477  
  24243974.352   127402946.869    24243985.434    99275071.2544   24243985.691  
                
  21005977.695   112289020.346                    87335900.395    21005982.066  
  21005977.582  
  22944476.922   120574040.720    22944483.965    93953823.5894                 
                
  21779024.758   114449574.765    21779032.207    89181502.5984   21779032.219  
                
  21008502.953   110400426.001    21008511.375    86026362.5964   21008511.441  
                
  21420091.336   114542857.353                    89088908.745    21420098.961  
  21420090.391  
  23201643.758   121925451.314    23201653.613    95006900.5444   23201654.008  
                
  23400175.203   122968784.891    23400183.227    95819867.9614   23400183.008  
                
  20584154.391   108170498.508    20584163.176    84288758.5274   20584162.785  
                
  20568957.711   108090638.842    20568964.750    84226507.6464   20568964.742  
                
  22766111.305   121868795.043                    94786832.628    22766118.098  
  22766109.969  
 21  8 16  8 44 10.0000000  0 16R12G26R 6R21R22G32R 5G16G18G27R20G 8
                                G15G10G23R 7
  23229821.836   124089538.634                    96514075.852    23229826.750  
  23229821.242  
  24426502.953   128362115.809    24426515.156   100022456.7234   24426514.957  
                
  19534470.047   104239705.248                                                  
  19534467.672  
  19590844.328   104834582.328                    81538001.914    19590847.672  
  19590842.539  
  22176757.656   118381048.602                    92074171.650    22176760.398  
  22176755.723  
  24237242.773   127367572.550    24237253.949    99247506.8844   24237254.184  
                
  21011402.102   112318016.924                    87358453.280    21011406.453  
  21011401.941  
  22949219.398   120598962.499    22949226.445    93973243.1464                 
                
  21783123.875   114471115.752    21783131.293    89198287.7714   21783131.328  
                
  21005550.883   110384912.836    21005559.312    86014274.4164   21005559.359  
                
  21424874.367   114568434.641                    89108802.196    21424882.023  
  21424873.434  
  23195860.602   121895060.665    23195870.469    94983219.5354   23195870.859  
                
  23404576.523   122991914.071    23404584.512    95837890.6884   23404584.332  
                
  20582355.609   108161045.864    20582364.332    84281392.8304   20582363.965  
                
  20571517.688   108104091.639    20571524.766    84236990.3414   20571524.746  
                
  22757918.328   121824937.446                    94752721.187    22757925.121  
  22757916.984  
 21  8 16  8 44 20.0000000  0 16R12G26R 6R21R22G32R 5G16G18G27R20G 8
                                G15G10G23R 7
  23233224.180   124107713.336                    96528211.712    23233229.164  
  23233223.629  
  24432579.500   128394047.815    24432591.590   100047338.7934   24432591.391  
                
  19531067.578   104221549.042                                                  
  19531065.203  
  19588883.914   104824091.758                    81529842.579    19588887.262  
  19588882.121  
  22170548.414   118347903.309                    92048391.977    22170551.133  
  22170546.492  
  24230511.977   127332202.221    24230523.215    99219945.6224   24230523.438  
                
  21016838.070   112347075.303                    87381054.239    21016842.402  
  21016837.879  
  22953969.742   120623925.580    22953976.816    93992694.8814                 
                
  21787227.344   114492679.576    21787234.734    89215090.7444   21787234.793  
                
  21002609.117   110369453.719    21002617.566    86002228.3534   21002617.598  
                
  21429664.375   114594049.060                    89128724.519    21429672.039  
  21429663.449  
  23190082.633   121864697.231    23190092.504    94959559.7164   23190092.910  
                
  23408988.375   123015098.558    23408996.344    95855956.5034   23408996.184  
                
  20580566.367   108151643.317    20580575.031    84274066.1724   20580574.684  
                
  20574086.609   108117591.383    20574093.719    84247509.6234   20574093.691  
                
  22749729.500   121781102.435                    94718627.331    22749736.332  
  22749728.191  
 21  8 16  8 44 30.0000000  0 16R12G26R 6R21R22G32R 5G16G18G27R20G 8
                                G15G10G23R 7
  23236639.109   124125955.229                    96542399.763    23236644.137  
  23236638.516  
  24438656.617   128425982.937    24438668.648   100072223.2964   24438668.426  
                
  19527680.391   104203474.333                                                  
  19527678.004  
  19586932.266   104813648.041                    81521719.682    19586935.598  
  19586930.477  
  22164340.797   118314766.569                    92022618.968    22164343.535  
  22164338.875  
  24223782.070   127296836.078    24223793.273    99192387.6034   24223793.512  
                
  21022285.570   112376195.292                    87403703.130    21022289.883  
  21022285.387  
  22958727.945   120648930.042    22958735.047    94012178.8724                 
                
  21791335.172   114514266.333    21791342.559    89231911.5844   21791342.633  
                
  20999677.672   110354048.874    20999686.141    85990224.5754   20999686.152  
                
  21434461.352   114619700.749                    89148675.797    21434469.000  
  21434460.438  
  23184309.797   121834360.848    23184319.668    94935920.9774   23184320.078  
                
  23413410.742   123038338.348    23413418.672    95874065.4324   23413418.543  
                
  20578786.680   108142290.973    20578795.281    84266778.6334   20578794.957  
                
  20576664.469   108131138.107    20576671.598    84258065.5094   20576671.562  
                
  22741545.016   121737290.086                    94684551.078    22741551.750  
  22741543.660  
 21  8 16  8 44 40.0000000  0 16R12G26R 6R21R22G32R 5G16G18G27R20G 8
                                G15G10G23R 7
  23240066.578   124144264.052                    96556639.985    23240071.637  
  23240065.996  
  24444734.344   128457921.008    24444746.285   100097110.0874   24444746.043  
                
  19524308.516   104185481.469                                                  
  19524306.113  
  19584989.320   104803250.963                    81513633.072    19584992.648  
  19584987.555  
  22158134.711   118281638.247                    91996852.539    22158137.410  
  22158132.824  
  24217052.922   127261474.122    24217064.109    99164832.8604   24217064.355  
                
  21027744.555   112405376.727                    87426399.787    21027748.852  
  21027744.352  
  22963493.969   120673975.653    22963501.078    94031694.9324                 
                
  21795447.359   114535875.962    21795454.746    89248750.2434   21795454.820  
                
  20996756.547   110338698.281    20996765.039    85978263.0774   20996765.043  
                
  21439265.297   114645389.516                    89168655.965    21439272.930  
  21439264.367  
  23178542.164   121804051.764    23178552.016    94912303.5164   23178552.430  
                
  23417843.625   123061633.291    23417851.539    95892217.3334   23417851.418  
                
  20577016.531   108132988.749    20577025.074    84259530.1454   20577024.773  
                
  20579251.242   108144731.684    20579258.379    84268657.9074   20579258.344  
                
  22733364.805   121693500.658                    94650492.653    22733371.461  
  22733363.422  
 21  8 16  8 44 50.0000000  0 16R12G26R 6R21R22G32R 5G16G18G27R20G 8
                                G15G10G23R 7
  23243506.578   124162639.902                    96570932.315    23243511.633  
  23243505.996  
  24450812.531   128489862.104    24450824.477   100121999.2324   24450824.215  
                
  19520951.992   104167570.553                                                  
  19520949.582  
  19583055.188   104792900.986                    81505583.092    19583058.512  
  19583053.434  
  22151930.273   118248518.820                    91971092.978    22151932.992  
  22151928.438  
  24210324.594   127226116.633    24210335.785    99137281.5934   24210336.031  
                
  21033215.078   112434619.783                    87449144.375    21033219.359  
  21033214.852  
  22968267.836   120699062.475    22968274.922    94051243.0914                 
                
  21799563.922   114557508.570    21799571.309    89265606.8074   21799571.402  
                
  20993845.789   110323402.132    20993854.305    85966344.0024   20993854.297  
                
  21444076.273   114671115.647                    89188665.175    21444083.852  
  21444075.309  
  23172779.742   121773770.031    23172789.586    94888707.3744   23172789.992  
                
  23422287.023   123084983.508    23422294.926    95910412.3044   23422294.820  
                
  20575255.945   108123736.782    20575264.445    84252320.8214   20575264.152  
                
  20581846.945   108158372.197    20581854.078    84279286.8744   20581854.051  
                
  22725188.898   121649734.304                    94616452.185    22725195.508  
  22725187.473  
 21  8 16  8 45  0.0000000  0 16R12G26R 6R21R22G32R 5G16G18G27R20G 8
                                G15G10G23R 7
  23246959.102   124181082.628                    96585276.610    23246964.156  
  23246958.465  
  24456891.242   128521806.057    24456903.215   100146890.5984   24456902.945  
                
  19517610.820   104149741.489                                                  
  19517608.391  
  19581129.852   104782598.120                    81497569.759    19581133.176  
  19581128.078  
  22145727.578   118215408.228                    91945340.283    22145730.234  
  22145725.750  
  24203597.133   127190763.703    24203608.336    99109733.8744   24203608.594  
                
  21038697.047   112463924.058                    87471936.593    21038701.328  
  21038696.812  
  22973049.523   120724190.363    22973056.586    94070823.2514                 
                
  21803684.836   114579164.113    21803692.254    89282481.2484   21803692.352  
                
  20990945.406   110308160.509    20990953.945    85954467.4204   20990953.926  
                
  21448894.156   114696878.985                    89208703.314    21448901.723  
  21448893.172  
  23167022.586   121743515.978    23167032.465    94865132.8014   23167032.863  
                
  23426740.945   123108388.923    23426748.816    95928650.3054   23426748.727  
                
  20573504.922   108114535.072    20573513.387    84245150.6564   20573513.094  
                
  20584451.555   108172059.555    20584458.699    84289952.3484   20584458.672  
                
  22717017.336   121605991.138                    94582429.761    22717023.887  
  22717015.855  
 21  8 16  8 45 10.0000000  0 16R12G26R 6R21R22G32R 5G16G18G27R20G 8
                                G15G10G23R 7
  23250424.141   124199592.067                    96599672.861    23250429.184  
  23250423.488  
  24462970.516   128553752.824    24462982.457   100171784.1554   24462982.215  
                
  19514285.023   104131994.449                                                  
  19514282.590  
  19579213.312   104772342.324                    81489593.025    19579216.641  
  19579211.543  
  22139526.492   118182306.351                    91919594.381    22139529.180  
  22139524.684  
  24196870.516   127155415.395    24196881.754    99082189.7684   24196882.039  
                
  21044190.477   112493289.616                    87494776.471    21044194.754  
  21044190.262  
  22977839.016   120749359.260    22977846.086    94090435.3704                 
                
  21807810.133   114600842.601    21807817.617    89299373.5614   21807817.699  
                
  20988055.422   110292973.483    20988063.984    85942633.3684   20988063.945  
                
  21453719.008   114722679.518                    89228770.361    21453726.578  
  21453718.004  
  23161270.695   121713289.637    23161280.582    94841579.8214   23161281.000  
                
  23431205.328   123131849.388    23431213.207    95946931.1814   23431213.105  
                
  20571763.461   108105383.603    20571771.895    84238019.6424   20571771.602  
                
  20587065.078   108185793.706    20587072.242    84300654.2734   20587072.215  
                
  22708850.070   121562271.263                    94548425.445    22708856.617  
  22708848.562  
 21  8 16  8 45 20.0000000  0 16R12G26R 6R21R22G32R 5G16G18G27R20G 8
                                G15G10G23R 7
  23253901.609   124218168.045                    96614120.819    23253906.598  
  23253900.949  
  24469050.344   128585702.202    24469062.199   100196679.7604   24469061.965  
                
  19510974.594   104114329.395                                                  
  19510972.164  
  19577305.602   104762133.785                    81481653.035    19577308.926  
  19577303.840  
  22133327.062   118149213.542                    91893855.549    22133329.793  
  22133325.297  
  24190144.828   127120071.795    24190156.070    99054649.3314   24190156.359  
                
  21049695.320   112522716.180                    87517663.799    21049699.609  
  21049695.066  
  22982636.266   120774569.008    22982643.352    94110079.3234                 
                
  21811939.773   114622543.991    21811947.344    89316283.7214   21811947.398  
                
  20985175.812   110277841.079    20985184.395    85930841.8864   20985184.355  
                
  21458550.781   114748517.403                    89248866.501    21458558.406  
  21458549.828  
  23155524.047   121683090.858    23155533.883    94818048.3154   23155534.336  
                
  23435680.172   123155364.773    23435688.082    95965254.8514   23435687.953  
                
  20570031.555   108096282.361    20570039.953    84230927.7654   20570039.668  
                
  20589687.484   108199574.554    20589694.680    84311392.5934   20589694.645  
                
  22700687.141   121518574.850                    94514439.350    22700693.707  
  22700685.660  
 21  8 16  8 45 30.0000000  0 16R12G26R 6R21R22G32R 5G16G18G27R20G 8
                                G15G10G23R 7
  23257391.578   124236810.528                    96628620.519    23257396.492  
  23257390.961  
  24475130.664   128617654.082    24475142.426   100221577.3244   24475142.227  
                
  19507679.617   104096746.767                                                  
  19507677.180  
  19575406.734   104751972.478                    81473749.794    19575410.055  
  19575404.977  
  22127129.281   118116129.491                    91868123.527    22127132.016  
  22127127.520  
  24183420.023   127084732.970    24183431.285    99027112.6184   24183431.586  
                
  21055211.555   112552203.608                    87540598.443    21055215.848  
  21055211.246  
  22987441.281   120799819.431    22987448.363    94129754.9754                 
                
  21816073.773   114644268.220    21816081.395    89333211.6764   21816081.430  
                
  20982306.617   110262763.346    20982315.215    85919093.0024   20982315.184  
                
  21463389.500   114774392.311                    89268991.416    21463397.137  
  21463388.523  
  23149782.680   121652919.793    23149792.457    94794538.3964   23149792.938  
                
  23440165.438   123178934.929    23440173.340    95983621.2044   23440173.230  
                
  20568309.203   108087231.274    20568317.582    84223874.9714   20568317.297  
                
  20592318.758   108213401.987    20592325.992    84322167.2154   20592325.953  
                
  22692528.625   121474902.000                    94480471.597    22692535.188  
  22692527.195  
 21  8 16  8 45 40.0000000  0 16R12G26R 6R21R22G32R 5G16G18G27R20G 8
                                G15G10G23R 7
  23260893.914   124255519.169                    96643171.688    23260898.801  
  23260893.348  
  24481211.406   128649608.265    24481223.078   100246476.6774   24481222.910  
                
  19504399.969   104079245.981                                                  
  19504397.520  
  19573516.672   104741858.345                    81465883.248    19573519.980  
  19573514.922  
  22120933.234   118083054.460                    91842398.514    22120935.879  
  22120931.465  
  24176696.164   127049398.937    24176707.406    98999579.6264   24176707.719  
                
  21060739.125   112581751.655                    87563580.239    21060743.414  
  21060738.770  
  22992254.000   120825110.403    22992261.105    94149462.2074                 
                
  21820212.094   114666015.163    21820219.789    89350157.3444   21820219.812  
                
  20979447.820   110247740.235    20979456.438    85907386.6794   20979456.398  
                
  21468235.133   114800304.276                    89289145.159    21468242.816  
  21468234.227  
  23144046.617   121622776.600    23144056.406    94771050.2124   23144056.875  
                
  23444661.094   123202559.701    23444668.965    96002030.1194   23444668.852  
                
  20566596.367   108078230.252    20566604.734    84216861.1884   20566604.449  
                
  20594958.859   108227275.819    20594966.133    84332977.9904   20594966.070  
                
  22684374.578   121431252.758                    94446522.207    22684381.113  
  22684373.125  
 21  8 16  8 45 50.0000000  0 16R12G26R 6R21R22G32R 5G16G18G27R20G 8
                                G15G10G23R 7
  23264408.641   124274294.082                    96657774.373    23264413.516  
  23264408.074  
  24487292.523   128681564.830    24487304.219   100271377.8774   24487304.078  
                
  19501135.750   104061827.529                                                  
  19501133.297  
  19571635.469   104731791.672                    81458053.615    19571638.770  
  19571633.746  
  22114738.906   118049988.486                    91816680.534    22114741.523  
  22114737.148  
  24169973.289   127014069.949    24169984.480    98972050.5694   24169984.801  
                
  21066278.008   112611360.234                    87586609.124    21066282.316  
  21066277.664  
  22997074.453   120850441.997    22997081.574    94169201.0994                 
                
  21824354.766   114687785.006    21824362.527    89367120.8324   21824362.523  
                
  20976599.461   110232772.002    20976608.102    85895723.1284   20976608.051  
                
  21473087.789   114826253.419                    89309327.805    21473095.461  
  21473086.867  
  23138315.898   121592661.431    23138325.723    94747583.8584   23138326.156  
                
  23449167.172   123226239.224    23449175.031    96020481.6894   23449174.930  
                
  20564893.086   108069279.472    20564901.457    84209886.5624   20564901.176  
                
  20597607.820   108241196.186    20597615.133    84343825.0274   20597615.059  
                
  22676225.086   121387627.382                    94412591.380    22676231.496  
  22676223.535  
 21  8 16  8 46  0.0000000  0 16R12G26R 6R21R22G32R 5G16G18G27R20G 8
                                G15G10G23R 7
  23267935.711   124293135.099                    96672428.504    23267940.602  
  23267935.125  
  24493374.086   128713523.614    24493385.758   100296280.8094   24493385.617  
                
  19497886.953   104044491.348                                                  
  19497884.500  
  19569763.156   104721772.491                    81450260.917    19569766.449  
  19569761.449  
  22108546.297   118016931.773                    91790969.758    22108548.895  
  22108544.508  
  24163251.422   126978746.082    24163262.531    98944525.5034   24163262.867  
                
  21071828.211   112641029.250                    87609685.023    21071832.535  
  21071827.898  
  23001902.555   120875813.842    23001909.703    94188971.3674                 
                
  21828501.789   114709577.657    21828509.574    89384102.1034   21828509.559  
                
  20973761.547   110217858.670    20973770.199    85884102.3514   20973770.137  
                
  21477947.398   114852239.643                    89329539.307    21477955.047  
  21477946.473  
  23132590.531   121562574.397    23132600.367    94724139.4314   23132600.789  
                
  23453683.609   123249973.300    23453691.512    96038975.7574   23453691.422  
                
  20563199.367   108060378.879    20563207.746    84202951.0344   20563207.461  
                
  20600265.609   108255162.966    20600272.961    84354708.2294   20600272.875  
                
  22668079.992   121344025.954                    94378679.178    22668086.340  
  22668078.402  
 21  8 16  8 46 10.0000000  0 16R12G26R 6R21R22G32R 5G16G18G27R20G 8
                                G15G10G23R 7
  23271475.156   124312042.128                    96687133.951    23271480.051  
  23271474.570  
  24499456.039   128745484.449    24499467.703   100321185.3494   24499467.570  
                
  19494653.594   104027237.473                                                  
  19494651.145  
  19567899.719   104711800.799                    81442505.157    19567903.012  
  19567898.016  
  22102355.344   117983884.223                    91765266.123    22102358.004  
  22102353.574  
  24156530.547   126943427.381    24156541.578    98917004.4604   24156541.922  
                
  21077389.711   112670758.577                    87632807.834    21077394.035  
  21077389.402  
  23006738.328   120901225.864    23006745.504    94208772.9284                 
                
  21832653.141   114731393.070    21832660.953    89401101.1194   21832660.934  
                
  20970934.086   110203000.267    20970942.734    85872524.3764   20970942.680  
                
  21482813.930   114878262.911                    89349779.603    21482821.562  
  21482812.996  
  23126870.508   121532515.459    23126880.324    94700716.8834   23126880.762  
                
  23458210.438   123273761.855    23458218.406    96057512.2724   23458218.293  
                
  20561515.180   108051528.421    20561523.566    84196054.5794   20561523.270  
                
  20602932.219   108269176.045    20602939.594    84365627.5124   20602939.492  
                
  22659939.383   121300448.489                    94344785.617    22659945.664  
  22659937.730  
 21  8 16  8 46 20.0000000  0 16R12G26R 6R21R22G32R 5G16G18G27R20G 8
                                G15G10G23R 7
  23275026.906   124331014.917                    96701890.532    23275031.809  
  23275026.305  
  24505538.336   128777447.159    24505550.027   100346091.3414   24505549.883  
                
  19491435.617   104010065.721                                                  
  19491433.184  
  19566045.141   104701876.582                    81434786.322    19566048.430  
  19566043.453  
  22096166.094   117950845.892                    91739569.650    22096168.809  
  22096164.371  
  24149810.617   126908113.862    24149821.602    98889487.4494   24149821.949  
                
  21082962.438   112700548.029                    87655977.387    21082966.762  
  21082962.141  
  23011581.688   120926677.875    23011588.910    94228605.6514                 
                
  21836808.797   114753231.142    21836816.621    89418117.7944   21836816.590  
                
  20968117.070   110188196.775    20968125.703    85860989.1814   20968125.656  
                
  21487687.336   114904323.115                    89370048.622    21487694.953  
  21487686.379  
  23121155.805   121502484.558    23121165.625    94677316.1874   23121166.059  
                
  23462747.578   123297604.649    23462755.559    96076091.0604   23462755.445  
                
  20559840.508   108042728.019    20559848.910    84189197.1204   20559848.594  
                
  20605607.602   108283235.283    20605614.988    84376582.7624   20605614.883  
                
  22651803.273   121256895.218                    94310910.862    22651809.512  
  22651801.590  
 21  8 16  8 46 30.0000000  0 16R12G26R 6R21R22G32R 5G16G18G27R20G 8
                                G15G10G23R 7
  23278591.023   124350053.724                    96716698.474    23278595.902  
  23278590.449  
  24511621.086   128809412.050    24511632.746   100370999.0304   24511632.594  
                
  19488233.164   103992976.849                                                  
  19488230.746  
  19564199.555   104692000.424                    81427104.866    19564202.832  
  19564197.883  
  22089978.695   117917817.166                    91713880.644    22089981.445  
  22089976.957  
  24143091.773   126872806.030    24143102.723    98861974.8684   24143103.086  
                
  21088546.453   112730397.753                    87679193.833    21088550.773  
  21088546.184  
  23016432.711   120952170.200    23016439.965    94248469.7874                 
                
  21840968.836   114775092.248    21840976.652    89435152.4154   21840976.637  
                
  20965310.586   110173448.639    20965319.199    85849497.1274   20965319.156  
                
  21492567.766   114930420.655                    89390346.713    21492575.324  
  21492566.805  
  23115446.531   121472482.160    23115456.363    94653937.7024   23115456.773  
                
  23467295.109   123321502.021    23467303.090    96094712.3854   23467302.977  
                
  20558175.445   108033978.057    20558183.855    84182378.9704   20558183.531  
                
  20608291.828   108297341.003    20608299.219    84387574.2234   20608299.109  
                
  22643671.672   121213366.379                    94277055.112    22643677.898  
  22643670.027  
 21  8 16  8 46 40.0000000  0 16R12G26R 6R21R22G32R 5G16G18G27R20G 8
                                G15G10G23R 7
  23282167.430   124369158.066                    96731557.422    23282172.215  
  23282166.855  
  24517704.211   128841378.678    24517715.805   100395908.0824   24517715.629  
                
  19485046.172   103975970.457                                                  
  19485043.762  
  19562362.891   104682172.044                    81419460.579    19562366.168  
  19562361.227  
  22083793.039   117884797.717                    91688198.864    22083795.840  
  22083791.281  
  24136373.961   126837503.644    24136384.902    98834466.5424   24136385.238  
                
  21094141.656   112760307.271                    87702456.801    21094145.977  
  21094141.387  
  23021291.336   120977702.471    23021298.633    94268365.0464                 
                
  21845133.195   114796976.047    21845141.043    89452204.6984   21845141.012  
                
  20962514.602   110158755.618    20962523.195    85838048.0234   20962523.164  
                
  21497455.078   114956555.233                    89410673.592    21497462.629  
  21497454.152  
  23109742.617   121442507.956    23109752.457    94630581.1954   23109752.848  
                
  23471852.953   123345453.535    23471860.969    96113375.9034   23471860.840  
                
  20556519.914   108025278.193    20556528.344    84175599.8604   20556528.008  
                
  20610984.828   108311492.798    20610992.223    84398601.6004   20610992.113  
                
  22635544.641   121169862.055                    94243218.436    22635550.895  
  22635543.078  
 21  8 16  8 46 50.0000000  0 16R12G26R 6R21R22G32R 5G16G18G27R20G 8
                                G15G10G23R 7
  23285756.047   124388327.729                    96746467.183    23285760.742  
  23285755.477  
  24523787.523   128873346.881    24523799.145   100420818.3644   24523798.973  
                
  19481874.609   103959046.430                                                  
  19481872.215  
  19560535.133   104672391.369                    81411853.387    19560538.410  
  19560533.469  
  22077609.141   117851787.700                    91662524.409    22077612.035  
  22077607.379  
  24129657.211   126802206.736    24129668.137    98806962.4914   24129668.453  
                
  21099747.977   112790276.205                    87725765.955    21099752.270  
  21099747.734  
  23026157.516   121003274.441    23026164.840    94288291.2414                 
                
  21849301.852   114818882.433    21849309.734    89469274.6054   21849309.652  
                
  20959729.102   110144117.717    20959737.668    85826641.8664   20959737.645  
                
  21502349.328   114982726.735                    89431029.187    21502356.832  
  21502348.391  
  23104044.172   121412562.418    23104053.980    94607247.0094   23104054.367  
                
  23476421.070   123369459.057    23476429.148    96132081.5034   23476429.008  
                
  20554873.906   108016628.373    20554882.355    84168859.7424   20554882.012  
                
  20613686.562   108325690.554    20613693.957    84409664.7774   20613693.852  
                
  22627422.172   121126382.090                    94209400.710    22627428.457  
  22627420.672  
 21  8 16  8 47  0.0000000  0 16R12G26R 6R21R22G32R 5G16G18G27R20G 8
                                G15G10G23R 7
  23289356.906   124407562.818                    96761427.812    23289361.523  
  23289356.324  
  24529871.141   128905316.720    24529882.828   100445729.9084   24529882.605  
                
  19478718.570   103942205.181                                                  
  19478716.188  
  19558716.336   104662658.611                    81404283.459    19558719.621  
  19558714.668  
  22071427.055   117818787.375                    91636857.503    22071429.980  
  22071425.285  
  24122941.523   126766915.577    24122952.430    98779462.9084   24122952.723  
                
  21105365.477   112820304.851                    87749121.568    21105369.758  
  21105365.273  
  23031031.281   121028886.170    23031038.613    94308248.4324                 
                
  21853474.836   114840811.602    21853482.707    89486362.2504   21853482.629  
                
  20956954.133   110129535.162    20956962.676    85815278.8404   20956962.668  
                
  21507250.445   115008935.138                    89451413.470    21507257.949  
  21507249.531  
  23098351.156   121382645.446    23098360.938    94583935.0994   23098361.332  
                
  23480999.484   123393518.727    23481007.617    96150829.2764   23481007.438  
                
  20553237.453   108008028.757    20553245.922    84162158.7454   20553245.574  
                
  20616397.070   108339934.371    20616404.469    84420763.8484   20616404.367  
                
  22619304.359   121082927.044                    94175602.376    22619310.695  
  22619302.918  
 21  8 16  8 47 10.0000000  0 16R12G26R 6R21R22G32R 5G16G18G27R20G 8
                                G15G10G23R 7
  23292969.977   124426863.257                    96776439.246    23292974.586  
  23292969.402  
  24535955.117   128937288.101    24535966.797   100470642.6664   24535966.547  
                
  19475578.016   103925446.617                                                  
  19475575.633  
  19556906.531   104652973.986                    81396750.984    19556909.820  
  19556904.848  
  22065246.781   117785796.739                    91611198.109    22065249.750  
  22065245.031  
  24116226.820   126731630.296    24116237.840    98751967.9184   24116238.145  
                
  21110994.086   112850392.980                    87772523.447    21110998.367  
  21110993.879  
  23035912.594   121054537.651    23035919.938    94328236.5954                 
                
  21857652.164   114862763.539    21857660.027    89503467.6444   21857659.941  
                
  20954189.719   110115008.064    20954198.242    85803959.0214   20954198.234  
                
  21512158.523   115035180.793                    89471826.755    21512166.012  
  21512157.625  
  23092663.617   121352757.319    23092673.375    94560645.6564   23092673.785  
                
  23485588.172   123417632.435    23485596.363    96169619.1594   23485596.195  
                
  20551610.547   107999479.359    20551619.043    84155496.8774   20551618.684  
                
  20619116.328   108354224.193    20619123.734    84431898.7714   20619123.633  
                
  22611191.250   121039496.831                    94141823.339    22611197.555  
  22611189.812  
 21  8 16  8 47 20.0000000  0 16R12G26R 6R21R22G32R 5G16G18G27R20G 8
                                G15G10G23R 7
  23296595.258   124446228.977                    96791501.465    23296599.891  
  23296594.652  
  24542039.359   128969261.112    24542051.094   100495556.6684   24542050.836  
                
  19472453.070   103908771.312                                                  
  19472450.695  
  19555105.734   104643337.590                    81389256.010    19555109.020  
  19555104.023  
  22059068.391   117752816.005                    91585546.473    22059071.410  
  22059066.641  
  24109513.312   126696351.151    24109524.441    98724477.7204   24109524.738  
                
  21116633.852   112880540.760                    87795971.706    21116638.121  
  21116633.645  
  23040801.469   121080228.907    23040808.809    94348255.7384                 
                
  21861833.844   114884738.393    21861841.703    89520590.8974   21861841.590  
                
  20951435.891   110100536.647    20951444.395    85792682.5944   20951444.391  
                
  21517073.547   115061463.531                    89492268.883    21517081.012  
  21517072.660  
  23086981.562   121322898.007    23086991.293    94537378.6734   23086991.723  
                
  23490187.133   123441800.177    23490195.410    96188451.1464   23490195.238  
                
  20549993.227   107990980.335    20550001.770    84148874.2684   20550001.379  
                
  20621844.359   108368560.128    20621851.781    84443069.6274   20621851.672  
                
  22603082.883   120996091.817                    94108063.894    22603089.105  
  22603081.426  
 21  8 16  8 47 30.0000000  0 16R12G26R 6R21R22G32R 5G16G18G27R20G 8
                                G15G10G23R 7
  23300232.664   124465659.393                    96806613.970    23300237.301  
  23300232.012  
  24548123.820   129001235.012    24548135.562   100520471.3824   24548135.297  
                
  19469343.555   103892178.357                                                  
  19469341.180  
  19553313.898   104633749.100                    81381798.292    19553317.180  
  19553312.164  
  22052891.781   117719844.805                    91559902.223    22052894.852  
  22052890.020  
  24102800.969   126661077.683    24102812.113    98696991.9304   24102812.414  
                
  21122284.586   112910747.138                    87819465.567    21122288.852  
  21122284.414  
  23045697.758   121105959.174    23045705.078    94368305.2594                 
                
  21866019.766   114906735.542    21866027.594    89537731.5294   21866027.480  
                
  20948692.570   110086120.358    20948701.059    85781449.1164   20948701.059  
                
  21521995.516   115087783.015                    89512739.574    21522002.891  
  21521994.613  
  23081304.953   121293067.216    23081314.656    94514133.8894   23081315.098  
                
  23494796.281   123466021.290    23494804.602    96207324.7214   23494804.410  
                
  20548385.383   107982531.069    20548393.980    84142290.4274   20548393.566  
                
  20624581.039   108382941.486    20624588.469    84454275.8804   20624588.359  
                
  22594979.180   120952711.499                    94074323.674    22594985.266  
  22594977.660  
 21  8 16  8 47 40.0000000  0 16R12G26R 6R21R22G32R 5G16G18G27R20G 8
                                G15G10G23R 7
  23303882.281   124485154.987                    96821777.197    23303886.926  
  23303881.633  
  24554208.539   129033210.313    24554220.254   100545387.1804   24554220.035  
                
  19466249.648   103875668.703                                                  
  19466247.281  
  19551531.102   104624208.988                    81374378.211    19551534.391  
  19551529.359  
  22046717.016   117686883.587                    91534265.711    22046720.137  
  22046715.215  
  24096089.828   126625810.513    24096100.984    98669511.0614   24096101.312  
                
  21127946.398   112941012.716                    87843005.445    21127950.680  
  21127946.207  
  23050601.586   121131728.893    23050608.910    94388385.5624                 
                
  21870210.031   114928755.566    21870217.832    89554889.9744   21870217.723  
                
  20945959.859   110071759.877    20945968.344    85770259.1334   20945968.340  
                
  21526924.281   115114139.404                    89533238.993    21526931.664  
  21526923.434  
  23075633.883   121263265.609    23075643.574    94490911.8664   23075644.016  
                
  23499415.656   123490296.204    23499423.973    96226240.2294   23499423.781  
                
  20546787.109   107974132.157    20546795.766    84135745.8254   20546795.316  
                
  20627326.469   108397368.780    20627333.918    84465517.9314   20627333.801  
                
  22586880.195   120909356.599                    94040603.205    22586886.176  
  22586878.590  
 21  8 16  8 47 50.0000000  0 16R12G26R 6R21R22G32R 5G16G18G27R20G 8
                                G15G10G23R 7
  23307544.008   124504715.129                    96836990.616    23307548.688  
  23307543.363  
  24560293.453   129065186.660    24560305.137   100570303.7914   24560304.961  
                
  19463171.273   103859241.941                                                  
  19463168.902  
  19549757.344   104614717.270                    81366995.748    19549760.633  
  19549755.598  
  22040544.141   117653932.369                    91508637.009    22040547.254  
  22040542.266  
  24089379.883   126590549.568    24089391.020    98642035.0304   24089391.363  
                
  21133619.227   112971337.176                    87866591.126    21133623.523  
  21133619.031  
  23055512.859   121157537.780    23055520.156    94408496.3674                 
                
  21874404.609   114950798.207    21874412.391    89572066.0544   21874412.297  
                
  20943237.734   110057455.028    20943246.215    85759112.4994   20943246.215  
                
  21531860.016   115140532.938                    89553767.273    21531867.391  
  21531859.121  
  23069968.359   121233493.135    23069978.035    94467712.5494   23069978.492  
                
  23504045.227   123514624.707    23504053.531    96245197.4924   23504053.348  
                
  20545198.383   107965783.367    20545207.098    84129240.2794   20545206.621  
                
  20630080.578   108411841.753    20630088.035    84476795.5654   20630087.906  
                
  22578785.820   120866027.218                    94006902.607    22578791.871  
  22578784.262  
 21  8 16  8 48  0.0000000  0 16R12G26R 6R21R22G32R 5G16G18G27R20G 8
                                G15G10G23R 7
  23311217.859   124524340.009                    96852254.413    23311222.559  
  23311217.207  
  24566378.516   129097163.985    24566390.227   100595221.1744   24566390.086  
                
  19460108.422   103842897.981                                                  
  19460106.047  
  19547992.609   104605273.807                    81359650.839    19547995.898  
  19547990.844  
  22034373.133   117620991.155                    91483016.067    22034376.234  
  22034371.238  
  24082671.227   126555294.959    24082682.254    98614563.9414   24082682.598  
                
  21139303.031   113001720.311                    87890222.467    21139307.348  
  21139302.852  
  23060431.578   121183385.716    23060438.824    94428637.6204                 
                
  21878603.492   114972863.492    21878611.277    89589259.7684   21878611.195  
                
  20940526.219   110043205.895    20940534.699    85748009.2844   20940534.688  
                
  21536802.539   115166963.239                    89574324.161    21536810.039  
  21536801.727  
  23064308.352   121203749.554    23064318.031    94444535.7424   23064318.484  
                
  23508684.969   123539006.697    23508693.301    96264196.4254   23508693.121  
                
  20543619.188   107957484.700    20543627.957    84122773.7874   20543627.449  
                
  20632843.375   108426360.331    20632850.848    84488108.7434   20632850.703  
                
  22570696.180   120822723.295                    93973221.802    22570702.320  
  22570694.680  
 21  8 16  8 48 10.0000000  0 16R12G26R 6R21R22G32R 5G16G18G27R20G 8
                                G15G10G23R 7
  23314903.773   124544029.444                    96867568.425    23314908.469  
  23314903.121  
  24572463.703   129129142.184    24572475.465   100620139.2314   24572475.355  
                
  19457061.133   103826637.087                                                  
  19457058.746  
  19546236.938   104595878.909                    81352343.688    19546240.230  
  19546235.168  
  22028204.039   117588060.076                    91457403.009    22028207.066  
  22028202.145  
  24075963.766   126520046.755    24075974.672    98587097.8314   24075975.039  
                
  21144997.773   113032161.931                    87913899.267    21145002.102  
  21144997.574  
  23065357.703   121209272.590    23065364.922    94448809.2174                 
                
  21882806.672   114994951.359    21882814.453    89606471.0864   21882814.379  
                
  20937825.312   110029012.553    20937833.785    85736949.5354   20937833.766  
                
  21541752.000   115193430.316                    89594909.643    21541759.508  
  21541751.199  
  23058653.883   121174035.197    23058663.598    94421381.7174   23058664.074  
                
  23513334.875   123563442.095    23513343.238    96283236.9704   23513343.031  
                
  20542049.523   107949236.130    20542058.344    84116346.3364   20542057.816  
                
  20635614.836   108440924.451    20635622.320    84499457.4044   20635622.148  
                
  22562611.453   120779444.964                    93939560.890    22562617.543  
  22562609.930  
 21  8 16  8 48 20.0000000  0 16R12G26R 6R21R22G32R 5G16G18G27R20G 8
                                G15G10G23R 7
  23318601.742   124563783.216                    96882932.481    23318606.449  
  23318601.086  
  24578549.055   129161121.136    24578560.863   100645057.8824   24578560.773  
                
  19454029.461   103810459.469                                                  
  19454027.062  
  19544490.328   104586532.430                    81345074.207    19544493.609  
  19544488.559  
  22022036.844   117555139.183                    91431797.880    22022039.828  
  22022034.934  
  24069257.516   126484805.105    24069268.324    98559636.8244   24069268.723  
                
  21150703.453   113062662.066                    87937621.597    21150707.812  
  21150703.273  
  23070291.219   121235198.292    23070298.453    94469011.0564                 
                
  21887014.148   115017061.817    21887021.934    89623699.9994   21887021.867  
                
  20935135.039   110014875.059    20935143.500    85725933.3014   20935143.484  
                
  21546708.438   115219934.432                    89615523.955    21546715.902  
  21546707.633  
  23053005.000   121144350.227    23053014.738    94398250.5804   23053015.227  
                
  23517994.930   123587930.782    23518003.289    96302319.0604   23518003.090  
                
  20540489.406   107941037.682    20540498.273    84109957.9384   20540497.734  
                
  20638394.945   108455534.042    20638402.434    84510841.5014   20638402.246  
                
  22554531.594   120736192.396                    93905920.005    22554537.586  
  22554529.996  
 21  8 16  8 48 30.0000000  0 16R12G26R 6R21R22G32R 5G16G18G27R20G 8
                                G15G10G23R 7
  23322311.727   124583601.399                    96898346.593    23322316.496  
  23322311.023  
  24584634.508   129193100.924    24584646.449   100669977.1684   24584646.383  
                
  19451013.406   103794365.273                                                  
  19451011.004  
  19542752.852   104577234.845                    81337842.754    19542756.129  
  19542751.062  
  22015871.516   117522228.678                    91406200.854    22015874.574  
  22015869.660  
  24062552.539   126449570.245    24062563.277    98532181.1164   24062563.664  
                
  21156420.078   113093220.663                    87961389.381    21156424.457  
  21156419.895  
  23075232.141   121261162.931    23075239.395    94489243.2204                 
                
  21891225.961   115039195.026    21891233.777    89640946.6444   21891233.695  
                
  20932455.438   110000793.673    20932463.891    85714960.7974   20932463.867  
                
  21551671.773   115246475.401                    89636166.915    21551679.203  
  21551670.910  
  23047361.750   121114694.763    23047371.457    94375142.4254   23047371.957  
                
  23522665.148   123612472.922    23522673.469    96321442.7994   23522673.285  
                
  20538938.852   107932889.523    20538947.762    84103608.7244   20538947.211  
                
  20641183.734   108470189.224    20641191.207    84522261.1214   20641191.027  
                
  22546456.516   120692965.938                    93872299.450    22546462.500  
  22546454.906  
 21  8 16  8 48 40.0000000  0 16R12G26R 6R21R22G32R 5G16G18G27R20G 8
                                G15G10G23R 7
  23326033.719   124603483.976                    96913810.804    23326038.555  
  23326032.969  
  24590720.047   129225081.448    24590732.223   100694897.0344   24590732.148  
                
  19448012.961   103778354.328                                                  
  19448010.559  
  19541024.500   104567986.108                    81330649.290    19541027.781  
  19541022.695  
  22009708.219   117489328.698                    91380611.982    22009711.250  
  22009706.449  
  24055848.852   126414342.269    24055859.539    98504730.7724   24055859.910  
                
  21162147.602   113123837.497                    87985202.485    21162151.977  
  21162147.441  
  23080180.438   121287166.359    23080187.707    94509505.6184                 
                
  21895442.109   115061350.986    21895449.926    89658211.0134   21895449.828  
                
  20929786.523   109986768.443    20929794.973    85704032.0484   20929794.957  
                
  21556641.961   115273053.481                    89656838.750    21556649.461  
  21556641.125  
  23041724.156   121085068.982    23041733.816    94352057.3934   23041734.332  
                
  23527345.516   123637068.368    23527353.805    96340608.0704   23527353.621  
                
  20537397.898   107924791.818    20537406.848    84097298.8344   20537406.281  
                
  20643981.180   108484889.909    20643988.633    84533716.1974   20643988.461  
                
  22538386.266   120649765.543                    93838699.175    22538392.324  
  22538384.668  
 21  8 16  8 48 50.0000000  0 16R12G26R 6R21R22G32R 5G16G18G27R20G 8
                                G15G10G23R 7
  23329767.664   124623430.223                    96929324.533    23329772.570  
  23329766.855  
  24596805.781   129257062.124    24596817.973   100719817.0174   24596817.898  
                
  19445028.062   103762426.333                                                  
  19445025.676  
  19539305.195   104558785.781                    81323493.476    19539308.480  
  19539303.371  
  22003546.812   117456438.714                    91355030.892    22003549.852  
  22003545.043  
  24049146.383   126379120.825    24049157.051    98477285.5154   24049157.414  
                
  21167885.922   113154512.099                    88009060.498    21167890.305  
  21167885.773  
  23085136.016   121313208.056    23085143.324    94529797.8484                 
                
  21899662.477   115083529.162    21899670.250    89675492.7034   21899670.184  
                
  20927128.219   109972798.952    20927136.668    85693146.7284   20927136.652  
                
  21561619.047   115299668.079                    89677538.968    21561626.539  
  21561618.191  
  23036092.156   121055472.650    23036101.801    94328995.3184   23036102.309  
                
  23532035.922   123661716.573    23532044.207    96359814.4444   23532044.031  
                
  20535866.391   107916743.701    20535875.375    84091027.5714   20535874.812  
                
  20646787.188   108499635.551    20646794.621    84545206.3094   20646794.453  
                
  22530320.875   120606591.136                    93805119.100    22530326.969  
  22530319.293  
 21  8 16  8 49  0.0000000  0 16R12G26R 6R21R22G32R 5G16G18G27R20G 8
                                G15G10G23R 7
  23333513.594   124643440.550                    96944888.036    23333518.609  
  23333512.777  
  24602891.500   129289043.300    24602903.824   100744737.3914   24602903.750  
                
  19442058.797   103746581.814                                                  
  19442056.422  
  19537595.055   104549634.508                    81316375.815    19537598.332  
  19537593.215  
  21997387.398   117423559.408                    91329458.110    21997390.457  
  21997385.629  
  24042445.211   126343906.470    24042455.961    98449845.7964   24042456.301  
                
  21173635.094   113185244.616                    88032963.565    21173639.500  
  21173634.949  
  23090098.914   121339288.256    23090106.289    94550120.0684                 
                
  21903887.172   115105730.021    21903894.906    89692792.0654   21903894.863  
                
  20924480.625   109958885.741    20924489.078    85682305.2684   20924489.070  
                
  21566603.070   115326319.636                    89698267.942    21566610.578  
  21566602.195  
  23030465.781   121025905.837    23030475.414    94305956.2654   23030475.918  
                
  23536736.430   123686417.866    23536744.703    96379062.1874   23536744.508  
                
  20534344.438   107908745.826    20534353.465    84084795.4664   20534352.898  
                
  20649601.828   108514426.555    20649609.238    84556731.7654   20649609.082  
                
  22522260.453   120563443.164                    93771559.588    22522266.527  
  22522258.910  
 21  8 16  8 49 10.0000000  0 16R12G26R 6R21R22G32R 5G16G18G27R20G 8
                                G15G10G23R 7
  23337271.492   124663514.527                    96960501.145    23337276.543  
  23337270.688  
  24608977.258   129321024.652    24608989.734   100769657.9114   24608989.664  
                
  19439105.148   103730820.621                                                  
  19439102.754  
  19535894.031   104540532.012                    81309296.117    19535897.316  
  19535892.168  
  21991229.945   117390690.517                    91303893.437    21991233.047  
  21991228.145  
  24035745.367   126308699.078    24035756.219    98422411.5074   24035756.539  
                
  21179395.008   113216034.694                    88056911.399    21179399.441  
  21179394.852  
  23095069.086   121365406.700    23095076.492    94570472.0724                 
                
  21908116.133   115127953.349    21908123.805    89710108.9304   21908123.793  
                
  20921843.711   109945028.657    20921852.168    85671507.5434   20921852.141  
                
  21571593.883   115353007.815                    89719025.388    21571601.441  
  21571593.004  
  23024845.070   120996368.781    23024854.668    94282940.3834   23024855.184  
                
  23541446.969   123711171.948    23541455.219    96398351.0774   23541455.020  
                
  20532832.000   107900797.970    20532841.070    84078602.3424   20532840.492  
                
  20652425.047   108529262.631    20652432.438    84568292.3484   20652432.289  
                
  22514204.891   120520321.409                    93738020.456    22514210.969  
  22514203.402  
 21  8 16  8 49 20.0000000  0 16R12G26R 6R21R22G32R 5G16G18G27R20G 8
                                G15G10G23R 7
  23341041.328   124683652.181                    96976163.758    23341046.383  
  23341040.480  
  24615063.133   129353006.294    24615075.703   100794578.6244   24615075.641  
                
  19436167.188   103715143.134                                                  
  19436164.785  
  19534202.188   104531478.658                    81302254.617    19534205.496  
  19534200.309  
  21985074.570   117357832.364                    91278337.090    21985077.605  
  21985072.742  
  24029046.898   126273498.904    24029057.855    98394982.8604   24029058.168  
                
  21185165.727   113246882.542                    88080904.160    21185170.188  
  21185165.539  
  23100046.539   121391563.382    23100053.961    94590853.8894                 
                
  21912349.398   115150199.267    21912357.020    89727443.4074   21912357.035  
                
  20919217.531   109931227.940    20919225.984    85660753.7384   20919225.949  
                
  21576591.664   115379732.803                    89739811.470    21576599.152  
  21576590.719  
  23019230.070   120966861.772    23019239.621    94259947.8984   23019240.164  
                
  23546167.586   123735978.924    23546175.781    96417681.1854   23546175.602  
                
  20531329.117   107892900.301    20531338.234    84072448.3194   20531337.637  
                
  20655256.859   108544143.879    20655264.238    84579888.1334   20655264.098  
                
  22506154.320   120477226.243                    93704502.005    22506160.379  
  22506152.848  
 21  8 16  8 49 30.0000000  0 16R12G26R 6R21R22G32R 5G16G18G27R20G 8
                                G15G10G23R 7
  23344823.000   124703853.324                    96991875.758    23344828.062  
  23344822.133  
  24621149.078   129384987.892    24621161.648   100819499.3254   24621161.578  
                
  19433244.852   103699549.054                                                  
  19433242.445  
  19532519.484   104522474.215                    81295251.160    19532522.793  
  19532517.574  
  21978921.023   117324984.769                    91252788.981    21978924.184  
  21978919.273  
  24022349.859   126238305.949    24022360.879    98367559.8254   24022361.188  
                
  21190947.164   113277787.700                    88104941.488    21190951.656  
  21190946.949  
  23105031.242   121417758.173    23105038.695    94611265.3944                 
                
  21916586.938   115172467.626    21916594.531    89744795.3774   21916594.551  
                
  20916602.047   109917483.504    20916610.500    85650043.7874   20916610.469  
                
  21581596.344   115406494.606                    89760626.201    21581603.766  
  21581595.344  
  23013620.750   120937384.663    23013630.285    94236978.7334   23013630.844  
                
  23550898.211   123760838.532    23550906.371    96437052.2974   23550906.188  
                
  20529835.750   107885052.646    20529844.906    84066333.2694   20529844.297  
                
  20658097.227   108559070.096    20658104.590    84591518.9474   20658104.449  
                
  22498108.672   120434157.761                    93671004.324    22498114.812  
  22498107.293  
 21  8 16  8 49 40.0000000  0 16R12G26R 6R21R22G32R 5G16G18G27R20G 8
                                G15G10G23R 7
  23348616.547   124724117.800                    97007636.998    23348621.617  
  23348615.668  
  24627235.055   129416969.279    24627247.551   100844419.8834   24627247.477  
                
  19430338.164   103684038.409                                                  
  19430335.754  
  19530845.953   104513518.812                    81288285.842    19530849.270  
  19530844.035  
  21972769.555   117292147.833                    91227249.137    21972772.727  
  21972767.840  
  24015654.250   126203120.169    24015665.289    98340142.3824   24015665.574  
                
  21196739.305   113308750.026                    88129023.281    21196743.832  
  21196739.059  
  23110023.148   121443990.753    23110030.621    94631706.3504                 
                
  21920828.719   115194758.290    21920836.277    89762164.7154   21920836.332  
                
  20913997.266   109903795.265    20914005.707    85639377.6264   20914005.672  
                
  21586607.742   115433292.952                    89781469.345    21586615.219  
  21586606.785  
  23008017.117   120907937.410    23008026.668    94214032.8334   23008027.215  
                
  23555638.805   123785750.515    23555646.953    96456464.2244   23555646.746  
                
  20528351.875   107877254.876    20528361.055    84060257.0854   20528360.441  
                
  20660946.109   108574041.053    20660953.461    84603184.6304   20660953.328  
                
  22490068.109   120391115.791                    93637527.250    22490074.203  
  22490066.668  
 21  8 16  8 49 50.0000000  0 16R12G26R 6R21R22G32R 5G16G18G27R20G 8
                                G15G10G23R 7
  23352421.891   124744445.247                    97023447.220    23352426.969  
  23352421.055  
  24633320.992   129448950.303    24633333.395   100869340.1464   24633333.316  
                
  19427447.086   103668611.128                                                  
  19427444.680  
  19529181.562   104504612.361                    81281358.603    19529184.887  
  19529179.633  
  21966620.008   117259321.515                    91201717.564    21966623.219  
  21966618.301  
  24008960.023   126167941.626    24008971.066    98312730.5794   24008971.344  
                
  21202542.055   113339769.059                    88153149.207    21202546.598  
  21202541.773  
  23115022.219   121470260.914    23115029.719    94652176.5924                 
                
  21925074.734   115217071.202    21925082.285    89779551.3984   21925082.355  
                
  20911403.195   109890163.311    20911411.625    85628755.3254   20911411.602  
                
  21591626.016   115460127.743                    89802340.841    21591633.500  
  21591625.023  
  23002419.219   120878520.239    23002428.754    94191110.3684   23002429.289  
                
  23560389.352   123810714.872    23560397.465    96475916.9524   23560397.254  
                
  20526877.500   107869506.976    20526886.695    84054219.7554   20526886.082  
                
  20663803.492   108589056.688    20663810.832    84614885.1194   20663810.703  
                
  22482032.469   120348100.625                    93604071.030    22482038.594  
  22482031.066  
 21  8 16  8 50  0.0000000  0 16R12G26R 6R21R22G32R 5G16G18G27R20G 8
                                G15G10G23R 7
  23356239.047   124764835.742                    97039306.462    23356244.082  
  23356238.160  
  24639406.812   129480930.988    24639419.191   100894260.1194   24639419.117  
                
  19424571.648   103653267.252                                                  
  19424569.230  
  19527526.367   104495755.083                    81274469.619    19527529.699  
  19527524.430  
  21960472.609   117226506.055                    91176194.415    21960475.770  
  21960470.832  
  24002267.148   126132770.547    24002278.234    98285324.5784   24002278.492  
                
  21208355.469   113370845.145                    88177319.472    21208360.016  
  21208355.137  
  23120028.461   121496568.771    23120035.941    94672676.2094                 
                
  21929325.008   115239406.463    21929332.570    89796955.4814   21929332.625  
                
  20908819.859   109876587.771    20908828.281    85618176.9854   20908828.262  
                
  21596651.133   115486999.123                    89823240.796    21596658.602  
  21596650.129  
  22996827.023   120849133.120    22996836.523    94168211.3134   22996837.074  
                
  23565149.906   123835731.769    23565157.961    96495410.6144   23565157.770  
                
  20525412.617   107861809.015    20525421.828    84048221.3524   20525421.211  
                
  20666669.383   108604117.028    20666676.715    84626620.4494   20666676.582  
                
  22474001.797   120305112.401                    93570635.764    22474007.996  
  22474000.461  
 21  8 16  8 50 10.0000000  0 16R12G26R 6R21R22G32R 5G16G18G27R20G 8
                                G15G10G23R 7
  23360068.055   124785289.494                    97055214.965    23360073.039  
  23360067.168  
  24645492.516   129512911.540    24645504.938   100919179.9964   24645504.852  
                
  19421712.000   103638007.643                                                  
  19421709.578  
  19525880.438   104486947.442                    81267619.212    19525883.773  
  19525878.504  
  21954327.250   117193701.848                    91150680.043    21954330.344  
  21954325.500  
  23995575.836   126097607.335    23995586.875    98257924.7044   23995587.137  
                
  21214179.539   113401978.109                    88201533.995    21214184.086  
  21214179.168  
  23125041.906   121522914.461    23125049.355    94693205.3104                 
                
  21933579.586   115261764.360    21933587.164    89814377.2144   21933587.211  
                
  20906247.344   109863069.056    20906255.754    85607642.9154   20906255.742  
                
  21601683.070   115513907.380                    89844169.430    21601690.625  
  21601682.117  
  22991240.625   120819776.442    22991250.109    94145335.9824   22991250.688  
                
  23569920.406   123860800.985    23569928.465    96514945.0594   23569928.258  
                
  20523957.312   107854161.314    20523966.527    84042262.1044   20523965.910  
                
  20669543.820   108619222.310    20669551.145    84638390.7964   20669551.012  
                
  22465976.164   120262151.565                    93537221.815    22465982.516  
  22465974.938  
 21  8 16  8 50 20.0000000  0 16R12G26R 6R21R22G32R 5G16G18G27R20G 8
                                G15G10G23R 7
  23363908.797   124805806.105                    97071172.329    23363913.801  
  23363907.980  
  24651578.109   129544891.581    24651590.566   100944099.4724   24651590.465  
                
  19418868.016   103622831.673                                                  
  19418865.598  
  19524243.750   104478189.189                    81260807.243    19524247.074  
  19524241.809  
  21948183.969   117160908.553                    91125174.169    21948187.062  
  21948182.207  
  23988886.000   126062451.847    23988896.973    98230530.8404   23988897.246  
                
  21220014.164   113433167.686                    88225792.553    21220018.746  
  21220013.785  
  23130062.500   121549297.656    23130069.883    94713763.6404                 
                
  21937838.406   115284144.629    21937846.004    89831816.3674   21937846.051  
                
  20903685.586   109849606.945    20903693.988    85597152.9604   20903694.004  
                
  21606721.820   115540852.108                    89865126.404    21606729.434  
  21606720.875  
  22985659.953   120790449.972    22985669.465    94122484.2104   22985670.043  
                
  23574700.820   123885922.347    23574708.926    96534520.1154   23574708.711  
                
  20522511.500   107846563.596    20522520.711    84036341.8064   20522520.105  
                
  20672426.750   108634372.209    20672434.070    84650195.9174   20672433.926  
                
  22457955.734   120219217.964                    93503829.033    22457962.098  
  22457954.547  
 21  8 16  8 50 30.0000000  0 16R12G26R 6R21R22G32R 5G16G18G27R20G 8
                                G15G10G23R 7
  23367761.305   124826385.475                    97087178.477    23367766.309  
  23367760.512  
  24657663.641   129576871.040    24657676.074   100969018.5324   24657675.969  
                
  19416039.742   103607739.476                                                  
  19416037.324  
  19522616.320   104469480.510                    81254033.832    19522619.645  
  19522614.371  
  21942042.719   117128126.518                    91099677.034    21942045.859  
  21942040.949  
  23982197.641   126027304.193    23982208.555    98203143.0904   23982208.844  
                
  21225859.398   113464413.893                    88250095.143    21225864.012  
  21225859.020  
  23135090.195   121575718.236    23135097.516    94734351.1064                 
                
  21942101.500   115306547.284    21942109.125    89849272.9674   21942109.164  
                
  20901134.625   109836201.558    20901143.023    85586707.2014   20901143.043  
                
  21611767.430   115567833.568                    89886111.971    21611775.117  
  21611766.531  
  22980085.117   120761154.044    22980094.664    94099656.2304   22980095.223  
                
  23579491.148   123911095.786    23579499.262    96554135.7694   23579499.039  
                
  20521075.219   107839015.896    20521084.422    84030460.4864   20521083.824  
                
  20675318.172   108649566.709    20675325.484    84662035.7884   20675325.344  
                
  22449940.430   120176311.773                    93470457.563    22449946.816  
  22449939.250  
 21  8 16  8 50 40.0000000  0 16R12G26R 6R21R22G32R 5G16G18G27R20G 8
                                G15G10G23R 7
  23371625.516   124847027.254                    97103233.180    23371630.531  
  23371624.770  
  24663749.023   129608849.779    24663761.477   100993937.0074   24663761.371  
                
  19413227.195   103592731.187                                                  
  19413224.770  
  19520998.133   104460821.247                    81247298.841    19521001.434  
  19520996.195  
  21935903.570   117095355.590                    91074188.546    21935906.676  
  21935901.805  
  23975510.773   125992164.424    23975521.609    98175761.4874   23975521.930  
                
  21231715.172   113495716.369                    88274441.500    21231719.785  
  21231714.766  
  23140124.984   121602176.043    23140132.258    94754967.5674                 
                
  21946368.836   115328972.245    21946376.496    89866746.9614   21946376.527  
                
  20898594.461   109822852.889    20898602.855    85576305.6424   20898602.867  
                
  21616819.945   115594851.521                    89907125.927    21616827.660  
  21616818.969  
  22974516.102   120731888.708    22974525.668    94076852.0774   22974526.215  
                
  23584291.383   123936321.210    23584299.457    96573791.9124   23584299.266  
                
  20519648.445   107831518.148    20519657.637    84024618.0894   20519657.051  
                
  20678218.055   108664805.671    20678225.363    84673910.3044   20678225.207  
                
  22441930.211   120133432.970                    93437107.399    22441936.672  
  22441929.078  
 21  8 16  8 50 50.0000000  0 16R12G26R 6R21R22G32R 5G16G18G27R20G 8
                                G15G10G23R 7
  23375501.414   124867731.595                    97119336.564    23375506.449  
  23375500.703  
  24669834.297   129640827.779    24669846.773   101018854.8884   24669846.660  
                
  19410430.312   103577806.541                                                  
  19410427.891  
  19519389.250   104452211.756                    81240602.568    19519392.527  
  19519387.320  
  21929766.539   117062595.959                    91048708.842    21929769.609  
  21929764.801  
  23968825.391   125957032.764    23968836.195    98148386.1984   23968836.555  
                
  21237581.477   113527075.083                    88298831.603    21237586.086  
  21237581.082  
  23145166.844   121628671.083    23145174.059    94775613.0504                 
                
  21950640.430   115351419.605    21950648.141    89884238.3994   21950648.172  
                
  20896065.125   109809561.112    20896073.516    85565948.4174   20896073.543  
                
  21621879.273   115621906.104                    89928168.361    21621887.023  
  21621878.293  
  22968952.922   120702654.085    22968962.492    94054071.8354   22968963.027  
                
  23589101.492   123961598.631    23589109.520    96593488.5914   23589109.371  
                
  20518231.195   107824070.450    20518240.379    84018814.6904   20518239.801  
                
  20681126.406   108680089.120    20681133.715    84685819.4884   20681133.551  
                
  22433925.219   120090582.151                    93403778.999    22433931.750  
  22433924.141  
 21  8 16  8 51  0.0000000  0 16R12G26R 6R21R22G32R 5G16G18G27R20G 8
                                G15G10G23R 7
  23379388.984   124888498.137                    97135488.314    23379393.992  
  23379388.316  
  24675919.391   129672804.755    24675931.852   101043771.9854   24675931.711  
                
  19407649.188   103562965.943                                                  
  19407646.746  
  19517789.609   104443651.811                    81233944.835    19517792.871  
  19517787.672  
  21923631.656   117029847.599                    91023237.907    21923634.703  
  21923629.914  
  23962141.617   125921909.091    23962152.309    98121017.1354   23962152.695  
                
  21243458.234   113558489.767                    88323265.230    21243462.844  
  21243457.867  
  23150215.711   121655202.962    23150222.867    94796287.2344                 
                
  21954916.219   115373889.104    21954923.996    89901747.0934   21954923.996  
                
  20893546.570   109796326.067    20893554.957    85555635.3934   20893555.000  
                
  21626945.531   115648997.081                    89949239.106    21626953.219  
  21626944.500  
  22963395.555   120673450.022    22963405.117    94031315.4374   22963405.652  
                
  23593921.461   123986927.725    23593929.426    96613225.5344   23593929.312  
                
  20516823.422   107816672.566    20516832.605    84013050.1114   20516832.027  
                
  20684043.164   108695416.806    20684050.465    84697763.1364   20684050.301  
                
  22425925.469   120047758.739                    93370471.924    22425931.961  
  22425924.363  
 21  8 16  8 51 10.0000000  0 16R12G26R 6R21R22G32R 5G16G18G27R20G 8
                                G15G10G23R 7
  23383288.180   124909326.890                    97151688.441    23383293.227  
  23383287.547  
  24682004.250   129704780.724    24682016.727   101068688.3044   24682016.551  
                
  19404883.820   103548209.384                                                  
  19404881.375  
  19516199.273   104435141.600                    81227325.769    19516202.516  
  19516197.348  
  21917498.977   116997110.518                    90997775.743    21917501.965  
  21917497.176  
  23955459.422   125886793.692    23955469.988    98093654.5144   23955470.371  
                
  21249345.477   113589960.345                    88347742.332    21249350.082  
  21249345.145  
  23155271.602   121681771.826    23155278.730    94816990.2294                 
                
  21959196.273   115396380.944    21959204.105    89919273.1714   21959204.074  
                
  20891038.875   109783148.014    20891047.254    85545366.7804   20891047.309  
                
  21632018.562   115676124.530                    89970338.239    21632026.203  
  21632017.469  
  22957844.086   120644276.828    22957853.660    94008583.0834   22957854.211  
                
  23598751.266   124012308.517    23598759.188    96633002.7784   23598759.102  
                
  20515425.164   107809324.674    20515434.328    84007324.4854   20515433.754  
                
  20686968.359   108710788.803    20686975.656    84709741.3174   20686975.500  
                
  22417930.984   120004963.385                    93337186.669    22417937.441  
  22417929.879  
 21  8 16  8 51 20.0000000  0 16R12G26R 6R21R22G32R 5G16G18G27R20G 8
                                G15G10G23R 7
  23387199.078   124930218.113                    97167937.148    23387204.137  
  23387198.484  
  24688088.859   129736755.919    24688101.430   101093604.0144   24688101.227  
                
  19402134.234   103533537.109                                                  
  19402131.785  
  19514618.328   104426681.617                    81220745.784    19514621.555  
  19514616.406  
  21911368.414   116964385.341                    90972322.842    21911371.465  
  21911366.629  
  23948778.859   125851686.954    23948789.320    98066298.6424   23948789.711  
                
  21255243.172   113621486.890                    88372262.980    21255247.770  
  21255242.859  
  23160334.570   121708377.845    23160341.672    94837722.1764                 
                
  21963480.625   115418895.399    21963488.473    89936816.8864   21963488.438  
                
  20888542.086   109770027.290    20888550.469    85535142.8394   20888550.527  
                
  21637098.406   115703288.780                    89991465.958    21637106.070  
  21637097.344  
  22952298.555   120615134.892    22952308.145    93985875.0904   22952308.699  
                
  23603590.969   124037741.289    23603598.844    96652820.5054   23603598.773  
                
  20514036.477   107802027.064    20514045.613    84001638.0374   20514045.043  
                
  20689902.023   108726205.348    20689909.312    84721754.2054   20689909.160  
                
  22409941.828   119962196.296                    93303923.394    22409948.184  
  22409940.664  
 21  8 16  8 51 30.0000000  0 16R12G26R 6R21R22G32R 5G16G18G27R20G 8
                                G15G10G23R 7
  23391121.539   124951171.134                    97184233.918    23391126.602  
  23391120.977  
  24694173.227   129768729.751    24694185.875   101118518.6414   24694185.656  
                
  19399400.383   103518948.769                                                  
  19399397.953  
  19513046.680   104418271.361                    81214204.475    19513049.891  
  19513044.773  
  21905239.984   116931671.518                    90946878.759    21905243.047  
  21905238.211  
  23942099.820   125816588.478    23942110.234    98038949.2094   23942110.633  
                
  21261151.273   113653069.004                    88396826.827    21261155.820  
  21261150.945  
  23165404.469   121735020.363    23165411.559    94858482.5764                 
                
  21967769.195   115441431.963    21967777.047    89954377.8394   21967777.023  
                
  20886056.125   109756963.491    20886064.516    85524963.2524   20886064.578  
                
  21642185.094   115730489.379                    90012621.955    21642192.770  
  21642184.035  
  22946758.852   120586023.616    22946768.434    93963190.9934   22946769.008  
                
  23608440.445   124063225.512    23608448.297    96672678.3304   23608448.246  
                
  20512657.258   107794779.219    20512666.359    83995990.3624   20512665.805  
                
  20692844.062   108741665.886    20692851.328    84733801.3724   20692851.188  
                
  22401957.891   119919457.399                    93270682.048    22401964.203  
  22401956.672  
 21  8 16  8 51 40.0000000  0 16R12G26R 6R21R22G32R 5G16G18G27R20G 8
                                G15G10G23R 7
  23395055.625   124972186.169                    97200578.925    23395060.641  
  23395055.066  
  24700257.398   129800702.544    24700270.141   101143432.4854   24700269.926  
                
  19396682.359   103504444.839                                                  
  19396679.949  
  19511484.414   104409911.394                    81207702.273    19511487.609  
  19511482.531  
  21899113.891   116898969.620                    90921443.970    21899116.918  
  21899112.059  
  23935422.406   125781498.814    23935432.824    98011606.6464   23935433.227  
                
  21267069.781   113684706.738                    88421433.957    21267074.289  
  21267069.469  
  23170481.398   121761699.822    23170488.512    94879271.7364                 
                
  21972062.047   115463991.060    21972069.910    89971956.3544   21972069.883  
                
  20883581.094   109743957.109    20883589.496    85514828.4124   20883589.543  
                
  21647278.562   115757726.686                    90033806.521    21647286.277  
  21647277.562  
  22941225.133   120556943.722    22941234.695    93940531.3434   22941235.285  
                
  23613299.750   124088761.408    23613307.582    96692576.4234   23613307.527  
                
  20511287.594   107787581.583    20511296.668    83990381.8184   20511296.121  
                
  20695794.547   108757170.787    20695801.797    84745883.1144   20695801.668  
                
  22393979.297   119876746.842                    93237462.735    22393985.500  
  22393977.988  
 21  8 16  8 51 50.0000000  0 16R12G26R 6R21R22G32R 5G16G18G27R20G 8
                                G15G10G23R 7
  23399001.250   124993262.811                    97216971.899    23399006.223  
  23399000.711  
  24706341.352   129832673.798    24706354.113   101168345.1304   24706353.875  
                
  19393980.078   103490024.923                                                  
  19393977.664  
  19509931.500   104401601.410                    81201238.950    19509934.688  
  19509929.637  
  21892989.938   116866279.388                    90896018.228    21892992.922  
  21892988.094  
  23928746.547   125746417.680    23928757.059    97984270.7324   23928757.457  
                
  21272998.641   113716399.823                    88446084.136    21273003.125  
  21272998.367  
  23175565.250   121788415.644    23175572.406    94900089.2324                 
                
  21976359.125   115486572.294    21976366.988    89989552.0984   21976366.949  
                
  20881116.922   109731007.805    20881125.340    85504738.0464   20881125.367  
                
  21652378.898   115785000.298                    90055019.303    21652386.598  
  21652377.855  
  22935697.305   120527894.796    22935706.848    93917895.8184   22935707.449  
                
  23618168.828   124114348.526    23618176.676    96712514.4294   23618176.625  
                
  20509927.406   107780433.746    20509936.453    83984812.0784   20509935.914  
                
  20698753.383   108772719.592    20698760.617    84757999.0644   20698760.500  
                
  22386005.945   119834064.819                    93204265.622    22386012.117  
  22386004.629  
 21  8 16  8 52  0.0000000  0 16R12G26R 6R21R22G32R 5G16G18G27R20G 8
                                G15G10G23R 7
  23402958.352   125014400.928                    97233412.620    23402963.340  
  23402957.773  
  24712425.086   129864643.528    24712437.766   101193256.5954   24712437.527  
                
  19391293.547   103475689.106                                                  
  19391291.141  
  19508387.930   104393341.475                    81194814.555    19508391.105  
  19508386.090  
  21886868.172   116833600.908                    90870601.650    21886871.102  
  21886866.340  
  23922072.305   125711345.264    23922082.949    97956941.6154   23922083.348  
                
  21278937.805   113748148.010                    88470777.169    21278942.250  
  21278937.543  
  23180656.023   121815167.865    23180663.207    94920935.0954                 
                
  21980660.422   115509175.723    21980668.223    90007165.1594   21980668.207  
                
  20878663.641   109718115.777    20878672.070    85494692.3124   20878672.090  
                
  21657485.992   115812310.387                    90076260.457    21657493.730  
  21657484.973  
  22930175.445   120498877.263    22930184.910    93895284.7484   22930185.531  
                
  23623047.664   124139986.947    23623055.527    96732492.3984   23623055.465  
                
  20508576.711   107773335.825    20508585.734    83979281.2334   20508585.207  
                
  20701720.578   108788312.343    20701727.777    84770149.2584   20701727.676  
                
  22378037.891   119791411.363                    93171090.727    22378044.066  
  22378036.578  
 21  8 16  8 52 10.0000000  0 16R12G26R 6R21R22G32R 5G16G18G27R20G 8
                                G15G10G23R 7
  23406927.141   125035601.436                    97249901.868    23406932.125  
  23406926.559  
  24718508.695   129896612.628    24718521.285   101218167.5774   24718521.055  
                
  19388623.000   103461438.557                                                  
  19388620.586  
  19506853.953   104385132.790                    81188430.012    19506857.125  
  19506852.129  
  21880748.828   116800935.485                    90845195.212    21880751.746  
  21880747.020  
  23915399.930   125676282.695    23915410.707    97929620.1774   23915411.113  
                
  21284887.461   113779952.204                    88495513.765    21284891.871  
  21284887.227  
  23185753.906   121841957.464    23185761.125    94941810.0974                 
                
  21984966.133   115531802.335    21984973.902    90024796.2914   21984973.922  
                
  20876221.469   109705282.075    20876229.910    85484692.0274   20876229.941  
                
  21662600.062   115839657.772                    90097530.650    21662607.832  
  21662599.066  
  22924659.758   120469892.141    22924669.137    93872698.9334   22924669.754  
                
  23627936.406   124165677.470    23627944.316    96752510.9794   23627944.223  
                
  20507235.703   107766288.774    20507244.699    83973790.0294   20507244.188  
                
  20704696.320   108803949.957    20704703.488    84782334.4154   20704703.402  
                
  22370075.320   119748787.345                    93137938.734    22370081.520  
  22370073.984  
 21  8 16  8 52 20.0000000  0 16R12G26R 6R21R22G32R 5G16G18G27R20G 8
                                G15G10G23R 7
  23410907.102   125056861.577                    97266437.526    23410912.113  
  23410906.535  
  24724591.648   129928578.265    24724604.152   101243075.8404   24724603.945  
                
  19385967.977   103447270.767                                                  
  19385965.562  
  19505329.039   104376972.635                    81182083.230    19505332.195  
  19505327.238  
  21874631.445   116768280.090                    90819796.571    21874634.293  
  21874629.609  
  23908728.992   125641227.307    23908739.848    97902304.3304   23908740.258  
                
  21290847.070   113811809.659                    88520291.767    21290851.473  
  21290846.867  
  23190858.359   121868781.471    23190865.574    94962711.9024                 
                
  21989275.734   115554449.403    21989283.496    90042443.3264   21989283.484  
                
  20873789.883   109692504.010    20873798.324    85474735.0864   20873798.348  
                
  21667720.672   115867039.724                    90118827.707    21667728.434  
  21667719.637  
  22919149.719   120440936.666    22919159.043    93850136.2184   22919159.668  
                
  23632834.578   124191417.350    23632842.473    96772568.0234   23632842.375  
                
  20505903.859   107759289.873    20505912.836    83968336.3414   20505912.328  
                
  20707680.070   108819629.625    20707687.215    84794552.3414   20707687.141  
                
  22362117.812   119706190.536                    93104807.897    22362124.070  
  22362116.543  
 21  8 16  8 52 30.0000000  0 16R12G26R 6R21R22G32R 5G16G18G27R20G 8
                                G15G10G23R 7
  23414898.609   125078183.421                    97283021.179    23414903.605  
  23414898.055  
  24730674.289   129960542.639    24730686.762   101267983.1074   24730686.578  
                
  19383328.820   103433187.803                                                  
  19383326.414  
  19503813.625   104368863.337                    81175775.997    19503816.777  
  19503811.836  
  21868516.305   116735637.257                    90794407.713    21868519.191  
  21868514.477  
  23902060.000   125606181.544    23902070.840    97874995.9684   23902071.246  
                
  21296817.008   113843722.305                    88545112.702    21296821.410  
  21296816.836  
  23195969.758   121895641.994    23195976.922    94983642.1634                 
                
  21993589.656   115577119.153    21993597.367    90060108.0554   21993597.375  
                
  20871369.328   109679783.947    20871377.766    85464823.3484   20871377.805  
                
  21672848.055   115894458.535                    90140153.418    21672855.898  
  21672847.070  
  22913645.781   120412013.325    22913655.109    93827598.5494   22913655.715  
                
  23637742.547   124217208.747    23637750.438    96792665.2144   23637750.344  
                
  20504581.602   107752341.380    20504590.547    83962921.9294   20504590.055  
                
  20710672.234   108835353.565    20710679.359    84806804.7624   20710679.293  
                
  22354165.680   119663623.107                    93071699.916    22354172.098  
  22354164.543  
 21  8 16  8 52 40.0000000  0 16R12G26R 6R21R22G32R 5G16G18G27R20G 8
                                G15G10G23R 7
  23418901.578   125099566.440                    97299652.407    23418906.605  
  23418901.043  
  24736756.555   129992505.266    24736769.047   101292889.0244   24736768.863  
                
  19380705.523   103419189.391                                                  
  19380703.117  
  19502307.672   104360804.626                    81169508.113    19502310.824  
  19502305.879  
  21862403.500   116703006.698                    90769028.403    21862406.383  
  21862401.656  
  23895392.820   125571145.105    23895403.633    97847694.8804   23895404.027  
                
  21302797.195   113875689.696                    88569976.229    21302801.582  
  21302797.059  
  23201088.023   121922538.515    23201095.172    95004600.4954                 
                
  21997907.828   115599811.247    21997915.477    90077790.2024   21997915.543  
                
  20868959.758   109667121.580    20868968.199    85454956.5704   20868968.230  
                
  21677982.328   115921913.736                    90161507.457    21677990.199  
  21677981.375  
  22908147.922   120383121.864    22908157.293    93805085.7394   22908157.883  
                
  23642660.227   124243051.211    23642668.125    96812802.1954   23642668.039  
                
  20503268.867   107745442.930    20503277.781    83957546.5214   20503277.301  
                
  20713672.758   108851121.369    20713679.863    84819091.3634   20713679.797  
                
  22346219.141   119621085.028                    93038614.775    22346225.617  
  22346218.020  
 21  8 16  8 52 50.0000000  0 16R12G26R 6R21R22G32R 5G16G18G27R20G 8
                                G15G10G23R 7
  23422915.961   125121010.473                    97316331.044    23422921.020  
  23422915.453  
  24742838.508   130024465.895    24742850.941   101317793.3944   24742850.770  
                
  19378098.047   103405275.413                                                  
  19378095.645  
  19500811.156   104352796.503                    81163279.562    19500814.312  
  19500809.371  
  21856292.906   116670388.267                    90743658.542    21856295.840  
  21856291.059  
  23888727.438   125536117.952    23888738.191    97820401.0164   23888738.578  
                
  21308787.562   113907711.565                    88594882.118    21308791.934  
  21308787.434  
  23206213.070   121949470.833    23206220.219    95025586.6934                 
                
  22002230.211   115622525.507    22002237.840    90095489.6154   22002237.906  
                
  20866561.148   109654516.814    20866569.590    85445134.6724   20866569.621  
                
  21683123.445   115949405.467                    90182889.888    21683131.324  
  21683122.512  
  22902656.086   120354262.080    22902665.504    93782597.6034   22902666.062  
                
  23647587.578   124268944.500    23647595.477    96832978.7724   23647595.398  
                
  20501965.633   107738594.371    20501974.516    83952209.9774   20501974.043  
                
  20716681.570   108866932.789    20716688.660    84831411.9454   20716688.590  
                
  22338278.102   119578576.180                    93005552.367    22338284.594  
  22338276.961  
 21  8 16  8 53  0.0000000  0 16R12G26R 6R21R22G32R 5G16G18G27R20G 8
                                G15G10G23R 7
  23426941.688   125142515.077                    97333056.834    23426946.793  
  23426941.160  
  24748920.133   130056424.408    24748932.449   101342696.1164   24748932.273  
                
  19375506.422   103391445.966                                                  
  19375504.008  
  19499324.102   104344838.932                    81157090.343    19499327.258  
  19499322.309  
  21850184.648   116637782.154                    90718298.211    21850187.574  
  21850182.797  
  23882063.812   125501100.162    23882074.531    97793114.4574   23882074.922  
                
  21314788.109   113939787.769                    88619830.275    21314792.457  
  21314787.977  
  23211344.914   121976438.789    23211352.078    95046600.6664                 
                
  22006556.820   115645261.926    22006564.430    90113206.2744   22006564.496  
                
  20864173.516   109641969.733    20864181.953    85435357.7204   20864181.992  
                
  21688271.305   115976933.354                    90204300.455    21688279.191  
  21688270.410  
  22897170.289   120325434.075    22897179.719    93760134.2274   22897180.262  
                
  23652524.547   124294888.399    23652532.406    96853194.7924   23652532.348  
                
  20500671.883   107731795.664    20500680.727    83946912.2874   20500680.270  
                
  20719698.672   108882787.746    20719705.746    84843766.4604   20719705.672  
                
  22330342.531   119536096.617                    92972512.711    22330348.992  
  22330341.375  
 21  8 16  8 53 10.0000000  0 16R12G26R 6R21R22G32R 5G16G18G27R20G 8
                                G15G10G23R 7
  23430978.812   125164080.523                    97349829.976    23430983.945  
  23430978.281  
  24755001.281   130088380.826    24755013.559   101367597.1934   24755013.375  
                
  19372930.648   103377701.149                                                  
  19372928.238  
  19497846.547   104336932.167                    81150940.639    19497849.699  
  19497844.750  
  21844078.742   116605188.512                    90692947.585    21844081.684  
  21844076.898  
  23875401.969   125466091.962    23875412.699    97765835.3704   23875413.086  
                
  21320798.773   113971918.117                    88644820.541    21320803.113  
  21320798.664  
  23216483.562   122003442.434    23216490.707    95067642.4604                 
                
  22010887.656   115668020.544    22010895.242    90130940.2734   22010895.320  
                
  20861796.883   109629480.459    20861805.324    85425625.8254   20861805.367  
                
  21693425.992   116004497.743                    90225739.395    21693433.867  
  21693425.105  
  22891690.555   120296637.938    22891699.992    93737695.6764   22891700.523  
                
  23657471.180   124320883.013    23657478.988    96873450.3274   23657478.949  
                
  20499387.641   107725046.919    20499396.453    83941653.5294   20499396.016  
                
  20722724.070   108898686.295    20722731.117    84856154.9444   20722731.055  
                
  22322412.531   119493646.545                    92939496.009    22322418.887  
  22322411.297  
 21  8 16  8 53 20.0000000  0 16R12G26R 6R21R22G32R 5G16G18G27R20G 8
                                G15G10G23R 7
  23435027.250   125185706.514                    97366650.157    23435032.434  
  23435026.711  
  24761081.969   130120335.012    24761094.238   101392496.5334   24761094.055  
                
  19370370.719   103364040.930                                                  
  19370368.285  
  19496378.461   104329076.164                    81144830.410    19496381.613  
  19496376.672  
  21837975.195   116572607.327                    90667606.683    21837978.086  
  21837973.301  
  23868741.945   125431093.400    23868752.688    97738563.7824   23868753.074  
                
  21326819.578   114004102.654                    88669852.953    21326823.914  
  21326819.508  
  23221628.953   122030481.599    23221636.078    95088711.9314                 
                
  22015222.703   115690801.344    22015230.293    90148691.5294   22015230.375  
                
  20859431.258   109617049.029    20859439.699    85415938.9984   20859439.742  
                
  21698587.422   116032098.259                    90247206.460    21698595.297  
  21698586.570  
  22886216.945   120267873.962    22886226.430    93715282.2204   22886226.934  
                
  23662427.438   124346928.229    23662435.191    96893745.3144   23662435.164  
                
  20498112.883   107718348.069    20498121.672    83936433.6474   20498121.250  
                
  20725757.742   108914628.310    20725764.766    84868577.2914   20725764.707  
                
  22314488.078   119451226.214                    92906502.414    22314494.371  
  22314486.812  
 21  8 16  8 53 30.0000000  0 16R12G26R 6R21R22G32R 5G16G18G27R20G 8
                                G15G10G23R 7
  23439087.000   125207392.948                    97383517.374    23439092.203  
  23439086.480  
  24767162.180   130152286.826    24767174.457   101417394.0044   24767174.285  
                
  19367826.719   103350465.651                                                  
  19367824.273  
  19494919.898   104321271.092                    81138759.797    19494923.035  
  19494918.113  
  21831874.031   116540038.721                    90642275.570    21831876.844  
  21831872.035  
  23862083.812   125396104.569    23862094.535    97711299.7924   23862094.906  
                
  21332850.469   114036341.084                    88694927.273    21332854.781  
  21332850.402  
  23226781.109   122057556.252    23226788.199    95109809.0674                 
                
  22019561.977   115713604.297    22019569.590    90166460.0434   22019569.664  
                
  20857076.656   109604675.522    20857085.082    85406297.2984   20857085.133  
                
  21703755.688   116059735.154                    90268701.802    21703763.566  
  21703754.805  
  22880749.477   120239142.289    22880759.008    93692893.9074   22880759.492  
                
  23667393.312   124373023.944    23667401.016    96914079.6384   23667400.988  
                
  20496847.625   107711699.109    20496856.387    83931252.6364   20496855.984  
                
  20728799.664   108930613.720    20728806.664    84881033.4484   20728806.617  
                
  22306569.180   119408835.585                    92873531.933    22306575.395  
  22306567.883  
 21  8 16  8 53 40.0000000  0 16R12G26R 6R21R22G32R 5G16G18G27R20G 8
                                G15G10G23R 7
  23443158.000   125229139.683                    97400431.484    23443163.203  
  23443157.430  
  24773241.820   130184236.091    24773254.215   101442289.5034   24773254.062  
                
  19365298.555   103336974.895                                                  
  19365296.109  
  19493470.836   104313516.848                    81132728.723    19493473.969  
  19493469.062  
  21825775.117   116507482.556                    90616954.125    21825777.918  
  21825773.156  
  23855427.469   125361125.484    23855438.254    97684043.3894   23855438.629  
                
  21338891.391   114068633.195                    88720043.368    21338895.688  
  21338891.320  
  23231939.969   122084666.188    23231947.066    95130933.6654                 
                
  22023905.438   115736429.273    22023913.086    90184245.7344   22023913.141  
                
  20854733.062   109592359.876    20854741.461    85396700.6884   20854741.531  
                
  21708930.750   116087408.108                    90290225.188    21708938.578  
  21708929.855  
  22875288.109   120210442.676    22875297.676    93670530.5814   22875298.164  
                
  23672368.742   124399169.926    23672376.422    96934453.1224   23672376.410  
                
  20495591.836   107705099.922    20495600.570    83926110.4184   20495600.180  
                
  20731849.820   108946642.348    20731856.801    84893523.2974   20731856.766  
                
  22298655.875   119366474.784                    92840584.656    22298662.020  
  22298654.520  
 21  8 16  8 53 50.0000000  0 16R12G26R 6R21R22G32R 5G16G18G27R20G 8
                                G15G10G23R 7
  23447240.250   125250946.523                    97417392.371    23447245.465  
  23447239.613  
  24779321.117   130216182.795    24779333.480   101467183.0174   24779333.324  
                
  19362786.242   103323568.789                                                  
  19362783.789  
  19492031.297   104305813.585                    81126737.295    19492034.422  
  19492029.520  
  21819678.633   116474939.165                    90591642.604    21819681.402  
  21819676.684  
  23848772.977   125326156.365    23848783.828    97656794.7424   23848784.207  
                
  21344942.328   114100978.869                    88745201.105    21344946.609  
  21344942.262  
  23237105.508   122111811.291    23237112.637    95152085.7014                 
                
  22028253.117   115759276.383    22028260.789    90202048.6624   22028260.816  
                
  20852400.516   109580102.275    20852408.883    85387149.3024   20852408.961  
                
  21714112.602   116115117.364                    90311776.823    21714120.379  
  21714111.684  
  22869832.859   120181775.190    22869842.465    93648192.2854   22869842.941  
                
  23677353.750   124425366.251    23677361.438    96954865.8374   23677361.441  
                
  20494345.539   107698550.597    20494354.242    83921007.0484   20494353.848  
                
  20734908.211   108962714.255    20734915.184    84906046.8604   20734915.156  
                
  22290748.156   119324144.053                    92807660.766    22290754.273  
  22290746.773  
 21  8 16  8 54  0.0000000  0 16R12G26R 6R21R22G32R 5G16G18G27R20G 8
                                G15G10G23R 7
  23451333.742   125272813.327                    97434399.830    23451338.957  
  23451333.105  
  24785399.906   130248126.683    24785412.207   101492074.3444   24785412.043  
                
  19360289.797   103310247.332                                                  
  19360287.340  
  19490601.297   104298161.309                    81120785.525    19490604.410  
  19490599.516  
  21813584.539   116442408.468                    90566340.944    21813587.305  
  21813582.566  
  23842120.375   125291197.129    23842131.266    97629553.7934   23842131.656  
                
  21351003.250   114133377.895                    88770400.344    21351007.504  
  21351003.176  
  23242277.711   122138991.322    23242284.859    95173264.9284                 
                
  22032604.969   115782145.440    22032612.656    90219868.6994   22032612.676  
                
  20850078.992   109567902.597    20850087.332    85377643.0654   20850087.434  
                
  21719301.219   116142862.692                    90333356.494    21719308.910  
  21719300.211  
  22864383.781   120153140.091    22864393.434    93625879.2324   22864393.906  
                
  23682348.281   124451612.584    23682356.020    96975317.5124   23682356.016  
                
  20493108.695   107692050.980    20493117.371    83915942.4124   20493116.992  
                
  20737974.781   108978829.196    20737981.750    84918603.9574   20737981.730  
                
  22282846.008   119281843.283                    92774760.186    22282852.148  
  22282844.625  
 21  8 16  8 54 10.0000000  0 16R12G26R 6R21R22G32R 5G16G18G27R20G 8
                                G15G10G23R 7
  23455438.461   125294739.930                    97451453.839    23455443.672  
  23455437.867  
  24791478.172   130280067.907    24791490.434   101516963.5934   24791490.281  
                
  19357809.273   103297010.758                                                  
  19357806.820  
  19489180.852   104290560.182                    81114873.535    19489183.957  
  19489179.055  
  21807492.797   116409890.735                    90541049.398    21807495.613  
  21807490.910  
  23835469.617   125256248.102    23835480.633    97602320.8264   23835481.035  
                
  21357074.164   114165830.321                    88795641.117    21357078.410  
  21357074.066  
  23247456.594   122166206.440    23247463.766    95194471.5034                 
                
  22036961.047   115805036.659    22036968.766    90237706.0044   22036968.777  
                
  20847768.555   109555761.167    20847776.867    85368182.2034   20847776.973  
                
  21724496.578   116170644.325                    90354964.425    21724504.230  
  21724495.562  
  22858940.891   120124537.501    22858950.586    93603591.5074   22858951.051  
                
  23687352.367   124477909.094    23687360.188    96995808.2864   23687360.156  
                
  20491881.367   107685601.285    20491890.008    83910916.6784   20491889.652  
                
  20741049.594   108994987.334    20741056.555    84931194.7174   20741056.543  
                
  22274949.586   119239572.953                    92741883.277    22274955.734  
  22274948.184  
 21  8 16  8 54 20.0000000  0 16R12G26R 6R21R22G32R 5G16G18G27R20G 8
                                G15G10G23R 7
  23459554.328   125316726.338                    97468554.385    23459559.582  
  23459553.797  
  24797555.844   130312006.259    24797568.117   101541850.5864   24797567.977  
                
  19355344.680   103283859.274                                                  
  19355342.207  
  19487769.969   104283010.320                    81109001.427    19487773.082  
  19487768.164  
  21801403.539   116377385.970                    90515767.918    21801406.355  
  21801401.672  
  23828820.828   125221309.294    23828831.887    97575095.8114   23828832.324  
                
  21363154.984   114198335.738                    88820923.103    21363159.219  
  21363154.883  
  23252642.078   122193456.406    23252649.277    95215705.2264                 
                
  22041321.312   115827949.936    22041329.055    90255560.4864   22041329.027  
                
  20845469.180   109543677.937    20845477.457    85358766.7024   20845477.578  
                
  21729698.586   116198461.945                    90376600.333    21729706.281  
  21729697.578  
  22853504.180   120095967.524    22853513.879    93581329.2074   22853514.340  
                
  23692365.945   124504255.567    23692373.867    97016337.9954   23692373.805  
                
  20490663.492   107679201.398    20490672.098    83905929.7594   20490671.770  
                
  20744132.562   109011188.509    20744139.523    84943819.0084   20744139.504  
                
  22267058.742   119197332.906                    92709029.918    22267064.945  
  22267057.352  
 21  8 16  8 54 30.0000000  0 16R12G26R 6R21R22G32R 5G16G18G27R20G 8
                                G15G10G23R 7
  23463681.414   125338772.508                    97485701.373    23463686.684  
  23463680.859  
  24803632.961   130343941.723    24803645.293   101566735.3294   24803645.168  
                
  19352895.992   103270792.615                                                  
  19352893.523  
  19486368.695   104275511.795                    81103169.245    19486371.805  
  19486366.871  
  21795316.688   116344894.174                    90490496.510    21795319.586  
  21795314.875  
  23822174.117   125186380.929    23822185.172    97547878.9284   23822185.625  
                
  21369245.766   114230894.348                    88846246.470    21369249.992  
  21369245.648  
  23257834.188   122220741.188    23257841.398    95236966.0784                 
                
  22045685.789   115850885.313    22045693.539    90273432.1954   22045693.504  
                
  20843180.922   109531653.042    20843189.176    85349396.6504   20843189.305  
                
  21734907.391   116226315.811                    90398264.416    21734915.105  
  21734906.449  
  22848073.727   120067430.283    22848083.402    93559092.4004   22848083.859  
                
  23697389.047   124530651.981    23697397.051    97036906.6154   23697396.969  
                
  20489455.125   107672851.378    20489463.695    83900981.6884   20489463.379  
                
  20747223.742   109027432.724    20747230.715    84956476.8354   20747230.711  
                
  22259173.727   119155123.425                    92676200.323    22259179.852  
  22259172.262  
 21  8 16  8 54 40.0000000  0 16R12G26R 6R21R22G32R 5G16G18G27R20G 8
                                G15G10G23R 7
  23467819.633   125360878.014                    97502894.521    23467824.879  
  23467819.008  
  24809709.445   130375873.909    24809721.828   101591617.5224   24809721.688  
                
  19350463.148   103257810.595                                                  
  19350460.676  
  19484976.977   104268064.466                    81097376.877    19484980.082  
  19484975.129  
  21789232.336   116312415.410                    90465235.264    21789235.258  
  21789230.520  
  23815529.477   125151462.823    23815540.430    97520670.0374   23815540.875  
                
  21375346.383   114263505.592                    88871610.764    21375350.598  
  21375346.242  
  23263032.828   122248060.360    23263040.047    95258253.7244                 
                
  22050054.406   115873842.542    22050062.125    90291320.9324   22050062.113  
                
  20840903.719   109519686.275    20840911.957    85340071.8924   20840912.086  
                
  21740122.961   116254205.626                    90419956.493    21740130.664  
  21740121.988  
  22842649.469   120038925.711    22842659.148    93536881.0444   22842659.594  
                
  23702421.578   124557097.988    23702429.660    97057513.8774   23702429.543  
                
  20488256.188   107666550.955    20488264.730    83896072.2734   20488264.430  
                
  20750323.039   109043719.646    20750330.020    84969167.9384   20750330.023  
                
  22251294.375   119112944.503                    92643394.509    22251300.492  
  22251292.887  
 21  8 16  8 54 50.0000000  0 15R12R 6R21R22G32R 5G16G18G27R20G 8G15
                                G10G23R 7
  23471968.953   125383042.630                    97520133.684    23471974.172  
  23471968.301  
  19348046.258   103244913.597                                                  
  19348043.785  
  19483594.836   104260668.354                    81091624.334    19483597.938  
  19483592.969  
  21783150.359   116279949.642                    90439984.111    21783153.371  
  21783148.586  
  23808886.836   125116555.106    23808897.672    97493469.2284   23808898.121  
                
  21381456.836   114296169.396                    88897015.945    21381461.051  
  21381456.691  
  23268238.023   122275413.857    23268245.258    95279568.1324                 
                
  22054427.188   115896821.613    22054434.887    90309226.6874   22054434.879  
                
  20838637.594   109507777.714    20838645.820    85330792.4964   20838645.953  
                
  21745345.141   116282131.294                    90441676.447    21745352.918  
  21745344.242  
  22837231.445   120010453.832    22837241.145    93514695.1784   22837241.613  
                
  23707463.555   124583593.554    23707471.672    97078159.7554   23707471.547  
                
  20487066.695   107660300.133    20487075.219    83891201.5024   20487074.934  
                
  20753430.453   109060049.221    20753437.449    84981892.2824   20753437.453  
                
  22243420.664   119070796.123                    92610612.450    22243426.832  
  22243419.207  
 21  8 16  8 55  0.0000000  0 15R12R 6R21R22G32R 5G16G18G27R20G 8G15
                                G10G23R 7
  23476129.281   125405266.335                    97537418.783    23476134.500  
  23476128.594  
  19345645.281   103232101.545                                                  
  19345642.816  
  19482222.297   104253323.663                    81085911.793    19482225.398  
  19482220.426  
  21777070.875   116247496.967                    90414743.176    21777073.895  
  21777069.137  
  23802246.219   125081657.905    23802256.949    97466276.6224   23802257.395  
                
  21387577.102   114328885.726                    88922461.983    21387581.328  
  21387576.973  
  23273449.750   122302801.710    23273457.047    95300909.2984                 
                
  22058804.125   115919822.561    22058811.836    90327149.4934   22058811.824  
                
  20836382.570   109495927.472    20836390.793    85321558.5394   20836390.934  
                
  21750574.070   116310092.851                    90463424.303    21750581.852  
  21750573.188  
  22831819.656   119982014.726    22831829.383    93492534.8444   22831829.863  
                
  23712514.930   124610138.639    23712523.055    97098844.2314   23712522.957  
                
  20485886.648   107654098.966    20485895.164    83886369.4244   20485894.887  
                
  20756545.977   109076421.438    20756552.992    84994649.8474   20756552.988  
                
  22235552.758   119028678.548                    92577854.352    22235558.930  
  22235551.273  
 21  8 16  8 55 10.0000000  0 15R12R 6R21R22G32R 5G16G18G27R20G 8G15
                                G10G23R 7
  23480300.664   125427549.125                    97554749.828    23480305.898  
  23480300.000  
  19343260.250   103219374.555                                                  
  19343257.801  
  19480859.398   104246030.512                    81080239.339    19480862.496  
  19480857.512  
  21770993.906   116215057.538                    90389512.496    21770996.902  
  21770992.164  
  23795607.539   125046771.457    23795618.293    97439092.4044   23795618.711  
                
  21393707.156   114361654.397                    88947948.700    21393711.387  
  21393707.027  
  23278668.008   122330223.927    23278675.363    95322277.2334                 
                
  22063185.234   115942845.478    22063192.914    90345089.4124   22063192.934  
                
  20834138.672   109484135.740    20834146.891    85312370.1714   20834147.023  
                
  21755809.836   116338090.456                    90485200.218    21755817.555  
  21755808.891  
  22826414.148   119953608.652    22826423.895    93470400.2454   22826424.379  
                
  23717575.734   124636733.225    23717583.871    97119567.2864   23717583.785  
                
  20484716.062   107647947.540    20484724.570    83881576.1054   20484724.305  
                
  20759669.625   109092836.321    20759676.668    85007440.6674   20759676.652  
                
  22227690.688   118986592.111                    92545120.456    22227696.805  
  22227689.211  
 21  8 16  8 55 20.0000000  0 15R12R 6R21R22G32R 5G16G18G27R20G 8G15
                                G10G23R 7
  23484483.109   125449890.752                    97572126.606    23484488.332  
  23484482.500  
  19340891.148   103206732.590                                                  
  19340888.703  
  19479506.156   104238789.061                    81074607.095    19479509.266  
  19479504.250  
  21764919.375   116182631.551                    90364292.306    21764922.430  
  21764917.637  
  23788970.953   125011895.807    23788981.672    97411916.5944   23788982.090  
                
  21399847.000   114394475.329                    88973476.085    21399851.242  
  21399846.883  
  23283892.773   122357680.178    23283900.176    95343671.7024                 
                
  22067570.516   115965890.299    22067578.141    90363046.4004   22067578.223  
                
  20831905.906   109472402.503    20831914.129    85303227.3894   20831914.250  
                
  21761052.273   116366124.043                    90507004.112    21761059.988  
  21761051.297  
  22821014.914   119925235.532    22821024.676    93448291.3374   22821025.148  
                
  23722645.945   124663377.225    23722654.098    97140328.8354   23722654.012  
                
  20483554.930   107641845.789    20483563.434    83876821.4954   20483563.160  
                
  20762801.367   109109293.783    20762808.441    85020264.6554   20762808.418  
                
  22219834.453   118944536.755                    92512410.733    22219840.480  
  22219832.965  
 21  8 16  8 55 30.0000000  0 15R12R 6R21R22G32R 5G16G18G27R20G 8G15
                                G10G23R 7
  23488676.562   125472291.150                    97589549.106    23488681.746  
  23488675.977  
  19338537.977   103194175.647                                                  
  19338535.520  
  19478162.555   104231599.220                    81069014.996    19478165.660  
  19478160.645  
  21758847.406   116150219.016                    90339082.569    21758850.480  
  21758845.676  
  23782336.508   124977031.114    23782347.141    97384749.3164   23782347.555  
                
  21405996.602   114427348.412                    88999044.025    21406000.828  
  21405996.480  
  23289124.016   122385170.379    23289131.457    95365092.6294                 
                
  22071959.961   115988957.025    22071967.578    90381020.4574   22071967.684  
                
  20829684.305   109460727.881    20829692.531    85294130.2764   20829692.664  
                
  21766301.469   116394193.531                    90528835.922    21766309.121  
  21766300.461  
  22815622.031   119896895.754    22815631.828    93426208.3934   22815632.254  
                
  23727725.523   124690070.521    23727733.734    97161128.7824   23727733.621  
                
  20482403.266   107635793.755    20482411.773    83872105.6304   20482411.496  
                
  20765941.203   109125793.756    20765948.305    85033121.7814   20765948.281  
                
  22211984.062   118902512.661                    92479725.338    22211989.992  
  22211982.570  
 21  8 16  8 55 40.0000000  0 15R12R 6R21R22G32R 5G16G18G27R20G 8G15
                                G10G23R 7
  23492880.953   125494750.178                    97607017.223    23492886.148  
  23492880.363  
  19336200.758   103181703.808                                                  
  19336198.305  
  19476828.641   104224461.200                    81063463.208    19476831.762  
  19476826.730  
  21752777.992   116117820.150                    90313883.445    21752781.102  
  21752776.266  
  23775704.086   124942177.445    23775714.707    97357590.6414   23775715.105  
                
  21412155.914   114460273.449                    89024652.391    21412160.137  
  21412155.785  
  23294361.680   122412694.507    23294369.160    95386539.9834                 
                
  22076353.578   116012045.693    22076361.215    90399011.5984   22076361.309  
                
  20827473.852   109449111.928    20827482.082    85285078.8894   20827482.207  
                
  21771557.359   116422299.041                    90550695.742    21771564.992  
  21771556.328  
  22810235.492   119868589.299    22810245.316    93404151.4254   22810245.727  
                
  23732814.461   124716812.978    23732822.719    97181967.0614   23732822.582  
                
  20481261.047   107629791.397    20481269.570    83867428.4714   20481269.285  
                
  20769089.117   109142336.188    20769096.242    85046011.9904   20769096.215  
                
  22204139.539   118860519.863                    92447064.268    22204145.336  
  22204137.992  
 21  8 16  8 55 50.0000000  0 15R12R 6R21R22G32R 5G16G18G27R20G 8G15
                                G10G23R 7
  23497096.328   125517267.823                    97624530.970    23497101.527  
  23497095.738  
  19333879.547   103169317.417                                                  
  19333877.094  
  19475504.438   104217375.127                    81057951.814    19475507.559  
  19475502.523  
  21746711.188   116085435.032                    90288695.027    21746714.289  
  21746709.422  
  23769073.773   124907335.041    23769084.422    97330440.7344   23769084.809  
                
  21418324.938   114493250.398                    89050301.120    21418329.188  
  21418324.797  
  23299605.820   122440252.548    23299613.328    95408013.7674                 
                
  22080751.398   116035156.330    22080759.035    90417019.8774   22080759.129  
                
  20825274.602   109437554.773    20825282.840    85276073.3164   20825282.961  
                
  21776820.000   116450440.472                    90572583.520    21776827.594  
  21776818.926  
  22804855.328   119840316.356    22804865.172    93382120.5634   22804865.578  
                
  23737912.766   124743604.633    23737921.059    97202843.6724   23737920.867  
                
  20480128.305   107623838.831    20480136.844    83862790.1114   20480136.543  
                
  20772245.125   109158921.125    20772252.270    85058935.3094   20772252.238  
                
  22196300.906   118818558.723                    92414427.829    22196306.613  
  22196299.340  
 21  8 16  8 56  0.0000000  0 15R12R 6R21R22G32R 5G16G18G27R20G 8G15
                                G10G23R 7
  23501322.609   125539843.980                    97642090.228    23501327.891  
  23501322.039  
  19331574.312   103157016.216                                                  
  19331571.867  
  19474189.938   104210340.985                    81052480.817    19474193.059  
  19474188.016  
  21740646.898   116053063.600                    90263517.259    21740650.039  
  21740645.164  
  23762445.539   124872503.892    23762456.281    97303299.6044   23762456.676  
                
  21424503.625   114526279.073                    89075990.079    21424507.895  
  21424503.492  
  23304856.398   122467844.299    23304863.918    95429513.8214                 
                
  22085153.391   116058288.881    22085160.965    90435045.2384   22085161.113  
                
  20823086.539   109426056.456    20823094.785    85267113.5844   20823094.902  
                
  21782089.383   116478617.826                    90594499.216    21782096.938  
  21782088.281  
  22799481.508   119812076.791    22799491.355    93360115.7174   22799491.770  
                
  23743020.398   124770445.326    23743028.703    97223758.4884   23743028.512  
                
  20479005.023   107617935.949    20479013.578    83858190.4654   20479013.273  
                
  20775409.195   109175548.403    20775416.355    85071891.6244   20775416.328  
                
  22188468.180   118776629.171                    92381815.973    22188473.844  
  22188466.590  
 21  8 16  8 56 10.0000000  0 15R12R 6R21R22G32R 5G16G18G27R20G 8G15
                                G10G23R 7
  23505559.812   125562478.518                    97659694.804    23505565.098  
  23505559.203  
  19329285.070   103144800.450                                                  
  19329282.633  
  19472885.172   104203358.923                    81047050.316    19472888.305  
  19472883.246  
  21734585.250   116020706.033                    90238350.282    21734588.395  
  21734583.523  
  23755819.492   124837684.188    23755830.340    97276167.4024   23755830.719  
                
  21430691.953   114559359.184                    89101719.051    21430696.254  
  21430691.777  
  23310113.352   122495469.677    23310120.859    95451040.0784                 
                
  22089559.555   116081443.400    22089567.102    90453087.7164   22089567.289  
                
  20820909.695   109414617.065    20820917.953    85258199.7724   20820918.062  
                
  21787365.422   116506831.182                    90616442.908    21787373.004  
  21787364.297  
  22794114.055   119783870.721    22794123.898    93338136.9774   22794124.324  
                
  23748137.359   124797335.025    23748145.660    97244711.4944   23748145.480  
                
  20477891.203   107612082.804    20477899.777    83853629.5704   20477899.465  
                
  20778581.312   109192217.996    20778588.504    85084880.9214   20778588.473  
                
  22180641.375   118734731.618                    92349229.001    22180647.062  
  22180639.789  
 21  8 16  8 56 20.0000000  0 15R12R 6R21R22G32R 5G16G18G27R20G 8G15
                                G10G23R 7
  23509807.898   125585170.993                    97677344.509    23509813.152  
  23509807.250  
  19327011.797   103132669.783                                                  
  19327009.367  
  19471590.125   104196428.842                    81041660.250    19471593.254  
  19471588.199  
  21728526.211   115988362.303                    90213194.042    21728529.328  
  21728524.492  
  23749195.648   124802875.904    23749206.559    97249044.1004   23749206.934  
                
  21436889.906   114592490.825                    89127488.091    21436894.203  
  21436889.699  
  23315376.680   122523128.488    23315384.172    95472592.3924                 
                
  22093969.883   116104619.726    22093977.465    90471147.1844   22093977.641  
                
  20818744.055   109403236.530    20818752.324    85249331.8234   20818752.418  
                
  21792648.180   116535080.428                    90638414.547    21792655.773  
  21792647.074  
  22788753.070   119755698.552    22788762.895    93316184.6464   22788763.340  
                
  23753263.594   124824273.536    23753271.926    97265702.5154   23753271.727  
                
  20476786.828   107606279.276    20476795.422    83849107.3484   20476795.094  
                
  20781761.445   109208929.739    20781768.668    85097903.0584   20781768.621  
                
  22172820.469   118692865.993                    92316666.876    22172826.246  
  22172818.965  
 21  8 16  8 56 30.0000000  0 15R12R 6R21R22G32R 5G16G18G27R20G 8G15
                                G10G23R 7
  23514066.820   125607921.420                    97695039.284    23514072.066  
  23514066.137  
  19324754.539   103120624.617                                                  
  19324752.129  
  19470304.805   104189550.866                    81036310.718    19470307.938  
  19470302.871  
  21722469.781   115956032.617                    90188048.724    21722472.812  
  21722468.094  
  23742574.086   124768079.154    23742584.945    97221929.7664   23742585.301  
                
  21443097.430   114625673.577                    89153296.909    21443101.738  
  21443097.227  
  23320646.328   122550820.636    23320653.840    95494170.6714                 
                
  22098384.352   116127817.854    22098391.973    90489223.6334   22098392.121  
                
  20816589.617   109391914.938    20816597.906    85240509.7954   20816598.000  
                
  21797937.641   116563365.352                    90660413.923    21797945.234  
  21797936.496  
  22783398.422   119727559.810    22783408.234    93294258.3524   22783408.684  
                
  23758399.078   124851260.671    23758407.469    97286731.4264   23758407.250  
                
  20475691.883   107600525.335    20475700.508    83844623.7564   20475700.172  
                
  20784949.594   109225683.573    20784956.844    85110957.9814   20784956.785  
                
  22165005.594   118651032.260                    92284129.536    22165011.348  
  22165004.070  
 21  8 16  8 56 40.0000000  0 15R12R 6R21R22G32R 5G16G18G27R20G 8G15
                                G10G23R 7
  23518336.539   125630729.547                    97712778.933    23518341.812  
  23518335.844  
  19322513.289   103108664.863                                                  
  19322510.910  
  19469029.219   104182724.965                    81031001.671    19469032.355  
  19469027.297  
  21716415.906   115923716.644                    90162914.095    21716418.883  
  21716414.207  
  23735954.766   124733293.958    23735965.504    97194824.4284   23735965.852  
                
  21449314.461   114658907.241                    89179145.279    21449318.793  
  21449314.219  
  23325922.281   122578545.871    23325929.801    95515774.7354                 
                
  22102802.945   116151037.669    22102810.586    90507316.9824   22102810.719  
                
  20814446.391   109380652.217    20814454.695    85231733.6494   20814454.789  
                
  21803233.766   116591685.972                    90682441.030    21803241.340  
  21803232.574  
  22778050.242   119699455.022    22778060.059    93272358.5234   22778060.516  
                
  23763543.766   124878296.211    23763552.203    97307798.0784   23763551.965  
                
  20474606.352   107594820.871    20474615.000    83840178.7174   20474614.656  
                
  20788145.711   109242479.309    20788152.996    85124045.5624   20788152.926  
                
  22157196.633   118609230.643                    92251617.181    22157202.438  
  22157195.172  
 21  8 16  8 56 50.0000000  0 15R12R 6R21R22G32R 5G16G18G27R20G 8G15
                                G10G23R 7
  23522617.078   125653595.661                    97730563.674    23522622.363  
  23522616.379  
  19320288.055   103096790.529                                                  
  19320285.703  
  19467763.461   104175951.628                    81025733.527    19467766.613  
  19467761.531  
  21710364.727   115891415.122                    90137790.703    21710367.645  
  21710363.020  
  23729337.656   124698520.766    23729348.281    97167728.4444   23729348.660  
                
  21455541.070   114692192.019                    89205033.442    21455545.406  
  21455540.777  
  23331204.586   122606304.499    23331212.113    95537404.8214                 
                
  22107225.750   116174279.541    22107233.418    90525427.5344   22107233.527  
                
  20812314.453   109369448.811    20812322.781    85223003.7274   20812322.859  
                
  21808536.555   116620042.605                    90704496.182    21808544.195  
  21808535.363  
  22772708.594   119671384.491    22772718.418    93250485.3924   22772718.895  
                
  23768697.750   124905380.512    23768706.223    97328902.7114   23768705.938  
                
  20473530.305   107589166.253    20473538.992    83835772.5214   20473538.629  
                
  20791349.859   109259317.265    20791357.172    85137166.0364   20791357.102  
                
  22149393.711   118567461.431                    92219130.033    22149399.582  
  22149392.309  
 21  8 16  8 57  0.0000000  0 15R12R 6R21R22G32R 5G16G18G27R20G 8G15
                                G10G23R 7
  23526908.484   125676519.210                    97748393.102    23526913.664  
  23526907.770  
  19318078.781   103085001.386                                                  
  19318076.449  
  19466507.477   104169230.596                    81020506.051    19466510.637  
  19466505.555  
  21704316.219   115859127.697                    90112678.248    21704319.148  
  21704314.477  
  23722722.797   124663759.379    23722733.312    97140641.6474   23722733.719  
                
  21461777.148   114725527.527                    89230961.033    21461781.508  
  21461776.844  
  23336493.164   122634096.139    23336500.668    95559060.6264                 
                
  22111652.680   116197543.137    22111660.371    90543555.0004   22111660.473  
                
  20810193.758   109358304.485    20810202.098    85214319.8334   20810202.176  
                
  21813845.930   116648434.858                    90726579.020    21813853.715  
  21813844.828  
  22767373.367   119643347.692    22767383.203    93228638.5424   22767383.684  
                
  23773860.945   124932513.207    23773869.438    97350045.0574   23773869.121  
                
  20472463.688   107583561.140    20472472.418    83831404.9044   20472472.020  
                
  20794561.977   109276197.042    20794569.309    85150319.1044   20794569.227  
                
  22141596.898   118525724.607                    92186668.073    22141602.805  
  22141595.520  
 21  8 16  8 57 10.0000000  0 15R12R 6R21R22G32R 5G16G18G27R20G 8G15
                                G10G23R 7
  23531210.539   125699499.864                    97766266.941    23531215.703  
  23531209.875  
  19315885.453   103073297.343                                                  
  19315883.125  
  19465261.227   104162561.684                    81015319.116    19465264.406  
  19465259.297  
  21698270.352   115826854.453                    90087576.856    21698273.238  
  21698268.621  
  23716110.125   124629009.654    23716120.570    97113563.9454   23716120.988  
                
  21468022.672   114758913.413                    89256927.841    21468027.059  
  21468022.379  
  23341787.930   122661920.336    23341795.379    95580741.8094                 
                
  22116083.680   116220828.200    22116091.414    90561699.1894   22116091.516  
                
  20808084.258   109347219.023    20808092.605    85205681.8134   20808092.688  
                
  21819162.094   116676862.547                    90748689.420    21819169.875  
  21819160.973  
  22762044.570   119615344.761    22762054.438    93206818.0884   22762054.930  
                
  23779033.266   124959693.922    23779041.758    97371224.8434   23779041.441  
                
  20471406.430   107578005.288    20471415.211    83827075.6724   20471414.797  
                
  20797781.977   109293118.323    20797789.316    85163504.5164   20797789.234  
                
  22133806.188   118484019.985                    92154231.171    22133812.059  
  22133804.773  
 21  8 16  8 57 20.0000000  0 15R12R 6R21R22G32R 5G16G18G27R20G 8G15
                                G10G23R 7
  23535523.375   125722538.041                    97784185.495    23535528.531  
  23535522.785  
  19313708.219   103061679.155                                                  
  19313705.879  
  19464024.812   104155945.374                    81010173.102    19464028.000  
  19464022.902  
  21692227.211   115794595.701                    90062486.714    21692230.051  
  21692225.496  
  23709499.789   124594272.159    23709510.164    97086495.7764   23709510.578  
                
  21474277.656   114792349.907                    89282933.995    21474282.094  
  21474277.379  
  23347089.016   122689777.559    23347096.406    95602448.7284                 
                
  22120518.859   116244135.178    22120526.660    90579860.4544   22120526.738  
                
  20805986.078   109336193.005    20805994.434    85197090.1054   20805994.516  
                
  21824484.938   116705325.982                    90770827.617    21824492.711  
  21824483.812  
  22756722.281   119587376.027    22756732.195    93185024.2794   22756732.684  
                
  23784214.828   124986923.133    23784223.344    97392442.4064   23784223.039  
                
  20470358.648   107572499.150    20470367.480    83822785.1754   20470367.043  
                
  20801009.977   109310081.521    20801017.312    85176722.5984   20801017.234  
                
  22126021.688   118442348.196                    92121819.790    22126027.449  
  22126020.176  
 21  8 16  8 57 30.0000000  0 15R12R 6R21R22G32R 5G16G18G27R20G 8G15
                                G10G23R 7
  23539846.859   125745633.084                    97802148.267    23539851.969  
  23539846.289  
  19311546.961   103050146.234                                                  
  19311544.641  
  19462798.180   104149381.404                    81005067.797    19462801.387  
  19462796.277  
  21686186.727   115762351.126                    90037407.612    21686189.586  
  21686185.004  
  23702891.750   124559546.658    23702902.070    97059436.9554   23702902.484  
                
  21480542.000   114825836.501                    89308979.099    21480546.488  
  21480541.738  
  23352396.242   122717667.213    23352403.629    95624180.9124                 
                
  22124958.133   116267463.681    22124965.980    90598038.4974   22124966.051  
                
  20803899.141   109325226.066    20803907.496    85188544.4384   20803907.582  
                
  21829814.320   116733824.897                    90792993.426    21829822.184  
  21829813.273  
  22751406.508   119559441.534    22751416.418    93163257.1474   22751416.898  
                
  23789405.500   125014200.249    23789414.059    97413697.2734   23789413.746  
                
  20469320.250   107567042.351    20469329.129    83818533.1284   20469328.664  
                
  20804245.867   109327086.207    20804253.188    85189973.0044   20804253.117  
                
  22118243.289   118400709.095                    92089433.828    22118248.914  
  22118241.688  
 21  8 16  8 57 40.0000000  0 15R12R 6R21R22G32R 5G16G18G27R20G 8G15
                                G10G23R 7
  23544181.086   125768785.370                    97820155.630    23544186.117  
  23544180.516  
  19309401.797   103038699.190                                                  
  19309399.516  
  19461581.430   104142870.344                    81000003.633    19461584.656  
  19461579.535  
  21680149.000   115730121.386                    90012340.050    21680151.812  
  21680147.281  
  23696286.094   124524833.727    23696296.410    97032387.9364   23696296.805  
                
  21486815.805   114859373.566                    89335063.475    21486820.301  
  21486815.559  
  23357709.711   122745589.654    23357717.090    95645938.6294                 
                
  22129401.602   116290814.223    22129409.484    90616233.7004   22129409.543  
                
  20801823.555   109314318.798    20801831.914    85180045.2704   20801832.004  
                
  21835150.477   116762359.823                    90815187.248    21835158.395  
  21835149.465  
  22746097.383   119531541.918    22746107.270    93141517.1844   22746107.754  
                
  23794605.344   125041525.611    23794613.934    97434989.7374   23794613.598  
                
  20468291.336   107561635.366    20468300.258    83814319.9004   20468299.770  
                
  20807489.742   109344132.823    20807497.051    85203256.0794   20807496.977  
                
  22110470.953   118359103.086                    92057073.616    22110476.539  
  22110469.340  
 21  8 16  8 57 50.0000000  0 15R12R 6R21R22G32R 5G16G18G27R20G 8G15
                                G10G23R 7
  23548525.969   125791994.495                    97838207.201    23548530.914  
  23548525.387  
  19307272.648   103027337.690                                                  
  19307270.398  
  19460374.523   104136411.927                    80994980.417    19460377.754  
  19460372.637  
  21674114.023   115697906.226                    89987283.814    21674116.836  
  21674112.309  
  23689682.734   124490133.122    23689693.109    97005348.5234   23689693.484  
                
  21493098.945   114892960.623                    89361186.739    21493103.469  
  21493098.703  
  23363029.352   122773544.512    23363036.746    95667721.6304                 
                
  22133849.188   116314186.397    22133857.113    90634445.7804   22133857.152  
                
  20799759.266   109303470.899    20799767.629    85171592.3564   20799767.723  
                
  21840493.297   116790930.286                    90837408.682    21840501.262  
  21840492.301  
  22740794.734   119503676.419    22740804.590    93119803.8224   22740805.070  
                
  23799814.297   125068898.772    23799822.883    97456319.4574   23799822.531  
                
  20467271.828   107556277.835    20467280.785    83810145.2004   20467280.289  
                
  20810741.500   109361220.911    20810748.793    85216571.4784   20810748.723  
                
  22102704.664   118317530.141                    92024739.127    22102710.332  
  22102703.148  
 21  8 16  8 58  0.0000000  0 15R12R 6R21R22G32R 5G16G18G27R20G 8G15
                                G10G23R 7
  23552881.422   125815260.352                    97856302.843    23552886.379  
  23552880.797  
  19305159.555   103016061.738                                                  
  19305157.301  
  19459177.484   104130006.266                    80989998.228    19459180.727  
  19459175.613  
  21668081.805   115665705.675                    89962238.947    21668084.594  
  21668080.105  
  23683081.750   124455444.961    23683092.184    96978318.8174   23683092.531  
                
  21499391.438   114926597.606                    89387348.836    21499395.988  
  21499391.164  
  23368355.148   122801531.615    23368362.516    95689529.7444                 
                
  22138300.891   116337580.251    22138308.852    90652674.7344   22138308.875  
                
  20797706.289   109292682.435    20797714.668    85163185.7644   20797714.770  
                
  21845842.859   116819536.392                    90859657.846    21845850.785  
  21845841.812  
  22735498.719   119475845.638    22735508.527    93098117.4994   22735509.023  
                
  23805032.352   125096319.748    23805040.945    97477686.4384   23805040.621  
                
  20466261.734   107550969.753    20466270.727    83806009.0374   20466270.219  
                
  20814001.156   109378350.447    20814008.434    85229919.1584   20814008.355  
                
  22094944.422   118275990.278                    91992430.363    22094950.285  
  22094943.094  
 21  8 16  8 58 10.0000000  0 15R12R 6R21R22G32R 5G16G18G27R20G 8G15
                                G10G23R 7
  23557247.406   125838582.720                    97874442.398    23557252.453  
  23557246.762  
  19303062.492   103004871.460                                                  
  19303060.215  
  19457990.289   104123653.325                    80985057.035    19457993.523  
  19457988.430  
  21662052.305   115633519.829                    89937205.509    21662055.070  
  21662050.625  
  23676483.133   124420769.341    23676493.617    96951298.8764   23676493.969  
                
  21505693.203   114960284.197                    89413549.505    21505697.773  
  21505692.910  
  23373687.070   122829550.851    23373694.441    95711362.9044                 
                
  22142756.711   116360995.696    22142764.688    90670920.5344   22142764.695  
                
  20795664.633   109281953.460    20795673.027    85154825.5214   20795673.125  
                
  21851198.969   116848177.800                    90881934.485    21851206.871  
  21851197.918  
  22730209.242   119448049.312    22730219.004    93076458.0214   22730219.508  
                
  23810259.453   125123788.411    23810268.035    97499090.5734   23810267.715  
                
  20465261.039   107545711.083    20465270.070    83801911.3734   20465269.551  
                
  20817268.680   109395521.328    20817275.949    85243299.0574   20817275.863  
                
  22087190.445   118234483.643                    91960147.440    22087196.465  
  22087189.227  
 21  8 16  8 58 20.0000000  0 15R12R 6R21R22G32R 5G16G18G27R20G 8G15
                                G10G23R 7
  23561624.008   125861961.613                    97892625.962    23561629.043  
  23561623.344  
  19300981.461   102993766.682                                                  
  19300979.176  
  19456812.992   104117353.405                    80980157.105    19456816.227  
  19456811.137  
  21656025.609   115601348.910                    89912183.680    21656028.430  
  21656023.918  
  23669887.008   124386106.464    23669897.453    96924288.8614   23669897.840  
                
  21512004.219   114994020.337                    89439788.710    21512008.809  
  21512003.914  
  23379025.094   122857602.260    23379032.500    95733221.1284                 
                
  22147216.656   116384432.858    22147224.660    90689183.2554   22147224.648  
                
  20793634.320   109271284.117    20793642.727    85146511.7424   20793642.828  
                
  21856561.703   116876854.810                    90904238.801    21856569.582  
  21856560.652  
  22724926.391   119420287.775    22724936.141    93054825.6644   22724936.645  
                
  23815495.633   125151304.748    23815504.188    97520531.8684   23815503.891  
                
  20464269.766   107540501.925    20464278.832    83797852.2894   20464278.301  
                
  20820544.062   109412733.581    20820551.324    85256711.1984   20820551.254  
                
  22079442.766   118193010.391                    91927890.488    22079448.863  
  22079441.578  
 21  8 16  8 58 30.0000000  0 15R12R 6R21R22G32R 5G16G18G27R20G 8G15
                                G10G23R 7
  23566011.148   125885396.709                    97910853.256    23566016.164  
  23566010.508  
  19298916.508   102982747.669                                                  
  19298914.203  
  19455645.602   104111106.391                    80975298.316    19455648.824  
  19455643.750  
  21650001.711   115569193.003                    89887173.544    21650004.539  
  21650000.020  
  23663293.320   124351456.371    23663303.730    96897288.7904   23663304.141  
                
  21518324.492   115027805.922                    89466066.387    21518329.125  
  21518324.180  
  23384369.219   122885685.651    23384376.648    95755104.2814                 
                
  22151680.727   116407891.673    22151688.762    90707462.8354   22151688.723  
                
  20791615.359   109260674.387    20791623.777    85138244.4214   20791623.863  
                
  21861931.039   116905567.279                    90926570.720    21861938.930  
  21861930.078  
  22719650.180   119392561.125    22719659.938    93033220.4924   22719660.430  
                
  23820740.875   125178868.627    23820749.398    97542010.1844   23820749.117  
                
  20463287.898   107535342.176    20463297.004    83793831.7104   20463296.457  
                
  20823827.297   109429987.079    20823834.543    85270155.4764   20823834.496  
                
  22071701.320   118151570.731                    91895659.680    22071707.578  
  22071700.207  
 21  8 16  8 58 40.0000000  0 15R12R 6R21R22G32R 5G16G18G27R20G 8G15
                                G10G23R 7
  23570408.773   125908887.823                    97929124.122    23570413.777  
  23570408.164  
  19296867.594   102971814.272                                                  
  19296865.277  
  19454488.102   104104912.363                    80970480.736    19454491.320  
  19454486.230  
  21643980.625   115537052.006                    89862175.006    21643983.406  
  21643978.934  
  23656702.094   124316819.107    23656712.461    96870298.7364   23656712.891  
                
  21524653.984   115061640.744                    89492382.333    21524658.648  
  21524653.664  
  23389719.414   122913800.898    23389726.879    95777012.2574                 
                
  22156148.891   116431372.029    22156156.922    90725759.2134   22156156.879  
                
  20789607.750   109250124.314    20789616.188    85130023.5844   20789616.262  
                
  21867307.094   116934315.135                    90948930.147    21867314.895  
  21867306.121  
  22714380.570   119364869.152    22714390.281    93011642.3324   22714390.785  
                
  23825995.117   125206479.852    23826003.609    97563525.4064   23826003.336  
                
  20462315.430   107530231.806    20462324.578    83789849.6044   20462324.016  
                
  20827118.359   109447281.706    20827125.598    85283631.8084   20827125.570  
                
  22063966.258   118110164.820                    91863455.113    22063972.617  
  22063965.145  
 21  8 16  8 58 50.0000000  0 15R12R 6R21R22G32R 5G16G18G27R20G 8G15
                                G10G23R 7
  23574816.805   125932434.935                    97947438.532    23574821.855  
  23574816.211  
  19294834.688   102960966.365                                                  
  19294832.363  
  19453340.516   104098771.403                    80965704.423    19453343.727  
  19453338.648  
  21637962.320   115504925.979                    89837188.093    21637965.094  
  21637960.660  
  23650113.281   124282194.728    23650123.629    96843318.7124   23650124.066  
                
  21530992.648   115095524.597                    89518736.447    21530997.355  
  21530992.348  
  23395075.609   122941947.759    23395083.164    95798944.8394                 
                
  22160621.156   116454873.871    22160629.180    90744072.3294   22160629.129  
                
  20787611.484   109239633.861    20787619.941    85121849.1994   20787620.004  
                
  21872689.711   116963098.421                    90971317.154    21872697.492  
  21872688.758  
  22709117.617   119337212.120    22709127.301    92990091.3934   22709127.809  
                
  23831258.336   125234138.257    23831266.797    97585077.3964   23831266.539  
                
  20461352.336   107525170.720    20461361.531    83785905.9014   20461360.941  
                
  20830417.219   109464617.320    20830424.453    85297140.0704   20830424.445  
                
  22056237.555   118068792.513                    91831276.672    22056243.922  
  22056236.410  
 21  8 16  8 59  0.0000000  0 15R12R 6R21R22G32R 5G16G18G27R20G 8G15
                                G10G23R 7
  23579235.398   125956038.122                    97965796.536    23579240.438  
  23579234.785  
  19292817.914   102950204.495                                                  
  19292815.559  
  19452202.891   104092683.732                    80960969.566    19452206.090  
  19452201.023  
  21631946.922   115472815.399                    89812213.212    21631949.699  
  21631945.281  
  23643526.992   124247583.623    23643537.348    96816349.0424   23643537.809  
                
  21537340.500   115129457.579                    89545128.757    21537345.250  
  21537340.180  
  23400437.844   122970126.387    23400445.480    95820902.2074                 
                
  22165097.562   116478397.490    22165105.578    90762402.4104   22165105.531  
                
  20785626.641   109229203.407    20785635.125    85113721.5734   20785635.176  
                
  21878079.102   116991917.296                    90993731.795    21878086.758  
  21878078.055  
  22703861.391   119309590.495    22703871.078    92968568.0564   22703871.578  
                
  23836530.594   125261844.099    23836539.035    97606666.3574   23836538.773  
                
  20460398.680   107520159.200    20460407.914    83782000.8244   20460407.309  
                
  20833723.930   109481994.151    20833731.168    85310680.4594   20833731.176  
                
  22048515.211   118027454.285                    91799124.748    22048521.602  
  22048514.070  
 21  8 16  8 59 10.0000000  0 15R12R 6R21R22G32R 5G16G18G27R20G 8G15
                                G10G23R 7
  23583664.383   125979696.925                    97984197.782    23583669.430  
  23583663.691  
  19290817.188   102939528.273                                                  
  19290814.812  
  19451075.180   104086649.141                    80956275.991    19451078.371  
  19451073.320  
  21625934.344   115440719.835                    89787250.019    21625937.094  
  21625932.699  
  23636943.234   124212985.624    23636953.555    96789389.5794   23636954.004  
                
  21543697.492   115163439.315                    89571558.980    21543702.246  
  21543697.117  
  23405806.047   122998336.423    23405813.699    95842884.0384                 
                
  22169578.047   116501942.576    22169586.035    90780749.2194   22169586.004  
                
  20783653.164   109218832.704    20783661.676    85105640.5044   20783661.727  
                
  21883474.961   117020771.391                    91016173.860    21883482.617  
  21883473.930  
  22698611.828   119282003.856    22698621.508    92947071.9834   22698621.992  
                
  23841811.805   125289596.988    23841820.188    97628291.9764   23841819.902  
                
  20459454.391   107515196.935    20459463.656    83778134.1274   20459463.031  
                
  20837038.406   109499411.840    20837045.664    85324252.6884   20837045.660  
                
  22040799.312   117986150.063                    91766999.249    22040805.617  
  22040798.105  
 21  8 16  8 59 20.0000000  0 14R 6R21R22G32R 5G16G18G27R20G 8G15G10
                                G23R 7
  19288832.586   102928938.096                                                  
  19288830.188  
  19449957.477   104080668.091                    80951624.060    19449960.668  
  19449955.629  
  21619924.672   115408639.816                    89762298.885    21619927.383  
  21619923.027  
  23630362.094   124178401.070    23630372.328    96762440.5934   23630372.762  
                
  21550063.609   115197469.826                    89598027.147    21550068.344  
  21550063.246  
  23411180.258   123026578.013    23411187.898    95864890.4544                 
                
  22174062.664   116525509.364    22174070.625    90799112.9364   22174070.613  
                
  20781691.117   109208522.056    20781699.656    85097606.2334   20781699.699  
                
  21888877.367   117049660.915                    91038643.493    21888885.125  
  21888876.398  
  22693369.000   119254452.657    22693378.645    92925603.5174   22693379.145  
                
  23847102.000   125317397.042    23847110.332    97649954.3614   23847110.035  
                
  20458519.523   107510284.174    20458528.816    83774306.0034   20458528.172  
                
  20840360.695   109516870.575    20840367.977    85337856.9014   20840367.953  
                
  22033089.719   117944880.086                    91734900.397    22033096.066  
  22033088.523  
 21  8 16  8 59 30.0000000  0 14R 6R21R22G32R 5G16G18G27R20G 8G15G10
                                G23R 7
  19286864.109   102918433.895                                                  
  19286861.695  
  19448849.734   104074740.298                    80947013.560    19448852.930  
  19448847.879  
  21613917.859   115376575.049                    89737359.600    21613920.566  
  21613916.215  
  23623783.469   124143829.896    23623793.633    96735502.0274   23623794.062  
                
  21556438.805   115231548.820                    89624533.010    21556443.531  
  21556438.461  
  23416560.406   123054850.877    23416568.055    95886921.2434                 
                
  22178551.391   116549097.656    22178559.324    90817493.4174   22178559.312  
                
  20779740.477   109198271.356    20779749.039    85089618.6714   20779749.066  
                
  21894286.516   117078585.922                    91061140.690    21894294.277  
  21894285.582  
  22688132.906   119226936.731    22688142.527    92904162.5444   22688143.039  
                
  23852401.109   125345243.989    23852409.398    97671653.2864   23852409.066  
                
  20457594.039   107505420.706    20457603.363    83770516.2964   20457602.703  
                
  20843690.758   109534370.099    20843698.051    85351492.8984   20843698.023  
                
  22025386.570   117903644.474                    91702828.272    22025392.953  
  22025385.348  
 21  8 16  8 59 40.0000000  0 14R 6R21R22G32R 5G16G18G27R20G 8G15G10
                                G23R 7
  19284911.688   102908015.403                                                  
  19284909.281  
  19447751.977   104068865.986                    80942444.642    19447755.176  
  19447750.117  
  21607913.992   115344525.978                    89712432.552    21607916.676  
  21607912.324  
  23617207.383   124109272.169    23617217.477    96708573.9384   23617217.910  
                
  21562823.039   115265676.221                    89651076.559    21562827.746  
  21562822.723  
  23421946.453   123083154.822    23421954.129    95908976.2364                 
                
  22183044.188   116572707.417    22183052.098    90835890.6274   22183052.090  
                
  20777801.242   109188080.598    20777809.824    85081677.8204   20777809.848  
                
  21899702.203   117107545.956                    91083665.144    21899709.977  
  21899701.281  
  22682903.539   119199456.283    22682913.148    92882749.2074   22682913.668  
                
  23857709.117   125373137.683    23857717.391    97693388.6314   23857717.047  
                
  20456677.922   107500606.480    20456687.270    83766764.9504   20456686.602  
                
  20847028.555   109551910.319    20847035.863    85365160.5984   20847035.840  
                
  22017689.695   117862443.007                    91670782.729    22017696.191  
  22017688.527  
 21  8 16  8 59 50.0000000  0 14R 6R21R22G32R 5G16G18G27R20G 8G15G10
                                G23R 7
  19282975.320   102897682.628                                                  
  19282972.926  
  19446664.211   104063045.102                    80937917.281    19446667.414  
  19446662.371  
  21601913.031   115312492.463                    89687517.615    21601915.730  
  21601911.359  
  23610633.898   124074728.049    23610643.891    96681656.4394   23610644.312  
                
  21569216.305   115299851.870                    89677657.608    21569220.992  
  21569216.016  
  23427338.398   123111489.772    23427346.094    95931055.4044                 
                
  22187541.086   116596338.670    22187548.992    90854304.5714   22187549.004  
                
  20775873.438   109177949.912    20775882.035    85073783.7734   20775882.055  
                
  21905124.516   117136541.470                    91106217.180    21905132.324  
  21905123.594  
  22677680.938   119172011.330    22677690.559    92861363.5354   22677691.082  
                
  23863026.047   125401078.197    23863034.336    97715160.4524   23863033.973  
                
  20455771.188   107495841.552    20455780.551    83763052.0174   20455779.891  
                
  20850374.094   109569491.213    20850381.426    85378859.9944   20850381.383  
                
  22009999.297   117821276.194                    91638764.125    22010005.883  
  22009998.191  
