     2.11           OBSERVATION DATA    M (MIXED)           RINEX VERSION / TYPE
EFT-CORS.RU                             20210817 144936 UTC PGM / RUN BY / DATE 
MDNG                                                        MARKER NAME         
                                                            MARKER NUMBER       
MDNG                EFT-CORS.RU                             OBSERVER / AGENCY   
0                   TRIMBLE BD970       2.0                 REC # / TYPE / VERS 
0                   UNKNOWN EXT NONE                        ANT # / TYPE        
  3463911.2830  3030468.2400  4402179.3760                  APPROX POSITION XYZ 
        0.0000        0.0000        0.0000                  ANTENNA: DELTA H/E/N
     1     1                                                WAVELENGTH FACT L1/2
     6    C1    L1    P2    L2    C2    P1                  # / TYPES OF OBSERV 
    10.000                                                  INTERVAL            
  2021     8    16    21    30    0.0000000     GPS         TIME OF FIRST OBS   
  2021     8    16    22    30    0.0000000     GPS         TIME OF LAST OBS    
     0                                                      RCV CLOCK OFFS APPL 
                                                            END OF HEADER       
 21  8 16 21 30  0.0000000  0 15G17G15G13G14G30G 5R13R 4G19R15G 7R24
                                R23R14R 5
  21886000.906   115011717.994    21886007.379    89619556.2554   21886007.387  
                
  21988812.398   115551989.496    21988818.766    90040545.1224   21988818.559  
                
  20476371.734   107604076.129    20476377.711    83847362.4904                 
                
  20247019.930   106398852.782    20247026.230    82908236.3184   20247026.387  
                
  21214741.742   111484272.847    21214750.055    86870921.2314   21214750.434  
                
  24286978.781   127628936.663    24286985.598    99451155.2354   24286985.891  
                
  23444917.344   125194557.962                    97373584.918    23444920.215  
  23444915.438  
  20988168.672   112390696.836                    87414976.431    20988171.895  
  20988167.918  
  23800757.375   125073819.668    23800762.180    97460142.0644                 
                
  20537731.211   109747423.388                    85359115.948    20537735.492  
  20537731.371  
  23476966.961   123372325.761    23476973.578    96134330.5464   23476973.402  
                
  22073835.633   118038720.245                    91807899.020    22073840.488  
  22073834.586  
  22007918.359   117727548.572                                                  
  22007916.508  
  19897272.820   106063699.738                    82493998.448    19897276.379  
  19897272.465  
  20325309.805   108650429.763                    84505893.746    20325313.680  
  20325309.500  
 21  8 16 21 30 10.0000000  0 15G17G15G13G14G30G 5R13R 4G19R15G 7R24
                                R23R14R 5
  21881385.828   114987465.613    21881392.297    89600658.3044   21881392.305  
                
  21985224.328   115533133.989    21985230.695    90025852.5214   21985230.480  
                
  20475123.586   107597517.066    20475129.578    83842251.5344                 
                
  20247990.805   106403954.695    20247997.098    82912211.8474   20247997.258  
                
  21217737.289   111500014.564    21217745.629    86883187.4974   21217746.008  
                
  24292134.836   127656031.996    24292141.746    99472268.4744   24292142.031  
                
  23450845.039   125226211.549                    97398204.349    23450847.871  
  23450843.117  
  20994657.477   112425444.046                    87442002.044    20994660.711  
  20994656.746  
  23793531.516   125035847.621    23793536.367    97430553.4684                 
                
  20534465.273   109729971.200                    85345542.039    20534469.551  
  20534465.422  
  23482010.711   123398830.913    23482017.305    96154983.9164   23482017.125  
                
  22068658.438   118011035.417                    91786366.367    22068663.258  
  22068657.410  
  22007814.914   117726995.293                                                  
  22007813.031  
  19899636.609   106076300.020                    82503798.668    19899640.176  
  19899636.258  
  20324650.453   108646905.125                    84503152.365    20324654.324  
  20324650.148  
 21  8 16 21 30 20.0000000  0 15G17G15G13G14G30G 5R13R 4G19R15G 7R24
                                R23R14R 5
  21876779.281   114963258.114    21876785.797    89581795.3314   21876785.793  
                
  21981647.109   115514335.592    21981653.488    90011204.4194   21981653.270  
                
  20473887.367   107591020.718    20473893.375    83837189.4404                 
                
  20248970.742   106409104.337    20248977.027    82916224.5674   20248977.191  
                
  21220739.125   111515789.388    21220747.500    86895479.5654   21220747.895  
                
  24297295.188   127683149.943    24297302.199    99493399.3264   24297302.465  
                
  23456772.828   125257865.831                    97422824.340    23456775.715  
  23456770.926  
  21001156.703   112460247.033                    87469071.016    21001159.898  
  21001155.969  
  23786307.602   124997885.750    23786312.422    97400972.8004                 
                
  20531205.258   109712550.746                    85331992.796    20531209.527  
  20531205.375  
  23487058.109   123425355.232    23487064.699    96175652.2054   23487064.496  
                
  22063492.375   117983410.130                    91764880.041    22063497.172  
  22063491.355  
  22007728.375   117726532.494                                                  
  22007726.465  
  19902006.289   106088931.763                    82513623.351    19902009.867  
  19902005.957  
  20324008.539   108643473.705                    84500483.478    20324012.398  
  20324008.242  
 21  8 16 21 30 30.0000000  0 15G17G15G13G14G30G 5R13R 4G19R15G 7R24
                                R23R14R 5
  21872181.320   114939095.709    21872187.926    89562967.4934   21872187.891  
                
  21978080.836   115495594.633    21978087.211    89996601.0734   21978086.984  
                
  20472663.164   107584587.474    20472669.188    83832176.5244                 
                
  20249959.820   106414301.948    20249966.090    82920274.6564   20249966.258  
                
  21223747.328   111531597.598    21223755.734    86907797.6414   21223756.129  
                
  24302459.891   127710290.656    24302467.000    99514547.9194   24302467.234  
                
  23462700.883   125289521.359                    97447445.282    23462703.793  
  23462698.992  
  21007666.430   112495106.112                    87496183.627    21007669.613  
  21007665.699  
  23779085.750   124959934.438    23779090.492    97371400.3554                 
                
  20527951.281   109695162.457                    85318468.592    20527955.562  
  20527951.379  
  23492109.203   123451899.033    23492115.840    96196335.6604   23492115.613  
                
  22058337.469   117955844.413                    91743440.039    22058342.215  
  22058336.473  
  22007658.844   117726160.531                                                  
  22007656.895  
  19904381.922   106101595.191                    82523472.677    19904385.508  
  19904381.602  
  20323384.125   108640135.849                    84497887.367    20323387.961  
  20323383.836  
 21  8 16 21 30 40.0000000  0 15G17G15G13G14G30G 5R13R 4G19R15G 7R24
                                R23R14R 5
  21867592.008   114914978.734    21867598.695    89544175.0554   21867598.629  
                
  21974525.469   115476911.085    21974531.832    89982042.4634   21974531.625  
                
  20471450.945   107578217.240    20471456.977    83827212.7054                 
                
  20250957.984   106419547.397    20250964.238    82924362.0264   20250964.414  
                
  21226761.852   111547439.083    21226770.285    86920141.6494   21226770.688  
                
  24307628.891   127737453.975    24307636.082    99535714.1344   24307636.277  
                
  23468629.133   125321177.815                    97472066.917    23468632.031  
  23468627.207  
  21014186.539   112530020.911                    87523339.575    21014189.691  
  21014185.824  
  23771865.875   124921993.663    23771870.582    97341836.1264                 
                
  20524703.281   109677806.176                    85304969.253    20524707.562  
  20524703.391  
  23497164.031   123478462.237    23497170.621    96217034.2564   23497170.418  
                
  22053193.797   117928338.849                    91722046.836    22053198.520  
  22053192.797  
  22007606.273   117725879.436                                                  
  22007604.305  
  19906763.469   106114290.180                    82533346.560    19906767.055  
  19906763.145  
  20322777.234   108636891.640                    84495364.088    20322781.059  
  20322776.934  
 21  8 16 21 30 50.0000000  0 15G17G15G13G14G30G 5R13R 4G19R15G 7R24
                                R23R14R 5
  21863011.289   114890906.932    21863018.023    89525417.8184   21863017.949  
                
  21970981.000   115458284.750    21970987.355    89967528.4384   21970987.156  
                
  20470250.672   107571909.776    20470256.707    83822297.7934                 
                
  20251965.211   106424840.379    20251971.445    82928486.4374   20251971.641  
                
  21229782.664   111563313.602    21229791.129    86932511.3934   21229791.531  
                
  24312802.023   127764639.485    24312809.348    99556897.6284   24312809.559  
                
  23474557.391   125352834.503                    97496688.769    23474560.355  
  23474555.473  
  21020716.977   112564990.889                    87550538.440    21020720.094  
  21020716.293  
  23764647.961   124884063.308    23764652.641    97312280.0174                 
                
  20521461.227   109660481.634                    85291494.621    20521465.508  
  20521461.340  
  23502222.492   123505044.556    23502229.023    96237747.7404   23502228.852  
                
  22048061.266   117900892.847                    91700699.944    22048065.977  
  22048060.250  
  22007570.641   117725688.875                                                  
  22007568.660  
  19909150.922   106127016.672                    82543244.941    19909154.512  
  19909150.590  
  20322187.773   108633740.637                    84492913.309    20322191.605  
  20322187.473  
 21  8 16 21 31  0.0000000  0 15G17G15G13G14G30G 5R13R 4G19R15G 7R24
                                R23R14R 5
  21858439.195   114866880.397    21858445.961    89506695.8504   21858445.891  
                
  21967447.469   115439715.897    21967453.832    89953059.2004   21967453.633  
                
  20469062.398   107565665.313    20469068.441    83817431.9784                 
                
  20252981.508   106430181.017    20252987.734    82932647.9784   20252987.930  
                
  21232809.789   111579221.284    21232818.289    86944906.9804   21232818.668  
                
  24317979.438   127791847.298    24317986.875    99578098.5194   24317987.074  
                
  23480485.812   125384491.969                    97521311.249    23480488.836  
  23480483.875  
  21027257.758   112600016.289                    87577780.424    21027260.871  
  21027257.090  
  23757432.109   124846143.645    23757436.742    97282732.2424                 
                
  20518225.117   109643188.875                    85278044.699    20518229.398  
  20518225.223  
  23507284.656   123531646.209    23507291.094    96258476.3004   23507290.969  
                
  22042939.984   117873506.936                    91679399.799    22042944.711  
  22042938.973  
  22007551.969   117725589.085                                                  
  22007549.992  
  19911544.273   106139774.543                    82553167.719    19911547.855  
  19911543.934  
  20321615.820   108630683.219                    84490535.313    20321619.656  
  20321615.520  
 21  8 16 21 31 10.0000000  0 15G17G15G13G14G30G 5R13R 4G19R15G 7R24
                                R23R14R 5
  21853875.719   114842899.161    21853882.496    89488009.1774   21853882.422  
                
  21963924.852   115421204.402    21963931.230    89938634.6614   21963931.027  
                
  20467886.078   107559483.729    20467892.137    83812615.1614                 
                
  20254006.820   106435569.101    20254013.039    82936846.4964   20254013.246  
                
  21235843.195   111595161.992    21235851.723    86957328.2944   21235852.102  
                
  24323161.086   127819077.086    24323168.566    99599316.5254   24323168.773  
                
  23486414.359   125416150.107                    97545934.231    23486417.367  
  23486412.414  
  21033808.750   112635096.567                    87605065.085    21033811.895  
  21033808.094  
  23750218.312   124808234.621    23750222.859    97253192.7394                 
                
  20514994.945   109625927.859                    85264619.468    20514999.234  
  20514995.047  
  23512350.430   123558266.926    23512356.820    96279219.7124   23512356.734  
                
  22037829.922   117846181.095                    91658146.389    22037834.684  
  22037828.910  
  22007550.227   117725579.808                                                  
  22007548.262  
  19913943.461   106152563.635                    82563114.792    19913947.059  
  19913943.109  
  20321061.297   108627718.998                    84488229.821    20321065.129  
  20321060.980  
 21  8 16 21 31 20.0000000  0 15G17G15G13G14G30G 5R13R 4G19R15G 7R24
                                R23R14R 5
  21849320.938   114818963.592    21849327.695    89469358.0884   21849327.625  
                
  21960413.219   115402750.614    21960419.617    89924255.0864   21960419.426  
                
  20466721.781   107553365.289    20466727.848    83807847.5444                 
                
  20255041.203   106441004.796    20255047.418    82941082.1094   20255047.629  
                
  21238882.930   111611135.893    21238891.480    86969775.4804   21238891.855  
                
  24328347.000   127846328.999    24328354.480    99620551.7744   24328354.684  
                
  23492342.984   125447809.071                    97570557.852    23492346.109  
  23492341.117  
  21040370.023   112670231.868                    87632392.543    21040373.180  
  21040369.359  
  23743006.555   124770336.569    23743011.086    97223661.7984                 
                
  20511770.766   109608698.798                    85251219.093    20511775.070  
  20511770.859  
  23517419.891   123584906.913    23517426.250    96299978.1314   23517426.191  
                
  22032731.172   117818915.766                    91636940.012    22032735.957  
  22032730.148  
  22007565.477   117725661.337                                                  
  22007563.547  
  19916348.562   106165384.151                    82573086.306    19916352.191  
  19916348.195  
  20320524.297   108624848.412                    84485997.127    20320528.145  
  20320523.965  
 21  8 16 21 31 30.0000000  0 15G17G15G13G14G30G 5R13R 4G19R15G 7R24
                                R23R14R 5
  21844774.797   114795073.426    21844781.527    89450742.3734   21844781.461  
                
  21956912.516   115384354.300    21956918.945    89909920.3024   21956918.734  
                
  20465569.445   107547309.727    20465575.527    83803128.9274                 
                
  20256084.570   106446487.754    20256090.793    82945354.5554   20256090.988  
                
  21241928.922   111627142.711    21241937.504    86982248.3244   21241937.863  
                
  24333537.000   127873602.602    24333544.508    99641803.9324   24333544.711  
                
  23498271.656   125479468.494                    97595181.827    23498274.867  
  23498269.941  
  21046941.469   112705421.728                    87659762.425    21046944.652  
  21046940.812  
  23735796.812   124732449.247    23735801.363    97194139.2244                 
                
  20508552.500   109591501.361                    85237843.325    20508556.805  
  20508552.602  
  23522492.992   123611565.962    23522499.328    96320751.4124   23522499.246  
                
  22027643.664   117791710.684                    91615780.519    22027648.473  
  22027642.660  
  22007597.648   117725833.402                                                  
  22007595.738  
  19918759.500   106178235.834                    82583082.057    19918763.145  
  19918759.117  
  20320004.727   108622071.033                    84483836.943    20320008.586  
  20320004.402  
 21  8 16 21 31 40.0000000  0 15G17G15G13G14G30G 5R13R 4G19R15G 7R24
                                R23R14R 5
  21840237.328   114771228.866    21840244.078    89432162.2014   21840243.992  
                
  21953422.805   115366015.773    21953429.273    89895630.5404   21953429.035  
                
  20464429.109   107541317.252    20464435.219    83798459.4554                 
                
  20257136.953   106452018.105    20257143.184    82949663.9214   20257143.363  
                
  21244981.211   111643182.629    21244989.816    86994746.9454   21244990.156  
                
  24338731.164   127900897.914    24338738.625    99663073.0144   24338738.812  
                
  23504200.625   125511128.747                    97619806.422    23504203.863  
  23504198.945  
  21053523.133   112740666.226                    87687174.815    21053526.320  
  21053522.488  
  23728589.172   124694572.891    23728593.730    97164625.1844                 
                
  20505340.180   109574335.714                    85224492.256    20505344.473  
  20505340.289  
  23527569.711   123638244.191    23527576.062    96341539.6404   23527575.969  
                
  22022567.492   117764566.250                    91594668.187    22022572.328  
  22022566.492  
  22007646.766   117726096.193                                                  
  22007644.867  
  19921176.258   106191118.574                    82593101.956    19921179.926  
  19921175.863  
  20319502.648   108619387.146                    84481749.477    20319506.520  
  20319502.344  
 21  8 16 21 31 50.0000000  0 15G17G15G13G14G30G 5R13R 4G19R15G 7R24
                                R23R14R 5
  21835708.609   114747430.210    21835715.387    89413617.7944   21835715.281  
                
  21949944.117   115347735.137    21949950.609    89881385.8974   21949950.371  
                
  20463300.820   107535388.047    20463306.953    83793839.3024                 
                
  20258198.391   106457595.971    20258204.629    82954010.3194   20258204.789  
                
  21248039.836   111659255.759    21248048.469    87007271.4574   21248048.781  
                
  24343929.508   127928215.015    24343936.887    99684359.0454   24343937.094  
                
  23510129.734   125542789.355                    97644431.335    23510132.934  
  23510127.984  
  21060114.992   112775965.299                    87714629.627    21060118.191  
  21060114.348  
  23721383.625   124656707.823    23721388.242    97135119.9524                 
                
  20502133.859   109557202.109                    85211166.131    20502138.164  
  20502133.973  
  23532650.070   123664941.700    23532656.414    96362342.8764   23532656.336  
                
  22017502.734   117737482.663                    91573603.191    22017507.590  
  22017501.730  
  22007712.859   117726449.733                                                  
  22007710.957  
  19923598.914   106204032.693                    82603146.256    19923602.613  
  19923598.512  
  20319018.102   108616796.900                    84479734.838    20319021.988  
  20319017.789  
 21  8 16 21 32  0.0000000  0 15G17G15G13G14G30G 5R13R 4G19R15G 7R24
                                R23R14R 5
  21831188.547   114723677.042    21831195.293    89395108.8304   21831195.172  
                
  21946476.422   115329512.292    21946482.918    89867186.2804   21946482.680  
                
  20462184.555   107529522.022    20462190.699    83789268.3714                 
                
  20259268.805   106463221.053    20259275.051    82958393.5074   20259275.191  
                
  21251104.727   111675361.857    21251113.375    87019821.6654   21251113.676  
                
  24349131.898   127955553.532    24349139.246    99705661.7854   24349139.465  
                
  23516058.883   125574450.479                    97669056.621    23516062.082  
  23516057.051  
  21066716.961   112811318.598                    87742126.640    21066720.172  
  21066716.316  
  23714180.234   124618853.972    23714184.895    97105623.4684                 
                
  20498933.445   109540100.088                    85197864.575    20498937.754  
  20498933.555  
  23537734.016   123691658.172    23537740.328    96383160.9114   23537740.281  
                
  22012449.352   117710460.059                    91552585.611    22012454.238  
  22012448.340  
  22007795.906   117726894.010                                                  
  22007793.973  
  19926027.398   106216977.871                    82613214.715    19926031.113  
  19926026.984  
  20318551.031   108614300.132                    84477792.905    20318554.914  
  20318550.715  
 21  8 16 21 32 10.0000000  0 15G17G15G13G14G30G 5R13R 4G19R15G 7R24
                                R23R14R 5
  21826677.273   114699970.146    21826683.977    89376635.9284   21826683.875  
                
  21943019.797   115311347.650    21943026.301    89853032.0124   21943026.082  
                
  20461080.359   107523719.465    20461086.504    83784746.8994                 
                
  20260348.266   106468893.656    20260354.512    82962813.7244   20260354.645  
                
  21254175.961   111691501.272    21254184.613    87032397.8234   21254184.906  
                
  24354338.383   127982913.658    24354345.738    99726981.3584   24354345.938  
                
  23521988.125   125606112.412                    97693682.558    23521991.426  
  23521986.328  
  21073329.078   112846726.231                    87769665.897    21073332.293  
  21073328.414  
  23706979.086   124581011.764    23706983.777    97076136.0474                 
                
  20495739.047   109523030.199                    85184587.979    20495743.352  
  20495739.148  
  23542821.641   123718394.004    23542827.922    96403994.0174   23542827.902  
                
  22007407.414   117683498.586                    91531615.581    22007412.301  
  22007406.402  
  22007895.938   117727429.230                                                  
  22007893.953  
  19928461.758   106229954.387                    82623307.565    19928465.484  
  19928461.336  
  20318101.500   108611897.120                    84475923.899    20318105.383  
  20318101.156  
 21  8 16 21 32 20.0000000  0 15G17G15G13G14G30G 5R13R 4G19R15G 7R24
                                R23R14R 5
  21822174.727   114676309.069    21822181.422    89358198.7314   21822181.320  
                
  21939574.203   115293240.946    21939580.734    89838922.8984   21939580.516  
                
  20459988.195   107517980.089    20459994.332    83780274.6544                 
                
  20261436.695   106474613.401    20261442.938    82967270.6794   20261443.066  
                
  21257253.477   111707673.655    21257262.129    87044999.6824   21257262.418  
                
  24359548.867   128010294.984    24359556.242    99748317.4434   24359556.449  
                
  23527917.516   125637774.711                    97718308.747    23527920.762  
  23527915.664  
  21079951.297   112882187.789                    87797247.101    21079954.484  
  21079950.648  
  23699780.195   124543180.966    23699784.855    97046657.5194                 
                
  20492550.586   109505992.025                    85171336.071    20492554.883  
  20492550.711  
  23547912.812   123745148.898    23547919.188    96424841.9694   23547919.172  
                
  22002376.961   117656598.492                    91510693.263    22002381.805  
  22002375.945  
  22008012.930   117728055.182                                                  
  22008010.887  
  19930901.938   106242961.923                    82633424.542    19930905.672  
  19930901.504  
  20317669.438   108609587.475                    84474127.494    20317673.320  
  20317669.098  
 21  8 16 21 32 30.0000000  0 15G17G15G13G14G30G 5R13R 4G19R15G 7R24
                                R23R14R 5
  21817681.031   114652694.532    21817687.723    89339797.8004   21817687.602  
                
  21936139.719   115275192.615    21936146.285    89824859.2724   21936146.074  
                
  20458908.141   107512304.319    20458914.254    83775851.9714                 
                
  20262534.164   106480380.628    20262540.387    82971764.6234   20262540.520  
                
  21260337.336   111723879.382    21260345.980    87057627.5214   21260346.270  
                
  24364763.383   128037697.660    24364770.805    99769670.1544   24364771.039  
                
  23533847.102   125669438.021                    97742935.750    23533850.355  
  23533845.219  
  21086583.625   112917703.534                    87824870.461    21086586.781  
  21086582.984  
  23692583.508   124505362.073    23692588.195    97017188.2624                 
                
  20489368.133   109488985.934                    85158109.126    20489372.422  
  20489368.277  
  23553007.734   123771923.126    23553014.168    96445704.9834   23553014.156  
                
  21997358.023   117629759.883                    91489818.783    21997362.832  
  21997357.047  
  22008146.961   117728772.258                                                  
  22008144.852  
  19933347.969   106256000.677                    82643565.788    19933351.719  
  19933347.527  
  20317254.945   108607371.739                    84472404.146    20317258.816  
  20317254.641  
 21  8 16 21 32 40.0000000  0 15G17G15G13G14G30G 5R13R 4G19R15G 7R24
                                R23R14R 5
  21813196.102   114629126.127    21813202.758    89321432.8124   21813202.652  
                
  21932716.258   115257202.314    21932722.871    89810840.8584   21932722.664  
                
  20457840.109   107506691.797    20457846.199    83771478.5814                 
                
  20263640.570   106486194.887    20263646.773    82976295.2224   20263646.918  
                
  21263427.453   111740118.069    21263436.090    87070281.0354   21263436.379  
                
  24369981.938   128065121.328    24369989.367    99791039.2474   24369989.605  
                
  23539776.602   125701101.600                    97767562.980    23539780.012  
  23539774.754  
  21093225.938   112953272.792                    87852535.444    21093229.055  
  21093225.285  
  23685388.969   124467554.752    23685393.703    96987728.0194                 
                
  20486191.617   109472011.659                    85144906.912    20486195.898  
  20486191.762  
  23558106.273   123798716.321    23558112.793    96466582.7904   23558112.754  
                
  21992350.578   117602982.881                    91468992.241    21992355.387  
  21992349.605  
  22008297.914   117729579.939                                                  
  22008295.781  
  19935799.820   106269070.464                    82653731.179    19935803.582  
  19935799.379  
  20316857.945   108605249.578                    84470753.576    20316861.820  
  20316857.660  
 21  8 16 21 32 50.0000000  0 15G17G15G13G14G30G 5R13R 4G19R15G 7R24
                                R23R14R 5
  21808720.008   114605604.039    21808726.625    89303103.9144   21808726.539  
                
  21929303.891   115239270.208    21929310.547    89796867.7944   21929310.336  
                
  20456784.148   107501142.667    20456790.215    83767154.5764                 
                
  20264755.961   106492056.271    20264762.152    82980862.5364   20264762.297  
                
  21266523.891   111756389.841    21266532.539    87082960.3314   21266532.824  
                
  24375204.586   128092565.954    24375211.934    99812424.6764   24375212.172  
                
  23545706.250   125732765.827                    97792190.700    23545709.773  
  23545704.438  
  21099878.234   112988895.544                    87880242.023    21099881.316  
  21099877.559  
  23678196.758   124429759.235    23678201.430    96958276.9744                 
                
  20483021.070   109455069.190                    85131729.460    20483025.328  
  20483021.211  
  23563208.500   123825528.577    23563215.043    96487475.4704   23563214.992  
                
  21987354.680   117576267.557                    91448213.677    21987359.512  
  21987353.695  
  22008465.844   117730478.337                                                  
  22008463.672  
  19938257.477   106282171.132                    82663920.594    19938261.246  
  19938257.055  
  20316478.438   108603220.820                    84469175.652    20316482.316  
  20316478.137  
 21  8 16 21 33  0.0000000  0 15G17G15G13G14G30G 5R13R 4G19R15G 7R24
                                R23R14R 5
  21804252.719   114582128.276    21804259.336    89284811.1124   21804259.246  
                
  21925902.602   115221396.410    21925909.293    89782940.1684   21925909.070  
                
  20455740.258   107495656.974    20455746.312    83762880.0114                 
                
  20265880.289   106497964.701    20265886.469    82985466.5124   20265886.621  
                
  21269626.594   111772694.614    21269635.258    87095665.3394   21269635.527  
                
  24380431.125   128120031.364    24380438.418    99833826.2824   24380438.668  
                
  23551636.008   125764430.375                    97816818.644    23551639.605  
  23551634.227  
  21106540.531   113024571.685                    87907990.128    21106543.555  
  21106539.824  
  23671006.781   124391975.647    23671011.398    96928835.2204                 
                
  20479856.461   109438158.530                    85118576.716    20479860.707  
  20479856.605  
  23568314.281   123852359.682    23568320.863    96508382.8254   23568320.789  
                
  21982370.328   117549614.061                    91427483.204    21982375.188  
  21982369.324  
  22008650.773   117731467.674                                                  
  22008648.562  
  19940720.945   106295302.830                    82674134.128    19940724.707  
  19940720.520  
  20316116.453   108601285.814                    84467670.642    20316120.324  
  20316116.152  
 21  8 16 21 33 10.0000000  0 15G17G15G13G14G30G 5R13R 4G19R15G 7R24
                                R23R14R 5
  21799794.281   114558698.983    21799800.930    89266554.5294   21799800.824  
                
  21922512.461   115203581.097    21922519.180    89769058.1124   21922518.961  
                
  20454708.477   107490234.872    20454714.516    83758654.9884                 
                
  20267013.602   106503920.262    20267019.777    82990107.2164   20267019.930  
                
  21272735.609   111789032.545    21272744.289    87108396.1814   21272744.539  
                
  24385661.562   128147517.535    24385668.855    99855244.0634   24385669.117  
                
  23557566.133   125796095.808                    97841447.317    23557569.562  
  23557564.207  
  21113212.758   113060301.059                    87935779.660    21113215.773  
  21113212.047  
  23663819.047   124354204.230    23663823.672    96899402.9494                 
                
  20476697.844   109421279.804                    85105448.831    20476702.094  
  20476697.988  
  23573423.703   123879209.907    23573430.305    96529305.0664   23573430.246  
                
  21977397.648   117523022.826                    91406801.135    21977402.508  
  21977396.617  
  22008852.711   117732547.918                                                  
  22008850.512  
  19943190.227   106308465.464                    82684371.733    19943194.000  
  19943189.812  
  20315772.008   108599444.535                    84466238.552    20315775.879  
  20315771.703  
 21  8 16 21 33 20.0000000  0 15G17G15G13G14G30G 5R13R 4G19R15G 7R24
                                R23R14R 5
  21795344.695   114535316.276    21795351.359    89248334.2454   21795351.230  
                
  21919133.445   115185824.288    21919140.191    89755221.6424   21919139.969  
                
  20453688.773   107484876.300    20453694.801    83754479.4744                 
                
  20268155.844   106509922.835    20268162.023    82994784.5564   20268162.176  
                
  21275850.922   111805403.571    21275859.609    87121152.8194   21275859.852  
                
  24390895.930   128175024.263    24390903.195    99876677.8764   24390903.484  
                
  23563496.133   125827761.440                    97866076.131    23563499.562  
  23563494.156  
  21119894.914   113096083.658                    87963610.562    21119897.910  
  21119894.191  
  23656633.633   124316444.964    23656638.242    96869980.1454                 
                
  20473545.195   109404433.025                    85092345.784    20473549.422  
  20473545.336  
  23578536.742   123906079.299    23578543.352    96550242.2514   23578543.301  
                
  21972436.586   117496493.825                    91386167.465    21972441.453  
  21972435.551  
  22009071.617   117733718.981                                                  
  22009069.418  
  19945665.312   106321659.046                    82694633.407    19945669.086  
  19945664.898  
  20315445.078   108597696.921                    84464879.297    20315448.945  
  20315444.758  
 21  8 16 21 33 30.0000000  0 15G17G15G13G14G30G 5R13R 4G19R15G 7R24
                                R23R14R 5
  21790904.000   114511980.263    21790910.664    89230150.3434   21790910.539  
                
  21915765.586   115168126.089    21915772.348    89741430.8414   21915772.117  
                
  20452681.195   107479581.394    20452687.207    83750353.5734                 
                
  20269307.047   106515972.426    20269313.234    82999498.5314   20269313.379  
                
  21278972.531   111821807.701    21278981.219    87133935.2624   21278981.457  
                
  24396134.211   128202551.578    24396141.457    99898127.7224   24396141.750  
                
  23569426.125   125859427.604                    97890705.350    23569429.617  
  23569424.164  
  21126586.938   113131919.212                    87991482.668    21126589.977  
  21126586.207  
  23649450.562   124278698.066    23649455.191    96840566.9744                 
                
  20470398.500   109387618.079                    85079267.491    20470402.715  
  20470398.633  
  23583653.438   123932967.799    23583660.043    96571194.3194   23583659.988  
                
  21967487.172   117470027.032                    91365582.180    21967492.027  
  21967486.117  
  22009307.531   117734980.991                                                  
  22009305.359  
  19948146.188   106334883.474                    82704919.080    19948149.965  
  19948145.762  
  20315135.695   108596043.077                    84463592.953    20315139.570  
  20315135.355  
 21  8 16 21 33 40.0000000  0 15G17G15G13G14G30G 5R13R 4G19R15G 7R24
                                R23R14R 5
  21786472.203   114488691.017    21786478.855    89212002.8804   21786478.719  
                
  21912408.875   115150486.479    21912415.637    89727685.6944   21912415.430  
                
  20451685.719   107474350.135    20451691.719    83746277.2604                 
                
  20270467.164   106522068.919    20270473.363    83004249.0484   20270473.492  
                
  21282100.438   111838244.912    21282109.117    87146743.4694   21282109.363  
                
  24401376.398   128230099.238    24401383.613    99919593.4314   24401383.898  
                
  23575356.219   125891094.211                    97915334.896    23575359.758  
  23575354.266  
  21133288.797   113167807.479                    88019395.751    21133291.863  
  21133288.074  
  23642269.766   124240963.606    23642274.520    96811163.5084                 
                
  20467257.758   109370834.941                    85066213.947    20467261.953  
  20467257.883  
  23588773.727   123959875.334    23588780.340    96592161.2384   23588780.301  
                
  21962549.445   117443622.846                    91345045.600    21962554.309  
  21962548.402  
  22009560.438   117736333.869                                                  
  22009558.270  
  19950632.852   106348138.796                    82715228.761    19950636.621  
  19950632.418  
  20314843.828   108594482.895                    84462379.489    20314847.715  
  20314843.480  
 21  8 16 21 33 50.0000000  0 15G17G15G13G14G30G 5R13R 4G19R15G 7R24
                                R23R14R 5
  21782049.336   114465448.679    21782055.957    89193891.9694   21782055.828  
                
  21909063.367   115132905.713    21909070.141    89713986.3964   21909069.945  
                
  20450702.383   107469182.677    20450708.367    83742250.6704                 
                
  20271636.219   106528212.348    20271642.434    83009036.1404   20271642.551  
                
  21285234.641   111854715.193    21285243.305    87159577.4534   21285243.559  
                
  24406622.391   128257667.297    24406629.660    99941075.0104   24406629.957  
                
  23581286.414   125922761.319                    97939964.872    23581290.059  
  23581284.484  
  21140000.500   113203748.390                    88047349.784    21140003.570  
  21139999.793  
  23635091.398   124203241.722    23635096.270    96781769.8534                 
                
  20464123.000   109354083.767                    85053185.258    20464127.188  
  20464123.113  
  23593897.688   123986801.933    23593904.305    96613142.9934   23593904.277  
                
  21957623.445   117417281.312                    91324557.751    21957628.336  
  21957622.406  
  22009830.375   117737777.814                                                  
  22009828.223  
  19953125.297   106361424.938                    82725562.434    19953129.070  
  19953124.863  
  20314569.492   108593016.388                    84461238.875    20314573.391  
  20314569.121  
 21  8 16 21 34  0.0000000  0 15G17G15G13G14G30G 5R13R 4G19R15G 7R24
                                R23R14R 5
  21777635.375   114442253.154    21777641.941    89175817.5344   21777641.852  
                
  21905729.031   115115383.693    21905735.820    89700332.8724   21905735.641  
                
  20449731.164   107464078.843    20449737.137    83738273.6594                 
                
  20272814.156   106534402.479    20272820.379    83013859.6204   20272820.496  
                
  21288375.109   111871218.434    21288383.758    87172437.1124   21288384.031  
                
  24411872.234   128285255.434    24411879.527    99962572.2534   24411879.824  
                
  23587216.711   125954428.823                    97964595.127    23587220.426  
  23587214.824  
  21146721.977   113239741.587                    88075344.501    21146725.035  
  21146721.293  
  23627915.438   124165532.363    23627920.453    96752385.9594                 
                
  20460994.188   109337364.338                    85040181.267    20460998.371  
  20460994.301  
  23599025.273   124013747.412    23599031.820    96634139.4554   23599031.836  
                
  21952709.180   117391002.529                    91304118.708    21952714.082  
  21952708.137  
  22010117.242   117739312.460                                                  
  22010115.086  
  19955623.484   106374741.667                    82735919.887    19955627.270  
  19955623.047  
  20314312.672   108591643.577                    84460171.138    20314316.578  
  20314312.305  
 21  8 16 21 34 10.0000000  0 15G17G15G13G14G30G 5R13R 4G19R15G 7R24
                                R23R14R 5
  21773230.336   114419104.569    21773236.883    89157779.6734   21773236.816  
                
  21902405.875   115097920.353    21902412.684    89686725.0844   21902412.496  
                
  20448772.070   107459038.730    20448778.035    83734346.2984                 
                
  20274000.992   106540639.353    20274007.223    83018719.5254   20274007.328  
                
  21291521.852   111887754.665    21291530.480    87185322.4784   21291530.781  
                
  24417125.844   128312863.595    24417133.188    99984085.0934   24417133.496  
                
  23593147.133   125986096.629                    97989225.606    23593150.852  
  23593145.203  
  21153453.219   113275787.115                    88103379.907    21153456.301  
  21153452.543  
  23620742.039   124127835.729    23620747.027    96723011.9734                 
                
  20457871.305   109320676.606                    85027201.927    20457875.488  
  20457871.410  
  23604156.461   124040711.715    23604162.895    96655150.5984   23604162.984  
                
  21947806.625   117364786.534                    91283728.511    21947811.570  
  21947805.570  
  22010421.133   117740938.023                                                  
  22010418.996  
  19958127.422   106388089.050                    82746301.186    19958131.223  
  19958126.988  
  20314073.375   108590364.358                    84459176.184    20314077.305  
  20314073.008  
 21  8 16 21 34 20.0000000  0 15G17G15G13G14G30G 5R13R 4G19R15G 7R24
                                R23R14R 5
  21768834.227   114396002.928    21768840.770    89139778.4034   21768840.695  
                
  21899093.898   115080515.813    21899100.711    89673163.1034   21899100.508  
                
  20447825.078   107454062.280    20447831.043    83730468.5404                 
                
  20275196.703   106546922.887    20275202.938    83023615.7904   20275203.043  
                
  21294674.867   111904323.855    21294683.488    87198233.5354   21294683.824  
                
  24422383.258   128340491.617    24422390.613   100005613.4054   24422390.941  
                
  23599077.664   126017764.936                    98013856.496    23599081.320  
  23599075.660  
  21160194.203   113311884.779                    88131455.851    21160197.301  
  21160193.527  
  23613571.062   124090151.902    23613576.020    96693647.9674                 
                
  20454754.383   109304020.767                    85014247.401    20454758.574  
  20454754.488  
  23609291.195   124067694.829    23609297.562    96676176.4064   23609297.699  
                
  21942915.883   117338633.689                    91263387.399    21942920.840  
  21942914.805  
  22010741.992   117742654.440                                                  
  22010739.883  
  19960637.094   106401467.027                    82756706.274    19960640.895  
  19960636.668  
  20313851.617   108589178.996                    84458254.231    20313855.539  
  20313851.246  
 21  8 16 21 34 30.0000000  0 15G17G15G13G14G30G 5R13R 4G19R15G 7R24
                                R23R14R 5
  21764447.070   114372948.294    21764453.617    89121813.7634   21764453.531  
                
  21895793.133   115063170.163    21895799.941    89659647.0194   21895799.723  
                
  20446890.227   107449149.592    20446896.191    83726640.4744                 
                
  20276401.289   106553253.075    20276407.539    83028548.4074   20276407.641  
                
  21297834.156   111920926.046    21297842.789    87211170.2944   21297843.129  
                
  24427644.508   128368139.413    24427651.832   100027157.1384   24427652.141  
                
  23605008.086   126049433.629                    98038487.692    23605011.855  
  23605006.219  
  21166944.875   113348034.246                    88159572.122    21166947.984  
  21166944.203  
  23606402.531   124052480.931    23606407.465    96664293.9804                 
                
  20451643.438   109287396.825                    85001317.678    20451647.629  
  20451643.539  
  23614429.562   124094696.984    23614435.910    96697217.0434   23614436.078  
                
  21938036.938   117312543.965                    91243095.402    21938041.922  
  21938035.848  
  22011079.828   117744461.660                                                  
  22011077.738  
  19963152.516   106414875.601                    82767135.163    19963156.316  
  19963152.113  
  20313647.398   108588087.328                    84457405.144    20313651.320  
  20313647.020  
 21  8 16 21 34 40.0000000  0 15G17G15G13G14G30G 5R13R 4G19R15G 7R24
                                R23R14R 5
  21760068.883   114349940.768    21760075.441    89103885.8244   21760075.348  
                
  21892503.586   115045883.429    21892510.402    89646176.8284   21892510.191  
                
  20445967.492   107444300.588    20445973.465    83722862.0274                 
                
  20277614.742   106559629.798    20277621.008    83033517.2864   20277621.102  
                
  21300999.711   111937561.149    21301008.367    87224132.7024   21301008.699  
                
  24432909.570   128395806.772    24432916.801   100048716.1364   24432917.094  
                
  23610938.695   126081102.293                    98063118.862    23610942.375  
  23610936.781  
  21173705.211   113384235.576                    88187728.707    21173708.352  
  21173704.531  
  23599236.477   124014822.931    23599241.391    96634950.0894                 
                
  20448538.414   109270804.597                    84988412.609    20448542.605  
  20448538.527  
  23619571.523   124121718.008    23619577.840    96718272.3754   23619578.023  
                
  21933169.836   117286517.574                    91222852.681    21933174.867  
  21933168.727  
  22011434.648   117746359.672                                                  
  22011432.602  
  19965673.664   106428314.718                    82777587.813    19965677.469  
  19965673.270  
  20313460.672   108587089.118                    84456628.769    20313464.586  
  20313460.281  
 21  8 16 21 34 50.0000000  0 15G17G15G13G14G30G 5R13R 4G19R15G 7R24
                                R23R14R 5
  21755699.672   114326980.465    21755706.242    89085994.6834   21755706.152  
                
  21889225.242   115028655.658    21889232.074    89632752.5914   21889231.855  
                
  20445056.898   107439515.399    20445062.879    83719133.3094                 
                
  20278837.031   106566053.004    20278843.312    83038522.3854   20278843.398  
                
  21304171.531   111954229.179    21304180.211    87237120.7714   21304180.531  
                
  24438178.242   128423493.554    24438185.461   100070290.2424   24438185.719  
                
  23616869.289   126112771.184                    98087750.200    23616872.918  
  23616867.398  
  21180475.172   113420488.424                    88215925.340    21180478.320  
  21180474.488  
  23592072.859   123977177.940    23592077.824    96605616.3484                 
                
  20445439.336   109254244.080                    84975532.216    20445443.523  
  20445439.441  
  23624717.039   124148757.861    23624723.359    96739342.3754   23624723.555  
                
  21928314.586   117260554.522                    91202659.197    21928319.594  
  21928313.465  
  22011806.438   117748348.502                                                  
  22011804.379  
  19968200.523   106441784.271                    82788064.120    19968204.340  
  19968200.137  
  20313291.469   108586184.638                    84455925.265    20313295.367  
  20313291.090  
 21  8 16 21 35  0.0000000  0 15G17G15G13G14G30G 5R13R 4G19R15G 7R24
                                R23R14R 5
  21751339.555   114304067.914    21751346.117    89068140.7514   21751346.023  
                
  21885958.188   115011487.162    21885965.023    89619374.5564   21885964.805  
                
  20444158.516   107434794.344    20444164.508    83715454.5614                 
                
  20280068.211   106572522.887    20280074.500    83043563.8554   20280074.582  
                
  21307349.656   111970930.307    21307358.367    87250134.6424   21307358.668  
                
  24443450.633   128451199.951    24443457.867   100091879.6494   24443458.102  
                
  23622799.922   126144440.411                    98112381.839    23622803.586  
  23622798.070  
  21187254.773   113456792.858                    88244162.135    21187257.945  
  21187254.074  
  23584911.852   123939546.384    23584916.828    96576293.0724                 
                
  20442346.234   109237715.527                    84962676.689    20442350.426  
  20442346.340  
  23629866.195   124175816.707    23629872.500    96760427.1864   23629872.703  
                
  21923471.297   117234655.362                    91182515.421    21923476.266  
  21923470.156  
  22012195.250   117750428.428                                                  
  22012193.211  
  19970733.117   106455284.389                    82798564.234    19970736.953  
  19970732.746  
  20313139.852   108585374.109                    84455294.853    20313143.738  
  20313139.480  
 21  8 16 21 35 10.0000000  0 15G17G15G13G14G30G 5R13R 4G19R15G 7R24
                                R23R14R 5
  21746988.445   114281202.683    21746994.969    89050323.6844   21746994.883  
                
  21882702.383   114994377.768    21882709.195    89606042.5574   21882708.980  
                
  20443272.250   107430137.014    20443278.246    83711825.4714                 
                
  20281308.180   106579038.996    20281314.480    83048641.3444   20281314.551  
                
  21310534.000   111987664.184    21310542.738    87263174.0194   21310543.023  
                
  24448726.703   128478925.442    24448733.875   100113483.9374   24448734.094  
                
  23628730.523   126176109.631                    98137013.445    23628734.211  
  23628728.730  
  21194043.914   113493148.386                    88272438.649    21194047.082  
  21194043.176  
  23577753.297   123901927.975    23577758.297    96546980.0344                 
                
  20439259.078   109221218.714                    84949845.830    20439263.273  
  20439259.199  
  23635018.883   124202894.217    23635025.207    96781526.5394   23635025.406  
                
  21918639.875   117208819.651                    91162420.987    21918644.809  
  21918638.738  
  22012601.016   117752599.007                                                  
  22012598.977  
  19973271.367   106468814.686                    82809087.790    19973275.211  
  19973271.016  
  20313005.711   108584657.033                    84454737.124    20313009.590  
  20313005.332  
 21  8 16 21 35 20.0000000  0 15G17G15G13G14G30G 5R13R 4G19R15G 7R24
                                R23R14R 5
  21742646.469   114258385.453    21742652.941    89032544.0184   21742652.895  
                
  21879457.922   114977328.017    21879464.699    89592757.0314   21879464.496  
                
  20442398.219   107425543.943    20442404.227    83708246.4544                 
                
  20282557.055   106585601.899    20282563.355    83053755.2974   20282563.434  
                
  21313724.688   112004431.381    21313733.445    87276239.3524   21313733.730  
                
  24454006.492   128506670.522    24454013.617   100135103.4744   24454013.836  
                
  23634661.320   126207779.719                    98161645.730    23634664.980  
  23634659.535  
  21200842.672   113529555.414                    88300755.227    21200845.828  
  21200841.941  
  23570597.367   123864323.378    23570602.367    96517677.7554                 
                
  20436177.938   109204754.052                    84937039.988    20436182.125  
  20436178.059  
  23640175.234   124229990.913    23640181.594    96802640.8314   23640181.742  
                
  21913820.484   117183048.257                    91142376.559    21913825.398  
  21913819.352  
  22013023.836   117754860.854                                                  
  22013021.824  
  19975815.406   106482375.826                    82819635.344    19975819.250  
  19975815.051  
  20312889.156   108584033.985                    84454252.530    20312893.027  
  20312888.785  
 21  8 16 21 35 30.0000000  0 15G17G15G13G14G30G 5R13R 4G19R15G 7R24
                                R23R14R 5
  21738313.570   114235615.901    21738320.027    89014801.5084   21738319.984  
                
  21876224.789   114960337.746    21876231.523    89579517.8574   21876231.320  
                
  20441536.398   107421015.039    20441542.406    83704717.4354                 
                
  20283814.789   106592211.347    20283821.094    83058905.5124   20283821.176  
                
  21316921.680   112021231.672    21316930.457    87289330.4864   21316930.734  
                
  24459289.914   128534434.900    24459297.043   100156738.0394   24459297.242  
                
  23640592.289   126239450.183                    98186278.296    23640595.883  
  23640590.426  
  21207650.992   113566013.631                    88329111.608    21207654.164  
  21207650.285  
  23563444.039   123826732.561    23563449.047    96488386.2164                 
                
  20433102.773   109188321.334                    84924258.988    20433106.973  
  20433102.898  
  23645335.188   124257106.607    23645341.613    96823769.9314   23645341.699  
                
  21909013.117   117157341.043                    91122382.063    21909018.016  
  21909011.980  
  22013463.688   117757213.792                                                  
  22013461.684  
  19978365.188   106495967.562                    82830206.692    19978369.027  
  19978364.832  
  20312790.180   108583504.868                    84453841.002    20312794.051  
  20312789.816  
 21  8 16 21 35 40.0000000  0 14G17G15G13G14G30G 5R 4G19R15G 7R24R23
                                R14R 5
  21733989.773   114212894.231    21733996.246    88997096.3164   21733996.195  
                
  21873002.984   114943407.027    21873009.680    89566325.0904   21873009.496  
                
  20440686.789   107416550.309    20440692.797    83701238.4224                 
                
  20285081.367   106598867.255    20285087.672    83064091.9364   20285087.758  
                
  21320124.961   112038065.065    21320133.758    87302447.4014   21320134.031  
                
  24464576.867   128562218.342    24464584.094   100178387.4794   24464584.293  
                
  21214468.805   113602522.791                    88357507.624    21214471.980  
  21214468.105  
  23556293.289   123789155.562    23556298.371    96459105.4524                 
                
  20430033.602   109171920.630                    84911502.897    20430037.793  
  20430033.719  
  23650498.727   124284241.191    23650505.152    96844913.7634   23650505.211  
                
  21904217.812   117131698.445                    91102437.830    21904222.695  
  21904216.691  
  22013920.562   117759657.723                                                  
  22013918.586  
  19980920.664   106509589.742                    82840801.719    19980924.500  
  19980920.309  
  20312708.789   108583069.747                    84453502.567    20312712.656  
  20312708.426  
 21  8 16 21 35 50.0000000  0 14G17G15G13G14G30G 5R 4G19R15G 7R24R23
                                R14R 5
  21729675.117   114190220.563    21729681.605    88979428.5244   21729681.547  
                
  21869792.516   114926535.923    21869799.184    89553178.7754   21869799.016  
                
  20439849.398   107412149.837    20439855.410    83697809.4834                 
                
  20286356.781   106605569.595    20286363.102    83069314.5374   20286363.184  
                
  21323334.547   112054931.535    21323343.367    87315590.1064   21323343.633  
                
  24469867.445   128590020.790    24469874.750   100200051.7074   24469874.938  
                
  21221296.117   113639082.829                    88385943.213    21221299.297  
  21221295.406  
  23549145.211   123751592.551    23549150.344    96429835.5804                 
                
  20426970.391   109155551.824                    84898771.603    20426974.590  
  20426970.500  
  23655665.883   124311394.722    23655672.281    96866072.3444   23655672.348  
                
  21899434.594   117106120.432                    91082543.832    21899439.445  
  21899433.492  
  22014394.461   117762192.760                                                  
  22014392.504  
  19983481.875   106523242.429                    82851420.468    19983485.715  
  19983481.504  
  20312644.961   108582728.543                    84453237.182    20312648.828  
  20312644.605  
 21  8 16 21 36  0.0000000  0 14G17G15G13G14G30G 5R 4G19R15G 7R24R23
                                R14R 5
  21725369.539   114167594.660    21725376.047    88961797.9514   21725375.988  
                
  21866593.352   114909724.188    21866599.992    89540078.7224   21866599.828  
                
  20439024.195   107407813.356    20439030.203    83694430.4044                 
                
  20287640.953   106612317.983    20287647.297    83074573.0234   20287647.363  
                
  21326550.359   112071830.754    21326559.203    87328758.3054   21326559.457  
                
  24475161.602   128617841.758    24475168.883   100221730.3824   24475169.070  
                
  21228132.859   113675693.171                    88414417.923    21228136.047  
  21228132.195  
  23541999.742   123714043.260    23542004.914    96400576.3984                 
                
  20423913.117   109139214.678                    84886064.945    20423917.312  
  20423913.230  
  23660836.602   124338566.877    23660842.918    96887245.4564   23660843.023  
                
  21894663.383   117080606.627                    91062699.789    21894668.223  
  21894662.293  
  22014885.305   117764818.426                                                  
  22014883.367  
  19986048.727   106536925.180                    82862062.616    19986052.590  
  19986048.340  
  20312598.609   108582480.786                    84453044.472    20312602.496  
  20312598.227  
 21  8 16 21 36 10.0000000  0 14G17G15G13G14G30G 5R 4G19R15G 7R24R23
                                R14R 5
  21721073.094   114145016.769    21721079.609    88944204.8014   21721079.555  
                
  21863405.516   114892972.024    21863412.121    89527025.0984   21863411.953  
                
  20438211.188   107403541.007    20438217.195    83691101.3024                 
                
  20288933.914   106619112.588    20288940.277    83079867.5224   20288940.324  
                
  21329772.438   112088762.928    21329781.297    87341952.2074   21329781.543  
                
  24480459.273   128645681.366    24480466.535   100243423.5884   24480466.766  
                
  21234978.984   113712353.867                    88442931.787    21234982.188  
  21234978.324  
  23534856.898   123676507.935    23534862.113    96371328.1094                 
                
  20420861.812   109122909.475                    84873383.120    20420865.996  
  20420861.930  
  23666010.859   124365757.777    23666017.113    96908433.1724   23666017.254  
                
  21889904.297   117055157.634                    91042906.121    21889909.113  
  21889903.219  
  22015393.156   117767535.040                                                  
  22015391.227  
  19988621.234   106550638.122                    82872728.224    19988625.086  
  19988620.840  
  20312569.812   108582326.860                    84452924.742    20312573.695  
  20312569.406  
 21  8 16 21 36 20.0000000  0 14G17G15G13G14G30G 5R 4G19R15G 7R24R23
                                R14R 5
  21716785.812   114122487.017    21716792.320    88926649.1564   21716792.273  
                
  21860229.062   114876279.626    21860235.633    89514018.0354   21860235.492  
                
  20437410.422   107399332.925    20437416.422    83687822.2754                 
                
  20290235.680   106625953.389    20290242.066    83085198.0164   20290242.098  
                
  21333000.797   112105728.048    21333009.648    87355171.7704   21333009.891  
                
  24485760.523   128673539.492    24485767.734   100265131.2224   24485768.004  
                
  21241834.500   113749064.856                    88471484.774    21241837.734  
  21241833.828  
  23527716.867   123638986.813    23527722.043    96342090.8814                 
                
  20417816.461   109106636.047                    84860726.018    20417820.652  
  20417816.590  
  23671188.695   124392967.430    23671194.930    96929635.5044   23671195.090  
                
  21885157.359   117029773.533                    91023162.937    21885162.141  
  21885156.285  
  22015918.008   117770342.656                                                  
  22015916.102  
  19991199.430   106564381.336                    82883417.395    19991203.297  
  19991199.031  
  20312558.570   108582266.808                    84452878.042    20312562.449  
  20312558.137  
 21  8 16 21 36 30.0000000  0 14G17G15G13G14G30G 5R 4G19R15G 7R24R23
                                R14R 5
  21712507.719   114100005.535    21712514.223    88909131.1224   21712514.195  
                
  21857063.992   114859647.091    21857070.535    89501057.6094   21857070.414  
                
  20436621.891   107395189.175    20436627.883    83684593.3804                 
                
  20291546.234   106632840.370    20291552.645    83090564.4964   20291552.648  
                
  21336235.445   112122726.183    21336244.281    87368417.0594   21336244.531  
                
  24491065.258   128701416.095    24491072.484   100286853.2324   24491072.777  
                
  21248699.359   113785825.816                    88500076.624    21248702.629  
  21248698.688  
  23520579.664   123601480.070    23520584.691    96312864.8464                 
                
  20414777.094   109090394.587                    84848093.763    20414781.273  
  20414777.238  
  23676370.102   124420195.879    23676376.344    96950852.4884   23676376.520  
                
  21880422.578   117004454.435                    91003470.329    21880427.328  
  21880421.496  
  22016459.867   117773241.183                                                  
  22016457.977  
  19993783.305   106578154.823                    82894130.096    19993787.184  
  19993782.914  
  20312564.875   108582300.491                    84452904.239    20312568.770  
  20312564.438  
 21  8 16 21 36 40.0000000  0 14G17G15G13G14G30G 5R 4G19R15G 7R24R23
                                R14R 5
  21708238.750   114077572.033    21708245.270    88891650.4774   21708245.227  
                
  21853910.258   114843074.073    21853916.785    89488143.5744   21853916.676  
                
  20435845.523   107391109.374    20435851.516    83681414.3094                 
                
  20292865.492   106639773.138    20292871.914    83095966.6514   20292871.906  
                
  21339476.289   112139756.924    21339485.105    87381687.7614   21339485.355  
                
  24496373.477   128729310.751    24496380.648   100308589.3354   24496380.934  
                
  21255573.492   113822636.422                    88528707.083    21255576.781  
  21255572.816  
  23513445.148   123563987.386    23513450.023    96283649.7614                 
                
  20411743.602   109074184.584                    84835485.996    20411747.785  
  20411743.746  
  23681555.086   124447442.775    23681561.285    96972083.8364   23681561.441  
                
  21875699.898   116979200.202                    90983828.146    21875704.637  
  21875698.840  
  22017018.672   117776230.435                                                  
  22017016.828  
  19996372.742   106591958.038                    82904865.940    19996376.637  
  19996372.355  
  20312588.680   108582427.758                    84453003.221    20312592.570  
  20312588.238  
 21  8 16 21 36 50.0000000  0 14G17G15G13G14G30G 5R 4G19R15G 7R24R23
                                R14R 5
  21703978.859   114055186.168    21703985.398    88874206.9544   21703985.340  
                
  21850767.797   114826560.313    21850774.332    89475275.7124   21850774.230  
                
  20435081.281   107387093.230    20435087.262    83678284.8454                 
                
  20294193.391   106646751.273    20294199.828    83101404.1624   20294199.812  
                
  21342723.289   112156819.938    21342732.082    87394983.6184   21342732.332  
                
  24501685.000   128757222.882    24501692.172   100330339.0324   24501692.434  
                
  21262456.805   113859496.143                    88557375.755    21262460.105  
  21262456.125  
  23506313.305   123526508.525    23506318.004    96254445.4534                 
                
  20408715.961   109058005.782                    84822902.488    20408720.145  
  20408716.121  
  23686743.531   124474707.799    23686749.691    96993329.2994   23686749.840  
                
  21870989.359   116954010.715                    90964236.307    21870994.047  
  21870988.316  
  22017594.359   117779309.899                                                  
  22017592.570  
  19998967.750   106605790.914                    82915624.842    19998971.648  
  19998967.355  
  20312629.914   108582648.167                    84453174.646    20312633.809  
  20312629.473  
 21  8 16 21 37  0.0000000  0 14G17G15G13G14G30G 5R 4G19R15G 7R24R23
                                R14R 5
  21699728.266   114032849.207    21699734.816    88856801.5324   21699734.746  
                
  21847636.844   114810107.079    21847643.395    89462455.0114   21847643.297  
                
  20434329.367   107383141.919    20434335.348    83675205.9014                 
                
  20295530.117   106653775.884    20295536.566    83106877.8864   20295536.547  
                
  21345976.641   112173916.387    21345985.410    87408305.5244   21345985.656  
                
  24506999.977   128785153.623    24507007.227   100352103.2394   24507007.488  
                
  21269349.461   113896405.909                    88586083.342    21269352.777  
  21269348.773  
  23499184.320   123489044.752    23499188.871    96225252.8984                 
                
  20405694.391   109041859.419                    84810344.217    20405698.559  
  20405694.539  
  23691935.469   124501991.948    23691941.727    97014589.6564   23691941.855  
                
  21866291.109   116928887.045                    90944695.703    21866295.797  
  21866290.094  
  22018187.117   117782480.693                                                  
  22018185.344  
  20001568.453   106619654.132                    82926407.343    20001572.367  
  20001568.055  
  20312688.742   108582962.665                    84453419.260    20312692.645  
  20312688.305  
 21  8 16 21 37 10.0000000  0 14G17G15G13G14G30G 5R 4G19R15G 7R24R23
                                R14R 5
  21695486.922   114010560.799    21695493.473    88839433.9494   21695493.414  
                
  21844517.375   114793714.162    21844523.926    89449681.3064   21844523.805  
                
  20433589.773   107379255.319    20433595.758    83672177.3794                 
                
  20296875.664   106660846.767    20296882.129    83112387.6654   20296882.105  
                
  21349236.328   112191046.058    21349245.070    87421653.3284   21349245.332  
                
  24512318.500   128813102.566    24512325.750   100373881.6264   24512325.992  
                
  21276251.430   113933365.476                    88614829.663    21276254.762  
  21276250.762  
  23492058.141   123451596.005    23492062.629    96196072.0554                 
                
  20402678.852   109025745.247                    84797810.981    20402683.000  
  20402678.988  
  23697131.016   124529295.094    23697137.391    97035864.8284   23697137.508  
                
  21861605.188   116903829.359                    90925206.402    21861609.867  
  21861604.184  
  22018796.914   117785742.706                                                  
  22018795.160  
  20004174.891   106633547.902                    82937213.609    20004178.797  
  20004174.488  
  20312765.234   108583371.568                    84453737.284    20312769.160  
  20312764.801  
 21  8 16 21 37 20.0000000  0 14G17G15G13G14G30G 5R 4G19R15G 7R24R23
                                R14R 5
  21691254.797   113988320.897    21691261.336    88822104.1544   21691261.297  
                
  21841409.344   114777381.341    21841415.883    89436954.4284   21841415.762  
                
  20432862.438   107375433.102    20432868.430    83669199.0274                 
                
  20298229.945   106667963.513    20298236.418    83117933.1824   20298236.395  
                
  21352502.266   112208208.617    21352510.984    87435026.7464   21352511.242  
                
  24517640.352   128841069.281    24517647.680   100395673.8584   24517647.906  
                
  21283162.578   113970374.310                    88643614.298    21283165.945  
  21283161.938  
  23484934.680   123414162.089    23484939.230    96166902.7694                 
                
  20399669.250   109009662.856                    84785302.464    20399673.379  
  20399669.387  
  23702330.102   124556616.916    23702336.605    97057154.5544   23702336.703  
                
  21856931.586   116878837.482                    90905768.246    21856936.227  
  21856930.605  
  22019423.703   117789095.650                                                  
  22019421.938  
  20006786.945   106647471.586                    82948043.140    20006790.852  
  20006786.531  
  20312859.219   108583873.958                    84454128.027    20312863.145  
  20312858.812  
 21  8 16 21 37 30.0000000  0 14G17G15G13G14G30G 5R 4G19R15G 7R24R23
                                R14R 5
  21687031.969   113966129.821    21687038.508    88804812.4094   21687038.484  
                
  21838312.789   114761108.830    21838319.316    89424274.5534   21838319.195  
                
  20432147.398   107371675.582    20432153.402    83666271.0884                 
                
  20299592.953   106675126.216    20299599.434    83123514.5104   20299599.391  
                
  21355774.477   112225404.164    21355783.180    87448425.8684   21355783.430  
                
  24522965.594   128869053.859    24522972.984   100417480.0104   24522973.191  
                
  21290082.898   114007432.316                    88672437.197    21290086.270  
  21290082.277  
  23477813.945   123376743.280    23477818.738    96137745.2684                 
                
  20396665.625   108993612.439                    84772818.806    20396669.762  
  20396665.770  
  23707532.797   124583957.532    23707539.410    97078458.9244   23707539.484  
                
  21852270.336   116853911.666                    90886381.521    21852274.977  
  21852269.379  
  22020067.523   117792539.664                                                  
  22020065.730  
  20009404.656   106661425.468                    82958896.150    20009408.570  
  20009404.258  
  20312970.805   108584470.405                    84454591.933    20312974.730  
  20312970.398  
 21  8 16 21 37 40.0000000  0 14G17G15G13G14G30G 5R 4G19R15G 7R24R23
                                R14R 5
  21682818.469   113943987.758    21682825.004    88787558.8544   21682824.973  
                
  21835227.703   114744896.587    21835234.230    89411641.6394   21835234.102  
                
  20431444.625   107367982.498    20431450.641    83663393.3544                 
                
  20300964.695   106682334.744    20300971.191    83129131.5494   20300971.141  
                
  21359052.961   112242632.633    21359061.645    87461850.6454   21359061.902  
                
  24528294.289   128897056.190    24528301.637   100439300.0044   24528301.836  
                
  21297012.344   114044539.297                    88701298.179    21297015.707  
  21297011.707  
  23470696.016   123339339.593    23470701.105    96108599.5664                 
                
  20393667.977   108977593.933                    84760359.987    20393672.109  
  20393668.113  
  23712739.070   124611316.797    23712745.719    97099777.8394   23712745.809  
                
  21847621.406   116829051.802                    90867046.079    21847626.039  
  21847620.449  
  22020728.352   117796074.649                                                  
  22020726.539  
  20012027.992   106675409.301                    82969772.465    20012031.910  
  20012027.578  
  20313099.914   108585160.588                    84455128.733    20313103.840  
  20313099.504  
 21  8 16 21 37 50.0000000  0 14G17G15G13G14G30G 5R 4G19R15G 7R24R23
                                R14R 5
  21678614.250   113921894.522    21678620.793    88770343.3514   21678620.746  
                
  21832154.062   114728744.508    21832160.590    89399055.6064   21832160.469  
                
  20430754.109   107364353.788    20430760.133    83660565.7904                 
                
  20302345.109   106689588.875    20302351.621    83134784.1234   20302351.566  
                
  21362337.664   112259893.857    21362346.344    87475300.9464   21362346.598  
                
  24533626.297   128925075.892    24533633.617   100461133.5394   24533633.805  
                
  21303950.883   114081694.953                    88730197.024    21303954.219  
  21303950.215  
  23463580.961   123301950.886    23463586.324    96079465.5214                 
                
  20390676.266   108961607.142                    84747925.833    20390680.395  
  20390676.391  
  23717948.891   124638694.541    23717955.551    97121111.1384   23717955.637  
                
  21842984.836   116804258.032                    90847762.032    21842989.465  
  21842983.895  
  22021406.133   117799700.366                                                  
  22021404.301  
  20014656.891   106689422.820                    82980671.872    20014660.812  
  20014656.477  
  20313246.547   108585944.407                    84455738.381    20313250.473  
  20313246.137  
 21  8 16 21 38  0.0000000  0 14G17G15G13G14G30G 5R 4G19R15G 7R24R23
                                R14R 5
  21674419.344   113899850.159    21674425.875    88753165.9224   21674425.836  
                
  21829091.922   114712652.857    21829098.438    89386516.6544   21829098.316  
                
  20430075.875   107360789.663    20430081.898    83657788.5444                 
                
  20303734.219   106696888.676    20303740.738    83140472.2724   20303740.676  
                
  21365628.617   112277187.883    21365637.289    87488776.7984   21365637.551  
                
  24538961.609   128953112.902    24538968.930   100482980.5554   24538969.098  
                
  21310898.492   114118899.190                    88759133.652    21310901.797  
  21310897.816  
  23456468.852   123264577.304    23456474.402    96050343.2774                 
                
  20387690.492   108945652.113                    84735516.345    20387694.625  
  20387690.605  
  23723162.227   124666090.829    23723168.941    97142458.8834   23723169.004  
                
  21838360.672   116779530.573                    90828529.581    21838365.328  
  21838359.711  
  22022100.891   117803416.846                                                  
  22022099.031  
  20017291.398   106703466.220                    82991594.506    20017295.316  
  20017290.980  
  20313410.719   108586821.964                    84456420.916    20313414.629  
  20313410.336  
 21  8 16 21 38 10.0000000  0 14G17G15G13G14G30G 5R 4G19R15G 7R24R23
                                R14R 5
  21670233.789   113877854.949    21670240.285    88736026.8064   21670240.273  
                
  21826041.281   114696621.590    21826047.785    89374024.7594   21826047.660  
                
  20429409.938   107357290.148    20429415.965    83655061.6504                 
                
  20305132.023   106704234.207    20305138.555    83146196.0654   20305138.492  
                
  21368925.836   112294514.890    21368934.488    87502278.3504   21368934.762  
                
  24544300.234   128981167.206    24544307.523   100504841.0594   24544307.656  
                
  21317855.164   114156151.942                    88788108.015    21317858.445  
  21317854.488  
  23449359.719   123227219.058    23449365.352    96021232.9684                 
                
  20384710.711   108929729.086                    84723131.778    20384714.855  
  20384710.805  
  23728379.078   124693505.767    23728385.918    97163821.1614   23728385.922  
                
  21833748.922   116754869.543                    90809348.802    21833753.602  
  21833747.922  
  22022812.648   117807224.306                                                  
  22022810.793  
  20019931.516   106717539.551                    83002540.436    20019935.438  
  20019931.094  
  20313592.461   108587793.463                    84457176.528    20313596.367  
  20313592.086  
 21  8 16 21 38 20.0000000  0 14G17G15G13G14G30G 5R 4G19R15G 7R24R23
                                R14R 5
  21666057.570   113855908.796    21666064.047    88718925.9114   21666064.051  
                
  21823002.133   114680650.776    21823008.641    89361579.9704   21823008.504  
                
  20428756.281   107353855.169    20428762.312    83652385.0394                 
                
  20306538.508   106711625.293    20306545.051    83151955.3554   20306544.980  
                
  21372229.297   112311874.672    21372237.938    87515805.4524   21372238.230  
                
  24549642.078   129009238.690    24549649.352   100526714.9404   24549649.496  
                
  21324820.852   114193452.913                    88817119.876    21324824.121  
  21324820.172  
  23442253.641   123189876.251    23442259.219    95992134.6934                 
                
  20381736.883   108913837.867                    84710771.956    20381741.035  
  20381736.969  
  23733599.484   124720939.271    23733606.414    97185197.9084   23733606.383  
                
  21829149.641   116730275.292                    90790219.948    21829154.359  
  21829148.609  
  22023541.391   117811122.612                                                  
  22023539.543  
  20022577.211   106731642.602                    83013509.480    20022581.129  
  20022576.797  
  20313791.734   108588858.653                    84458004.995    20313795.617  
  20313791.344  
 21  8 16 21 38 30.0000000  0 15G17G15G13G14G30G 5R 6R 4G19R15G 7R24
                                R23R14R 5
  21661890.797   113834012.229    21661897.277    88701863.6534   21661897.273  
                
  21819974.609   114664741.038    21819981.125    89349182.7674   21819980.984  
                
  20428115.023   107350485.298    20428121.051    83649759.1694                 
                
  20307953.742   106719062.373    20307960.297    83157750.4874   20307960.219  
                
  21375539.094   112329267.762    21375547.711    87529358.5004   21375548.027  
                
  24554987.273   129037327.580    24554994.508   100548602.3764   24554994.645  
                
  23535773.938   125591371.569                                                  
  23535771.590  
  21331795.648   114230802.489                    88846169.535    21331798.910  
  21331794.945  
  23435150.727   123152549.547    23435156.133    95963048.9484                 
                
  20378769.094   108897978.897                    84698437.209    20378773.254  
  20378769.188  
  23738823.438   124748391.775    23738830.477    97206589.4524   23738830.426  
                
  21824562.930   116705748.175                    90771143.305    21824567.680  
  21824561.852  
  22024287.211   117815112.195                                                  
  22024285.391  
  20025228.586   106745775.867                    83024502.028    20025232.508  
  20025228.191  
  20314008.648   108590018.179                    84458906.857    20314012.539  
  20314008.273  
 21  8 16 21 38 40.0000000  0 15G17G15G13G14G30G 5R 6R 4G19R15G 7R24
                                R23R14R 5
  21657733.562   113812165.866    21657740.047    88684840.5224   21657740.043  
                
  21816958.820   114648892.981    21816965.348    89336833.6374   21816965.215  
                
  20427486.250   107347181.115    20427492.266    83647184.4784                 
                
  20309377.812   106726545.979    20309384.379    83163581.8674   20309384.293  
                
  21378855.320   112346694.719    21378863.934    87542937.9374   21378864.277  
                
  24560335.852   129065434.348    24560343.055   100570503.7704   24560343.191  
                
  23529065.727   125555575.255                                                  
  23529063.316  
  21338779.602   114268201.082                    88875257.328    21338782.832  
  21338778.895  
  23428051.062   123115239.565    23428056.191    95933976.2154                 
                
  20375807.453   108882152.833                    84686128.052    20375811.598  
  20375807.578  
  23744051.180   124775863.837    23744058.188    97227996.2784   23744058.145  
                
  21819988.914   116681288.991                    90752119.530    21819993.688  
  21819987.793  
  22025050.203   117819193.693                                                  
  22025048.398  
  20027885.695   106759939.810                    83035518.444    20027889.617  
  20027885.328  
  20314243.258   108591272.303                    84459882.277    20314247.125  
  20314242.895  
 21  8 16 21 38 50.0000000  0 15G17G15G13G14G30G 5R 6R 4G19R15G 7R24
                                R23R14R 5
  21653585.445   113790367.319    21653591.945    88667854.6414   21653591.930  
                
  21813954.336   114633104.318    21813960.879    89324530.7894   21813960.754  
                
  20426869.539   107343940.272    20426875.535    83644659.1414                 
                
  20310810.281   106734073.643    20310816.863    83169447.5764   20310816.770  
                
  21382177.547   112364153.092    21382186.152    87556541.8604   21382186.504  
                
  24565687.344   129093556.554    24565694.535   100592417.1724   24565694.688  
                
  23522365.727   125519823.617                                                  
  23522363.406  
  21345772.195   114305646.061                    88904381.195    21345775.422  
  21345771.488  
  23420954.141   123077944.017    23420958.984    95904914.7234                 
                
  20372851.531   108866357.236                    84673842.581    20372855.664  
  20372851.680  
  23749282.219   124803353.031    23749289.191    97249416.4344   23749289.160  
                
  21815427.148   116656895.229                    90733146.608    21815431.918  
  21815426.004  
  22025829.922   117823364.593                                                  
  22025828.148  
  20030548.148   106774132.140                    83046556.922    20030552.062  
  20030547.789  
  20314495.156   108592618.843                    84460929.596    20314499.027  
  20314494.824  
 21  8 16 21 39  0.0000000  0 15G17G15G13G14G30G 5R 6R 4G19R15G 7R24
                                R23R14R 5
  21649446.703   113768618.101    21649453.227    88650907.2004   21649453.207  
                
  21810961.375   114617376.202    21810967.930    89312275.1064   21810967.773  
                
  20426265.117   107340764.013    20426271.090    83642184.1404                 
                
  20312251.359   106741646.572    20312257.957    83175348.5594   20312257.848  
                
  21385505.977   112381644.157    21385514.582    87570171.2494   21385514.934  
                
  24571042.008   129121695.268    24571049.188   100614343.4374   24571049.309  
                
  23515674.461   125484118.291                                                  
  23515672.234  
  21352773.664   114343138.616                    88933542.067    21352776.883  
  21352772.961  
  23413860.133   123040664.212    23413864.797    95875865.5114                 
                
  20369901.523   108850593.301                    84661581.751    20369905.648  
  20369901.684  
  23754516.656   124830860.629    23754523.723    97270850.8914   23754523.684  
                
  21810877.953   116632568.667                    90714225.943    21810882.688  
  21810876.785  
  22026626.555   117827626.057                                                  
  22026624.797  
  20033216.117   106788353.913                    83057618.302    20033220.016  
  20033215.766  
  20314764.547   108594058.865                    84462049.607    20314768.414  
  20314764.238  
 21  8 16 21 39 10.0000000  0 15G17G15G13G14G30G 5R 6R 4G19R15G 7R24
                                R23R14R 5
  21645317.414   113746918.563    21645323.957    88633998.4704   21645323.922  
                
  21807980.000   114601709.010    21807986.574    89300066.9044   21807986.391  
                
  20425673.047   107337652.689    20425679.004    83639759.7254                 
                
  20313701.094   106749264.979    20313707.711    83181284.9794   20313707.582  
                
  21388840.672   112399168.138    21388849.289    87583826.2894   21388849.645  
                
  24576399.727   129149850.715    24576407.043   100636282.7464   24576407.156  
                
  23508991.953   125448459.476                                                  
  23508989.684  
  21359784.016   114380678.764                    88962739.967    21359787.230  
  21359783.320  
  23406769.148   123003400.581    23406773.758    95846828.8994                 
                
  20366957.508   108834861.369                    84649345.808    20366961.629  
  20366957.664  
  23759754.797   124858386.802    23759761.762    97292299.8704   23759761.723  
                
  21806341.344   116608309.507                    90695357.723    21806346.062  
  21806340.152  
  22027440.211   117831978.624                                                  
  22027438.438  
  20035889.672   106802605.472                    83068702.847    20035893.559  
  20035889.320  
  20315051.523   108595592.896                    84463242.732    20315055.387  
  20315051.227  
 21  8 16 21 39 20.0000000  0 15G17G15G13G14G30G 5R 6R 4G19R15G 7R24
                                R23R14R 5
  21641197.578   113725268.697    21641204.133    88617128.4474   21641204.102  
                
  21805010.227   114586102.696    21805016.812    89287906.1464   21805016.621  
                
  20425093.312   107334606.143    20425099.262    83637385.7914                 
                
  20315159.453   106756928.725    20315166.082    83187256.7244   20315165.945  
                
  21392181.625   112416724.951    21392190.254    87597506.9204   21392190.602  
                
  24581760.680   129178022.665    24581768.023   100658234.9214   24581768.133  
                
  23502318.148   125412847.303                                                  
  23502315.844  
  21366803.211   114418266.231                    88991974.657    21366806.406  
  21366802.547  
  23399681.219   122966153.197    23399685.871    95817804.9564                 
                
  20364019.453   108819161.303                    84637134.655    20364023.578  
  20364019.609  
  23764996.523   124885931.510    23765003.301    97313763.2914   23765003.305  
                
  21801817.375   116584117.798                    90676541.956    21801822.047  
  21801816.168  
  22028270.844   117836421.975                                                  
  22028269.074  
  20038568.797   106816886.714                    83079810.487    20038572.664  
  20038568.445  
  20315356.031   108597220.615                    84464508.731    20315359.883  
  20315355.746  
 21  8 16 21 39 30.0000000  0 15G17G15G13G14G30G 5R 6R 4G19R15G 7R24
                                R23R14R 5
  21637087.117   113703668.083    21637093.699    88600296.8094   21637093.633  
                
  21802051.984   114570557.073    21802058.578    89275792.6764   21802058.398  
                
  20424525.859   107331624.158    20424531.812    83635062.1674                 
                
  20316626.383   106764637.455    20316633.023    83193263.5304   20316632.871  
                
  21395528.766   112434314.298    21395537.395    87611212.9014   21395537.754  
                
  24587124.766   129206210.679    24587132.094   100680199.6044   24587132.180  
                
  23495653.195   125377281.852                                                  
  23495650.785  
  21373831.156   114455900.582                    89021245.815    21373834.371  
  21373830.465  
  23392596.234   122928921.986    23392601.105    95788793.6404                 
                
  20361087.297   108803492.744                    84624947.994    20361091.430  
  20361087.457  
  23770241.633   124913494.397    23770248.332    97335240.8954   23770248.363  
                
  21797306.016   116559993.440                    90657778.544    21797310.633  
  21797304.816  
  22029118.414   117840955.885                                                  
  22029116.629  
  20041253.375   106831197.013                    83090940.719    20041257.223  
  20041253.004  
  20315678.016   108598941.745                    84465847.392    20315681.867  
  20315677.746  
 21  8 16 21 39 40.0000000  0 15G17G15G13G14G30G 5R 6R 4G19R15G 7R24
                                R23R14R 5
  21632986.148   113682117.363    21632992.758    88583504.0504   21632992.691  
                
  21799105.375   114555072.531    21799111.984    89263726.7964   21799111.777  
                
  20423970.758   107328707.092    20423976.723    83632789.1324                 
                
  20318101.922   106772391.483    20318108.566    83199305.6324   20318108.414  
                
  21398882.156   112451936.514    21398890.793    87624944.4974   21398891.164  
                
  24592491.906   129234415.089    24592499.273   100702177.0664   24592499.328  
                
  23488996.984   125341763.271                                                  
  23488994.523  
  21380867.898   114493582.025                    89050553.592    21380871.090  
  21380867.188  
  23385514.266   122891707.118    23385519.426    95759795.0584                 
                
  20358161.117   108787856.180                    84612786.239    20358165.250  
  20358161.266  
  23775490.242   124941075.786    23775496.941    97356732.8754   23775496.984  
                
  21792807.328   116535936.977                    90639067.961    21792811.941  
  21792806.125  
  22029982.969   117845580.722                                                  
  22029981.152  
  20043943.516   106845537.010                    83102094.058    20043947.340  
  20043943.129  
  20316017.555   108600756.753                    84467259.055    20316021.402  
  20316017.297  
 21  8 16 21 39 50.0000000  0 15G17G15G13G14G30G 5R 6R 4G19R15G 7R24
                                R23R14R 5
  21628894.727   113660616.837    21628901.336    88566750.3934   21628901.281  
                
  21796170.453   114539649.455    21796177.082    89251708.8164   21796176.867  
                
  20423428.070   107325855.290    20423434.035    83630566.9404                 
                
  20319586.117   106780191.049    20319592.762    83205383.2124   20319592.617  
                
  21402241.859   112469591.893    21402250.488    87638701.9274   21402250.855  
                
  24597862.070   129262635.820    24597869.496   100724167.2504   24597869.547  
                
  23482349.703   125306292.147                                                  
  23482347.195  
  21387913.422   114531310.580                    89079898.018    21387916.629  
  21387912.699  
  23378435.484   122854509.068    23378440.949    95730809.5974                 
                
  20355240.984   108772251.922                    84600649.594    20355245.109  
  20355241.129  
  23780742.344   124968675.944    23780749.164    97378239.4774   23780749.168  
                
  21788321.344   116511948.593                    90620410.358    21788325.992  
  21788320.137  
  22030864.547   117850296.633                                                  
  22030862.688  
  20046639.250   106859906.843                    83113270.604    20046643.078  
  20046638.844  
  20316374.664   108602665.746                    84468743.824    20316378.527  
  20316374.410  
 21  8 16 21 40  0.0000000  0 15G17G15G13G14G30G 5R 6R 4G19R15G 7R24
                                R23R14R 5
  21624812.812   113639166.231    21624819.414    88550035.6444   21624819.379  
                
  21793247.172   114524287.455    21793253.836    89239738.4384   21793253.613  
                
  20422897.742   107323068.347    20422903.711    83628395.2924                 
                
  20321078.914   106788035.720    20321085.559    83211495.9434   20321085.414  
                
  21405607.805   112487280.016    21405616.434    87652484.8804   21405616.824  
                
  24603235.328   129290872.516    24603242.766   100746169.8764   24603242.820  
                
  23475711.297   125270868.382                                                  
  23475708.750  
  21394967.711   114569085.971                    89109278.869    21394970.891  
  21394966.961  
  23371360.055   122817327.596    23371365.641    95701837.0564                 
                
  20352326.820   108756679.479                    84588537.705    20352330.953  
  20352326.961  
  23785997.977   124996294.590    23786004.938    97399760.4784   23786004.910  
                
  21783848.117   116488028.313                    90601805.713    21783852.812  
  21783846.918  
  22031763.102   117855103.313                                                  
  22031761.191  
  20049340.516   106874306.103                    83124470.037    20049344.336  
  20049340.090  
  20316749.312   108604668.401                    84470301.451    20316753.164  
  20316749.062  
 21  8 16 21 40 10.0000000  0 15G17G15G13G14G30G 5R 6R 4G19R15G 7R24
                                R23R14R 5
  21620740.391   113617765.551    21620747.008    88533359.7954   21620746.957  
                
  21790335.516   114508986.605    21790342.199    89227815.6974   21790341.992  
                
  20422379.742   107320346.244    20422385.727    83626274.1774                 
                
  20322580.266   106795925.385    20322586.910    83217643.7334   20322586.777  
                
  21408979.961   112505000.852    21408988.613    87666293.3084   21408989.008  
                
  24608611.547   129319125.039    24608619.035   100768184.8314   24608619.082  
                
  23469081.703   125235491.908                                                  
  23469079.148  
  21402030.656   114606907.738                    89138695.812    21402033.816  
  21402029.918  
  23364287.906   122780162.840    23364293.480    95672877.5204                 
                
  20349418.562   108741138.666                    84576450.419    20349422.703  
  20349418.688  
  23791256.992   125023931.528    23791264.141    97421295.7374   23791264.109  
                
  21779387.617   116464176.135                    90583254.032    21779392.344  
  21779386.410  
  22032678.594   117860000.706                                                  
  22032676.656  
  20052047.297   106888734.808                    83135692.355    20052051.105  
  20052046.844  
  20317141.477   108606764.722                    84471931.919    20317145.340  
  20317141.234  
 21  8 16 21 40 20.0000000  0 15G17G15G13G14G30G 5R 6R 4G19R15G 7R24
                                R23R14R 5
  21616677.523   113596415.006    21616684.176    88516723.0154   21616684.109  
                
  21787435.531   114493747.059    21787442.227    89215940.7314   21787441.988  
                
  20421874.133   107317689.240    20421880.148    83624203.7824                 
                
  20324090.203   106803860.145    20324096.852    83223826.6584   20324096.727  
                
  21412358.367   112522754.506    21412367.047    87680127.3224   21412367.438  
                
  24613990.805   129347393.323    24613998.312   100790212.0664   24613998.371  
                
  23462461.109   125200162.922                                                  
  23462458.496  
  21409102.258   114644775.920                    89168148.847    21409105.426  
  21409101.516  
  23357219.094   122743015.013    23357224.547    95643931.1684                 
                
  20346516.289   108725629.835                    84564388.004    20346520.430  
  20346516.414  
  23796519.492   125051586.860    23796526.820    97442845.3404   23796526.797  
                
  21774939.930   116440392.398                    90564755.591    21774944.680  
  21774938.738  
  22033611.078   117864988.893                                                  
  22033609.145  
  20054759.586   106903192.825                    83146937.482    20054763.375  
  20054759.129  
  20317551.180   108608954.772                    84473635.286    20317555.047  
  20317550.930  
 21  8 16 21 40 30.0000000  0 15G17G15G13G14G30G 5R 6R 4G19R15G 7R24
                                R23R14R 5
  21612624.234   113575114.900    21612630.930    88500125.5394   21612630.844  
                
  21784547.289   114478569.269    21784553.980    89204113.8824   21784553.742  
                
  20421380.953   107315097.564    20421387.016    83622184.2934                 
                
  20325608.766   106811840.257    20325615.426    83230044.9244   20325615.297  
                
  21415743.086   112540541.299    21415751.797    87693987.1534   21415752.188  
                
  24619373.180   129375677.712    24619380.664   100812251.8504   24619380.695  
                
  23455849.500   125164882.207                                                  
  23455846.863  
  21416182.594   114682690.671                    89197638.089    21416185.758  
  21416181.867  
  23350153.523   122705884.492    23350158.863    95614998.3004                 
                
  20343620.047   108710153.204                    84552350.624    20343624.191  
  20343620.172  
  23801785.578   125079260.899    23801793.062    97464409.5314   23801793.043  
                
  21770505.094   116416677.380                    90546310.583    21770509.840  
  21770503.930  
  22034560.578   117870068.161                                                  
  22034558.656  
  20057477.453   106917680.590                    83158205.745    20057481.230  
  20057476.988  
  20317978.469   108611238.849                    84475411.787    20317982.328  
  20317978.207  
 21  8 16 21 40 40.0000000  0 15G17G15G13G14G30G 5R 6R 4G19R15G 7R24
                                R23R14R 5
  21608580.453   113553864.690    21608587.160    88483566.9484   21608587.066  
                
  21781670.672   114463452.529    21781677.363    89192334.6124   21781677.152  
                
  20420900.094   107312570.596    20420906.211    83620215.2274                 
                
  20327135.812   106819864.957    20327142.484    83236297.9354   20327142.344  
                
  21419133.977   112558360.487    21419142.727    87707872.2304   21419143.105  
                
  24624758.398   129403977.228    24624765.914   100834303.4214   24624765.930  
                
  23449246.750   125129648.755                                                  
  23449244.133  
  21423271.477   114720651.141                    89227162.893    21423274.613  
  21423270.758  
  23343091.070   122668770.571    23343096.250    95586078.3314                 
                
  20340729.703   108694708.024                    84540337.719    20340733.836  
  20340729.824  
  23807055.109   125106952.984    23807062.758    97485987.7584   23807062.727  
                
  21766083.039   116393030.647                    90527918.685    21766087.785  
  21766081.895  
  22035526.984   117875237.788                                                  
  22035525.039  
  20060200.766   106932197.362                    83169496.565    20060204.535  
  20060200.285  
  20318423.227   108613616.270                    84477260.889    20318427.078  
  20318422.980  
 21  8 16 21 40 50.0000000  0 15G17G15G13G14G30G 5R 6R 4G19R15G 7R24
                                R23R14R 5
  21604546.203   113532664.580    21604552.891    88467047.3844   21604552.801  
                
  21778805.695   114448397.025    21778812.359    89180603.0494   21778812.164  
                
  20420431.562   107310108.483    20420437.742    83618296.6944                 
                
  20328671.352   106827934.299    20328678.031    83242585.7314   20328677.879  
                
  21422531.031   112576212.155    21422539.832    87721782.6144   21422540.195  
                
  24630146.547   129432291.910    24630154.016   100856366.8134   24630154.031  
                
  23442653.039   125094463.262                                                  
  23442650.434  
  21430368.859   114758657.253                    89256723.197    21430371.992  
  21430368.121  
  23336031.914   122631673.469    23336036.785    95557171.4934                 
                
  20337845.273   108679294.554                    84528349.466    20337849.402  
  20337845.418  
  23812328.156   125134663.086    23812335.887    97507580.0464   23812335.824  
                
  21761673.773   116369452.351                    90509580.005    21761678.512  
  21761672.656  
  22036510.289   117880497.865                                                  
  22036508.328  
  20062929.516   106946743.179                    83180809.986    20062933.285  
  20062929.016  
  20318885.430   108616087.027                    84479182.593    20318889.289  
  20318885.199  
 21  8 16 21 41  0.0000000  0 15G17G15G13G14G30G 5R 6R 4G19R15G 7R24
                                R23R14R 5
  21600521.477   113511514.552    21600528.145    88450566.8484   21600528.078  
                
  21775952.352   114433402.642    21775958.988    89168919.1154   21775958.809  
                
  20419975.359   107307711.106    20419981.590    83616428.6094                 
                
  20330215.359   106836048.124    20330222.043    83248908.1874   20330221.887  
                
  21425934.258   112594096.228    21425943.105    87735718.2484   21425943.461  
                
  24635537.508   129460621.561    24635544.949   100878441.8654   24635544.965  
                
  23436068.164   125059325.190                                                  
  23436065.594  
  21437474.656   114796708.666                    89286318.739    21437477.832  
  21437473.922  
  23328975.984   122594593.242    23328980.516    95528277.7954                 
                
  20334966.742   108663912.561                    84516385.699    20334970.859  
  20334966.879  
  23817604.609   125162391.143    23817612.422    97529186.2954   23817612.324  
                
  21757277.359   116345942.722                    90491294.753    21757282.082  
  21757276.242  
  22037510.484   117885848.275                                                  
  22037508.496  
  20065663.664   106961317.795                    83192145.805    20065667.422  
  20065663.152  
  20319365.094   108618651.102                    84481176.870    20319368.941  
  20319364.871  
 21  8 16 21 41 10.0000000  0 15G17G15G13G14G30G 5R 6R 4G19R15G 7R24
                                R23R14R 5
  21596506.414   113490415.283    21596513.090    88434125.8724   21596513.043  
                
  21773110.781   114418470.049    21773117.398    89157283.3354   21773117.230  
                
  20419531.609   107305379.143    20419537.875    83614611.4914                 
                
  20331767.945   106844206.996    20331774.617    83255265.7484   20331774.473  
                
  21429343.773   112612013.270    21429352.668    87749679.5714   21429352.996  
                
  24640931.359   129488966.614    24640938.867   100900528.9094   24640938.848  
                
  23429492.617   125024236.083                                                  
  23429489.926  
  21444589.047   114834806.014                    89315949.989    21444592.238  
  21444588.320  
  23321923.281   122557530.639    23321927.609    95499397.8194                 
                
  20332094.242   108648562.784                    84504446.989    20332098.340  
  20332094.375  
  23822884.648   125190137.818    23822892.441    97550807.0884   23822892.359  
                
  21752893.859   116322502.179                    90473063.221    21752898.582  
  21752892.770  
  22038527.680   117891289.604                                                  
  22038525.676  
  20068403.375   106975922.005                    83203504.630    20068407.129  
  20068402.867  
  20319862.312   108621308.958                    84483244.097    20319866.156  
  20319862.102  
 21  8 16 21 41 20.0000000  0 15G17G15G13G14G30G 5R 6R 4G19R15G 7R24
                                R23R14R 5
  21592500.984   113469366.589    21592507.695    88417724.3074   21592507.617  
                
  21770280.945   114403599.136    21770287.562    89145695.6064   21770287.406  
                
  20419100.258   107303112.384    20419106.555    83612845.1904                 
                
  20333329.055   106852410.670    20333335.711    83261658.2244   20333335.570  
                
  21432759.516   112629963.107    21432768.453    87763666.4504   21432768.762  
                
  24646328.086   129517326.817    24646335.645   100922627.7684   24646335.621  
                
  23422925.945   124989195.234                                                  
  23422923.285  
  21451711.969   114872948.780                    89345616.598    21451715.125  
  21451711.262  
  23314873.836   122520485.631    23314878.082    95470531.5644                 
                
  20329227.703   108633244.871                    84492533.060    20329231.812  
  20329227.848  
  23828168.234   125217902.844    23828175.977    97572442.1804   23828175.883  
                
  21748523.305   116299130.916                    90454885.597    21748528.035  
  21748522.238  
  22039561.828   117896821.637                                                  
  22039559.824  
  20071148.555   106990555.379                    83214886.150    20071152.301  
  20071148.027  
  20320377.055   108624060.557                    84485384.236    20320380.891  
  20320376.844  
 21  8 16 21 41 30.0000000  0 15G17G15G13G14G30G 5R 6R 4G19R15G 7R24
                                R23R14R 5
  21588505.156   113448368.403    21588511.871    88401362.0864   21588511.781  
                
  21767462.859   114388789.959    21767469.480    89134155.9884   21767469.336  
                
  20418681.312   107300910.804    20418687.637    83611129.6734                 
                
  20334898.672   106860659.044    20334905.297    83268085.5254   20334905.176  
                
  21436181.500   112647945.682    21436190.473    87777678.8434   21436190.766  
                
  24651727.711   129545702.036    24651735.266   100944738.3324   24651735.250  
                
  23416368.328   124954203.040                                                  
  23416365.785  
  21458843.312   114911136.758                    89375318.374    21458846.441  
  21458842.605  
  23307827.727   122483458.281    23307831.953    95441679.0784                 
                
  20326367.117   108617958.774                    84480643.881    20326371.203  
  20326367.273  
  23833455.273   125245686.176    23833462.969    97594091.5454   23833462.875  
                
  21744165.766   116275829.148                    90436761.987    21744170.465  
  21744164.723  
  22040612.914   117902444.268                                                  
  22040610.949  
  20073899.219   107005217.970                    83226290.394    20073902.949  
  20073898.688  
  20320909.305   108626905.683                    84487597.105    20320913.125  
  20320909.074  
 21  8 16 21 41 40.0000000  0 15G17G15G13G14G30G 5R 6R 4G19R15G 7R24
                                R23R14R 5
  21584518.961   113427420.798    21584525.641    88385039.2904   21584525.559  
                
  21764656.523   114374042.531    21764663.141    89122664.4944   21764663.016  
                
  20418274.766   107298774.412    20418281.117    83609464.9474                 
                
  20336476.766   106868952.040    20336483.359    83274547.6034   20336483.262  
                
  21439609.695   112665960.932    21439618.699    87791716.7024   21439618.977  
                
  24657130.125   129574092.041    24657137.684   100966860.4054   24657137.695  
                
  23409820.023   124919259.634                                                  
  23409817.445  
  21465983.055   114949369.782                    89405055.157    21465986.160  
  21465982.367  
  23300784.953   122446448.684    23300789.242    95412840.4344                 
                
  20323512.477   108602704.475                    84468779.433    20323516.555  
  20323512.637  
  23838745.758   125273487.723    23838753.406    97615755.0574   23838753.320  
                
  21739821.172   116252596.619                    90418692.269    21739825.859  
  21739820.145  
  22041680.938   117908157.546                                                  
  22041678.977  
  20076655.328   107019909.685                    83237717.283    20076659.059  
  20076654.785  
  20321459.070   108629844.499                    84489882.847    20321462.863  
  20321458.820  
 21  8 16 21 41 50.0000000  0 15G17G15G13G14G30G 5R 6R 4G19R15G 7R24
                                R23R14R 5
  21580542.336   113406523.496    21580548.969    88368755.6784   21580548.914  
                
  21761861.836   114359356.291    21761868.449    89111220.6644   21761868.309  
                
  20417880.539   107296702.676    20417886.902    83607850.6064                 
                
  20338063.242   106877289.019    20338069.812    83281043.9494   20338069.723  
                
  21443043.992   112684008.256    21443053.035    87805779.5444   21443053.289  
                
  24662535.219   129602496.185    24662542.793   100988993.5044   24662542.805  
                
  23403280.672   124884364.481                                                  
  23403278.145  
  21473131.117   114987647.146                    89434826.448    21473134.184  
  21473130.434  
  23293745.453   122409456.241    23293749.863    95384015.1614                 
                
  20320663.711   108587481.485                    84456939.342    20320667.777  
  20320663.871  
  23844039.656   125301306.828    23844047.184    97637432.2634   23844047.145  
                
  21735489.492   116229433.130                    90400676.231    21735494.184  
  21735488.477  
  22042765.781   117913960.738                                                  
  22042763.840  
  20079416.797   107034629.829                    83249166.285    20079420.527  
  20079416.254  
  20322026.219   108632876.154                    84492240.802    20322029.992  
  20322025.988  
 21  8 16 21 42  0.0000000  0 15G17G15G13G14G30G 5R 6R 4G19R15G 7R24
                                R23R14R 5
  21576575.461   113385677.390    21576582.074    88352511.9574   21576582.031  
                
  21759078.969   114344732.226    21759085.570    89099825.2904   21759085.445  
                
  20417498.781   107294696.493    20417505.156    83606287.3464                 
                
  20339658.242   106885670.801    20339664.789    83287575.2084   20339664.723  
                
  21446484.570   112702088.528    21446493.648    87819868.0714   21446493.863  
                
  24667943.258   129630915.378    24667950.766   101011138.3324   24667950.777  
                
  23396750.508   124849518.709                                                  
  23396748.043  
  21480287.594   115025969.447                    89464632.681    21480290.613  
  21480286.891  
  23286709.328   122372482.016    23286713.934    95355204.0934                 
                
  20317820.961   108572290.712                    84445124.296    20317825.031  
  20317821.125  
  23849337.008   125329144.454    23849344.484    97659123.9164   23849344.477  
                
  21731170.914   116206339.721                    90382714.695    21731175.609  
  21731169.875  
  22043867.625   117919854.802                                                  
  22043865.664  
  20082183.758   107049379.311                    83260638.107    20082187.504  
  20082183.207  
  20322610.906   108636001.624                    84494671.718    20322614.676  
  20322610.680  
 21  8 16 21 42 10.0000000  0 15G17G15G13G14G30G 5R 6R 4G19R15G 7R24
                                R23R14R 5
  21572618.320   113364882.502    21572624.938    88336308.1534   21572624.879  
                
  21756307.930   114330170.310    21756314.523    89088478.3404   21756314.426  
                
  20417129.492   107292755.844    20417135.855    83604775.1494                 
                
  20341261.758   106894097.314    20341268.289    83294141.3204   20341268.234  
                
  21449931.406   112720201.724    21449940.500    87833982.2464   21449940.691  
                
  24673354.016   129659349.228    24673361.523   101033294.5854   24673361.551  
                
  23390229.586   124814722.295                                                  
  23390227.145  
  21487452.398   115064336.585                    89494473.780    21487455.418  
  21487451.672  
  23279676.688   122335526.007    23279681.465    95326407.2154                 
                
  20314984.203   108557132.014                    84433334.203    20314988.285  
  20314984.352  
  23854637.938   125357000.530    23854645.273    97680829.9504   23854645.309  
                
  21726865.406   116183316.234                    90364807.549    21726870.094  
  21726864.352  
  22044986.430   117925839.661                                                  
  22044984.465  
  20084956.203   107064158.021                    83272132.653    20084959.957  
  20084955.645  
  20323213.117   108639220.791                    84497175.522    20323216.867  
  20323212.883  
 21  8 16 21 42 20.0000000  0 15G17G15G13G14G30G 5R 6R 4G19R15G 7R24
                                R23R14R 5
  21568670.859   113344138.495    21568677.473    88320144.0064   21568677.422  
                
  21753548.672   114315670.298    21753555.266    89077179.6344   21753555.176  
                
  20416772.625   107290880.470    20416778.977    83603313.8194                 
                
  20342873.703   106902568.181    20342880.234    83300741.9914   20342880.180  
                
  21453384.438   112738347.508    21453393.523    87848121.8054   21453393.719  
                
  24678767.523   129687797.494    24678775.012   101055462.0574   24678775.059  
                
  23383717.867   124779975.123                                                  
  23383715.434  
  21494625.422   115102748.069                    89524349.380    21494628.508  
  21494624.742  
  23272647.562   122298588.073    23272652.426    95297624.4244                 
                
  20312153.414   108542005.125                    84421568.845    20312157.469  
  20312153.547  
  23859942.359   125384874.733    23859949.508    97702550.1154   23859949.559  
                
  21722572.969   116160362.662                    90346954.795    21722577.637  
  21722571.891  
  22046122.117   117931914.833                                                  
  22046120.199  
  20087734.078   107078965.663                    83283649.711    20087737.828  
  20087733.527  
  20323832.812   108642533.422                    84499752.016    20323836.570  
  20323832.590  
 21  8 16 21 42 30.0000000  0 15G17G15G13G14G30G 5R 6R 4G19R15G 7R24
                                R23R14R 5
  21564733.055   113323445.186    21564739.664    88304019.3594   21564739.617  
                
  21750801.219   114301232.316    21750807.805    89065929.2674   21750807.707  
                
  20416428.180   107289070.335    20416434.512    83601903.3204                 
                
  20344494.094   106911083.382    20344500.625    83307377.2084   20344500.578  
                
  21456843.688   112756525.874    21456852.742    87862286.7654   21456852.941  
                
  24684183.734   129716259.880    24684191.219   101077640.5384   24684191.285  
                
  23377215.367   124745277.341                                                  
  23377213.008  
  21501806.750   115141203.841                    89554259.418    21501809.895  
  21501806.109  
  23265622.000   122261668.400    23265626.883    95268855.8544                 
                
  20309328.562   108526909.955                    84409828.174    20309332.609  
  20309328.691  
  23865250.188   125412767.044    23865257.195    97724284.3854   23865257.270  
                
  21718293.648   116137479.225                    90329156.567    21718298.324  
  21718292.562  
  22047274.758   117938080.552                                                  
  22047272.887  
  20090517.359   107093802.107                    83295189.171    20090521.113  
  20090516.828  
  20324469.969   108645939.356                    84502401.075    20324473.723  
  20324469.734  
 21  8 16 21 42 40.0000000  0 15G17G15G13G14G30G 5R 6R 4G19R15G 7R24
                                R23R14R 5
  21560805.031   113302803.329    21560811.641    88287934.7944   21560811.590  
                
  21748065.586   114286856.527    21748072.148    89054727.3444   21748072.055  
                
  20416096.164   107287325.623    20416102.484    83600543.8074                 
                
  20346122.938   106919643.053    20346129.480    83314047.0894   20346129.426  
                
  21460309.156   112774737.026    21460318.184    87876477.2774   21460318.387  
                
  24689602.617   129744736.481    24689610.141   101099830.1004   24689610.207  
                
  23370722.281   124710629.268                                                  
  23370719.863  
  21508996.328   115179703.738                    89584203.768    21508999.508  
  21508995.672  
  23258599.945   122224767.209    23258604.855    95240101.6844                 
                
  20306509.703   108511846.869                    84398112.448    20306513.734  
  20306509.840  
  23870561.438   125440677.619    23870568.359    97746032.8744   23870568.434  
                
  21714027.469   116114666.085                    90311413.049    21714032.102  
  21714026.395  
  22048444.320   117944336.877                                                  
  22048442.520  
  20093306.102   107108667.699                    83306751.300    20093309.844  
  20093305.594  
  20325124.617   108649438.833                    84505122.880    20325128.363  
  20325124.359  
 21  8 16 21 42 50.0000000  0 15G17G15G13G14G30G 5R 6R 4G19R15G 7R24
                                R23R14R 5
  21556886.781   113282212.835    21556893.391    88271890.2644   21556893.355  
                
  21745341.820   114272543.002    21745348.344    89043573.9464   21745348.246  
                
  20415776.617   107285646.324    20415782.930    83599235.2574                 
                
  20347760.227   106928247.056    20347766.773    83320751.5104   20347766.715  
                
  21463780.852   112792980.862    21463789.828    87890693.2424   21463790.051  
                
  24695024.219   129773227.164    24695031.738   101122030.6124   24695031.797  
                
  23364238.578   124676031.148                                                  
  23364236.090  
  21516194.117   115218247.637                    89614182.340    21516197.332  
  21516193.477  
  23251581.477   122187884.547    23251586.383    95211361.9554                 
                
  20303696.820   108496815.645                    84386421.504    20303700.828  
  20303696.961  
  23875876.102   125468606.352    23875883.012    97767795.5134   23875883.066  
                
  21709774.453   116091923.288                    90293724.202    21709779.059  
  21709773.406  
  22049630.812   117950683.700                                                  
  22049629.059  
  20096100.266   107123562.121                    83318335.858    20096104.012  
  20096099.754  
  20325796.758   108653031.816                    84507917.426    20325800.500  
  20325796.484  
 21  8 16 21 43  0.0000000  0 15G17G15G13G14G30G 5R 6R 4G19R15G 7R24
                                R23R14R 5
  21552978.281   113261673.538    21552984.883    88255885.6164   21552984.863  
                
  21742629.852   114258291.531    21742636.336    89032468.9054   21742636.258  
                
  20415469.469   107284032.219    20415475.789    83597977.5174                 
                
  20349405.898   106936895.124    20349412.445    83327490.2674   20349412.387  
                
  21467258.719   112811257.134    21467267.648    87904934.4994   21467267.898  
                
  24700448.422   129801731.494    24700455.930   101144241.7904   24700456.004  
                
  23357764.047   124641482.796                                                  
  23357761.613  
  21523400.117   115256835.235                    89644194.926    21523403.277  
  21523399.496  
  23244566.500   122151020.261    23244571.402    95182636.5424                 
                
  20300889.852   108481816.081                    84374755.169    20300893.844  
  20300889.988  
  23881194.250   125496552.973    23881201.105    97789572.1044   23881201.141  
                
  21705534.609   116069250.965                    90276090.193    21705539.184  
  21705533.566  
  22050834.180   117957120.829                                                  
  22050832.480  
  20098899.805   107138485.240                    83329942.738    20098903.539  
  20098899.301  
  20326486.367   108656718.162                    84510784.583    20326490.113  
  20326486.086  
 21  8 16 21 43 10.0000000  0 15G17G15G13G14G30G 5R 6R 4G19R15G 7R24
                                R23R14R 5
  21549079.523   113241185.496    21549086.148    88239920.9174   21549086.137  
                
  21739929.781   114244102.507    21739936.238    89021412.5274   21739936.195  
                
  20415174.812   107282483.730    20415181.152    83596770.9014                 
                
  20351060.023   106945587.561    20351066.570    83334263.5934   20351066.504  
                
  21470742.836   112829566.192    21470751.738    87919201.2984   21470752.000  
                
  24705875.344   129830249.860    24705882.801   101166463.9014   24705882.867  
                
  23351298.977   124606984.601                                                  
  23351296.551  
  21530614.281   115295466.510                    89674241.487    21530617.398  
  21530613.676  
  23237555.117   122114174.882    23237560.016    95153925.8594                 
                
  20298088.883   108466848.506                    84363113.728    20298092.867  
  20298089.023  
  23886515.820   125524517.832    23886522.688    97811362.8884   23886522.680  
                
  21701307.992   116046649.384                    90258511.194    21701312.539  
  21701306.949  
  22052054.492   117963648.565                                                  
  22052052.809  
  20101704.766   107153437.235                    83341572.077    20101708.508  
  20101704.266  
  20327193.477   108660498.059                    84513724.505    20327197.207  
  20327193.199  
 21  8 16 21 43 20.0000000  0 15G17G15G13G14G30G 5R 6R 4G19R15G 7R24
                                R23R14R 5
  21545190.609   113220749.178    21545197.273    88223996.5194   21545197.242  
                
  21737241.570   114229975.936    21737248.020    89010404.8034   21737247.961  
                
  20414892.641   107281000.926    20414899.004    83595615.4684                 
                
  20352722.555   106954324.271    20352729.102    83341071.4124   20352729.027  
                
  21474233.180   112847908.026    21474242.051    87933493.6284   21474242.316  
                
  24711304.859   129858782.085    24711312.273   101188696.8054   24711312.320  
                
  23344843.375   124572536.862                                                  
  23344841.035  
  21537836.578   115334141.360                    89704321.918    21537839.633  
  21537835.949  
  23230547.320   122077348.469    23230552.152    95125229.9454                 
                
  20295293.898   108451913.016                    84351497.240    20295297.859  
  20295294.031  
  23891840.852   125552500.907    23891847.719    97833167.9014   23891847.707  
                
  21697094.648   116024118.832                    90240987.431    21697099.184  
  21697093.621  
  22053291.703   117970266.780                                                  
  22053290.016  
  20104515.156   107168418.212                    83353223.942    20104518.910  
  20104514.660  
  20327918.055   108664371.338                    84516737.051    20327921.777  
  20327917.773  
 21  8 16 21 43 30.0000000  0 15G17G15G13G14G30G 5R 6R 4G19R15G 7R24
                                R23R14R 5
  21541311.547   113200364.636    21541318.234    88208112.4704   21541318.188  
                
  21734565.250   114215911.799    21734571.695    88999445.7384   21734571.621  
                
  20414622.969   107279583.741    20414629.359    83594511.1694                 
                
  20354393.500   106963105.161    20354400.043    83347913.6634   20354399.973  
                
  21477729.742   112866282.549    21477738.602    87947811.4384   21477738.859  
                
  24716737.000   129887327.952    24716744.367   101210940.3454   24716744.387  
                
  23338397.312   124538139.462                                                  
  23338395.043  
  21545066.961   115372859.506                    89734436.044    21545069.945  
  21545066.305  
  23223543.133   122040541.077    23223547.832    95096548.8504                 
                
  20292504.898   108437009.458                    84339905.599    20292508.852  
  20292505.004  
  23897169.281   125580502.195    23897176.164    97854987.0854   23897176.180  
                
  21692894.602   116001659.299                    90223518.920    21692899.133  
  21692893.566  
  22054545.836   117976975.494                                                  
  22054544.172  
  20107330.969   107183428.092                    83364898.301    20107334.730  
  20107330.477  
  20328660.133   108668338.138                    84519822.350    20328663.855  
  20328659.855  
 21  8 16 21 43 40.0000000  0 15G17G15G13G14G30G 5R 6R 4G19R15G 7R24
                                R23R14R 5
  21537442.266   113180031.478    21537448.949    88192268.4654   21537448.906  
                
  21731900.766   114201909.880    21731907.195    88988535.1584   21731907.133  
                
  20414365.688   107278231.716    20414372.109    83593457.6414                 
                
  20356072.773   106971929.806    20356079.305    83354790.0064   20356079.238  
                
  21481232.453   112884689.377    21481241.309    87962154.4114   21481241.562  
                
  24722171.625   129915887.037    24722178.977   101233194.1734   24722178.957  
                
  23331960.742   124503792.435                                                  
  23331958.480  
  21552305.305   115411620.611                    89764583.578    21552308.281  
  21552304.637  
  23216542.430   122003752.475    23216547.059    95067882.3924                 
                
  20289721.773   108422137.345                    84328338.400    20289725.719  
  20289721.875  
  23902501.109   125608521.203    23902508.020    97876820.0734   23902508.074  
                
  21688707.766   115979270.494                    90206105.401    21688712.262  
  21688706.715  
  22055816.789   117983774.262                                                  
  22055815.125  
  20110152.094   107198466.277                    83376594.674    20110155.875  
  20110151.613  
  20329419.602   108672397.953                    84522979.977    20329423.324  
  20329419.312  
 21  8 16 21 43 50.0000000  0 15G17G15G13G14G30G 5R 6R 4G19R15G 7R24
                                R23R14R 5
  21533582.750   113159749.610    21533589.410    88176464.4034   21533589.371  
                
  21729248.117   114187970.138    21729254.527    88977673.0154   21729254.465  
                
  20414120.789   107276944.754    20414127.246    83592454.8154                 
                
  20357760.328   106980797.972    20357766.848    83361700.2634   20357766.789  
                
  21484741.273   112903128.315    21484750.113    87976522.4084   21484750.359  
                
  24727608.781   129944459.056    24727616.031   101255458.0944   24727615.992  
                
  23325533.531   124469495.434                                                  
  23325531.242  
  21559551.602   115450424.181                    89794764.150    21559554.566  
  21559550.926  
  23209545.258   121966982.542    23209549.910    95039230.4994                 
                
  20286944.570   108407296.814                    84316795.772    20286948.512  
  20286944.676  
  23907836.219   125636557.766    23907843.250    97898666.7454   23907843.285  
                
  21684534.172   115956952.475                    90188746.946    21684538.656  
  21684533.117  
  22057104.547   117990662.866                                                  
  22057102.859  
  20112978.531   107213532.782                    83388313.060    20112982.301  
  20112978.066  
  20330196.422   108676550.524                    84526209.748    20330200.156  
  20330196.098  
 21  8 16 21 44  0.0000000  0 16G17G15G13G14G30G 5R17R 6R 4G19R15G 7
                                R24R23R14R 5
  21529732.930   113139518.725    21529739.574    88160700.0824   21529739.539  
                
  21726607.227   114174092.174    21726613.621    88966859.0244   21726613.574  
                
  20413888.219   107275722.534    20413894.707    83591502.4324                 
                
  20359456.102   106989709.348    20359462.617    83368644.1904   20359462.555  
                
  21488256.164   112921599.098    21488264.977    87990915.2274   21488265.230  
                
  24733048.344   129973043.584    24733055.469   101277731.7514   24733055.414  
                
  23472636.164   125606817.732                    97694185.714    23472639.895  
  23472634.414  
  23319115.781   124435248.505                                                  
  23319113.426  
  21566805.656   115489269.751                    89824977.350    21566808.699  
  21566805.020  
  23202551.609   121930231.105    23202556.348    95010593.0434                 
                
  20284173.172   108392487.323                    84305277.293    20284177.098  
  20284173.266  
  23913174.570   125664611.589    23913181.770    97920526.8584   23913181.797  
                
  21680373.758   115934704.859                    90171443.269    21680378.223  
  21680372.688  
  22058409.039   117997641.012                                                  
  22058407.324  
  20115810.203   107228627.190                    83400053.160    20115813.969  
  20115809.742  
  20330990.570   108680795.713                    84529511.567    20330994.316  
  20330990.234  
 21  8 16 21 44 10.0000000  0 16G17G15G13G14G30G 5R17R 6R 4G19R15G 7
                                R24R23R14R 5
  21525893.148   113119340.603    21525899.789    88144976.8834   21525899.773  
                
  21723978.438   114160277.801    21723984.832    88956094.5774   21723984.770  
                
  20413668.297   107274566.862    20413674.820    83590601.9014                 
                
  20361160.406   106998665.548    20361166.918    83375623.0504   20361166.855  
                
  21491777.422   112940103.389    21491786.219    88005334.1564   21491786.477  
                
  24738490.453   130001642.168    24738497.586   101300016.3634   24738497.547  
                
  23464654.664   125564107.256                    97660966.465    23464658.543  
  23464652.930  
  23312707.750   124401053.459                                                  
  23312705.395  
  21574067.852   115528158.989                    89855224.527    21574070.961  
  21574067.238  
  23195561.797   121893499.962    23195566.703    94981971.3954                 
                
  20281407.891   108377710.573                    84293784.264    20281411.828  
  20281407.984  
  23918516.641   125692684.352    23918523.910    97942401.7174   23918523.926  
                
  21676226.859   115912529.639                    90154195.886    21676231.312  
  21676225.770  
  22059730.562   118004710.337                                                  
  22059728.809  
  20118647.406   107243751.088                    83411816.187    20118651.160  
  20118646.941  
  20331802.328   108685135.087                    84532886.631    20331806.086  
  20331801.992  
 21  8 16 21 44 20.0000000  0 16G17G15G13G14G30G 5R17R 6R 4G19R15G 7
                                R24R23R14R 5
  21522063.180   113099214.048    21522069.812    88129293.8564   21522069.812  
                
  21721361.500   114146525.740    21721367.906    88945378.6854   21721367.844  
                
  20413460.781   107273476.332    20413467.328    83589752.1354                 
                
  20362872.992   107007665.231    20362879.500    83382635.7844   20362879.438  
                
  21495304.797   112958639.862    21495313.562    88019778.1574   21495313.832  
                
  24743935.000   130030253.294    24743942.121   101322310.7384   24743942.031  
                
  23456674.141   125521401.356                    97627750.761    23456678.023  
  23456672.379  
  23306309.250   124366909.253                                                  
  23306306.895  
  21581337.930   115567090.137                    89885504.304    21581341.086  
  21581337.336  
  23188575.688   121856787.966    23188580.691    94953364.6554                 
                
  20278648.516   108362965.339                    84282315.743    20278652.441  
  20278648.609  
  23923862.023   125720774.696    23923869.348    97964290.2844   23923869.379  
                
  21672093.312   115890425.743                    90137003.955    21672097.762  
  21672092.203  
  22061068.914   118011869.600                                                  
  22061067.137  
  20121489.898   107258903.158                    83423601.130    20121493.633  
  20121489.434  
  20332631.469   108689567.341                    84536333.935    20332635.230  
  20332631.117  
 21  8 16 21 44 30.0000000  0 16G17G15G13G14G30G 5R17R 6R 4G19R15G 7
                                R24R23R14R 5
  21518243.234   113079140.087    21518249.867    88113651.8184   21518249.879  
                
  21718756.625   114132836.988    21718763.035    88934712.1274   21718762.957  
                
  20413265.852   107272451.963    20413272.418    83588953.9254                 
                
  20364594.023   107016709.293    20364600.531    83389683.1084   20364600.469  
                
  21498838.492   112977209.476    21498847.227    88034247.9844   21498847.508  
                
  24749382.047   130058877.883    24749389.176   101344615.6304   24749389.109  
                
  23448694.625   125478701.044                    97594539.423    23448698.480  
  23448692.812  
  23299920.422   124332816.728                                                  
  23299918.039  
  21588616.102   115606064.328                    89915817.564    21588619.277  
  21588615.484  
  23181593.422   121820096.157    23181598.484    94924773.6564                 
                
  20275895.227   108348252.573                    84270872.489    20275899.145  
  20275895.332  
  23929210.953   125748883.595    23929218.328    97986193.2834   23929218.359  
                
  21667973.312   115868394.294                    90119868.403    21667977.793  
  21667972.215  
  22062424.211   118019119.523                                                  
  22062422.426  
  20124337.867   107274084.425                    83435408.787    20124341.602  
  20124337.410  
  20333478.180   108694093.466                    84539854.251    20333481.945  
  20333477.801  
 21  8 16 21 44 40.0000000  0 16G17G15G13G14G30G 5R17R 6R 4G19R15G 7
                                R24R23R14R 5
  21514433.203   113059118.275    21514439.848    88098050.4144   21514439.852  
                
  21716163.688   114119211.048    21716170.109    88924094.5074   21716170.016  
                
  20413083.414   107271493.237    20413089.988    83588206.8634                 
                
  20366323.383   107025797.169    20366329.891    83396764.5654   20366329.816  
                
  21502378.383   112995811.708    21502387.094    88048743.2254   21502387.387  
                
  24754831.586   130087515.331    24754838.637   101366930.5254   24754838.598  
                
  23440716.023   125436006.101                    97561332.254    23440719.953  
  23440714.113  
  23293541.242   124298775.786                                                  
  23293538.852  
  21595902.148   115645080.750                    89946163.659    21595905.363  
  21595901.500  
  23174614.883   121783424.159    23174619.996    94896198.0854                 
                
  20273147.914   108333571.793                    84259454.105    20273151.840  
  20273148.020  
  23934563.328   125777010.466    23934570.711    98008110.3274   23934570.727  
                
  21663866.742   115846434.688                    90102788.740    21663871.246  
  21663865.645  
  22063796.375   118026459.737                                                  
  22063794.562  
  20127191.211   107289294.346                    83447238.730    20127194.941  
  20127190.754  
  20334342.320   108698712.758                    84543447.029    20334346.074  
  20334341.945  
 21  8 16 21 44 50.0000000  0 16G17G15G13G14G30G 5R17R 6R 4G19R15G 7
                                R24R23R14R 5
  21510633.141   113039148.831    21510639.797    88082489.8104   21510639.793  
                
  21713582.742   114105648.165    21713589.172    88913526.0314   21713589.070  
                
  20412913.523   107270600.417    20412920.098    83587511.1604                 
                
  20368061.102   107034928.911    20368067.605    83403880.2124   20368067.543  
                
  21505924.492   113014446.651    21505933.172    88063263.9554   21505933.477  
                
  24760283.555   130116165.671    24760290.590   101389255.4874   24760290.578  
                
  23432738.445   125393316.649                    97528129.352    23432742.391  
  23432736.480  
  23287171.773   124264786.555                                                  
  23287169.375  
  21603196.070   115684139.199                    89976542.444    21603199.301  
  21603195.375  
  23167640.258   121746772.211    23167645.336    94867638.1384                 
                
  20270406.602   108318923.014                    84248060.633    20270410.512  
  20270406.703  
  23939919.141   125805155.428    23939926.520    98030041.4374   23939926.527  
                
  21659773.664   115824547.220                    90085765.157    21659778.188  
  21659772.551  
  22065185.430   118033890.280                                                  
  22065183.602  
  20130049.930   107304532.908                    83459090.941    20130053.633  
  20130049.457  
  20335223.898   108703425.331                    84547112.366    20335227.652  
  20335223.512  
 21  8 16 21 45  0.0000000  0 16G17G15G13G14G30G 5R17R 6R 4G19R15G 7
                                R24R23R14R 5
  21506842.992   113019231.496    21506849.648    88066969.8254   21506849.656  
                
  21711013.781   114092148.184    21711020.219    88903006.5714   21711020.090  
                
  20412756.125   107269773.242    20412762.691    83586866.6094                 
                
  20369807.109   107044104.222    20369813.617    83411029.8054   20369813.559  
                
  21509476.789   113033114.041    21509485.441    88077809.9724   21509485.758  
                
  24765737.914   130144828.641    24765744.945   101411590.2634   24765744.953  
                
  23424761.938   125350632.686                    97494930.729    23424765.906  
  23424759.953  
  23280811.992   124230849.007                                                  
  23280809.582  
  21610497.820   115723239.417                    90006953.724    21610501.051  
  21610497.078  
  23160669.500   121710140.152    23160674.484    94839093.6924                 
                
  20267671.234   108304306.070                    84236691.892    20267675.145  
  20267671.355  
  23945278.391   125833318.192    23945285.719    98051986.4594   23945285.707  
                
  21655694.062   115802731.844                    90068797.659    21655698.598  
  21655692.938  
  22066591.336   118041410.951                                                  
  22066589.484  
  20132913.977   107319799.877                    83470965.242    20132917.664  
  20132913.496  
  20336122.906   108708230.980                    84550850.089    20336126.656  
  20336122.527  
 21  8 16 21 45 10.0000000  0 16G17G15G13G14G30G 5R17R 6R 4G19R15G 7
                                R24R23R14R 5
  21503062.859   112999366.787    21503069.520    88051490.8364   21503069.547  
                
  21708456.867   114078711.554    21708463.309    88892536.4634   21708463.172  
                
  20412611.297   107269012.167    20412617.848    83586273.5564                 
                
  20371561.477   107053323.509    20371567.988    83418213.6614   20371567.926  
                
  21513035.336   113051814.331    21513043.965    88092381.6184   21513044.293  
                
  24771194.734   130173504.381    24771201.746   101433935.0014   24771201.742  
                
  23416786.578   125307954.914                    97461736.890    23416790.555  
  23416784.586  
  23274462.008   124196963.710                                                  
  23274459.500  
  21617807.383   115762381.758                    90037397.757    21617810.625  
  21617806.637  
  23153702.625   121673528.487    23153707.516    94810565.1294                 
                
  20264941.914   108289721.386                    84225348.250    20264945.820  
  20264942.051  
  23950641.039   125861499.233    23950648.375    98073945.7044   23950648.348  
                
  21651628.031   115780989.030                    90051886.594    21651632.555  
  21651626.918  
  22068014.141   118049022.068                                                  
  22068012.242  
  20135783.422   107335095.630                    83482861.935    20135787.109  
  20135782.961  
  20337039.367   108713130.014                    84554660.443    20337043.125  
  20337038.977  
 21  8 16 21 45 20.0000000  0 16G17G15G13G14G30G 5R17R 6R 4G19R15G 7
                                R24R23R14R 5
  21499292.742   112979554.726    21499299.414    88036052.8724   21499299.422  
                
  21705912.000   114065338.221    21705918.445    88882115.6854   21705918.320  
                
  20412479.031   107268317.083    20412485.562    83585731.9394                 
                
  20373324.180   107062586.593    20373330.699    83425431.6534   20373330.641  
                
  21516600.117   113070547.371    21516608.738    88106978.7994   21516609.082  
                
  24776653.969   130202192.712    24776660.953   101456289.5504   24776660.934  
                
  23408812.531   125265283.253                    97428547.828    23408816.363  
  23408810.426  
  23268121.562   124163130.306                                                  
  23268119.109  
  21625124.797   115801565.790                    90067874.228    21625128.016  
  21625124.047  
  23146739.602   121636937.241    23146744.367    94782052.4754                 
                
  20262218.586   108275168.757                    84214029.549    20262222.496  
  20262218.734  
  23956007.234   125889698.388    23956014.527    98095919.0774   23956014.480  
                
  21647575.625   115759318.988                    90035032.117    21647580.121  
  21647574.527  
  22069453.828   118056723.484                                                  
  22069451.883  
  20138658.234   107350419.988                    83494780.887    20138661.926  
  20138657.766  
  20337973.312   108718122.469                    84558543.453    20337977.066  
  20337972.906  
 21  8 16 21 45 30.0000000  0 16G17G15G13G14G30G 5R17R 6R 4G19R15G 7
                                R24R23R14R 5
  21495532.516   112959794.609    21495539.191    88020655.3864   21495539.191  
                
  21703379.023   114052027.343    21703385.484    88871743.5844   21703385.348  
                
  20412359.180   107267687.238    20412365.684    83585241.1484                 
                
  20375095.062   107071892.639    20375101.590    83432683.1214   20375101.539  
                
  21520170.977   113089312.388    21520179.586    88121600.8964   21520179.938  
                
  24782115.375   130230892.654    24782122.363   101478653.1434   24782122.344  
                
  23400839.383   125222617.023                    97395362.988    23400843.148  
  23400837.234  
  23261790.969   124129348.750                                                  
  23261788.488  
  21632449.711   115840790.512                    90098382.351    21632452.980  
  21632449.000  
  23139780.320   121600365.735    23139784.996    94753555.2024                 
                
  20259501.109   108260647.426                    84202735.175    20259505.016  
  20259501.266  
  23961376.672   125917914.875    23961383.918    98117905.9584   23961383.871  
                
  21643536.672   115737720.942                    90018233.653    21643541.176  
  21643535.566  
  22070910.250   118064514.458                                                  
  22070908.289  
  20141538.281   107365772.247                    83506721.534    20141541.965  
  20141537.816  
  20338924.547   108723207.372                    84562498.390    20338928.293  
  20338924.145  
 21  8 16 21 45 40.0000000  0 16G17G15G13G14G30G 5R17R 6R 4G19R15G 7
                                R24R23R14R 5
  21491782.273   112940086.930    21491788.945    88005298.7554   21491788.949  
                
  21700858.047   114038779.528    21700864.523    88861420.6094   21700864.391  
                
  20412251.805   107267122.971    20412258.281    83584801.4634                 
                
  20376874.195   107081242.038    20376880.719    83439968.3654   20376880.676  
                
  21523748.008   113108109.819    21523756.617    88136248.2414   21523756.977  
                
  24787579.031   130259604.496    24787586.027   101501026.0064   24787586.020  
                
  23392867.258   125179957.028                    97362182.969    23392871.094  
  23392865.184  
  23255470.094   124095619.385                                                  
  23255467.590  
  21639782.281   115880056.370                    90128922.443    21639785.605  
  21639781.605  
  23132824.836   121563814.510    23132829.539    94725073.7374                 
                
  20256789.609   108246157.995                    84191465.631    20256793.508  
  20256789.770  
  23966749.477   125946149.116    23966756.730    98139906.6704   23966756.652  
                
  21639511.289   115716195.485                    90001491.652    21639515.781  
  21639510.164  
  22072383.477   118072395.234                                                  
  22072381.488  
  20144423.617   107381152.725                    83518684.130    20144427.289  
  20144423.148  
  20339893.188   108728385.274                    84566525.642    20339896.945  
  20339892.785  
 21  8 16 21 45 50.0000000  0 16G17G15G13G14G30G 5R17R 6R 4G19R15G 7
                                R24R23R14R 5
  21488041.969   112920431.532    21488048.633    87989982.8764   21488048.633  
                
  21698349.031   114025594.578    21698355.535    88851146.6294   21698355.383  
                
  20412156.891   107266624.180    20412163.348    83584412.7944                 
                
  20378661.516   107090634.509    20378668.035    83447287.1714   20378668.000  
                
  21527331.148   113126939.367    21527339.770    88150920.6124   21527340.121  
                
  24793044.914   130288328.011    24793051.895   101523407.9644   24793051.906  
                
  23384896.344   125137303.062                    97329007.660    23384900.168  
  23384894.250  
  23249159.023   124061942.086                                                  
  23249156.426  
  21647122.523   115919362.856                    90159494.147    21647125.801  
  21647121.820  
  23125873.117   121527283.498    23125877.980    94696608.0234                 
                
  20254083.992   108231700.003                    84180220.521    20254087.883  
  20254084.148  
  23972125.602   125974400.814    23972132.906    98161920.9814   23972132.785  
                
  21635499.438   115694742.374                    89984805.907    21635503.910  
  21635498.285  
  22073873.484   118080365.795                                                  
  22073871.484  
  20147314.211   107396561.203                    83530668.498    20147317.875  
  20147313.754  
  20340879.180   108733655.940                    84570625.035    20340882.914  
  20340878.797  
 21  8 16 21 46  0.0000000  0 16G17G15G13G14G30G 5R17R 6R 4G19R15G 7
                                R24R23R14R 5
  21484311.719   112900828.891    21484318.363    87974708.0984   21484318.363  
                
  21695852.070   114012472.995    21695858.602    88840922.0124   21695858.422  
                
  20412074.539   107266191.398    20412080.996    83584075.5614                 
                
  20380457.117   107100070.436    20380463.633    83454639.8384   20380463.613  
                
  21530920.484   113145801.503    21530929.105    88165618.3734   21530929.457  
                
  24798513.055   130317063.572    24798520.062   101545799.3114   24798520.094  
                
  23376926.664   125094655.656                    97295837.478    23376930.480  
  23376924.578  
  23242857.773   124028317.382                                                  
  23242855.168  
  21654470.328   115958710.380                    90190097.786    21654473.648  
  21654469.648  
  23118925.328   121490773.140    23118930.348    94668158.4164                 
                
  20251384.375   108217274.065                    84169000.357    20251388.262  
  20251384.523  
  23977505.102   126002670.446    23977512.457    98183949.2524   23977512.316  
                
  21631501.273   115673362.462                    89968177.091    21631505.707  
  21631500.105  
  22075380.320   118088426.358                                                  
  22075378.348  
  20150210.133   107411998.091                    83542674.982    20150213.805  
  20150209.672  
  20341882.570   108739019.592                    84574796.768    20341886.297  
  20341882.199  
 21  8 16 21 46 10.0000000  0 16G17G15G13G14G30G 5R17R 6R 4G19R15G 7
                                R24R23R14R 5
  21480591.570   112881279.336    21480598.188    87959474.6814   21480598.188  
                
  21693367.227   113999415.015    21693373.766    88830746.9694   21693373.586  
                
  20412004.797   107265824.848    20412011.266    83583789.9334                 
                
  20382261.000   107109549.928    20382267.516    83462026.4584   20382267.504  
                
  21534516.062   113164696.365    21534524.691    88180341.6374   21534525.047  
                
  24803983.508   130345811.157    24803990.504   101568200.0464   24803990.562  
                
  23368958.234   125052015.231                    97262672.732    23368962.094  
  23368956.211  
  23236566.422   123994745.522                                                  
  23236563.812  
  21661825.742   115998098.798                    90220733.221    21661829.137  
  21661825.090  
  23111981.523   121454283.757    23111986.715    94639725.1624                 
                
  20248690.773   108202880.283                    84157805.204    20248694.656  
  20248690.902  
  23982888.023   126030958.110    23982895.434    98205991.5794   23982895.293  
                
  21627516.820   115652055.825                    89951605.273    21627521.250  
  21627515.668  
  22076904.016   118096577.110                                                  
  22076902.066  
  20153111.406   107427463.506                    83554703.635    20153115.078  
  20153110.949  
  20342903.383   108744476.383                    84579040.948    20342907.098  
  20342902.988  
 21  8 16 21 46 20.0000000  0 15G17G15G13G14G30R17R 6R 4G19R15G 7R24
                                R23R14R 5
  21476881.352   112861781.979    21476887.930    87944281.9314   21476887.945  
                
  21690894.383   113986420.124    21690900.934    88820621.0844   21690900.758  
                
  20411947.516   107265523.822    20411954.008    83583555.3634                 
                
  20384073.062   107119072.349    20384079.586    83469446.5334   20384079.574  
                
  21538117.758   113183623.410    21538126.418    88195089.9724   21538126.766  
                
  23360991.031   125009381.278                    97229513.008    23360994.887  
  23360989.039  
  23230285.016   123961226.468                                                  
  23230282.383  
  21669188.695   116037527.454                    90251399.934    21669192.176  
  21669188.086  
  23105041.711   121417814.959    23105046.988    94611307.9384                 
                
  20246003.086   108188518.097                    84146634.617    20246006.977  
  20246003.215  
  23988274.344   126059263.208    23988281.730    98228047.4904   23988281.574  
                
  21623546.000   115630822.017                    89935090.093    21623550.375  
  21623544.871  
  22078444.469   118104817.498                                                  
  22078442.535  
  20156017.898   107442956.698                    83566753.896    20156021.570  
  20156017.445  
  20343941.492   108750025.669                    84583357.039    20343945.199  
  20343941.082  
 21  8 16 21 46 30.0000000  0 15G17G15G13G14G30R17R 6R 4G19R15G 7R24
                                R23R14R 5
  21473181.289   112842338.009    21473187.852    87929130.7944   21473187.867  
                
  21688433.672   113973489.030    21688440.242    88810544.9044   21688440.059  
                
  20411902.828   107265288.973    20411909.348    83583372.3664                 
                
  20385893.406   107128638.341    20385899.938    83476900.5564   20385899.926  
                
  21541725.688   113202583.238    21541734.371    88209863.8614   21541734.707  
                
  23353025.266   124966754.743                    97196359.045    23353029.117  
  23353023.270  
  23224013.523   123927760.743                                                  
  23224010.930  
  21676559.305   116076996.897                    90282098.391    21676562.812  
  21676558.719  
  23098106.062   121381367.562    23098111.305    94582907.3794                 
                
  20243321.422   108174188.174                    84135489.140    20243325.328  
  20243321.535  
  23993664.086   126087586.416    23993671.488    98250117.5444   23993671.324  
                
  21619588.961   115609661.959                    89918632.272    21619593.332  
  21619587.852  
  22080001.742   118113147.934                                                  
  22079999.789  
  20158929.750   107458478.547                    83578826.458    20158933.422  
  20158929.293  
  20344997.055   108755668.268                    84587745.735    20345000.773  
  20344996.637  
 21  8 16 21 46 40.0000000  0 15G17G15G13G14G30R17R 6R 4G19R15G 7R24
                                R23R14R 5
  21469490.734   112822944.001    21469497.281    87914018.5764   21469497.285  
                
  21685984.469   113960618.364    21685991.059    88800515.8104   21685990.859  
                
  20411870.086   107265116.887    20411876.641    83583238.2684                 
                
  20387721.383   107138244.411    20387727.922    83484385.8064   20387727.906  
                
  21545339.219   113221572.455    21545347.930    88224660.6464   21545348.246  
                
  23345060.273   124924132.293                    97163208.244    23345064.094  
  23345058.277  
  23217751.477   123894345.104                                                  
  23217748.883  
  21683936.867   116116503.300                    90312825.596    21683940.352  
  21683936.293  
  23091173.875   121344938.220    23091179.047    94554520.8764                 
                
  20240645.133   108159886.916                    84124365.945    20240649.043  
  20240645.227  
  23999056.641   126115924.328    23999064.066    98272199.0274   23999063.863  
                
  21615645.047   115588572.178                    89902229.132    21615649.441  
  21615643.938  
  22081575.250   118121565.181                                                  
  22081573.262  
  20161846.305   107474025.426                    83590918.464    20161849.984  
  20161845.848  
  20346069.430   108761400.700                    84592204.296    20346073.145  
  20346069.043  
 21  8 16 21 46 50.0000000  0 15G17G15G13G14G30R17R 6R 4G19R15G 7R24
                                R23R14R 5
  21465810.578   112803604.631    21465817.113    87898948.9444   21465817.121  
                
  21683547.633   113947812.735    21683554.254    88790537.4044   21683554.062  
                
  20411850.180   107265012.296    20411856.773    83583156.7574                 
                
  20389557.844   107147895.120    20389564.391    83491905.8394   20389564.379  
                
  21548959.203   113240595.630    21548967.953    88239483.8934   21548968.250  
                
  23337096.992   124881518.696                    97130064.335    23337100.738  
  23337094.934  
  23211499.648   123860984.045                                                  
  23211497.109  
  21691322.203   116156051.221                    90343585.070    21691325.645  
  21691321.617  
  23084245.945   121308531.553    23084251.094    94526152.0474                 
                
  20237975.125   108145619.237                    84113268.858    20237979.027  
  20237975.223  
  24004452.852   126144281.428    24004460.277    98294295.4424   24004460.059  
                
  21611715.188   115567557.531                    89885884.413    21611719.582  
  21611714.070  
  22083165.836   118130073.758                                                  
  22083163.805  
  20164768.430   107489602.027                    83603033.587    20164772.105  
  20164767.957  
  20347159.438   108767227.387                    84596736.158    20347163.152  
  20347159.074  
 21  8 16 21 47  0.0000000  0 15G17G15G13G14G30R17R 6R 4G19R15G 7R24
                                R23R14R 5
  21462140.570   112784318.600    21462147.102    87883920.8774   21462147.117  
                
  21681122.930   113935070.830    21681129.566    88780608.6534   21681129.359  
                
  20411842.883   107264973.875    20411849.516    83583126.8254                 
                
  20391402.547   107157589.086    20391409.098    83499459.5794   20391409.082  
                
  21552585.406   113259651.428    21552594.191    88254332.5494   21552594.477  
                
  23329135.039   124838912.890                    97096926.463    23329138.809  
  23329133.027  
  23205257.938   123827676.800                                                  
  23205255.422  
  21698715.156   116195639.364                    90374375.844    21698718.469  
  21698714.504  
  23077322.000   121272146.326    23077327.223    94497799.9434                 
                
  20235311.109   108131383.564                    84102196.682    20235315.004  
  20235311.203  
  24009852.477   126172656.397    24009859.887    98316405.7984   24009859.676  
                
  21607799.141   115546616.737                    89869597.130    21607803.562  
  21607798.004  
  22084773.242   118138672.297                                                  
  22084771.219  
  20167695.859   107505206.833                    83615170.663    20167699.539  
  20167695.383  
  20348266.859   108773147.073                    84601340.363    20348270.582  
  20348266.543  
 21  8 16 21 47 10.0000000  0 15G17G15G13G14G30R17R 6R 4G19R15G 7R24
                                R23R14R 5
  21458480.781   112765086.301    21458487.305    87868934.6794   21458487.316  
                
  21678710.469   113922393.276    21678717.090    88770730.0414   21678716.867  
                
  20411848.258   107265002.080    20411854.918    83583148.7964                 
                
  20393255.570   107167326.796    20393262.129    83507047.4064   20393262.113  
                
  21556217.922   113278740.395    21556226.734    88269207.0594   21556227.000  
                
  23321174.609   124796315.474                    97063795.151    23321178.457  
  23321172.656  
  23199026.336   123794423.993                                                  
  23199023.895  
  21706115.609   116235267.794                    90405197.962    21706118.812  
  21706114.879  
  23070402.242   121235783.222    23070407.547    94469465.0704                 
                
  20232653.211   108117180.596                    84091149.934    20232657.113  
  20232653.301  
  24015255.578   126201049.749    24015262.949    98338530.4764   24015262.770  
                
  21603897.039   115525750.521                    89853367.898    21603901.531  
  21603895.879  
  22086397.562   118147361.351                                                  
  22086395.570  
  20170628.672   107520840.416                    83627330.117    20170632.359  
  20170628.199  
  20349391.742   108779160.206                    84606017.241    20349395.469  
  20349391.426  
 21  8 16 21 47 20.0000000  0 15G17G15G13G14G30R17R 6R 4G19R15G 7R24
                                R23R14R 5
  21454831.164   112745907.425    21454837.680    87853990.1014   21454837.691  
                
  21676310.164   113909779.593    21676316.758    88760901.1954   21676316.551  
                
  20411866.211   107265096.397    20411872.883    83583222.2894                 
                
  20395116.797   107177107.617    20395123.367    83514668.8254   20395123.355  
                
  21559856.633   113297861.915    21559865.465    88284106.9424   21559865.719  
                
  23313215.688   124753726.049                    97030670.063    23313219.605  
  23313213.789  
  23192804.906   123761224.967                                                  
  23192802.480  
  21713523.367   116274936.021                    90436051.044    21713526.590  
  21713522.637  
  23063486.648   121199441.818    23063492.000    94441147.1134                 
                
  20230001.297   108103009.608                    84080128.058    20230005.199  
  20230001.383  
  24020662.070   126229460.937    24020669.391    98360669.0524   24020669.246  
                
  21600008.781   115504958.413                    89837196.271    21600013.312  
  21600007.574  
  22088038.688   118156140.278                                                  
  22088036.695  
  20173566.812   107536502.321                    83639511.598    20173570.504  
  20173566.355  
  20350534.016   108785266.282                    84610766.398    20350537.754  
  20350533.707  
 21  8 16 21 47 30.0000000  0 15G17G15G13G14G30R17R 6R 4G19R15G 7R24
                                R23R14R 5
  21451191.688   112726781.851    21451198.195    87839087.0564   21451198.203  
                
  21673921.969   113897229.536    21673928.535    88751121.9284   21673928.336  
                
  20411896.695   107265256.559    20411903.367    83583347.0904                 
                
  20396986.164   107186931.221    20396992.750    83522323.5844   20396992.730  
                
  21563501.484   113317015.739    21563510.320    88299031.9904   21563510.574  
                
  23305258.336   124711144.469                    96997551.058    23305262.211  
  23305256.434  
  23186593.547   123728079.728                                                  
  23186591.145  
  21720938.367   116314643.485                    90466934.618    21720941.734  
  21720937.668  
  23056575.219   121163121.949    23056580.559    94412845.9174                 
                
  20227355.359   108088870.495                    84069130.978    20227359.254  
  20227355.434  
  24026071.906   126257889.670    24026079.168    98382821.3094   24026079.027  
                
  21596134.352   115484240.247                    89821082.151    21596138.895  
  21596133.094  
  22089696.531   118165008.668                                                  
  22089694.508  
  20176510.164   107552192.023                    83651714.697    20176513.859  
  20176509.715  
  20351693.602   108791464.909                    84615587.558    20351697.344  
  20351693.266  
 21  8 16 21 47 40.0000000  0 15G17G15G13G14G30R17R 6R 4G19R15G 7R24
                                R23R14R 5
  21447562.391   112707709.770    21447568.910    87824225.7044   21447568.914  
                
  21671545.914   113884743.285    21671552.457    88741392.3834   21671552.289  
                
  20411939.727   107265482.680    20411946.391    83583523.2874                 
                
  20398863.688   107196797.689    20398870.281    83530011.7434   20398870.266  
                
  21567152.508   113336201.964    21567161.328    88313982.3014   21567161.594  
                
  23297302.531   124668571.140                    96964438.472    23297306.340  
  23297300.621  
  23180392.305   123694988.596                                                  
  23180389.902  
  21728360.766   116354390.189                    90497848.711    21728364.176  
  21728360.074  
  23049667.961   121126823.868    23049673.234    94384561.6944                 
                
  20224715.359   108074763.143                    84058158.591    20224719.250  
  20224715.426  
  24031485.039   126286336.115    24031492.312    98404987.3734   24031492.180  
                
  21592273.812   115463596.331                    89805025.812    21592278.367  
  21592272.492  
  22091371.125   118173966.682                                                  
  22091369.098  
  20179458.758   107567909.677                    83663939.537    20179462.449  
  20179458.344  
  20352870.492   108797756.090                    84620480.689    20352874.246  
  20352870.145  
 21  8 16 21 47 50.0000000  0 15G17G15G13G14G30R17R 6R 4G19R15G 7R24
                                R23R14R 5
  21443943.352   112688691.535    21443949.883    87809406.3084   21443949.871  
                
  21669182.062   113872321.161    21669188.582    88731712.8144   21669188.434  
                
  20411995.383   107265775.077    20412002.023    83583751.1274                 
                
  20400749.406   107206707.203    20400756.012    83537733.4464   20400756.000  
                
  21570809.734   113355420.807    21570818.551    88328958.0194   21570818.816  
                
  23289348.359   124626006.329                    96931332.496    23289352.109  
  23289346.422  
  23174201.211   123661951.829                                                  
  23174198.820  
  21735790.391   116394176.220                    90528793.387    21735793.941  
  21735789.781  
  23042764.914   121090547.912    23042770.121    94356294.7224                 
                
  20222081.383   108060688.002                    84047211.262    20222085.277  
  20222081.438  
  24036901.625   126314800.350    24036908.855    98427167.2954   24036908.723  
                
  21588427.234   115443027.020                    89789027.449    21588431.816  
  21588425.898  
  22093062.516   118183014.536                                                  
  22093060.461  
  20182412.656   107583655.570                    83676186.327    20182416.336  
  20182412.266  
  20354064.750   108804140.124                    84625446.051    20354068.496  
  20354064.391  
 21  8 16 21 48  0.0000000  0 15G17G15G13G14G30R17R 6R 4G19R15G 7R24
                                R23R14R 5
  21440334.477   112669726.755    21440340.992    87794628.5574   21440340.977  
                
  21666830.391   113859963.035    21666836.883    88722083.1034   21666836.758  
                
  20412063.594   107266133.520    20412070.219    83584030.4354                 
                
  20402643.258   107216659.483    20402649.875    83545488.4724   20402649.859  
                
  21574473.141   113374672.061    21574481.945    88343958.9884   21574482.223  
                
  23281395.727   124583450.048                    96898233.156    23281399.430  
  23281393.770  
  23168020.297   123628969.544                                                  
  23168017.918  
  21743227.297   116434001.117                    90559768.311    21743230.980  
  21743226.742  
  23035866.078   121054293.916    23035871.207    94328044.8664                 
                
  20219453.383   108046644.796                    84036288.779    20219457.270  
  20219453.414  
  24042321.539   126343282.213    24042328.773    98449360.9444   24042328.629  
                
  21584594.625   115422532.389                    89773087.196    21584599.227  
  21584593.277  
  22094770.656   118192151.970                                                  
  22094768.590  
  20185371.781   107599429.377                    83688454.851    20185375.465  
  20185371.410  
  20355276.328   108810616.684                    84630483.375    20355280.066  
  20355275.969  
 21  8 16 21 48 10.0000000  0 15G17G15G13G14G30R17R 6R 4G19R15G 7R24
                                R23R14R 5
  21436735.664   112650814.854    21436742.152    87779892.0154   21436742.145  
                
  21664490.742   113847668.109    21664497.203    88712502.6384   21664497.082  
                
  20412144.250   107266557.360    20412150.844    83584360.7034                 
                
  20404545.117   107226653.807    20404551.738    83553276.2604   20404551.723  
                
  21578142.570   113393955.000    21578151.375    88358984.6544   21578151.660  
                
  23273444.633   124540901.783                    96865140.061    23273448.207  
  23273442.617  
  23161849.539   123596041.026                                                  
  23161847.109  
  21750671.297   116473864.088                    90590772.824    21750675.133  
  21750670.793  
  23028971.305   121018061.338    23028976.383    94299811.6834                 
                
  20216831.234   108032632.832                    84025390.589    20216835.117  
  20216831.250  
  24047744.734   126371780.993    24047751.898    98471567.7954   24047751.746  
                
  21580775.773   115402111.368                    89757204.183    21580780.387  
  21580774.445  
  22096495.391   118201378.222                                                  
  22096493.285  
  20188336.047   107615230.506                    83700744.622    20188339.730  
  20188335.688  
  20356505.109   108817185.196                    84635592.229    20356508.840  
  20356504.750  
 21  8 16 21 48 20.0000000  0 15G17G15G13G14G30R17R 6R 4G19R15G 7R24
                                R23R14R 5
  21433147.086   112631956.702    21433153.555    87765197.3404   21433153.551  
                
  21662163.258   113835437.086    21662169.688    88702971.9704   21662169.590  
                
  20412237.477   107267047.221    20412244.039    83584742.4114                 
                
  20406455.086   107236690.753    20406461.711    83561097.2624   20406461.695  
                
  21581818.156   113413270.262    21581826.977    88374035.5034   21581827.242  
                
  23265495.141   124498362.259                    96832053.774    23265498.637  
  23265493.105  
  23155688.977   123563167.064                                                  
  23155686.535  
  21758122.719   116513765.647                    90621807.360    21758126.504  
  21758122.148  
  23022080.703   120981850.945    23022085.754    94271595.7844                 
                
  20214215.055   108018652.781                    84014517.219    20214218.945  
  20214215.070  
  24053171.180   126400297.361    24053178.371    98493788.3254   24053178.219  
                
  21576970.938   115381765.246                    89741379.428    21576975.578  
  21576969.602  
  22098236.820   118210693.819                                                  
  22098234.695  
  20191305.516   107631059.393                    83713055.970    20191309.195  
  20191305.164  
  20357751.203   108823846.230                    84640773.023    20357754.945  
  20357750.859  
 21  8 16 21 48 30.0000000  0 15G17G15G13G14G30R17R 6R 4G19R15G 7R24
                                R23R14R 5
  21429568.836   112613152.869    21429575.316    87750545.0074   21429575.316  
                
  21659848.070   113823270.732    21659854.480    88693491.7004   21659854.383  
                
  20412343.375   107267603.744    20412349.898    83585176.0624                 
                
  20408373.258   107246770.828    20408379.875    83568951.8614   20408379.863  
                
  21585499.992   113432618.410    21585508.828    88389111.9814   21585509.086  
                
  23257547.359   124455832.151                    96798974.818    23257550.848  
  23257545.336  
  23149538.750   123530348.314                                                  
  23149536.309  
  21765581.359   116553706.087                    90652872.144    21765585.102  
  21765580.773  
  23015194.438   120945663.351    23015199.457    94243397.6654                 
                
  20211604.953   108004705.250                    84003669.139    20211608.836  
  20211604.969  
  24058601.156   126428831.803    24058608.234    98516022.9594   24058608.125  
                
  21573180.164   115361494.460                    89725613.265    21573184.852  
  21573178.852  
  22099995.062   118220099.340                                                  
  22099992.902  
  20194280.289   107646916.631                    83725389.386    20194283.973  
  20194279.945  
  20359014.656   108830600.117                    84646026.041    20359018.422  
  20359014.316  
 21  8 16 21 48 40.0000000  0 15G17G15G13G14G30R17R 6R 4G19R15G 7R24
                                R23R14R 5
  21426000.750   112594402.433    21426007.238    87735934.2834   21426007.230  
                
  21657545.000   113811168.020    21657551.410    88684061.0204   21657551.316  
                
  20412461.797   107268226.025    20412468.293    83585660.9564                 
                
  20410299.453   107256893.041    20410306.055    83576839.3074   20410306.059  
                
  21589187.906   113451998.475    21589196.770    88404213.3344   21589197.000  
                
  23249601.195   124413310.819                    96765902.685    23249604.691  
  23249599.195  
  23143398.758   123497584.047                                                  
  23143396.324  
  21773047.156   116593684.354                    90683966.347    21773050.742  
  21773046.473  
  23008312.328   120909497.804    23008317.359    94215216.7214                 
                
  20209000.734   107990789.115                    83992845.479    20209004.633  
  20209000.758  
  24064034.352   126457383.405    24064041.352    98538270.9524   24064041.281  
                
  21569403.367   115341298.303                    89709905.159    21569408.066  
  21569402.047  
  22101769.969   118229593.972                                                  
  22101767.762  
  20197260.219   107662801.299                    83737744.139    20197263.902  
  20197259.871  
  20360295.344   108837446.112                    84651350.697    20360299.113  
  20360295.000  
 21  8 16 21 48 50.0000000  0 15G17G15G13G14G30R17R 6R 4G19R15G 7R24
                                R23R14R 5
  21422442.789   112575705.228    21422449.262    87721365.0354   21422449.250  
                
  21655254.016   113799128.799    21655260.422    88674679.8104   21655260.344  
                
  20412592.672   107268913.761    20412599.148    83586196.8524                 
                
  20412233.602   107267057.062    20412240.184    83584759.3214   20412240.195  
                
  21592881.844   113471410.181    21592890.730    88419339.3324   21592890.938  
                
  23241656.688   124370798.240                    96732837.344    23241660.203  
  23241654.707  
  23137268.945   123464874.218                                                  
  23137266.473  
  21780520.008   116633699.990                    90715089.625    21780523.387  
  21780519.207  
  23001434.359   120873354.106    23001439.441    94187052.8044                 
                
  20206402.352   107976904.184                    83982046.097    20206406.281  
  20206402.355  
  24069470.758   126485951.777    24069477.664    98560532.0254   24069477.613  
                
  21565640.453   115321176.385                    89694254.805    21565645.156  
  21565639.133  
  22103561.453   118239177.293                                                  
  22103559.227  
  20200245.211   107678712.967                    83750119.878    20200248.902  
  20200244.855  
  20361593.156   108844383.712                    84656746.603    20361596.953  
  20361592.789  
 21  8 16 21 49  0.0000000  0 15G17G15G13G14G30R17R 6R 4G19R15G 7R24
                                R23R14R 5
  21418895.195   112557062.456    21418901.652    87706838.1984   21418901.656  
                
  21652975.320   113787154.220    21652981.734    88665348.9654   21652981.652  
                
  20412736.195   107269668.005    20412742.652    83586784.5734                 
                
  20414175.898   107277263.909    20414182.477    83592712.7094   20414182.496  
                
  21596582.000   113490854.573    21596590.895    88434490.8004   21596591.098  
                
  23233714.000   124328295.440                    96699779.648    23233717.555  
  23233712.020  
  23131149.516   123432220.036                                                  
  23131146.984  
  21787999.977   116673753.903                    90746242.671    21788003.191  
  21787999.070  
  22994560.742   120837233.471    22994565.887    94158906.8774                 
                
  20203810.023   107963051.616                    83971271.873    20203813.961  
  20203810.012  
  24074910.492   126514538.016    24074917.367    98582806.9984   24074917.344  
                
  21561891.742   115301130.271                    89678663.389    21561896.422  
  21561890.465  
  22105369.695   118248850.183                                                  
  22105367.477  
  20203235.484   107694652.817                    83762517.526    20203239.184  
  20203235.125  
  20362908.320   108851414.032                    84662214.630    20362912.137  
  20362907.910  
 21  8 16 21 49 10.0000000  0 15G17G15G13G14G30R17R 6R 4G19R15G 7R24
                                R23R14R 5
  21415357.953   112538474.160    21415364.406    87692353.8084   21415364.410  
                
  21650708.938   113775244.296    21650715.355    88656068.5134   21650715.277  
                
  20412892.398   107270488.848    20412898.852    83587424.1934                 
                
  20416126.344   107287513.584    20416132.922    83600699.4694   20416132.938  
                
  21600288.383   113510331.708    21600297.270    88449667.7874   21600297.465  
                
  23225773.172   124285802.644                    96666729.729    23225776.785  
  23225771.219  
  23125040.500   123399621.514                                                  
  23125038.004  
  21795486.930   116713846.006                    90777425.420    21795490.094  
  21795485.996  
  22987691.594   120801136.012    22987696.746    94130779.0084                 
                
  20201223.734   107949231.283                    83960522.730    20201227.668  
  20201223.727  
  24080353.703   126543142.050    24080360.492    98605095.8554   24080360.449  
                
  21558157.141   115281159.761                    89663130.775    21558161.812  
  21558155.863  
  22107194.711   118258612.792                                                  
  22107192.504  
  20206231.039   107710620.829                    83774937.086    20206234.727  
  20206230.672  
  20364240.836   108858537.090                    84667754.786    20364244.633  
  20364240.430  
 21  8 16 21 49 20.0000000  0 15G17G15G13G14G30R17R 6R 4G19R15G 7R24
                                R23R14R 5
  21411830.750   112519938.598    21411837.207    87677910.5224   21411837.203  
                
  21648454.562   113763397.509    21648460.984    88646837.2564   21648460.906  
                
  20413061.000   107271374.852    20413067.449    83588114.5834                 
                
  20418084.625   107297804.444    20418091.211    83608718.3234   20418091.211  
                
  21604000.688   113529839.980    21604009.566    88464869.0314   21604009.758  
                
  23217834.016   124243318.519                    96633686.555    23217837.629  
  23217832.020  
  23118941.820   123367077.509                                                  
  23118939.359  
  21802980.602   116753974.568                    90808636.529    21802983.816  
  21802979.715  
  22980826.609   120765060.333    22980831.758    94102668.0954                 
                
  20198643.219   107935441.827                    83949797.603    20198647.160  
  20198643.219  
  24085800.047   126571762.444    24085806.688    98627397.4544   24085806.680  
                
  21554436.484   115261263.816                    89647656.173    21554441.164  
  21554435.203  
  22109036.172   118268463.343                                                  
  22109033.980  
  20209231.570   107726615.385                    83787377.300    20209235.266  
  20209231.195  
  20365590.398   108865751.243                    84673365.793    20365594.172  
  20365590.004  
 21  8 16 21 49 30.0000000  0 15G17G15G13G14G30R17R 6R 4G19R15G 7R24
                                R23R14R 5
  21408313.922   112501457.523    21408320.383    87663509.6914   21408320.363  
                
  21646212.508   113751615.448    21646218.934    88637656.4284   21646218.848  
                
  20413242.242   107272327.245    20413248.688    83588856.7094                 
                
  20420051.031   107308137.946    20420057.633    83616770.4024   20420057.613  
                
  21607719.203   113549380.867    21607728.074    88480095.6904   21607728.270  
                
  23209896.797   124200844.606                    96600651.312    23209900.371  
  23209894.762  
  23112853.547   123334589.462                                                  
  23112851.121  
  21810481.359   116794140.753                    90839876.895    21810484.566  
  21810480.465  
  22973966.070   120729008.014    22973971.238    94074575.4014                 
                
  20196068.734   107921684.545                    83939097.500    20196072.688  
  20196068.742  
  24091249.750   126600400.600    24091256.340    98649712.9084   24091256.332  
                
  21550730.016   115241443.675                    89632240.520    21550734.688  
  21550728.762  
  22110894.375   118278403.455                                                  
  22110892.180  
  20212237.352   107742637.874                    83799839.226    20212241.051  
  20212236.980  
  20366957.250   108873057.842                    84679048.718    20366961.012  
  20366956.863  
 21  8 16 21 49 40.0000000  0 15G17G15G13G14G30R17R 6R 4G19R15G 7R24
                                R23R14R 5
  21404807.359   112483030.474    21404813.824    87649150.9554   21404813.805  
                
  21643982.711   113739897.773    21643989.133    88628525.7714   21643989.051  
                
  20413436.062   107273345.760    20413442.512    83589650.3574                 
                
  20422025.461   107318513.671    20422032.070    83624855.3844   20422032.035  
                
  21611443.859   113568954.030    21611452.723    88495347.5174   21611452.918  
                
  23201961.492   124158380.870                    96567623.963    23201965.000  
  23201959.410  
  23106775.648   123302157.060                                                  
  23106773.258  
  21817988.992   116834344.320                    90871146.330    21817992.328  
  21817988.191  
  22967109.938   120692978.764    22967115.090    94046500.6784                 
                
  20193500.211   107907959.189                    83928422.217    20193504.168  
  20193500.203  
  24096702.719   126629056.193    24096709.289    98672041.9534   24096709.312  
                
  21547037.711   115221699.322                    89616883.791    21547042.340  
  21547036.469  
  22112769.258   118288432.754                                                  
  22112767.086  
  20215248.320   107758687.987                    83812322.661    20215252.047  
  20215247.945  
  20368341.352   108880456.683                    84684803.366    20368345.102  
  20368340.953  
 21  8 16 21 49 50.0000000  0 15G17G15G13G14G30R17R 6R 4G19R15G 7R24
                                R23R14R 5
  21401311.234   112464658.282    21401317.684    87634834.9594   21401317.664  
                
  21641765.227   113728244.873    21641771.645    88619445.5924   21641771.570  
                
  20413642.539   107274430.794    20413648.992    83590495.8394                 
                
  20424007.984   107328931.908    20424014.598    83632973.4934   20424014.547  
                
  21615174.727   113588559.803    21615183.590    88510624.7354   21615183.777  
                
  23194028.070   124115927.747                    96534604.855    23194031.613  
  23194026.023  
  23100708.297   123269780.686                                                  
  23100705.883  
  21825503.602   116874585.217                    90902444.790    21825507.051  
  21825502.848  
  22960258.312   120656973.085    22960263.414    94018444.3184                 
                
  20190937.719   107894266.033                    83917771.987    20190941.680  
  20190937.703  
  24102159.023   126657729.450    24102165.664    98694384.7444   24102165.672  
                
  21543359.648   115202031.129                    89601586.325    21543364.246  
  21543358.418  
  22114660.820   118298551.404                                                  
  22114658.711  
  20218264.516   107774766.023                    83824827.795    20218268.234  
  20218264.152  
  20369742.750   108887947.986                    84690629.936    20369746.504  
  20369742.348  
 21  8 16 21 50  0.0000000  0 15G17G15G13G14G30R17R 6R 4G19R15G 7R24
                                R23R14R 5
  21397825.477   112446340.493    21397831.922    87620561.3654   21397831.898  
                
  21639560.016   113716656.365    21639566.422    88610415.5864   21639566.348  
                
  20413861.594   107275581.906    20413868.059    83591392.8084                 
                
  20425998.500   107339392.091    20426005.098    83641124.2804   20426005.055  
                
  21618911.688   113608197.659    21618920.562    88525926.9504   21618920.727  
                
  23186096.586   124073484.929                    96501593.776    23186100.129  
  23186094.574  
  23094651.500   123237460.368                                                  
  23094649.043  
  21833025.023   116914862.959                    90933771.912    21833028.656  
  21833024.395  
  22953411.125   120620990.560    22953416.125    93990405.9894                 
                
  20188381.180   107880604.684                    83907146.500    20188385.148  
  20188381.148  
  24107618.625   126686419.908    24107625.355    98716740.9134   24107625.355  
                
  21539695.781   115182438.760                    89586347.834    21539700.344  
  21539694.551  
  22116569.039   118308759.011                                                  
  22116566.961  
  20221285.867   107790871.473                    83837354.249    20221289.609  
  20221285.508  
  20371161.336   108895531.131                    84696527.917    20371165.109  
  20371160.914  
 21  8 16 21 50 10.0000000  0 15G17G15G13G14G30R17R 6R 4G19R15G 7R24
                                R23R14R 5
  21394350.211   112428077.853    21394356.656    87606330.7414   21394356.629  
                
  21637367.195   113705132.967    21637373.605    88601436.3154   21637373.520  
                
  20414093.375   107276799.855    20414099.840    83592341.8624                 
                
  20427997.133   107349894.998    20428003.707    83649308.3684   20428003.688  
                
  21622654.898   113627868.346    21622663.773    88541254.7634   21622663.941  
                
  23178167.164   124031053.321                    96468591.418    23178170.738  
  23178165.227  
  23088605.375   123205196.838                                                  
  23088602.883  
  21840553.523   116955178.080                    90965128.107    21840557.246  
  21840552.980  
  22946568.500   120585032.090    22946573.418    93962386.4064                 
                
  20185830.727   107866975.874                    83896546.318    20185834.695  
  20185830.676  
  24113081.695   126715128.299    24113088.410    98739111.1004   24113088.426  
                
  21536046.211   115162922.873                    89571168.812    21536050.762  
  21536045.004  
  22118494.000   118319056.201                                                  
  22118491.945  
  20224312.492   107807005.082                    83849902.614    20224316.238  
  20224312.137  
  20372597.266   108903206.982                    84702498.019    20372601.059  
  20372596.801  
 21  8 16 21 50 20.0000000  0 15G17G15G13G14G30R17R 6R 4G19R15G 7R24
                                R23R14R 5
  21390885.008   112409868.135    21390891.465    87592141.3554   21390891.441  
                
  21635186.375   113693672.674    21635192.801    88592506.2214   21635192.699  
                
  20414337.461   107278082.510    20414343.918    83593341.3314                 
                
  20430003.484   107360438.454    20430010.027    83657524.0464   20430010.023  
                
  21626403.961   113647569.796    21626412.828    88556606.5334   21626413.000  
                
  23170239.625   123988630.980                    96435596.274    23170243.074  
  23170237.629  
  23082569.477   123172988.005                                                  
  23082566.965  
  21848088.727   116995528.254                    90996511.571    21848092.367  
  21848088.141  
  22939730.023   120549095.665    22939734.898    93934384.0004                 
                
  20183285.969   107853377.507                    83885969.822    20183289.945  
  20183285.906  
  24118547.719   126743852.518    24118554.473    98761493.6054   24118554.492  
                
  21532410.641   115143481.879                    89556048.042    21532415.133  
  21532409.426  
  22120435.273   118329440.733                                                  
  22120433.242  
  20227343.992   107823164.629                    83862471.146    20227347.723  
  20227343.625  
  20374050.125   108910973.326                    84708538.493    20374053.930  
  20374049.695  
 21  8 16 21 50 30.0000000  0 15G17G15G13G14G30R17R 6R 4G19R15G 7R24
                                R23R14R 5
  21387430.406   112391714.109    21387436.883    87577995.3664   21387436.848  
                
  21633018.039   113682278.013    21633024.469    88583627.2624   21633024.344  
                
  20414594.344   107279432.441    20414600.773    83594393.2224                 
                
  20432018.008   107371024.869    20432024.520    83665773.2054   20432024.543  
                
  21630159.336   113667304.453    21630168.199    88571984.1704   21630168.379  
                
  23162314.234   123946220.638                    96402610.457    23162317.656  
  23162312.242  
  23076544.422   123140836.817                                                  
  23076541.852  
  21855630.930   117035915.832                    91027924.120    21855634.477  
  21855630.273  
  22932896.234   120513183.882    22932901.078    93906400.8124                 
                
  20180747.375   107839812.081                    83875418.941    20180751.344  
  20180747.301  
  24124017.148   126772594.968    24124023.996    98783890.3024   24124024.016  
                
  21528789.516   115124118.151                    89540987.378    21528793.988  
  21528788.316  
  22122393.391   118339915.314                                                  
  22122391.359  
  20230380.828   107839352.683                    83875061.856    20230384.562  
  20230380.473  
  20375520.383   108918832.669                    84714651.318    20375524.172  
  20375519.980  
 21  8 16 21 50 40.0000000  0 15G17G15G13G14G30R17R 6R 4G19R15G 7R24
                                R23R14R 5
  21383986.078   112373614.085    21383992.574    87563891.4514   21383992.527  
                
  21630861.883   113670947.329    21630868.309    88574798.1584   21630868.180  
                
  20414863.703   107280847.899    20414870.105    83595496.1704                 
                
  20434040.375   107381652.506    20434046.867    83674054.4764   20434046.910  
                
  21633920.703   113687070.570    21633929.555    88587386.3364   21633929.742  
                
  23154390.758   123903820.533                    96369632.605    23154394.129  
  23154388.762  
  23070529.727   123108741.562                                                  
  23070527.176  
  21863179.773   117076338.936                    91059364.313    21863183.207  
  21863179.051  
  22926066.836   120477295.117    22926071.660    93878435.5464                 
                
  20178214.625   107826277.859                    83864892.322    20178218.586  
  20178214.547  
  24129489.703   126801353.980    24129496.633    98806299.8994   24129496.668  
                
  21525182.555   115104830.084                    89525985.543    21525187.004  
  21525181.352  
  22124367.969   118350477.962                                                  
  22124365.953  
  20233422.672   107855567.408                    83887673.295    20233426.406  
  20233422.312  
  20377007.711   108926783.264                    84720835.107    20377011.492  
  20377007.305  
 21  8 16 21 50 50.0000000  0 15G17G15G13G14G30R17R 6R 4G19R15G 7R24
                                R23R14R 5
  21380552.305   112355569.503    21380558.832    87549830.7474   21380558.766  
                
  21628718.195   113659682.166    21628724.609    88566020.1064   21628724.488  
                
  20415145.805   107282330.388    20415152.184    83596651.3574                 
                
  20436070.859   107392322.753    20436077.344    83682368.9534   20436077.391  
                
  21637688.336   113706869.633    21637697.172    88602814.1754   21637697.367  
                
  23146469.633   123861432.511                    96336664.162    23146472.879  
  23146467.512  
  23064525.844   123076703.825                                                  
  23064523.301  
  21870735.500   117116798.935                    91090833.209    21870738.820  
  21870734.711  
  22919242.117   120441430.915    22919246.945    93850489.4264                 
                
  20175687.984   107812776.264                    83854391.081    20175691.938  
  20175687.902  
  24134965.773   126830130.998    24134972.770    98828723.5664   24134972.797  
                
  21521590.055   115085619.371                    89511043.908    21521594.488  
  21521588.855  
  22126359.273   118361130.099                                                  
  22126357.246  
  20236469.805   107871810.318                    83900306.678    20236473.555  
  20236469.441  
  20378512.336   108934826.329                    84727090.851    20378516.113  
  20378511.941  
 21  8 16 21 51  0.0000000  0 15G17G15G13G14G30R17R 6R 4G19R15G 7R24
                                R23R14R 5
  21377128.906   112337579.472    21377135.473    87535812.5554   21377135.383  
                
  21626586.773   113648481.521    21626593.195    88557292.3324   21626593.070  
                
  20415440.484   107283878.896    20415446.852    83597857.9884                 
                
  20438109.234   107403034.538    20438115.719    83690715.8014   20438115.766  
                
  21641462.039   113726700.609    21641470.855    88618266.8754   21641471.070  
                
  23138550.492   123819055.591                    96303704.306    23138553.699  
  23138548.355  
  23058532.523   123044722.750                                                  
  23058530.098  
  21878297.742   117157294.520                    91122329.763    21878301.062  
  21878296.977  
  22912421.898   120405590.424    22912426.758    93822561.7874                 
                
  20173167.258   107799306.323                    83843914.478    20173171.215  
  20173167.188  
  24140445.094   126858925.087    24140452.113    98851160.5214   24140452.160  
                
  21518011.828   115066484.972                    89496161.584    21518016.242  
  21518010.672  
  22128367.109   118371870.689                                                  
  22128365.078  
  20239522.016   107888080.340                    83912961.135    20239525.762  
  20239521.637  
  20380034.078   108942960.898                    84733417.727    20380037.840  
  20380033.672  
 21  8 16 21 51 10.0000000  0 15G17G15G13G14G30R17R 6R 4G19R15G 7R24
                                R23R14R 5
  21373715.891   112319643.970    21373722.516    87521836.8414   21373722.391  
                
  21624467.648   113637345.426    21624474.078    88548614.8624   21624473.930  
                
  20415747.719   107285493.420    20415754.074    83599116.0544                 
                
  20440155.508   107413787.775    20440161.996    83699094.9474   20440162.031  
                
  21645241.812   113746563.435    21645250.598    88633744.4014   21645250.836  
                
  23130633.523   123776690.015                    96270753.314    23130636.660  
  23130631.367  
  23052549.930   123012798.574                                                  
  23052547.582  
  21885866.664   117197825.582                    91153853.923    21885869.914  
  21885865.879  
  22905606.203   120369773.745    22905611.133    93794652.7024                 
                
  20170652.453   107785867.966                    83833462.429    20170656.395  
  20170652.387  
  24145927.719   126887736.087    24145934.699    98873610.6534   24145934.758  
                
  21514447.914   115047427.126                    89481338.837    21514452.312  
  21514446.785  
  22130391.492   118382699.751                                                  
  22130389.484  
  20242579.289   107904377.305                    83925636.567    20242583.043  
  20242578.895  
  20381572.930   108951186.950                    84739815.768    20381576.695  
  20381572.512  
 21  8 16 21 51 20.0000000  0 15G17G15G13G14G30R17R 6R 4G19R15G 7R24
                                R23R14R 5
  21370313.164   112301762.533    21370319.852    87507903.2704   21370319.707  
                
  21622360.750   113626273.603    21622367.180    88539987.4684   21622367.035  
                
  20416067.469   107287173.681    20416073.809    83600425.3474                 
                
  20442209.609   107424582.142    20442216.102    83707506.1444   20442216.125  
                
  21649027.586   113766457.839    21649036.355    88649246.5394   21649036.621  
                
  23122718.656   123734335.560                    96237810.961    23122721.711  
  23122716.457  
  23046577.953   122980930.900                                                  
  23046575.586  
  21893442.039   117238391.644                    91185405.317    21893445.316  
  21893441.312  
  22898795.039   120333980.830    22898800.012    93766762.1324                 
                
  20168143.508   107772460.970                    83823034.761    20168147.438  
  20168143.418  
  24151413.461   126916563.746    24151420.438    98896073.7454   24151420.477  
                
  21510898.242   115028445.521                    89466575.378    21510902.656  
  21510897.113  
  22132432.336   118393616.888                                                  
  22132430.348  
  20245641.594   107920701.100                    83938332.846    20245645.348  
  20245641.176  
  20383128.836   108959504.129                    84746284.688    20383132.613  
  20383128.402  
 21  8 16 21 51 30.0000000  0 15G17G15G13G14G30R17R 6R 4G19R15G 7R24
                                R23R14R 5
  21366920.977   112283936.535    21366927.703    87494012.8884   21366927.531  
                
  21620266.328   113615267.328    21620272.758    88531411.1454   21620272.605  
                
  20416399.945   107288920.871    20416406.270    83601786.7894                 
                
  20444271.758   107435418.792    20444278.242    83715950.2904   20444278.277  
                
  21652819.602   113786385.025    21652828.367    88664774.1984   21652828.637  
                
  23114806.078   123691993.693                    96204878.421    23114809.137  
  23114803.891  
  23040616.703   122949120.939                                                  
  23040614.410  
  21901024.188   117278993.800                    91216984.765    21901027.461  
  21901023.441  
  22891988.609   120298212.863    22891993.594    93738890.9894                 
                
  20165640.680   107759086.643                    83812632.499    20165644.609  
  20165640.594  
  24156902.625   126945409.228    24156909.547    98918550.7544   24156909.594  
                
  21507363.141   115009541.762                    89451872.448    21507367.539  
  21507362.020  
  22134489.852   118404623.222                                                  
  22134487.859  
  20248709.125   107937052.787                    83951050.820    20248712.891  
  20248708.684  
  20384701.984   108967913.530                    84752825.321    20384705.789  
  20384701.574  
 21  8 16 21 51 40.0000000  0 15G17G15G13G14G30R17R 6R 4G19R15G 7R24
                                R23R14R 5
  21363539.180   112266165.040    21363545.945    87480164.9744   21363545.762  
                
  21618184.117   113604325.231    21618190.551    88522884.8274   21618190.398  
                
  20416744.898   107290733.619    20416751.203    83603199.3184                 
                
  20446341.680   107446296.307    20446348.156    83724426.2764   20446348.188  
                
  21656617.594   113806343.587    21656626.367    88680326.3154   21656626.637  
                
  23106895.734   123649663.178                    96171954.671    23106898.695  
  23106893.473  
  23034666.203   122917367.947                                                  
  23034663.867  
  21908612.695   117319630.506                    91248591.084    21908616.082  
  21908612.043  
  22885186.656   120262468.579    22885191.703    93711038.3104                 
                
  20163143.672   107745743.402                    83802254.437    20163147.613  
  20163143.574  
  24162394.867   126974271.120    24162401.777    98941040.5404   24162401.824  
                
  21503842.289   114990714.208                    89437228.822    21503846.723  
  21503841.141  
  22136563.781   118415717.388                                                  
  22136561.777  
  20251781.641   107953431.007                    83963789.427    20251785.398  
  20251781.199  
  20386292.133   108976413.745                    84759436.601    20386295.949  
  20386291.727  
 21  8 16 21 51 50.0000000  0 15G17G15G13G14G30R17R 6R 4G19R15G 7R24
                                R23R14R 5
  21360168.016   112248449.543    21360174.828    87466360.6984   21360174.617  
                
  21616114.422   113593448.938    21616120.871    88514409.7984   21616120.711  
                
  20417102.633   107292613.512    20417108.922    83604664.1674                 
                
  20448419.656   107457216.169    20448426.121    83732935.2564   20448426.160  
                
  21660421.844   113826335.055    21660430.625    88695904.0674   21660430.902  
                
  23098987.836   123607345.706                    96139041.064    23098990.703  
  23098985.496  
  23028726.602   122885673.471                                                  
  23028724.285  
  21916207.906   117360303.119                    91280225.333    21916211.355  
  21916207.340  
  22878389.492   120226749.605    22878394.633    93683205.3554                 
                
  20160652.781   107732432.840                    83791901.780    20160656.738  
  20160652.680  
  24167890.516   127003150.832    24167897.457    98963544.2144   24167897.426  
                
  21500336.047   114971964.899                    89422646.037    21500340.504  
  21500334.867  
  22138654.422   118426900.843                                                  
  22138652.438  
  20254859.414   107969837.260                    83976549.860    20254863.168  
  20254858.965  
  20387899.570   108985006.423                    84766119.783    20387903.398  
  20387899.168  
 21  8 16 21 52  0.0000000  0 15G17G15G13G14G30R17R 6R 4G19R15G 7R24
                                R23R14R 5
  21356807.398   112230789.387    21356814.238    87452599.5504   21356814.027  
                
  21614057.164   113582637.974    21614063.625    88505985.6784   21614063.453  
                
  20417473.062   107294560.074    20417479.332    83606180.9774                 
                
  20450505.594   107468177.824    20450512.043    83741476.8094   20450512.094  
                
  21664232.266   113846358.930    21664241.066    88711507.0824   21664241.340  
                
  23091082.242   123565040.922                    96106137.334    23091085.090  
  23091079.887  
  23022797.891   122854036.914                                                  
  23022795.551  
  21923809.914   117401011.014                    91311887.030    21923813.215  
  21923809.312  
  22871597.109   120191055.558    22871602.316    93655391.8434                 
                
  20158167.930   107719154.607                    83781574.282    20158171.898  
  20158167.840  
  24173389.484   127032047.965    24173396.457    98986061.4624   24173396.387  
                
  21496844.352   114953293.235                    89408123.641    21496848.824  
  21496843.176  
  22140761.633   118438173.010                                                  
  22140759.680  
  20257942.344   107986271.004                    83989331.659    20257946.094  
  20257941.891  
  20389524.188   108993690.882                    84772874.365    20389528.012  
  20389523.793  
 21  8 16 21 52 10.0000000  0 15G17G15G13G14G30R17R 6R 4G19R15G 7R24
                                R23R14R 5
  21353457.148   112213183.728    21353464.016    87438880.8624   21353463.793  
                
  21612012.133   113571891.254    21612018.594    88497611.6044   21612018.410  
                
  20417855.969   107296572.273    20417862.219    83607748.9194                 
                
  20452599.258   107479180.113    20452605.684    83750050.0204   20452605.742  
                
  21668048.641   113866414.081    21668057.469    88727134.4624   21668057.730  
                
  23083178.812   123522747.864                    96073242.707    23083181.637  
  23083176.461  
  23016879.930   122822457.547                                                  
  23016877.559  
  21931418.195   117441752.778                    91343575.076    21931421.430  
  21931417.594  
  22864809.312   120155385.441    22864814.516    93627596.9534                 
                
  20155688.875   107705907.337                    83771270.847    20155692.852  
  20155688.793  
  24178891.570   127060961.393    24178898.508    99008591.4024   24178898.422  
                
  21493366.984   114934698.242                    89393660.868    21493371.480  
  21493365.801  
  22142885.227   118449532.715                                                  
  22142883.305  
  20261030.227   108002731.143                    84002133.991    20261033.969  
  20261029.773  
  20391165.742   109002465.927                    84779699.404    20391169.559  
  20391165.363  
 21  8 16 21 52 20.0000000  0 15G17G15G13G14G30R17R 6R 4G19R15G 7R24
                                R23R14R 5
  21350117.445   112195633.518    21350124.316    87425205.3774   21350124.094  
                
  21609979.516   113561209.791    21609985.973    88489288.3914   21609985.824  
                
  20418251.508   107298650.847    20418257.727    83609368.5844                 
                
  20454700.805   107490223.878    20454707.203    83758655.5504   20454707.285  
                
  21671871.133   113886501.418    21671879.973    88742786.9214   21671880.227  
                
  23075277.641   123480467.714                    96040358.138    23075280.551  
  23075275.391  
  23010972.812   122790936.100                                                  
  23010970.441  
  21939032.938   117482529.224                    91375290.079    21939036.152  
  21939032.297  
  22858026.273   120119740.304    22858031.461    93599821.5284                 
                
  20153215.828   107692692.163                    83760992.380    20153219.812  
  20153215.742  
  24184396.891   127089891.985    24184403.793    99031134.7244   24184403.723  
                
  21489904.164   114916181.047                    89379258.602    21489908.672  
  21489902.965  
  22145025.359   118460980.925                                                  
  22145023.469  
  20264123.203   108019218.449                    84014957.447    20264126.961  
  20264122.746  
  20392824.414   109011332.429                    84786595.568    20392828.219  
  20392824.027  
 21  8 16 21 52 30.0000000  0 15G17G15G13G14G30R17R 6R 4G19R15G 7R24
                                R23R14R 5
  21346788.227   112178138.366    21346795.086    87411572.8044   21346794.875  
                
  21607959.234   113550593.169    21607965.691    88481015.6964   21607965.559  
                
  20418659.609   107300795.420    20418665.801    83611039.6794                 
                
  20456810.156   107501308.627    20456816.539    83767293.0104   20456816.621  
                
  21675699.664   113906620.464    21675708.496    88758464.0994   21675708.746  
                
  23067378.828   123438199.995                    96007483.238    23067381.812  
  23067376.637  
  23005076.578   122759472.490                                                  
  23005074.199  
  21946654.031   117523339.849                    91407031.657    21946657.281  
  21946653.367  
  22851247.914   120084119.779    22851253.062    93572065.2744                 
                
  20150748.688   107679508.588                    83750738.489    20150752.680  
  20150748.613  
  24189905.336   127118839.375    24189912.215    99053691.1304   24189912.188  
                
  21486455.797   114897741.132                    89364916.456    21486460.336  
  21486454.590  
  22147181.914   118472516.992                                                  
  22147180.074  
  20267221.180   108035732.435                    84027801.662    20267224.938  
  20267220.715  
  20394500.094   109020289.903                    84793562.498    20394503.914  
  20394499.691  
 21  8 16 21 52 40.0000000  0 15G17G15G13G14G30R17R 6R 4G19R15G 7R24
                                R23R14R 5
  21343469.523   112160698.504    21343476.375    87397983.3074   21343476.160  
                
  21605951.336   113540041.598    21605957.781    88472793.6924   21605957.676  
                
  20419080.305   107303006.183    20419086.465    83612762.3454                 
                
  20458927.344   107512434.502    20458933.715    83775962.5274   20458933.789  
                
  21679534.266   113926771.414    21679543.074    88774166.1314   21679543.332  
                
  23059482.367   123395945.199                    95974618.401    23059485.496  
  23059480.312  
  22999191.242   122728067.074                                                  
  22999188.852  
  21954281.555   117564184.463                    91438799.679    21954284.738  
  21954280.840  
  22844474.289   120048524.204    22844479.395    93544328.4694                 
                
  20148287.492   107666356.729                    83740509.272    20148291.492  
  20148287.414  
  24195417.031   127147803.632    24195423.820    99076260.6904   24195423.820  
                
  21483021.930   114879378.760                    89350634.643    21483026.508  
  21483020.707  
  22149354.938   118484141.153                                                  
  22149353.117  
  20270324.227   108052273.397                    84040666.855    20270327.996  
  20270323.766  
  20396192.836   109029338.585                    84800600.353    20396196.680  
  20396192.430  
 21  8 16 21 52 50.0000000  0 15G17G15G13G14G30R17R 6R 4G19R15G 7R24
                                R23R14R 5
  21340161.383   112143314.103    21340168.250    87384437.0344   21340168.020  
                
  21603955.898   113529555.455    21603962.328    88464622.6764   21603962.234  
                
  20419513.625   107305283.277    20419519.754    83614536.7054                 
                
  20461052.367   107523601.569    20461058.727    83784664.1364   20461058.801  
                
  21683374.961   113946954.369    21683383.738    88789893.1084   21683384.012  
                
  23051588.500   123353703.648                    95941763.848    23051591.641  
  23051586.461  
  22993316.891   122696720.010                                                  
  22993314.480  
  21961915.414   117605063.208                    91470594.258    21961918.551  
  21961914.727  
  22837705.469   120012953.772    22837710.512    93516611.2464                 
                
  20145832.266   107653236.773                    83730304.874    20145836.270  
  20145832.188  
  24200931.953   127176784.681    24200938.703    99098843.3454   24200938.676  
                
  21479602.641   114861094.405                    89336413.488    21479607.258  
  21479601.391  
  22151544.445   118495853.453                                                  
  22151542.660  
  20273432.336   108068841.345                    84053553.033    20273436.109  
  20273431.859  
  20397902.633   109038478.376                    84807709.067    20397906.492  
  20397902.234  
 21  8 16 21 53  0.0000000  0 15G17G15G13G14G30R17R 6R 4G19R15G 7R24
                                R23R14R 5
  21336863.906   112125985.775    21336870.746    87370934.4474   21336870.508  
                
  21601972.961   113519135.037    21601979.383    88456502.8704   21601979.281  
                
  20419959.688   107307627.337    20419965.781    83616363.2444                 
                
  20463185.312   107534810.314    20463191.660    83793398.2194   20463191.738  
                
  21687221.836   113967169.852    21687230.574    88805645.4334   21687230.863  
                
  23043697.312   123311475.917                    95908920.064    23043700.410  
  23043695.215  
  22987453.711   122665432.119                                                  
  22987451.258  
  21969555.695   117645976.433                    91502415.652    21969558.785  
  21969555.027  
  22830941.539   119977409.165    22830946.539    93488914.1554                 
                
  20143383.094   107640149.199                    83720125.654    20143387.090  
  20143383.016  
  24206450.219   127205783.286    24206456.930    99121439.6614   24206456.906  
                
  21476198.070   114842888.656                    89322253.453    21476202.715  
  21476196.824  
  22153750.523   118507654.425                                                  
  22153748.738  
  20276545.625   108085436.970                    84066460.743    20276549.383  
  20276545.145  
  20399629.570   109047709.838                    84814889.083    20399633.457  
  20399629.176  
 21  8 16 21 53 10.0000000  0 15G17G15G13G14G30R17R 6R 4G19R15G 7R24
                                R23R14R 5
  21333577.047   112108713.229    21333583.832    87357475.3184   21333583.617  
                
  21600002.469   113508780.031    21600008.879    88448434.0314   21600008.773  
                
  20420418.406   107310037.926    20420424.469    83618241.6224                 
                
  20465326.117   107546060.337    20465332.461    83802164.4744   20465332.535  
                
  21691074.836   113987417.511    21691083.551    88821422.8194   21691083.840  
                
  23035808.586   123269261.983                    95876086.984    23035811.707  
  23035806.488  
  22981601.508   122634203.185                                                  
  22981599.039  
  21977202.375   117686923.541                    91534263.400    21977205.355  
  21977201.648  
  22824182.477   119941890.174    22824187.457    93461237.0164                 
                
  20140939.945   107627093.744                    83709971.404    20140943.941  
  20140939.871  
  24211971.672   127234799.037    24211978.453    99144049.3414   24211978.418  
                
  21472808.156   114824761.265                    89308154.391    21472812.812  
  21472806.938  
  22155973.102   118519543.669                                                  
  22155971.328  
  20279663.969   108102059.491                    84079389.366    20279667.727  
  20279663.480  
  20401373.586   109057032.576                    84822140.095    20401377.480  
  20401373.199  
 21  8 16 21 53 20.0000000  0 16G17G15G13G14G30G24R17R 6R 4G19R15G 7
                                R24R23R14R 5
  21330300.773   112091496.308    21330307.520    87344059.5444   21330307.324  
                
  21598044.414   113498490.381    21598050.805    88440416.1204   21598050.691  
                
  20420889.789   107312515.045    20420895.828    83620171.8484                 
                
  20467474.742   107557351.452    20467481.082    83810962.7504   20467481.152  
                
  21694933.930   114007697.198    21694942.621    88837225.1684   21694942.914  
                
  24313747.641   127769590.671    24313756.723    99560766.9864   24313756.891  
                
  23027922.422   123227061.744                    95843264.583    23027925.570  
  23027920.289  
  22975760.312   122603033.045                                                  
  22975757.793  
  21984855.297   117727904.367                    91566137.379    21984858.242  
  21984854.543  
  22817428.281   119906396.721    22817433.273    93433579.7934                 
                
  20138502.773   107614070.249                    83699842.031    20138506.770  
  20138502.707  
  24217496.320   127263831.804    24217503.207    99166672.2564   24217503.180  
                
  21469432.883   114806712.112                    89294116.179    21469437.543  
  21469431.684  
  22158212.125   118531520.856                                                  
  22158210.328  
  20282787.398   108118709.106                    84092339.055    20282791.152  
  20282786.906  
  20403134.641   109066446.425                    84829461.983    20403138.535  
  20403134.266  
 21  8 16 21 53 30.0000000  0 16G17G15G13G14G30G24R17R 6R 4G19R15G 7
                                R24R23R14R 5
  21327034.922   112074334.200    21327041.617    87330686.4774   21327041.430  
                
  21596098.656   113488265.349    21596105.031    88432448.5684   21596104.934  
                
  20421373.625   107315057.625    20421379.641    83622153.0764                 
                
  20469631.016   107568682.746    20469637.348    83819792.3314   20469637.422  
                
  21698798.953   114028008.024    21698807.605    88853051.7764   21698807.918  
                
  24307437.664   127736431.103    24307446.742    99534928.3754   24307447.055  
                
  23020038.703   123184874.609                    95810452.361    23020041.879  
  23020036.570  
  22969929.922   122571920.908                                                  
  22969927.371  
  21992514.195   117768917.793                    91598036.699    21992517.176  
  21992513.484  
  22810678.797   119870928.114    22810683.848    93405941.9174                 
                
  20136071.406   107601077.824                    83689736.820    20136075.430  
  20136071.363  
  24223024.125   127292880.711    24223031.000    99189307.7854   24223030.988  
                
  21466072.102   114788740.552                    89280138.296    21466076.770  
  21466070.922  
  22160467.414   118543585.164                                                  
  22160465.613  
  20285915.703   108135384.769                    84105309.026    20285919.457  
  20285915.215  
  20404912.570   109075950.489                    84836854.027    20404916.457  
  20404912.199  
 21  8 16 21 53 40.0000000  0 16G17G15G13G14G30G24R17R 6R 4G19R15G 7
                                R24R23R14R 5
  21323779.711   112057227.963    21323786.371    87317356.9474   21323786.203  
                
  21594165.367   113478105.839    21594171.719    88424532.0724   21594171.648  
                
  20421870.094   107317666.607    20421876.082    83624186.0444                 
                
  20471795.086   107580055.047    20471801.410    83828653.8674   20471801.492  
                
  21702670.070   114048350.883    21702678.684    88868903.3444   21702679.012  
                
  24301128.562   127703276.108    24301137.645    99509093.3224   24301137.980  
                
  23012157.625   123142701.605                    95777651.115    23012160.816  
  23012155.516  
  22964110.609   122540868.021                                                  
  22964108.023  
  22000179.289   117809964.391                    91629961.839    22000182.301  
  22000178.629  
  22803934.234   119835485.393    22803939.359    93378324.2294                 
                
  20133646.039   107588117.388                    83679656.481    20133650.055  
  20133645.992  
  24228555.109   127321946.576    24228562.035    99211956.5094   24228562.023  
                
  21462726.023   114770847.617                    89266221.574    21462730.707  
  21462724.875  
  22162739.156   118555737.457                                                  
  22162737.289  
  20289049.078   108152087.406                    84118299.953    20289052.828  
  20289048.586  
  20406707.508   109085545.497                    84844316.811    20406711.379  
  20406707.133  
 21  8 16 21 53 50.0000000  0 16G17G15G13G14G30G24R17R 6R 4G19R15G 7
                                R24R23R14R 5
  21320535.164   112040177.764    21320541.789    87304071.0814   21320541.645  
                
  21592244.562   113468011.948    21592250.891    88416666.7034   21592250.828  
                
  20422379.234   107320342.118    20422385.207    83626270.8584                 
                
  20473966.961   107591468.365    20473973.285    83837547.3674   20473973.367  
                
  21706547.289   114068725.799    21706555.867    88884779.8904   21706556.215  
                
  24294820.359   127670125.770    24294829.324    99483261.8824   24294829.672  
                
  23004279.219   123100542.865                    95744860.992    23004282.430  
  23004277.172  
  22958302.359   122509874.433                                                  
  22958299.777  
  22007850.648   117851044.371                    91661912.943    22007853.660  
  22007850.059  
  22797194.609   119800068.603    22797199.750    93350726.7314                 
                
  20131226.656   107575188.980                    83669601.062    20131230.668  
  20131226.602  
  24234089.312   127351029.417    24234096.332    99234618.4514   24234096.305  
                
  21459394.664   114753033.330                    89252366.030    21459399.352  
  21459393.520  
  22165027.336   118567977.721                                                  
  22165025.465  
  20292187.523   108168817.091                    84131311.934    20292191.281  
  20292187.047  
  20408519.492   109095231.544                    84851850.388    20408523.348  
  20408519.086  
 21  8 16 21 54  0.0000000  0 16G17G15G13G14G30G24R17R 6R 4G19R15G 7
                                R24R23R14R 5
  21317301.305   112023183.745    21317307.902    87290828.9874   21317307.773  
                
  21590336.273   113457983.827    21590342.582    88408852.5714   21590342.547  
                
  20422901.047   107323084.247    20422907.012    83628407.5824                 
                
  20476146.656   107602922.725    20476152.980    83846472.8384   20476153.062  
                
  21710430.633   114089132.882    21710439.176    88900681.5014   21710439.543  
                
  24288512.992   127636980.276    24288521.863    99457434.2104   24288522.281  
                
  22996403.625   123058398.745                    95712082.211    22996406.781  
  22996401.566  
  22952505.227   122478940.590                                                  
  22952502.664  
  22015528.062   117892157.383                    91693889.726    22015531.195  
  22015527.590  
  22790460.000   119764678.061    22790465.133    93323149.6984                 
                
  20128813.312   107562292.756                    83659570.664    20128817.316  
  20128813.266  
  24239626.836   127380129.308    24239633.906    99257293.6854   24239633.859  
                
  21456078.078   114735298.034                    89238571.919    21456082.770  
  21456076.945  
  22167331.977   118580305.934                                                  
  22167330.074  
  20295331.047   108185573.806                    84144344.938    20295334.816  
  20295330.555  
  20410348.500   109105008.626                    84859454.778    20410352.336  
  20410348.074  
 21  8 16 21 54 10.0000000  0 16G17G15G13G14G30G24R17R 6R 4G19R15G 7
                                R24R23R14R 5
  21314078.047   112006245.473    21314084.633    87277630.3474   21314084.516  
                
  21588440.414   113448021.079    21588446.727    88401089.3904   21588446.703  
                
  20423435.445   107325892.575    20423441.406    83630595.8924                 
                
  20478334.070   107614417.687    20478340.402    83855429.9544   20478340.480  
                
  21714320.008   114109571.713    21714328.531    88916607.8654   21714328.918  
                
  24282206.367   127603839.197    24282215.250    99431610.0354   24282215.688  
                
  22988530.570   123016268.854                    95679314.511    22988533.867  
  22988528.602  
  22946719.297   122448066.230                                                  
  22946716.762  
  22023211.602   117933303.090                    91725891.932    22023214.848  
  22023211.184  
  22783730.297   119729313.350    22783735.402    93295592.7924                 
                
  20126405.883   107549428.240                    83649564.934    20126409.895  
  20126405.852  
  24245167.445   127409245.875    24245174.625    99279981.9104   24245174.594  
                
  21452776.180   114717641.386                    89224839.009    21452780.891  
  21452775.051  
  22169652.961   118592721.648                                                  
  22169651.074  
  20298479.555   108202357.146                    84157398.636    20298483.316  
  20298479.059  
  20412194.453   109114876.325                    84867129.666    20412198.320  
  20412194.035  
 21  8 16 21 54 20.0000000  0 16G17G15G13G14G30G24R17R 6R 4G19R15G 7
                                R24R23R14R 5
  21310865.547   111989363.663    21310872.109    87264475.6924   21310871.992  
                
  21586557.156   113438124.521    21586563.496    88393377.7834   21586563.461  
                
  20423982.594   107328767.848    20423988.543    83632836.3584                 
                
  20480529.336   107625953.915    20480535.676    83864419.2224   20480535.738  
                
  21718215.562   114130042.987    21718224.094    88932559.5034   21718224.480  
                
  24275900.773   127570703.353    24275909.609    99405789.8804   24275910.102  
                
  22980660.344   122974154.282                    95646558.735    22980663.801  
  22980658.469  
  22940944.727   122417252.067                                                  
  22940942.184  
  22030901.445   117974481.836                    91757919.849    22030904.668  
  22030900.961  
  22777005.695   119693975.355    22777010.746    93268056.6894                 
                
  20124004.516   107536596.061                    83639584.352    20124008.523  
  20124004.484  
  24250711.398   127438379.752    24250718.594    99302683.6064   24250718.605  
                
  21449489.156   114700064.345                    89211167.973    21449493.844  
  21449488.023  
  22171990.438   118605225.584                                                  
  22171988.551  
  20301633.172   108219167.748                    84170473.539    20301636.934  
  20301632.664  
  20414057.484   109124835.280                    84874875.511    20414061.375  
  20414057.047  
 21  8 16 21 54 30.0000000  0 16G17G15G13G14G30G24R17R 6R 4G19R15G 7
                                R24R23R14R 5
  21307663.609   111972537.392    21307670.152    87251364.3164   21307670.031  
                
  21584686.258   113428292.935    21584692.629    88385716.8134   21584692.590  
                
  20424542.250   107331708.851    20424548.195    83635128.0524                 
                
  20482732.219   107637530.104    20482738.555    83873439.6304   20482738.617  
                
  21722117.062   114150545.465    21722125.594    88948535.4484   21722125.977  
                
  24269596.008   127537571.532    24269604.715    99379972.8424   24269605.266  
                
  22972792.633   122932053.839                    95613813.963    22972796.355  
  22972790.953  
  22935181.156   122386496.938                                                  
  22935178.691  
  22038597.383   118015692.426                    91789972.524    22038600.469  
  22038596.762  
  22770285.969   119658662.919    22770290.969    93240540.5124                 
                
  20121609.016   107523795.261                    83629628.175    20121613.039  
  20121608.984  
  24256258.414   127467529.689    24256265.625    99325397.8344   24256265.656  
                
  21446216.766   114682565.517                    89197557.793    21446221.441  
  21446215.598  
  22174344.156   118617816.407                                                  
  22174342.230  
  20304791.688   108236004.417                    84183568.720    20304795.461  
  20304791.164  
  20415937.328   109134884.114                    84882691.266    20415941.219  
  20415936.898  
 21  8 16 21 54 40.0000000  0 16G17G15G13G14G30G24R17R 6R 4G19R15G 7
                                R24R23R14R 5
  21304472.312   111955767.054    21304478.844    87238296.5314   21304478.742  
                
  21582827.836   113418526.890    21582834.238    88378106.9144   21582834.199  
                
  20425114.516   107334716.128    20425120.445    83637471.3784                 
                
  20484942.797   107649146.758    20484949.121    83882491.5744   20484949.191  
                
  21726024.586   114171079.627    21726033.117    88964536.0934   21726033.500  
                
  24263292.062   127504444.325    24263300.742    99354159.4284   24263301.324  
                
  22964927.930   122889968.368                    95581080.809    22964931.703  
  22964926.270  
  22929428.789   122355801.694                                                  
  22929426.355  
  22046299.281   118056935.064                    91822050.127    22046302.254  
  22046298.559  
  22763571.227   119623376.758    22763576.215    93213044.7984                 
                
  20119219.430   107511026.045                    83619696.574    20119223.461  
  20119219.402  
  24261808.555   127496696.216    24261815.844    99348125.0014   24261815.871  
                
  21442959.141   114665145.600                    89184008.979    21442963.789  
  21442957.918  
  22176714.211   118630494.624                                                  
  22176712.289  
  20307955.180   108252867.614                    84196684.537    20307958.941  
  20307954.652  
  20417834.086   109145023.405                    84890577.372    20417837.980  
  20417833.664  
 21  8 16 21 54 50.0000000  0 16G17G15G13G14G30G24R17R 6R 4G19R15G 7
                                R24R23R14R 5
  21301291.773   111939053.264    21301298.301    87225272.8064   21301298.207  
                
  21580981.961   113408826.839    21580988.398    88370548.4344   21580988.336  
                
  20425699.469   107337790.105    20425705.387    83639866.6844                 
                
  20487161.141   107660804.269    20487167.453    83891575.3474   20487167.527  
                
  21729938.234   114191645.972    21729946.781    88980561.7964   21729947.160  
                
  24256989.016   127471322.178    24256997.773    99328350.0144   24256998.375  
                
  22957066.219   122847898.354                    95548359.689    22957069.941  
  22957064.516  
  22923687.797   122325166.770                                                  
  22923685.340  
  22054007.125   118098210.100                    91854152.937    22054010.109  
  22054006.387  
  22756861.617   119588117.452    22756866.617    93185570.0254                 
                
  20116835.891   107498289.152                    83609790.117    20116839.930  
  20116835.887  
  24267362.008   127525879.760    24267369.238    99370865.4174   24267369.281  
                
  21439716.398   114647805.287                    89170522.069    21439721.020  
  21439715.148  
  22179100.664   118643260.593                                                  
  22179098.719  
  20311123.727   108269757.796                    84209821.340    20311127.473  
  20311123.195  
  20419747.836   109155253.471                    84898534.080    20419751.738  
  20419747.406  
 21  8 16 21 55  0.0000000  0 16G17G15G13G14G30G24R17R 6R 4G19R15G 7
                                R24R23R14R 5
  21298122.008   111922396.007    21298128.523    87212293.1324   21298128.434  
                
  21579148.641   113399192.715    21579155.105    88363041.3264   21579155.055  
                
  20426297.117   107340930.742    20426303.012    83642313.9344                 
                
  20489387.242   107672502.463    20489393.551    83900690.8314   20489393.625  
                
  21733857.977   114212244.347    21733866.555    88996612.4714   21733866.914  
                
  24250686.922   127438205.083    24250695.820    99302544.4804   24250696.414  
                
  22949207.406   122805843.908                    95515650.666    22949211.086  
  22949205.668  
  22917958.180   122294592.184                                                  
  22917955.719  
  22061720.953   118139517.282                    91886280.739    22061724.012  
  22061720.230  
  22750157.117   119552884.975    22750162.145    93158116.1504                 
                
  20114458.367   107485584.383                    83599908.643    20114462.414  
  20114458.375  
  24272918.672   127555080.197    24272925.891    99393619.0034   24272925.930  
                
  21436488.555   114630544.585                    89157097.083    21436493.113  
  21436487.320  
  22181503.508   118656114.158                                                  
  22181501.531  
  20314297.328   108286674.852                    84222979.058    20314301.059  
  20314296.797  
  20421678.547   109165574.199                    84906561.305    20421682.461  
  20421678.125  
 21  8 16 21 55 10.0000000  0 16G17G15G13G14G30G24R17R 6R 4G19R15G 7
                                R24R23R14R 5
  21294962.930   111905794.980    21294969.422    87199357.2704   21294969.352  
                
  21577327.820   113389624.294    21577334.305    88355585.4114   21577334.254  
                
  20426907.375   107344137.670    20426913.238    83644812.8374                 
                
  20491621.008   107684240.989    20491627.305    83909837.7294   20491627.387  
                
  21737783.750   114232874.429    21737792.344    89012687.8584   21737792.707  
                
  24244385.859   127405092.784    24244394.840    99276742.7264   24244395.375  
                
  22941351.461   122763804.814                    95482953.582    22941355.062  
  22941349.652  
  22912239.844   122264077.935                                                  
  22912237.402  
  22069440.570   118180856.121                    91918433.155    22069443.777  
  22069439.961  
  22743457.648   119517679.119    22743462.688    93130683.0284                 
                
  20112086.789   107472911.381                    83590051.846    20112090.832  
  20112086.812  
  24278478.523   127584297.213    24278485.734    99416385.5124   24278485.754  
                
  21433275.570   114613363.345                    89143733.921    21433280.074  
  21433274.348  
  22183922.633   118669054.896                                                  
  22183920.629  
  20317475.883   108303618.370                    84236157.357    20317479.594  
  20317475.352  
  20423626.148   109175985.260                    84914658.794    20423630.078  
  20423625.738  
 21  8 16 21 55 20.0000000  0 16G17G15G13G14G30G24R17R 6R 4G19R15G 7
                                R24R23R14R 5
  21291814.570   111889250.205    21291821.051    87186465.2394   21291820.980  
                
  21575519.531   113380121.727    21575526.043    88348180.8174   21575525.973  
                
  20427530.266   107347410.992    20427536.094    83647363.4814                 
                
  20493862.461   107696019.850    20493868.758    83919016.0654   20493868.828  
                
  21741715.578   114253536.291    21741724.195    89028787.9974   21741724.551  
                
  24238085.750   127371985.343    24238094.777    99250944.7534   24238095.285  
                
  22933498.297   122721781.354                    95450268.687    22933501.973  
  22933496.539  
  22906532.812   122233624.046                                                  
  22906530.383  
  22077166.219   118222226.503                    91950610.119    22077169.457  
  22077165.582  
  22736763.297   119482500.063    22736768.320    93103270.7834                 
                
  20109721.156   107460270.196                    83580219.837    20109725.215  
  20109721.199  
  24284041.492   127613530.835    24284048.719    99439164.9874   24284048.703  
                
  21430077.469   114596261.640                    89130432.604    21430081.938  
  21430076.266  
  22186358.062   118682082.830                                                  
  22186356.055  
  20320659.438   108320588.508                    84249356.345    20320663.141  
  20320658.902  
  20425590.625   109186486.472                    84922826.407    20425594.547  
  20425590.250  
 21  8 16 21 55 30.0000000  0 16G17G15G13G14G30G24R17R 6R 4G19R15G 7
                                R24R23R14R 5
  21288676.914   111872761.764    21288683.410    87173617.1034   21288683.324  
                
  21573723.758   113370684.923    21573730.289    88340827.4594   21573730.223  
                
  20428165.773   107350750.616    20428171.555    83649965.7794                 
                
  20496111.555   107707838.936    20496117.848    83928225.7444   20496117.906  
                
  21745653.430   114274229.835    21745662.098    89044912.8164   21745662.422  
                
  24231786.453   127338882.753    24231795.629    99225150.5474   24231796.094  
                
  22925648.055   122679773.655                    95417596.020    22925651.816  
  22925646.383  
  22900837.180   122203230.811                                                  
  22900834.668  
  22084897.688   118263628.245                    91982811.455    22084900.969  
  22084897.012  
  22730074.031   119447347.874    22730079.047    93075879.4674                 
                
  20107361.492   107447660.883                    83570412.587    20107365.559  
  20107361.547  
  24289607.656   127642781.009    24289614.848    99461957.3214   24289614.820  
                
  21426894.242   114579239.469                    89117193.134    21426898.676  
  21426893.086  
  22188809.797   118695197.946                                                  
  22188807.758  
  20323847.922   108337584.966                    84262575.810    20323851.605  
  20323847.387  
  20427571.984   109197077.921                    84931064.188    20427575.914  
  20427571.625  
 21  8 16 21 55 40.0000000  0 16G17G15G13G14G30G24R17R 6R 4G19R15G 7
                                R24R23R14R 5
  21285550.023   111856329.844    21285556.535    87160813.0174   21285556.441  
                
  21571940.578   113361314.263    21571947.133    88333525.6494   21571947.047  
                
  20428813.945   107354156.774    20428819.695    83652619.9324                 
                
  20498368.359   107719698.513    20498374.645    83937466.9834   20498374.711  
                
  21749597.375   114294955.358    21749606.086    89061062.5824   21749606.379  
                
  24225488.203   127305785.415    24225497.449    99199360.4194   24225497.898  
                
  22917800.977   122637782.158                    95384935.960    22917804.691  
  22917799.234  
  22895152.969   122172898.566                                                  
  22895150.418  
  22092634.984   118305061.362                    92015037.207    22092638.316  
  22092634.289  
  22723389.977   119412222.977    22723394.984    93048509.4204                 
                
  20105007.828   107435083.582                    83560630.260    20105011.902  
  20105007.883  
  24295176.961   127672047.970    24295184.215    99484762.7524   24295184.145  
                
  21423725.977   114562297.273                    89104015.895    21423730.379  
  21423724.852  
  22191277.844   118708400.326                                                  
  22191275.781  
  20327041.438   108354608.233                    84275816.121    20327045.125  
  20327040.895  
  20429570.250   109207759.752                    84939372.273    20429574.176  
  20429569.898  
 21  8 16 21 55 50.0000000  0 16G17G15G13G14G30G24R17R 6R 4G19R15G 7
                                R24R23R14R 5
  21282433.820   111839954.133    21282440.348    87148052.7314   21282440.246  
                
  21570169.953   113352009.605    21570176.523    88326275.2714   21570176.430  
                
  20429474.742   107357629.310    20429480.453    83655325.8004                 
                
  20500632.797   107731598.216    20500639.074    83946739.4794   20500639.156  
                
  21753547.344   114315712.592    21753556.082    89077237.0454   21753556.363  
                
  24219190.875   127272692.989    24219200.164    99173574.1424   24219200.586  
                
  22909956.953   122595806.762                    95352288.411    22909960.547  
  22909955.117  
  22889479.984   122142627.000                                                  
  22889477.523  
  22100378.125   118346525.482                    92047287.075    22100381.438  
  22100377.398  
  22716711.039   119377125.117    22716716.066    93021160.4454                 
                
  20102660.117   107422538.142                    83550872.701    20102664.184  
  20102660.184  
  24300749.336   127701331.371    24300756.664    99507580.9864   24300756.566  
                
  21420572.641   114545434.972                    89090900.759    21420576.984  
  21420571.551  
  22193762.164   118721689.797                                                  
  22193760.090  
  20330239.898   108371657.891                    84289076.964    20330243.590  
  20330239.352  
  20431585.336   109218531.571                    84947750.352    20431589.262  
  20431584.980  
 21  8 16 21 56  0.0000000  0 16G17G15G13G14G30G24R17R 6R 4G19R15G 7
                                R24R23R14R 5
  21279328.422   111823635.092    21279334.969    87135336.6054   21279334.863  
                
  21568411.867   113342770.811    21568418.453    88319076.2184   21568418.359  
                
  20430148.195   107361168.334    20430153.883    83658083.4854                 
                
  20502904.891   107743538.093    20502911.164    83956043.2834   20502911.246  
                
  21757503.359   114336501.571    21757512.137    89093436.2404   21757512.398  
                
  24212894.594   127239605.706    24212903.855    99147791.8484   24212904.281  
                
  22902115.875   122553847.660                    95319653.535    22902119.469  
  22902114.035  
  22883818.562   122112416.694                                                  
  22883816.102  
  22108127.055   118388020.599                    92079561.059    22108130.332  
  22108126.320  
  22710037.320   119342054.556    22710042.367    92993832.7544                 
                
  20100318.383   107410024.574                    83541139.930    20100322.449  
  20100318.445  
  24306324.930   127730631.322    24306332.238    99530412.1324   24306332.152  
                
  21417434.281   114528652.662                    89077847.857    21417438.566  
  21417433.242  
  22196262.734   118735066.208                                                  
  22196260.617  
  20333443.344   108388734.077                    84302358.445    20333447.020  
  20333442.785  
  20433617.281   109229393.481                    84956198.501    20433621.223  
  20433616.910  
 21  8 16 21 56 10.0000000  0 16G17G15G13G14G30G24R17R 6R 4G19R15G 7
                                R24R23R14R 5
  21276233.828   111807372.865    21276240.387    87122664.7304   21276240.277  
                
  21566666.305   113333597.862    21566672.918    88311928.4744   21566672.801  
                
  20430834.281   107364773.717    20430839.938    83660892.8724                 
                
  20505184.586   107755517.958    20505190.855    83965378.2454   20505190.930  
                
  21761465.406   114357322.202    21761474.227    89109660.1074   21761474.469  
                
  24206599.250   127206523.452    24206608.492    99122013.4234   24206608.914  
                
  22894277.773   122511905.018                    95287031.451    22894281.445  
  22894275.988  
  22878168.586   122082267.331                                                  
  22878166.129  
  22115881.617   118429546.360                    92111858.866    22115884.941  
  22115880.945  
  22703368.805   119307011.258    22703373.859    92966526.2974                 
                
  20097982.578   107397542.792                    83531431.883    20097986.656  
  20097982.637  
  24311903.680   127759947.731    24311910.941    99553256.0724   24311910.867  
                
  21414310.852   114511950.270                    89064857.111    21414315.090  
  21414309.832  
  22198779.539   118748529.469                                                  
  22198777.449  
  20336651.719   108405836.522                    84315660.341    20336655.398  
  20336651.156  
  20435666.047   109240345.294                    84964716.576    20435669.992  
  20435665.668  
 21  8 16 21 56 20.0000000  0 16G17G15G13G14G30G24R17R 6R 4G19R15G 7
                                R24R23R14R 5
  21273150.062   111791167.594    21273156.645    87110037.2474   21273156.527  
                
  21564933.336   113324491.067    21564939.969    88304832.2674   21564939.836  
                
  20431532.992   107368445.519    20431538.629    83663754.0134                 
                
  20507471.930   107767538.002    20507478.203    83974744.5164   20507478.277  
                
  21765433.492   114378174.645    21765442.328    89125908.7644   21765442.574  
                
  24200304.812   127173446.488    24200314.156    99096239.1894   24200314.500  
                
  22886442.781   122469979.070                    95254422.385    22886446.629  
  22886441.047  
  22872530.133   122052179.414                                                  
  22872527.621  
  22123641.938   118471102.853                    92144180.586    22123645.320  
  22123641.309  
  22696705.531   119271995.542    22696710.574    92939241.3244                 
                
  20095652.773   107385093.011                    83521748.724    20095656.840  
  20095652.820  
  24317485.617   127789280.745    24317492.797    99576112.9654   24317492.738  
                
  21411202.461   114495328.329                    89051928.919    21411206.676  
  21411201.445  
  22201312.633   118762079.798                                                  
  22201310.586  
  20339865.055   108422965.440                    84328982.840    20339868.727  
  20339864.492  
  20437731.617   109251387.000                    84973304.568    20437735.559  
  20437731.227  
 21  8 16 21 56 30.0000000  0 16G17G15G13G14G30G24R17R 6R 4G19R15G 7
                                R24R23R14R 5
  21270077.117   111775019.161    21270083.719    87097454.0574   21270083.594  
                
  21563212.961   113315450.416    21563219.602    88297787.6004   21563219.469  
                
  20432244.352   107372183.752    20432249.973    83666666.9164                 
                
  20509766.891   107779598.077    20509773.160    83984141.9794   20509773.227  
                
  21769407.625   114399058.842    21769416.469    89142182.1604   21769416.707  
                
  24194011.414   127140374.767    24194020.828    99070469.0634   24194021.145  
                
  22878611.062   122428070.024                    95221826.457    22878614.961  
  22878609.289  
  22866903.172   122022152.921                                                  
  22866900.641  
  22131407.930   118512689.804                    92176525.965    22131411.398  
  22131407.336  
  22690047.508   119237007.448    22690052.508    92911977.8704                 
                
  20093328.945   107372675.230                    83512090.460    20093333.004  
  20093328.988  
  24323070.695   127818630.305    24323077.793    99598982.7574   24323077.762  
                
  21408109.094   114478786.667                    89039063.212    21408113.285  
  21408108.086  
  22203861.969   118775717.010                                                  
  22203859.969  
  20343083.328   108440120.699                    84342325.807    20343086.992  
  20343082.766  
  20439814.031   109262518.716                    84981962.585    20439817.980  
  20439813.648  
 21  8 16 21 56 40.0000000  0 16G17G15G13G14G30G24R17R 6R 4G19R15G 7
                                R24R23R14R 5
  21267014.953   111758927.433    21267021.574    87084915.0544   21267021.453  
                
  21561505.141   113306475.764    21561511.773    88290794.3614   21561511.664  
                
  20432968.336   107375988.335    20432973.957    83669631.5244                 
                
  20512069.430   107791697.966    20512075.699    83993570.4684   20512075.773  
                
  21773387.773   114419974.624    21773396.637    89158480.1694   21773396.879  
                
  24187719.109   127107308.181    24187728.477    99044702.9094   24187728.785  
                
  22870782.492   122386177.865                    95189243.676    22870786.480  
  22870780.723  
  22861287.688   121992187.880                                                  
  22861285.191  
  22139179.672   118554306.885                    92208894.797    22139183.094  
  22139179.020  
  22683394.750   119202047.014    22683399.707    92884735.9764                 
                
  20091011.055   107360289.165                    83502456.846    20091015.117  
  20091011.098  
  24328658.883   127847996.227    24328665.930    99621865.2794   24328665.914  
                
  21405030.742   114462325.298                    89026259.919    21405034.906  
  21405029.754  
  22206427.484   118789440.714                                                  
  22206425.512  
  20346306.539   108457302.249                    84355689.231    20346310.215  
  20346305.961  
  20441913.250   109273740.199                    84990690.390    20441917.188  
  20441912.855  
 21  8 16 21 56 50.0000000  0 16G17G15G13G14G30G24R17R 6R 4G19R15G 7
                                R24R23R14R 5
  21263963.641   111742892.689    21263970.301    87072420.4564   21263970.184  
                
  21559809.930   113297567.351    21559816.535    88283852.7504   21559816.430  
                
  20433704.969   107379859.362    20433710.605    83672647.9064                 
                
  20514379.562   107803837.795    20514385.848    84003030.0834   20514385.910  
                
  21777373.953   114440922.108    21777382.836    89174802.8844   21777383.062  
                
  24181427.875   127074247.011    24181437.129    99018940.9524   24181437.473  
                
  22862957.133   122344303.013                    95156674.368    22862961.215  
  22862955.395  
  22855683.852   121962284.696                                                  
  22855681.402  
  22146957.102   118595954.140                    92241287.115    22146960.422  
  22146956.383  
  22676747.297   119167114.448    22676752.242    92857515.8064                 
                
  20088699.141   107347935.003                    83492848.067    20088703.180  
  20088699.195  
  24334250.242   127877378.639    24334257.227    99644760.6654   24334257.230  
                
  21401967.461   114445944.539                    89013519.332    21401971.621  
  21401966.484  
  22209009.227   118803251.264                                                  
  22209007.266  
  20349534.711   108474510.252                    84369073.232    20349538.402  
  20349534.125  
  20444029.234   109285051.366                    84999487.969    20444033.184  
  20444028.824  
 21  8 16 21 57  0.0000000  0 16G17G15G13G14G30G24R17R 6R 4G19R15G 7
                                R24R23R14R 5
  21260923.133   111726914.752    21260929.855    87059970.1244   21260929.703  
                
  21558127.305   113288725.065    21558133.891    88276962.6574   21558133.777  
                
  20434454.219   107383796.729    20434459.867    83675715.9804                 
                
  20516697.258   107816017.336    20516703.555    84012520.6354   20516703.602  
                
  21781366.141   114461901.161    21781375.035    89191150.1984   21781375.246  
                
  24175137.625   127041191.059    24175146.777    98993183.0954   24175147.152  
                
  22855134.914   122302445.197                    95124118.295    22855139.117  
  22855133.238  
  22850091.578   121932443.029                                                  
  22850089.105  
  22154740.023   118637631.114                    92273702.549    22154743.328  
  22154739.285  
  22670105.133   119132209.696    22670110.105    92830317.3064                 
                
  20086393.188   107335612.689                    83483264.049    20086397.227  
  20086393.238  
  24339844.602   127906777.287    24339851.590    99667668.7064   24339851.613  
                
  21398919.258   114429644.382                    89000841.446    21398923.379  
  21398918.297  
  22211607.117   118817148.230                                                  
  22211605.199  
  20352767.789   108491744.372                    84382477.546    20352771.488  
  20352767.199  
  20446161.961   109296451.996                    85008355.110    20446165.906  
  20446161.539  
 21  8 16 21 57 10.0000000  0 16G17G15G13G14G30G24R17R 6R 4G19R15G 7
                                R24R23R14R 5
  21257893.461   111710993.734    21257900.230    87047564.1404   21257900.039  
                
  21556457.250   113279948.906    21556463.836    88270124.0824   21556463.723  
                
  20435216.070   107387800.327    20435221.742    83678835.6644                 
                
  20519022.492   107828236.518    20519028.793    84022042.0754   20519028.836  
                
  21785364.312   114482911.690    21785373.207    89207522.0314   21785373.410  
                
  24168848.258   127008140.328    24168857.398    98967429.2954   24168857.789  
                
  22847316.008   122260604.789                    95091575.759    22847320.258  
  22847314.332  
  22844510.930   121902663.448                                                  
  22844508.449  
  22162528.336   118679337.800                    92306141.069    22162531.770  
  22162527.691  
  22663468.273   119097332.936    22663473.281    92803140.6314                 
                
  20084093.164   107323322.118                    83473704.720    20084097.199  
  20084093.203  
  24345442.086   127936192.307    24345449.098    99690589.4924   24345449.133  
                
  21395886.102   114413424.777                    88988226.190    21395890.219  
  21395885.148  
  22214221.156   118831131.603                                                  
  22214219.195  
  20356005.758   108509004.594                    84395902.170    20356009.469  
  20356005.160  
  20448311.445   109307942.266                    85017291.994    20448315.387  
  20448311.012  
 21  8 16 21 57 20.0000000  0 16G17G15G13G14G30G24R17R 6R 4G19R15G 7
                                R24R23R14R 5
  21254874.664   111695129.923    21254881.434    87035202.7394   21254881.254  
                
  21554799.844   113271239.124    21554806.453    88263337.2354   21554806.312  
                
  20435990.578   107391870.402    20435996.262    83682007.1464                 
                
  20521355.312   107840495.541    20521361.617    84031594.5634   20521361.652  
                
  21789368.547   114503954.000    21789377.461    89223918.6294   21789377.656  
                
  24162559.984   126975095.208    24162569.016    98941679.8194   24162569.402  
                
  22839500.422   122218782.218                    95059047.079    22839504.727  
  22839498.758  
  22838941.914   121872945.987                                                  
  22838939.414  
  22170322.266   118721074.152                    92338602.674    22170325.785  
  22170321.656  
  22656836.836   119062484.486    22656841.836    92775986.0124                 
                
  20081799.148   107311063.615                    83464170.333    20081803.184  
  20081799.180  
  24351042.742   127965623.800    24351049.766    99713523.1234   24351049.805  
                
  21392868.094   114397286.095                    88975673.899    21392872.207  
  21392867.121  
  22216851.383   118845201.578                                                  
  22216849.398  
  20359248.656   108526291.113                    84409347.235    20359252.367  
  20359248.070  
  20450477.703   109319522.142                    85026298.559    20450481.652  
  20450477.262  
 21  8 16 21 57 30.0000000  0 16G17G15G13G14G30G24R17R 6R 4G19R15G 7
                                R24R23R14R 5
  21251866.773   111679323.342    21251873.535    87022885.9214   21251873.355  
                
  21553155.070   113262595.787    21553161.711    88256602.1654   21553161.570  
                
  20436777.742   107396006.987    20436783.434    83685230.4594                 
                
  20523695.688   107852794.341    20523701.992    84041178.0444   20523702.027  
                
  21793378.820   114525028.043    21793387.715    89240339.9474   21793387.902  
                
  24156272.844   126942055.643    24156281.738    98915934.7484   24156282.145  
                
  22831688.242   122176977.565                    95026532.347    22831692.523  
  22831686.480  
  22833384.523   121843291.002                                                  
  22833382.059  
  22178121.797   118762840.028                    92371087.223    22178125.289  
  22178121.168  
  22650210.812   119027664.401    22650215.781    92748853.4664                 
                
  20079511.125   107298837.143                    83454660.857    20079515.156  
  20079511.148  
  24356646.492   127995071.749    24356653.516    99736469.5724   24356653.578  
                
  21389865.203   114381228.345                    88963184.535    21389869.305  
  21389864.234  
  22219497.805   118859358.170                                                  
  22219495.820  
  20362496.500   108543603.984                    84422812.799    20362500.215  
  20362495.922  
  20452660.727   109331191.621                    85035374.823    20452664.672  
  20452660.273  
 21  8 16 21 57 40.0000000  0 16G17G15G13G14G30G24R17R 6R 4G19R15G 7
                                R24R23R14R 5
  21248869.727   111663573.832    21248876.488    87010613.5804   21248876.309  
                
  21551522.891   113254018.656    21551529.539    88249918.6874   21551529.375  
                
  20437577.523   107400209.922    20437583.211    83688505.4754                 
                
  20526043.586   107865132.639    20526049.887    84050792.3064   20526049.930  
                
  21797395.070   114546133.545    21797403.926    89256785.8014   21797404.145  
                
  24149986.695   126909021.535    24149995.555    98890193.8904   24149995.961  
                
  22823879.453   122135190.808                    94994031.527    22823883.629  
  22823877.590  
  22827838.898   121813698.291                                                  
  22827836.340  
  22185926.812   118804635.051                    92403594.455    22185930.219  
  22185926.109  
  22643590.141   118992872.567    22643595.082    92721742.9364                 
                
  20077229.055   107286642.466                    83445176.110    20077233.074  
  20077229.082  
  24362253.273   128024535.936    24362260.363    99759428.6814   24362260.430  
                
  21386877.461   114365251.563                    88950758.162    21386881.578  
  21386876.496  
  22222160.320   118873600.860                                                  
  22222158.316  
  20365749.266   108560943.083                    84436298.759    20365752.973  
  20365748.684  
  20454860.422   109342950.258                    85044520.420    20454864.371  
  20454859.984  
 21  8 16 21 57 50.0000000  0 16G17G15G13G14G30G24R17R 6R 4G19R15G 7
                                R24R23R14R 5
  21245883.633   111647881.809    21245890.367    86998386.0374   21245890.195  
                
  21549903.422   113245508.238    21549910.043    88243287.2004   21549909.887  
                
  20438390.039   107404479.731    20438395.715    83691832.5994                 
                
  20528399.086   107877510.870    20528405.387    84060437.6764   20528405.426  
                
  21801417.406   114567271.037    21801426.238    89273256.5714   21801426.484  
                
  24143701.539   126875993.351    24143710.512    98864457.6534   24143710.875  
                
  22816074.141   122093422.596                    94961545.115    22816078.160  
  22816072.203  
  22822305.000   121784168.486                                                  
  22822302.457  
  22193737.297   118846459.630                    92436124.670    22193740.660  
  22193736.551  
  22636974.922   118958109.540    22636979.883    92694654.8834                 
                
  20074953.000   107274479.949                    83435716.376    20074957.008  
  20074953.039  
  24367863.352   128054016.773    24367870.414    99782400.7634   24367870.465  
                
  21383904.992   114349356.427                    88938395.301    21383909.160  
  21383904.016  
  22224839.055   118887930.256                                                  
  22224837.078  
  20369006.984   108578308.568                    84449805.242    20369010.703  
  20369006.414  
  20457076.906   109354798.646                    85053735.832    20457080.852  
  20457076.461  
 21  8 16 21 58  0.0000000  0 16G17G15G13G14G30G24R17R 6R 4G19R15G 7
                                R24R23R14R 5
  21242908.383   111632246.808    21242915.066    86986202.9204   21242914.910  
                
  21548296.578   113237064.180    21548303.141    88236707.4084   21548303.004  
                
  20439215.180   107408815.883    20439220.844    83695211.4214                 
                
  20530762.094   107889928.565    20530768.402    84070113.8134   20530768.445  
                
  21805445.750   114588440.092    21805454.578    89289751.9264   21805454.812  
                
  24137417.555   126842970.814    24137426.555    98838725.8174   24137426.926  
                
  22808272.320   122051672.698                    94929072.945    22808276.148  
  22808270.293  
  22816782.844   121754701.513                                                  
  22816780.312  
  22201553.086   118888313.068                    92468677.335    22201556.500  
  22201552.402  
  22630365.164   118923375.081    22630370.145    92667589.0974                 
                
  20072682.930   107262349.387                    83426281.500    20072686.938  
  20072682.980  
  24373476.367   128083513.835    24373483.551    99805385.4694   24373483.590  
                
  21380947.688   114333542.448                    88926095.555    21380951.898  
  21380946.707  
  22227533.898   118902345.790                                                  
  22227531.977  
  20372269.633   108595700.300                    84463332.156    20372273.371  
  20372269.078  
  20459310.078   109366736.189                    85063020.582    20459314.016  
  20459309.629  
 21  8 16 21 58 10.0000000  0 16G17G15G13G14G30G24R17R 6R 4G19R15G 7
                                R24R23R14R 5
  21239943.984   111616668.828    21239950.629    86974064.2434   21239950.500  
                
  21546702.305   113228686.189    21546708.809    88230179.0954   21546708.719  
                
  20440052.891   107413218.117    20440058.539    83698641.7264                 
                
  20533132.539   107902385.365    20533138.863    84079820.4114   20533138.902  
                
  21809480.031   114609640.355    21809488.836    89306271.6104   21809489.078  
                
  24131134.578   126809953.600    24131143.578    98812998.1034   24131143.945  
                
  22800473.734   122009940.994                    94896614.945    22800477.566  
  22800471.738  
  22811272.273   121725296.697                                                  
  22811269.863  
  22209374.344   118930194.926                    92501252.109    22209377.648  
  22209373.594  
  22623760.820   118888668.965    22623765.809    92640545.3844                 
                
  20070418.750   107250250.341                    83416871.139    20070422.750  
  20070418.777  
  24379092.555   128113026.830    24379099.672    99828382.6164   24379099.734  
                
  21378005.547   114317809.629                    88913858.923    21378009.793  
  21378004.539  
  22230244.773   118916847.111                                                  
  22230242.883  
  20375537.102   108613117.746                    84476879.045    20375540.844  
  20375536.555  
  20461559.883   109378762.642                    85072374.493    20461563.824  
  20461559.445  
 21  8 16 21 58 20.0000000  0 15G17G15G13G14G30G24R17R 6R 4G19R15R24
                                R23R14R 5
  21236990.430   111601147.827    21236997.055    86961969.9594   21236996.938  
                
  21545120.609   113220374.270    21545127.070    88223702.2744   21545126.996  
                
  20440903.156   107417686.303    20440908.789    83702123.4354                 
                
  20535510.414   107914881.127    20535516.758    84089557.3634   20535516.785  
                
  21813520.227   114630871.738    21813528.984    89322815.5354   21813529.262  
                
  24124852.617   126776941.641    24124861.590    98787274.5294   24124861.949  
                
  22792678.375   121968227.428                    94864171.066    22792682.387  
  22792676.527  
  22805773.477   121695954.317                                                  
  22805771.074  
  22217200.828   118972104.969                    92533848.821    22217204.059  
  22217200.027  
  22617161.875   118853991.229    22617166.852    92613523.7704                 
                
  20068160.492   107238182.896                    83407485.351    20068164.492  
  20068160.508  
  21375078.539   114302157.719                    88901685.242    21375082.824  
  21375077.500  
  22232971.664   118931434.072                                                  
  22232969.809  
  20378809.375   108630560.776                    84490445.837    20378813.129  
  20378808.844  
  20463826.273   109390877.793                    85081797.386    20463830.227  
  20463825.832  
 21  8 16 21 58 30.0000000  0 15G17G15G13G14G30G24R17R 6R 4G19R15R24
                                R23R14R 5
  21234047.836   111585684.400    21234054.438    86949920.5384   21234054.312  
                
  21543551.562   113212128.816    21543558.000    88217277.2494   21543557.922  
                
  20441766.039   107422220.801    20441771.656    83705656.8014                 
                
  20537895.750   107927416.151    20537902.121    84099324.9134   20537902.133  
                
  21817566.414   114652134.560    21817575.125    89339383.9604   21817575.434  
                
  24118571.711   126743935.368    24118580.746    98761555.3834   24118581.105  
                
  22784886.578   121926532.624                    94831741.783    22784890.758  
  22784884.832  
  22800286.531   121666674.890                                                  
  22800284.078  
  22225032.484   119014043.434                    92566467.622    22225035.762  
  22225031.703  
  22610568.414   118819342.351    22610573.371    92586524.6554                 
                
  20065908.172   107226147.247                    83398124.294    20065912.172  
  20065908.188  
  21372166.758   114286587.201                    88889574.843    21372171.086  
  21372165.691  
  22235714.609   118946106.986                                                  
  22235712.793  
  20382086.531   108648029.840                    84504032.885    20382090.285  
  20382086.023  
  20466109.273   109403081.754                    85091289.337    20466113.219  
  20466108.844  
 21  8 16 21 58 40.0000000  0 15G17G15G13G14G30G24R17R 6R 4G19R15R24
                                R23R14R 5
  21231116.289   111570279.071    21231122.855    86937916.3894   21231122.734  
                
  21541995.266   113203950.410    21542001.684    88210904.4654   21542001.590  
                
  20442641.656   107426822.223    20442647.266    83709242.3234                 
                
  20540288.656   107939990.989    20540295.043    84109123.4924   20540295.047  
                
  21821618.703   114673429.436    21821627.371    89355977.3744   21821627.691  
                
  24112291.930   126710935.391    24112301.109    98735841.1214   24112301.453  
                
  22777098.609   121884857.487                    94799327.786    22777102.793  
  22777096.812  
  22794811.516   121637459.370                                                  
  22794809.105  
  22232869.547   119056010.676                    92599108.810    22232872.824  
  22232868.793  
  22603980.578   118784723.071    22603985.504    92559548.5864                 
                
  20063661.922   107214143.976                    83388788.418    20063665.918  
  20063661.918  
  21369270.383   114271099.042                    88877528.480    21369274.695  
  21369269.289  
  22238473.688   118960866.287                                                  
  22238471.836  
  20385368.648   108665525.388                    84517640.522    20385372.398  
  20385368.156  
  20468409.016   109415375.229                    85100850.943    20468412.938  
  20468408.613  
 21  8 16 21 58 50.0000000  0 15G17G15G13G14G30G24R17R 6R 4G19R15R24
                                R23R14R 5
  21228195.750   111554931.557    21228202.266    86925957.2844   21228202.164  
                
  21540451.672   113195838.755    21540458.062    88204583.6934   21540457.961  
                
  20443529.945   107431490.224    20443535.539    83712879.7254                 
                
  20542689.070   107952605.235    20542695.477    84118952.7744   20542695.477  
                
  21825677.016   114694756.008    21825685.625    89372595.4704   21825685.980  
                
  24106013.461   126677941.481    24106022.625    98710131.6064   24106022.898  
                
  22769314.266   121843201.656                    94766928.814    22769318.434  
  22769312.430  
  22789348.406   121608307.203                                                  
  22789346.000  
  22240712.000   119098006.193                    92631771.994    22240715.191  
  22240711.238  
  22597398.328   118750133.089    22597403.203    92532595.3494                 
                
  20061421.688   107202172.855                    83379477.546    20061425.680  
  20061421.684  
  21366389.305   114255692.658                    88865545.765    21366393.613  
  21366388.191  
  22241248.867   118975711.654                                                  
  22241246.988  
  20388655.695   108683047.185                    84531268.585    20388659.461  
  20388655.191  
  20470725.430   109427757.761                    85110481.797    20470729.332  
  20470725.016  
 21  8 16 21 59  0.0000000  0 15G17G15G13G14G30G24R17R 6R 4G19R15R24
                                R23R14R 5
  21225286.172   111539641.619    21225292.637    86914043.0504   21225292.555  
                
  21538920.742   113187793.591    21538927.105    88198314.7294   21538926.996  
                
  20444430.844   107436224.472    20444436.430    83716568.7504                 
                
  20545096.906   107965258.531    20545103.328    84128812.4824   20545103.328  
                
  21829741.289   114716113.906    21829749.836    89389237.9814   21829750.254  
                
  24099736.078   126644953.316    24099745.246    98684426.6134   24099745.508  
                
  22761533.562   121801565.074                    94734544.801    22761537.660  
  22761531.660  
  22783897.164   121579218.375                                                  
  22783894.812  
  22248559.625   119140029.491                    92664456.776    22248562.742  
  22248558.812  
  22590821.625   118715572.272    22590826.465    92505664.8454                 
                
  20059187.375   107190233.417                    83370191.322    20059191.367  
  20059187.371  
  21363523.547   114240368.242                    88853626.786    21363527.891  
  21363522.395  
  22244040.055   118990642.699                                                  
  22244038.172  
  20391947.570   108700594.765                    84544916.707    20391951.344  
  20391947.055  
  20473058.422   109440228.987                    85120181.642    20473062.336  
  20473058.012  
 21  8 16 21 59 10.0000000  0 15G17G15G13G14G30G24R17R 6R 4G19R15R24
                                R23R14R 5
  21222387.531   111524409.207    21222393.957    86902173.6404   21222393.902  
                
  21537402.445   113179814.905    21537408.766    88192097.5714   21537408.688  
                
  20445344.336   107441024.961    20445349.914    83720309.3964                 
                
  20547512.164   107977950.814    20547518.605    84138702.5684   20547518.598  
                
  21833811.531   114737503.167    21833820.059    89405904.9374   21833820.492  
                
  24093459.898   126611971.021    24093468.922    98658726.0794   24093469.125  
                
  22753756.531   121759947.833                    94702175.818    22753760.477  
  22753754.504  
  22778457.914   121550193.201                                                  
  22778455.516  
  22256412.320   119182080.456                    92697163.081    22256415.461  
  22256411.539  
  22584250.484   118681040.670    22584255.305    92478757.1064                 
                
  20056959.031   107178325.843                    83360929.884    20056963.031  
  20056959.020  
  21360673.023   114225125.380                    88841771.244    21360677.406  
  21360671.844  
  22246847.242   119005659.331                                                  
  22246845.316  
  20395244.289   108718168.149                    84558584.891    20395248.055  
  20395243.762  
  20475408.000   109452788.830                    85129950.404    20475411.898  
  20475407.590  
 21  8 16 21 59 20.0000000  0 15G17G15G13G14G30G24R17R 6R 4G19R15R24
                                R23R14R 5
  21219499.867   111509234.430    21219506.266    86890349.1414   21219506.219  
                
  21535896.859   113171902.993    21535903.148    88185932.4474   21535903.094  
                
  20446270.500   107445891.979    20446276.078    83724101.8674                 
                
  20549934.875   107990682.233    20549941.344    84148623.1544   20549941.332  
                
  21837887.781   114758923.959    21837896.312    89422596.4474   21837896.738  
                
  24087184.820   126578994.755    24087193.734    98633030.3224   24087193.938  
                
  22745983.211   121718350.388                    94669822.249    22745986.996  
  22745981.035  
  22773030.539   121521231.677                                                  
  22773028.086  
  22264270.203   119224159.184                    92729890.977    22264273.379  
  22264269.457  
  22577684.969   118646538.615    22577689.820    92451872.3964                 
                
  20054736.680   107166450.253                    83351693.314    20054740.672  
  20054736.676  
  21357837.906   114209964.797                    88829979.678    21357842.324  
  21357836.699  
  22249670.438   119020761.642                                                  
  22249668.477  
  20398545.891   108735767.551                    84572273.318    20398549.652  
  20398545.359  
  20477774.203   109465437.485                    85139788.236    20477778.098  
  20477773.785  
 21  8 16 21 59 30.0000000  0 15G17G15G13G14G30G24R17R 6R 4G19R15R24
                                R23R14R 5
  21216623.250   111494117.711    21216629.633    86878569.8854   21216629.602  
                
  21534404.031   113164058.100    21534410.297    88179819.5534   21534410.238  
                
  20447209.352   107450825.654    20447214.926    83727946.2914                 
                
  20552365.062   108003452.973    20552371.547    84158574.3824   20552371.520  
                
  21841970.078   114780376.508    21841978.617    89439312.7124   21841979.039  
                
  24080910.938   126546024.854    24080919.777    98607339.4814   24080919.961  
                
  22738213.477   121676773.028                    94637484.294    22738217.238  
  22738211.328  
  22767615.211   121492334.381                                                  
  22767612.723  
  22272133.406   119266265.726                    92762640.503    22272136.504  
  22272132.625  
  22571125.156   118612066.449    22571130.043    92425010.9774                 
                
  20052520.375   107154607.006                    83342481.904    20052524.363  
  20052520.379  
  21355018.180   114194886.446                    88818252.093    21355022.617  
  21355016.961  
  22252509.703   119035949.854                                                  
  22252507.699  
  20401852.383   108753393.056                    84585982.038    20401856.133  
  20401851.844  
  20480157.039   109478175.098                    85149695.269    20480160.934  
  20480156.625  
 21  8 16 21 59 40.0000000  0 15G17G15G13G14G30G24R17R 6R 4G19R15R24
                                R23R14R 5
  21213757.703   111479059.156    21213764.094    86866835.9394   21213764.051  
                
  21532923.930   113156280.142    21532930.188    88173758.8084   21532930.133  
                
  20448160.867   107455825.893    20448166.445    83731842.5844                 
                
  20554802.695   108016262.857    20554809.191    84168556.1004   20554809.164  
                
  21846058.383   114801860.672    21846066.938    89456053.6154   21846067.355  
                
  24074638.125   126513061.194    24074646.965    98581653.5114   24074647.145  
                
  22730447.656   121635215.915                    94605162.097    22730451.234  
  22730445.426  
  22762211.930   121463501.246                                                  
  22762209.383  
  22280001.805   119308399.696                    92795411.356    22280004.766  
  22280000.922  
  22564571.000   118577624.146    22564575.930    92398172.8184                 
                
  20050310.062   107142795.771                    83333295.382    20050314.043  
  20050310.082  
  21352213.891   114179890.708                    88806588.746    21352218.352  
  21352212.676  
  22255364.961   119051223.632                                                  
  22255362.941  
  20405163.789   108771044.750                    84599711.141    20405167.547  
  20405163.227  
  20482556.438   109491001.254                    85159671.156    20482560.340  
  20482556.031  
 21  8 16 21 59 50.0000000  0 15G17G15G13G14G30G24R17R 6R 4G19R15R24
                                R23R14R 5
  21210903.258   111464058.983    21210909.668    86855147.4954   21210909.617  
                
  21531456.633   113148569.397    21531462.887    88167750.4244   21531462.824  
                
  20449125.102   107460892.980    20449130.691    83735790.9624                 
                
  20557247.828   108029112.130    20557254.324    84178568.5264   20557254.297  
                
  21850152.758   114823376.752    21850161.332    89472819.3824   21850161.754  
                
  24068366.547   126480104.159    24068375.453    98555972.7674   24068375.672  
                
  22722685.539   121593679.475                    94572855.959    22722689.102  
  22722683.336  
  22756820.781   121434732.720                                                  
  22756818.215  
  22287875.172   119350561.213                    92828203.658    22287878.160  
  22287874.344  
  22558022.602   118543212.157    22558027.582    92371358.2964                 
                
  20048105.812   107131016.948                    83324134.074    20048109.793  
  20048105.859  
  21349425.086   114164977.743                    88794989.790    21349429.586  
  21349423.875  
  22258236.297   119066583.365                                                  
  22258234.273  
  20408480.133   108788722.752                    84613460.691    20408483.898  
  20408479.562  
  20484972.492   109503916.419                    85169716.299    20484976.395  
  20484972.086  
 21  8 16 22  0  0.0000000  0 15G17G15G13G14G30G24R17R 6R 4G19R15R24
                                R23R14R 5
  21208059.625   111449115.588    21208066.043    86843503.2984   21208065.992  
                
  21530001.805   113140924.235    21530008.062    88161793.1644   21530008.000  
                
  20450101.734   107466025.212    20450107.344    83739790.1084                 
                
  20559700.133   108041999.070    20559706.625    84188610.3004   20559706.598  
                
  21854252.883   114844923.051    21854261.473    89489608.7014   21854261.902  
                
  24062095.914   126447152.089    24062104.832    98530295.8344   24062105.059  
                
  22714926.859   121552162.124                    94540564.686    22714930.566  
  22714924.824  
  22751441.359   121406027.176                                                  
  22751438.824  
  22295753.344   119392748.562                    92861016.035    22295756.387  
  22295752.605  
  22551479.688   118508828.976    22551484.734    92344566.2194                 
                
  20045907.312   107119268.806                    83314996.650    20045911.305  
  20045907.363  
  21346651.453   114150145.941                    88783453.948    21346655.953  
  21346650.250  
  22261123.359   119082027.212                                                  
  22261121.371  
  20411801.086   108806425.349                    84627229.380    20411804.848  
  20411800.516  
  20487404.844   109516918.762                    85179829.210    20487408.750  
  20487404.441  
 21  8 16 22  0 10.0000000  0 15G17G15G13G14G30G24R17R 6R 4G19R15R24
                                R23R14R 5
  21205226.938   111434229.753    21205233.375    86831903.9534   21205233.316  
                
  21528559.664   113133345.706    21528565.918    88155887.8174   21528565.871  
                
  20451090.953   107471223.575    20451096.582    83743840.7774                 
                
  20562159.781   108054924.578    20562166.270    84198682.1284   20562166.246  
                
  21858358.945   114866500.509    21858367.551    89506422.2904   21858367.996  
                
  24055826.445   126414206.027    24055835.312    98504623.5924   24055835.578  
                
  22707172.047   121510665.092                    94508289.216    22707175.852  
  22707170.090  
  22746073.953   121377385.781                                                  
  22746071.453  
  22303636.430   119434962.504                    92893849.090    22303639.551  
  22303635.777  
  22544942.445   118474475.590    22544947.551    92317797.3504                 
                
  20043714.758   107107552.465                    83305883.931    20043718.750  
  20043714.805  
  21343893.242   114135396.591                    88771982.244    21343897.746  
  21343892.047  
  22264026.320   119097556.113                                                  
  22264024.340  
  20415126.852   108824153.514                    84641017.954    20415130.617  
  20415126.270  
  20489853.656   109530009.029                    85190010.528    20489857.562  
  20489853.258  
 21  8 16 22  0 20.0000000  0 15G17G15G13G14G30G24R17R 6R 4G19R15R24
                                R23R14R 5
  21202405.422   111419402.582    21202411.879    86820350.3194   21202411.809  
                
  21527130.383   113125834.800    21527136.633    88150035.1654   21527136.598  
                
  20452092.914   107476488.898    20452098.559    83747943.6234                 
                
  20564626.898   108067889.398    20564633.383    84208784.5874   20564633.367  
                
  21862471.078   114888109.905    21862479.688    89523260.7734   21862480.145  
                
  24049558.219   126381266.815    24049567.117    98478956.7014   24049567.449  
                
  22699421.367   121469189.345                    94476030.288    22699425.152  
  22699419.375  
  22740718.820   121348809.585                                                  
  22740716.301  
  22311524.625   119477203.558                    92926703.235    22311527.785  
  22311523.973  
  22538411.062   118440152.946    22538416.203    92291052.4444                 
                
  20041528.266   107095868.542                    83296796.438    20041532.258  
  20041528.309  
  21341150.578   114120730.361                    88760575.179    21341155.082  
  21341149.371  
  22266945.328   119113170.829                                                  
  22266943.328  
  20418457.539   108841907.957                    84654826.957    20418461.281  
  20418456.961  
  20492319.102   109543188.241                    85200261.028    20492323.012  
  20492318.719  
 21  8 16 22  0 30.0000000  0 15G17G15G13G14G30G24R17R 6R 4G19R15R24
                                R23R14R 5
  21199595.094   111404634.237    21199601.562    86808842.5164   21199601.492  
                
  21525713.961   113118391.414    21525720.215    88144235.1264   21525720.164  
                
  20453107.625   107481821.242    20453113.293    83752098.6954                 
                
  20567101.508   108080893.555    20567108.000    84218917.6994   20567107.980  
                
  21866589.305   114909751.304    21866597.918    89540124.1964   21866598.395  
                
  24043291.391   126348334.589    24043300.141    98453295.1924   24043300.496  
                
  22691674.617   121427735.094                    94443788.121    22691678.496  
  22691672.660  
  22735375.938   121320298.798                                                  
  22735373.441  
  22319417.969   119519471.804                    92959578.536    22319421.109  
  22319417.289  
  22531885.555   118405861.242    22531890.664    92264331.6334                 
                
  20039347.898   107084217.316                    83287734.379    20039351.895  
  20039347.949  
  21338423.516   114106147.571                    88749233.023    21338428.012  
  21338422.312  
  22269880.359   119128871.284                                                  
  22269878.395  
  20421793.195   108859688.901                    84668656.584    20421796.941  
  20421792.625  
  20494801.164   109556456.270                    85210580.590    20494805.066  
  20494800.785  
 21  8 16 22  0 40.0000000  0 15G17G15G13G14G30G24R17R 6R 4G19R15R24
                                R23R14R 5
  21196795.992   111389924.860    21196802.488    86797380.6714   21196802.410  
                
  21524310.398   113111015.620    21524316.660    88138487.7414   21524316.594  
                
  20454135.102   107487220.668    20454140.785    83756306.0414                 
                
  20569583.609   108093937.111    20569590.113    84229081.5114   20569590.086  
                
  21870713.648   114931424.826    21870722.301    89557012.6444   21870722.770  
                
  24037025.914   126315409.457    24037034.652    98427639.2864   24037035.098  
                
  22683931.953   121386302.659                    94411562.884    22683935.930  
  22683930.062  
  22730045.336   121291853.429                                                  
  22730042.828  
  22327316.398   119561767.159                    92992474.917    22327319.504  
  22327315.672  
  22525365.961   118371600.610    22525371.016    92237635.0434                 
                
  20037173.641   107072598.752                    83278697.716    20037177.629  
  20037173.684  
  21335712.117   114091648.493                    88737955.971    21335716.590  
  21335710.938  
  22272831.461   119144657.587                                                  
  22272829.523  
  20425133.812   108877496.254                    84682506.746    20425137.555  
  20425133.258  
  20497299.820   109569812.981                    85220969.139    20497303.715  
  20497299.465  
 21  8 16 22  0 50.0000000  0 15G17G15G13G14G30G24R17R 6R 4G19R15R24
                                R23R14R 5
  21194007.812   111375272.877    21194014.344    86785963.5414   21194014.246  
                
  21522919.438   113103706.072    21522925.723    88132791.9944   21522925.652  
                
  20455175.070   107492685.745    20455180.777    83760564.5444                 
                
  20572072.922   108107018.537    20572079.426    84239274.8294   20572079.391  
                
  21874843.812   114953128.949    21874852.520    89573924.9374   21874852.949  
                
  24030761.461   126282490.050    24030770.230    98401987.7754   24030770.652  
                
  22676193.094   121344890.740                    94379353.628    22676197.160  
  22676191.254  
  22724726.711   121263472.488                                                  
  22724724.242  
  22335219.508   119604088.023                    93025391.131    22335222.676  
  22335218.820  
  22518852.047   118337369.750    22518857.074    92210961.6384                 
                
  20035005.227   107061011.421                    83269685.334    20035009.215  
  20035005.262  
  21333016.039   114077231.393                    88726742.695    21333020.504  
  21333014.883  
  22275798.305   119160528.105                                                  
  22275796.379  
  20428479.117   108895328.629                    84696376.356    20428482.848  
  20428478.574  
  20499814.805   109583257.006                    85231425.611    20499818.707  
  20499814.465  
 21  8 16 22  1  0.0000000  0 15G17G15G13G14G30G24R17R 6R 4G19R15R24
                                R23R14R 5
  21191230.648   111360678.841    21191237.223    86774591.5774   21191237.113  
                
  21521541.148   113096463.102    21521547.453    88127148.1194   21521547.383  
                
  20456227.586   107498216.753    20456233.312    83764874.4214                 
                
  20574569.484   108120138.082    20574575.984    84249497.8524   20574575.949  
                
  21878979.867   114974864.005    21878988.621    89590861.3404   21878989.031  
                
  24024498.320   126249576.693    24024507.027    98376341.0494   24024507.473  
                
  22668458.203   121303499.831                    94347160.712    22668462.320  
  22668456.367  
  22719420.242   121235156.114                                                  
  22719417.754  
  22343127.375   119646434.330                    93058327.151    22343130.539  
  22343126.711  
  22512343.891   118303169.081    22512348.895    92184311.7734                 
                
  20032842.719   107049455.674                    83260697.542    20032846.715  
  20032842.738  
  21330335.438   114062897.011                    88715593.721    21330339.867  
  21330334.289  
  22278780.914   119176483.043                                                  
  22278779.004  
  20431829.148   108913186.152                    84710265.546    20431832.883  
  20431828.621  
  20502346.164   109596788.523                    85241950.127    20502350.082  
  20502345.824  
