     2.11           OBSERVATION DATA    M (MIXED)           RINEX VERSION / TYPE
EFT-CORS.RU                             20210817 145414 UTC PGM / RUN BY / DATE 
MDNG                                                        MARKER NAME         
                                                            MARKER NUMBER       
MDNG                EFT-CORS.RU                             OBSERVER / AGENCY   
0                   TRIMBLE BD970       2.0                 REC # / TYPE / VERS 
0                   UNKNOWN EXT NONE                        ANT # / TYPE        
  3463911.2830  3030468.2400  4402179.3760                  APPROX POSITION XYZ 
        0.0000        0.0000        0.0000                  ANTENNA: DELTA H/E/N
     1     1                                                WAVELENGTH FACT L1/2
     6    C1    L1    P2    L2    C2    P1                  # / TYPES OF OBSERV 
    10.000                                                  INTERVAL            
  2021     8    15    20    30    0.0000000     GPS         TIME OF FIRST OBS   
  2021     8    15    21    30    0.0000000     GPS         TIME OF LAST OBS    
     0                                                      RCV CLOCK OFFS APPL 
                                                            END OF HEADER       
 21  8 15 20 30  0.0000000  0 18G17G15R14R 4R21G13G14R12G20G 7G 5G 8
                                R22R 3G30G 9R13R 2
  24114234.383   126721161.549    24114241.113    98743788.9044   24114240.898  
                
  24019932.594   126225596.483    24019939.176    98357639.2764   24019939.348  
                
  22317579.820   118965274.945                    92528538.708    22317584.305  
  22317579.430  
  21877056.336   117150666.184                    91117185.078    21877058.730  
  21877055.762  
  23380959.055   125116241.581                    97312631.405    23380961.582  
  23380957.105  
  21730119.266   114192593.198    21730124.832    88981253.7804                 
                
  20602951.312   108269269.995    20602957.801    84365704.3554   20602957.777  
                
  21075769.320   112583022.799                    87564581.375    21075772.793  
  21075768.801  
  23257754.672   122220332.854    23257760.930    95236657.2394                 
                
  21831382.531   114724731.009    21831388.754    89395952.3044   21831388.621  
                
  22825107.266   119946761.588    22825113.848    93465042.8784   22825114.031  
                
  23525571.609   123627730.807    23525580.449    96333351.1634   23525580.980  
                
  22978283.281   122659671.643                    95401957.736    22978285.305  
  22978281.484  
  19532393.922   104558451.907                    81323257.512    19532397.469  
  19532392.730  
  20535194.883   107913228.906    20535203.242    84088291.8494   20535203.359  
                
  24443410.047   128451017.610    24443419.758   100091752.9364   24443419.598  
                
  19506181.867   104161903.228                    81014889.745    19506184.031  
  19506180.102  
  21216720.219   113216503.613                    88057276.935    21216723.672  
  21216718.152  
 21  8 15 20 30 10.0000000  0 18G17G15R14R 4R21G13G14R12G20G 7G 5G 8
                                R22R 3G30G 9R13R 2
  24107767.523   126687178.281    24107774.336    98717308.4584   24107774.113  
                
  24013406.500   126191301.457    24013413.043    98330915.8424   24013413.195  
                
  22312022.414   118935650.388                    92505497.383    22312026.816  
  22312022.000  
  21870702.180   117116639.999                    91090720.265    21870704.570  
  21870701.617  
  23382054.430   125122103.270                    97317190.488    23382056.965  
  23382052.480  
  21725209.648   114166792.998    21725215.215    88961149.7264                 
                
  20600069.805   108254127.590    20600076.285    84353905.0884   20600076.266  
                
  21081042.016   112611188.608                    87586488.103    21081045.492  
  21081041.508  
  23262780.688   122246744.962    23262786.977    95257238.1044                 
                
  21834875.938   114743088.941    21834882.184    89410257.1784   21834882.031  
                
  22827093.938   119957201.621    22827100.551    93473177.9674   22827100.746  
                
  23528819.938   123644800.818    23528828.723    96346652.4734   23528829.246  
                
  22973819.164   122635841.156                    95383422.933    22973820.988  
  22973817.285  
  19532930.562   104561324.619                    81325491.844    19532934.094  
  19532929.398  
  20535736.688   107916076.117    20535745.016    84090510.4494   20535745.148  
                
  24450395.148   128487724.654    24450404.855   100120355.8314   24450404.715  
                
  19505915.688   104160481.827                    81013784.208    19505917.820  
  19505913.922  
  21224092.664   113255844.350                    88087875.307    21224096.070  
  21224090.594  
 21  8 15 20 30 20.0000000  0 18G17G15R14R 4R21G13G14R12G20G 7G 5G 8
                                R22R 3G30G 9R13R 2
  24101301.508   126653199.444    24101308.395    98690831.4734   24101308.180  
                
  24006884.586   126157028.450    24006891.109    98304209.6104   24006891.246  
                
  22306470.102   118906053.386                    92482477.531    22306474.523  
  22306469.684  
  21864357.688   117082665.524                    91064295.673    21864360.059  
  21864357.137  
  23383165.695   125128049.956                    97321815.697    23383168.262  
  23383163.723  
  21720306.578   114141027.261    21720312.156    88941072.5144                 
                
  20597198.383   108239038.193    20597204.863    84342147.1204   20597204.844  
                
  21086318.102   112639372.486                    87608408.913    21086321.586  
  21086317.582  
  23267812.469   122273187.340    23267818.809    95277842.5494                 
                
  21838373.633   114761469.453    21838379.883    89424579.6514   21838379.730  
                
  22829092.094   119967701.953    22829098.742    93481360.0304   22829098.934  
                
  23532079.594   123661930.355    23532088.320    96360000.1684   23532088.871  
                
  22969366.820   122612074.219                    95364937.547    22969368.656  
  22969364.945  
  19533484.312   104564288.880                    81327797.385    19533487.824  
  19533483.152  
  20536284.820   107918956.560    20536293.117    84092754.9574   20536293.270  
                
  24457382.898   128524445.058    24457392.516   100148969.1304   24457392.387  
                
  19505658.539   104159108.688                    81012716.223    19505660.684  
  19505656.770  
  21231473.430   113295229.394                    88118508.115    21231476.793  
  21231471.344  
 21  8 15 20 30 30.0000000  0 18G17G15R14R 4R21G13G14R12G20G 7G 5G 8
                                R22R 3G30G 9R13R 2
  24094836.352   126619225.495    24094843.371    98664358.2884   24094843.160  
                
  24000366.867   126122777.598    24000373.426    98277520.6574   24000373.535  
                
  22300923.000   118876484.187                    92459479.288    22300927.395  
  22300922.578  
  21858022.883   117048742.896                    91037911.408    21858025.250  
  21858022.344  
  23384292.867   125134081.740                    97326507.093    23384295.438  
  23384290.891  
  21715410.141   114115296.295    21715415.750    88921022.4124                 
                
  20594337.094   108224002.072    20594343.578    84330430.6674   20594343.555  
                
  21091597.641   112667574.813                    87630344.045    21091601.125  
  21091597.121  
  23272850.070   122299660.117    23272856.449    95298470.6694                 
                
  21841875.625   114779872.494    21841881.852    89438919.6674   21841881.695  
                
  22831101.711   119978262.464    22831108.410    93489589.0054   22831108.566  
                
  23535350.578   123679119.470    23535359.250    96373394.2864   23535359.816  
                
  22964926.547   122588371.349                    95346502.010    22964928.359  
  22964924.586  
  19534055.195   104567344.819                    81330174.239    19534058.711  
  19534054.039  
  20536839.328   107921870.516    20536847.602    84095025.5714   20536847.770  
                
  24464373.273   128561178.997    24464382.785   100177592.9634   24464382.656  
                
  19505410.406   104157783.673                    81011685.648    19505412.578  
  19505408.641  
  21238862.375   113334658.240                    88149174.993    21238865.730  
  21238860.293  
 21  8 15 20 30 40.0000000  0 18G17G15R14R 4R21G13G14R12G20G 7G 5G 8
                                R22R 3G30G 9R13R 2
  24088372.172   126585256.365    24088379.258    98637888.8514   24088379.062  
                
  23993853.422   126088549.007    23993859.957    98250848.9974   23993860.039  
                
  22295381.070   118846942.539                    92436502.483    22295385.445  
  22295380.609  
  21851697.812   117014872.423                    91011567.728    21851700.176  
  21851697.254  
  23385435.938   125140198.616                    97331264.675    23385438.500  
  23385433.973  
  21710520.289   114089600.019    21710525.941    88900999.3394                 
                
  20591485.914   108209019.076    20591492.402    84318755.6164   20591492.383  
                
  21096880.570   112695795.306                    87652293.322    21096884.055  
  21096880.074  
  23277893.406   122326163.093    23277899.875    95319122.3484                 
                
  21845381.922   114798298.179    21845388.121    89453277.3444   21845387.977  
                
  22833122.750   119988882.999    22833129.488    93497864.7374   22833129.621  
                
  23538632.898   123696368.098    23538641.504    96386834.7794   23538642.066  
                
  22960498.156   122564732.622                    95328116.328    22960500.027  
  22960496.238  
  19534643.172   104570492.364                    81332622.334    19534646.707  
  19534642.004  
  20537400.188   107924817.857    20537408.445    84097322.2014   20537408.613  
                
  24471366.141   128597926.233    24471375.598   100206227.1704   24471375.477  
                
  19505171.266   104156506.690                    81010692.452    19505173.441  
  19505169.484  
  21246259.531   113374131.005                    88179876.035    21246262.918  
  21246257.438  
 21  8 15 20 30 50.0000000  0 18G17G15R14R 4R21G13G14R12G20G 7G 5G 8
                                R22R 3G30G 9R13R 2
  24081908.961   126551292.134    24081916.105    98611423.2284   24081915.883  
                
  23987344.227   126054342.748    23987350.734    98224194.7474   23987350.805  
                
  22289844.320   118817428.613                    92413547.187    22289848.703  
  22289843.855  
  21845382.469   116981054.075                    90985264.568    21845384.855  
  21845381.898  
  23386594.898   125146400.412                    97336088.278    23386597.449  
  23386592.953  
  21705637.086   114063938.591    21705642.777    88881003.4034                 
                
  20588644.852   108194089.218    20588651.336    84307121.9654   20588651.324  
                
  21102166.852   112724033.634                    87674256.448    21102170.336  
  21102166.348  
  23282942.461   122352696.103    23282948.961    95339797.3994                 
                
  21848892.523   114816746.487    21848898.695    89467652.6434   21848898.566  
                
  22835155.211   119999563.508    22835161.988    93506187.2094   22835162.078  
                
  23541926.516   123713676.145    23541935.098    96400321.5734   23541935.641  
                
  22956081.797   122541157.900                    95309780.424    22956083.652  
  22956079.879  
  19535248.266   104573731.535                    81335141.679    19535251.809  
  19535247.062  
  20537967.383   107927798.499    20537975.625    84099644.7814   20537975.816  
                
  24478361.586   128634686.689    24478370.922   100234871.6804   24478370.797  
                
  19504941.172   104155277.999                    81009736.805    19504943.332  
  19504939.406  
  21253664.898   113413647.593                    88210611.134    21253668.332  
  21253662.793  
 21  8 15 20 31  0.0000000  0 18G17G15R14R 4R21G13G14R12G20G 7G 5G 8
                                R22R 3G30G 9R13R 2
  24075446.711   126517333.149    24075453.891    98584961.6784   24075453.664  
                
  23980839.297   126020158.945    23980845.793    98197558.0094   23980845.855  
                
  22284312.719   118787942.593                    92390613.631    22284317.176  
  22284312.312  
  21839076.914   116947288.144                    90959002.187    21839079.324  
  21839076.340  
  23387769.766   125152687.388                    97340978.151    23387772.277  
  23387767.797  
  21700760.547   114038312.245    21700766.250    88861034.8214                 
                
  20585813.938   108179212.696    20585820.422    84295529.8754   20585820.422  
                
  21107456.523   112752290.150                    87696233.747    21107460.004  
  21107456.012  
  23287997.227   122379259.134    23288003.738    95360495.8554                 
                
  21852407.445   114835217.477    21852413.605    89482045.6144   21852413.488  
                
  22837199.109   120010304.194    22837205.922    93514556.5784   22837206.016  
                
  23545231.383   123731043.280    23545239.973    96413854.4034   23545240.504  
                
  22951677.523   122517647.758                    95291494.798    22951679.445  
  22951675.617  
  19535870.516   104577062.517                    81337732.439    19535874.066  
  19535869.309  
  20538540.953   107930812.644    20538549.184    84101993.4694   20538549.363  
                
  24485359.477   128671460.466    24485368.781   100263526.5704   24485368.668  
                
  19504720.016   104154097.064                    81008818.313    19504722.184  
  19504718.258  
  21261078.539   113453208.118                    88241380.418    21261081.957  
  21261076.406  
 21  8 15 20 31 10.0000000  0 18G17G15R14R 4R21G13G14R12G20G 7G 5G 8
                                R22R 3G30G 9R13R 2
  24068985.484   126483379.295    24068992.660    98558504.1334   24068992.426  
                
  23974338.641   125985997.576    23974345.094    98170938.7384   23974345.164  
                
  22278786.281   118758484.120                    92367701.545    22278790.816  
  22278785.887  
  21832781.164   116913574.649                    90932780.577    21832783.582  
  21832780.586  
  23388960.484   125159059.227                    97345934.043    23388962.980  
  23388958.500  
  21695890.688   114012720.924    21695896.375    88841093.5204                 
                
  20582993.133   108164389.344    20582999.617    84283979.2184   20582999.617  
                
  21112749.562   112780564.567                    87718224.952    21112753.027  
  21112749.055  
  23293057.680   122405851.951    23293064.195    95381217.5184                 
                
  21855926.641   114853710.975    21855932.793    89496456.1214   21855932.680  
                
  22839254.391   120021104.708    22839261.227    93522972.5554   22839261.285  
                
  23548547.500   123748469.574    23548556.121    96427433.3294   23548556.609  
                
  22947285.219   122494201.971                    95273259.200    22947287.258  
  22947283.395  
  19536509.836   104580484.896                    81340394.274    19536513.395  
  19536508.629  
  20539120.867   107933860.131    20539129.098    84104368.1364   20539129.285  
                
  24492359.828   128708247.289    24492369.129   100292191.6224   24492369.008  
                
  19504507.805   104152963.872                    81007936.944    19504509.973  
  19504506.047  
  21268500.383   113492812.387                    88272183.749    21268503.793  
  21268498.273  
 21  8 15 20 31 20.0000000  0 18G17G15R14R 4R21G13G14R12G20G 7G 5G 8
                                R22R 3G30G 9R13R 2
  24062525.250   126449430.827    24062532.438    98532050.7974   24062532.230  
                
  23967842.266   125951858.826    23967848.691    98144337.1114   23967848.746  
                
  22273265.102   118729053.484                    92344811.053    22273269.680  
  22273264.711  
  21826495.234   116879913.805                    90906599.937    21826497.668  
  21826494.641  
  23390167.102   125165516.138                    97350956.078    23390169.574  
  23390165.102  
  21691027.539   113987164.853    21691033.211    88821179.6844                 
                
  20580182.484   108149619.322    20580188.992    84272470.1224   20580188.980  
                
  21118045.953   112808856.899                    87740230.096    21118049.410  
  21118045.461  
  23298123.867   122432474.748    23298130.391    95401962.5414                 
                
  21859450.156   114872227.113    21859456.293    89510884.2854   21859456.184  
                
  22841321.102   120031965.299    22841327.965    93531435.3514   22841328.008  
                
  23551874.945   123765955.409    23551883.574    96441058.6484   23551884.020  
                
  22942905.148   122470821.076                    95255074.060    22942907.176  
  22942903.289  
  19537166.320   104583999.112                    81343127.554    19537169.863  
  19537165.141  
  20539707.156   107936941.075    20539715.391    84106768.8734   20539715.582  
                
  24499362.664   128745047.264    24499371.988   100320866.9244   24499371.883  
                
  19504304.602   104151878.781                    81007092.990    19504306.766  
  19504302.855  
  21275930.328   113532459.973                    88303020.757    21275933.730  
  21275928.238  
 21  8 15 20 31 30.0000000  0 18G17G15R14R 4R21G13G14R12G20G 7G 5G 8
                                R22R 3G30G 9R13R 2
  24056066.008   126415487.816    24056073.266    98505601.7294   24056073.078  
                
  23961350.242   125917742.883    23961356.645    98117753.2644   23961356.699  
                
  22267749.164   118699650.722                    92321942.225    22267753.746  
  22267748.758  
  21820219.211   116846305.970                    90880460.507    21820221.660  
  21820218.637  
  23391389.594   125172058.003                    97356044.198    23391392.039  
  23391387.586  
  21686171.102   113961644.129    21686176.781    88801293.3954                 
                
  20577381.992   108134902.660    20577388.543    84261002.6104   20577388.512  
                
  21123345.672   112837167.060                    87762249.107    21123349.105  
  21123345.191  
  23303195.727   122459127.161    23303202.199    95422730.6494                 
                
  21862977.977   114890765.934    21862984.102    89525330.1174   21862984.008  
                
  22843399.250   120042886.029    22843406.148    93539945.0134   22843406.191  
                
  23555213.617   123783500.304    23555222.227    96454730.0074   23555222.652  
                
  22938537.281   122447505.160                    95236939.469    22938539.336  
  22938535.395  
  19537839.953   104587605.089                    81345932.198    19537843.480  
  19537838.781  
  20540299.812   107940055.511    20540308.055    84109195.7074   20540308.238  
                
  24506367.992   128781860.308    24506377.359   100349552.3964   24506377.250  
                
  19504110.398   104150841.748                    81006286.405    19504112.543  
  19504108.648  
  21283368.406   113572150.865                    88333891.448    21283371.812  
  21283366.336  
 21  8 15 20 31 40.0000000  0 18G17G15R14R 4R21G13G14R12G20G 7G 5G 8
                                R22R 3G30G 9R13R 2
  24049607.773   126381550.174    24049615.133    98479156.8234   24049614.938  
                
  23954862.492   125883649.592    23954868.895    98091187.0594   23954868.926  
                
  22262238.453   118670275.716                    92299095.019    22262243.059  
  22262238.070  
  21813953.016   116812750.850                    90854362.094    21813955.488  
  21813952.465  
  23392627.984   125178684.803                    97361198.358    23392630.387  
  23392625.973  
  21681321.430   113936158.960    21681327.137    88781434.8084                 
                
  20574591.617   108120239.213    20574598.223    84249576.5484   20574598.164  
                
  21128648.703   112865494.851                    87784281.830    21128652.121  
  21128648.250  
  23308273.117   122485808.936    23308279.590    95443521.6454                 
                
  21866510.070   114909327.194    21866516.176    89539793.4244   21866516.098  
                
  22845488.781   120053866.560    22845495.684    93548501.2704   22845495.742  
                
  23558563.492   123801104.061    23558572.031    96468447.2214   23558572.469  
                
  22934181.477   122424253.957                    95218855.219    22934183.625  
  22934179.594  
  19538530.664   104591302.511                    81348807.964    19538534.188  
  19538529.500  
  20540898.805   107943203.227    20540907.059    84111648.4794   20540907.234  
                
  24513375.828   128818686.202    24513385.145   100378247.8854   24513385.043  
                
  19503925.195   104149852.774                    81005517.211    19503927.367  
  19503923.434  
  21290814.484   113611884.467                    88364795.359    21290817.859  
  21290812.406  
 21  8 15 20 31 50.0000000  0 18G17G15R14R 4R21G13G14R12G20G 7G 5G 8
                                R22R 3G30G 9R13R 2
  24043150.727   126347618.296    24043158.145    98452716.4344   24043157.926  
                
  23948379.094   125849579.333    23948385.582    98064638.8324   23948385.574  
                
  22256732.977   118640928.672                    92276269.584    22256737.574  
  22256732.602  
  21807696.773   116779248.975                    90828305.076    21807699.273  
  21807696.227  
  23393882.250   125185396.635                    97366418.664    23393884.621  
  23393880.277  
  21676478.586   113910709.616    21676484.305    88761604.1464                 
                
  20571811.430   108105629.252    20571818.086    84238192.1744   20571818.000  
                
  21133955.078   112893840.455                    87806328.406    21133958.488  
  21133954.648  
  23313356.133   122512520.245    23313362.609    95464335.6414                 
                
  21870046.508   114927911.244    21870052.598    89554274.4924   21870052.523  
                
  22847589.680   120064906.748    22847596.562    93557104.0134   22847596.625  
                
  23561924.633   123818766.990    23561933.109    96482210.5554   23561933.582  
                
  22929837.758   122401068.047                    95200821.747    22929840.113  
  22929835.992  
  19539238.531   104595091.771                    81351755.179    19539242.059  
  19539237.363  
  20541504.188   107946384.540    20541512.449    84114127.4244   20541512.629  
                
  24520386.070   128855525.115    24520395.414   100406953.5224   24520395.309  
                
  19503748.938   104148911.573                    81004785.168    19503751.113  
  19503747.184  
  21298268.711   113651661.652                    88395733.189    21298272.059  
  21298266.629  
 21  8 15 20 32  0.0000000  0 18G17G15R14R 4R21G13G14R12G20G 7G 5G 8
                                R22R 3G30G 9R13R 2
  24036694.773   126313692.210    24036702.227    98426280.5334   24036701.980  
                
  23941900.094   125815532.228    23941906.684    98038108.6444   23941906.637  
                
  22251232.820   118611609.759                    92253465.966    22251237.363  
  22251232.426  
  21801450.516   116745800.562                    90802289.640    21801453.031  
  21801449.953  
  23395152.391   125192193.460                    97371705.100    23395154.754  
  23395150.430  
  21671642.438   113885295.489    21671648.141    88741800.9134                 
                
  20569041.414   108091072.763    20569048.109    84226849.4614   20569047.992  
                
  21139264.750   112922203.735                    87828388.728    21139268.141  
  21139264.312  
  23318444.750   122539260.939    23318451.254    95485172.5464                 
                
  21873587.250   114946517.973    21873593.328    89568773.2324   21873593.250  
                
  22849701.906   120076006.605    22849708.785    93565753.2484   22849708.863  
                
  23565297.000   123836489.039    23565305.469    96496019.9454   23565305.938  
                
  22925506.445   122377947.481                    95182839.089    22925508.809  
  22925504.719  
  19539963.539   104598972.875                    81354773.817    19539967.082  
  19539962.355  
  20542115.945   107949599.390    20542124.211    84116632.5064   20542124.395  
                
  24527398.742   128892376.967    24527408.129   100435669.2234   24527408.000  
                
  19503581.586   104148017.992                    81004090.165    19503583.770  
  19503579.820  
  21305730.969   113691481.714                    88426704.328    21305734.297  
  21305728.879  
 21  8 15 20 32 10.0000000  0 18G17G15R14R 4R21G13G14R12G20G 7G 5G 8
                                R22R 3G30G 9R13R 2
  24030240.031   126279772.134    24030247.461    98399849.3184   24030247.191  
                
  23935425.523   125781508.352    23935432.156    98011596.5354   23935432.121  
                
  22245737.914   118582318.766                    92230684.086    22245742.398  
  22245737.500  
  21795214.281   116712405.796                    90776315.943    21795216.805  
  21795213.695  
  23396438.414   125199075.246                    97377057.588    23396440.801  
  23396436.406  
  21666813.078   113859917.018    21666818.758    88722025.4684                 
                
  20566281.602   108076569.851    20566288.324    84215548.4974   20566288.188  
                
  21144577.758   112950584.788                    87850462.874    21144581.133  
  21144577.324  
  23323538.969   122566030.994    23323545.469    95506032.3214                 
                
  21877132.336   114965147.493    21877138.410    89583289.7304   21877138.340  
                
  22851825.523   120087166.242    22851832.398    93574449.0654   22851832.449  
                
  23568680.625   123854270.129    23568689.098    96509875.3504   23568689.543  
                
  22921187.586   122354892.594                    95164907.552    22921189.855  
  22921185.832  
  19540705.727   104602945.890                    81357863.932    19540709.281  
  19540704.535  
  20542734.109   107952847.854    20542742.367    84119163.7814   20542742.566  
                
  24534413.836   128929241.791    24534423.305   100464395.0384   24534423.141  
                
  19503423.289   104147172.696                    81003432.728    19503425.461  
  19503421.516  
  21313201.234   113731344.376                    88457708.627    21313204.559  
  21313199.117  
 21  8 15 20 32 20.0000000  0 18G17G15R14R 4R21G13G14R12G20G 7G 5G 8
                                R22R 3G30G 9R13R 2
  24023786.344   126245857.627    24023793.746    98373422.4184   24023793.453  
                
  23928955.352   125747507.581    23928962.027    97985102.4454   23928962.004  
                
  22240248.203   118553055.642                    92207923.894    22240252.703  
  22240247.848  
  21788988.031   116679064.492                    90750383.833    21788990.559  
  21788987.441  
  23397740.258   125206041.719                    97382475.951    23397742.645  
  23397738.238  
  21661990.469   113834574.032    21661996.141    88702277.6714                 
                
  20563531.914   108062120.183    20563538.648    84204289.0224   20563538.520  
                
  21149893.992   112978983.082                    87872550.446    21149897.355  
  21149893.574  
  23328638.672   122592829.906    23328645.148    95526914.5984                 
                
  21880681.680   114983799.395    21880687.738    89597823.6754   21880687.680  
                
  22853960.461   120098385.428    22853967.340    93583191.2884   22853967.398  
                
  23572075.414   123872109.930    23572083.910    96523776.4924   23572084.340  
                
  22916880.914   122331903.104                    95147026.838    22916883.152  
  22916879.152  
  19541464.992   104607010.268                    81361025.091    19541468.555  
  19541463.820  
  20543358.609   107956129.615    20543366.855    84121721.0014   20543367.062  
                
  24541431.367   128966119.136    24541440.844   100493130.6124   24541440.637  
                
  19503273.844   104146374.718                    81002812.076    19503276.016  
  19503272.074  
  21320679.453   113771249.503                    88488745.941    21320682.797  
  21320677.312  
 21  8 15 20 32 30.0000000  0 18G17G15R14R 4R21G13G14R12G20G 7G 5G 8
                                R22R 3G30G 9R13R 2
  24017333.852   126211949.533    24017341.254    98347000.5704   24017340.961  
                
  23922489.680   125713530.233    23922496.355    97958626.5784   23922496.352  
                
  22234763.797   118523820.562                    92185185.512    22234768.262  
  22234763.453  
  21782771.828   116645776.904                    90724493.483    21782774.340  
  21782771.254  
  23399058.000   125213093.191                    97387960.439    23399060.383  
  23399056.008  
  21657174.664   113809266.805    21657180.336    88682557.7494                 
                
  20560792.414   108047724.007    20560799.148    84193071.2294   20560799.020  
                
  21155213.508   113007398.910                    87894651.650    21155216.863  
  21155213.125  
  23333743.867   122619657.817    23333750.336    95547819.4704                 
                
  21884235.328   115002473.924    21884241.379    89612375.2454   21884241.312  
                
  22856106.727   120109664.111    22856113.602    93591979.8734   22856113.668  
                
  23575481.391   123890008.486    23575489.941    96537723.4294   23575490.348  
                
  22912586.508   122308979.305                    95129197.222    22912588.773  
  22912584.785  
  19542241.398   104611166.404                    81364257.648    19542244.961  
  19542240.273  
  20543989.477   107959444.872    20543997.715    84124304.3184   20543997.934  
                
  24548451.305   129003009.194    24548460.793   100521876.1014   24548460.551  
                
  19503133.367   104145624.596                    81002228.641    19503135.555  
  19503131.594  
  21328165.617   113811197.170                    88519816.341    21328168.992  
  21328163.480  
 21  8 15 20 32 40.0000000  0 18G17G15R14R 4R21G13G14R12G20G 7G 5G 8
                                R22R 3G30G 9R13R 2
  24010882.477   126178047.498    24010889.906    98320583.4054   24010889.613  
                
  23916028.438   125679576.124    23916035.121    97932168.8394   23916035.129  
                
  22229284.617   118494613.340                    92162468.799    22229289.074  
  22229284.234  
  21776565.633   116612542.959                    90698644.856    21776568.109  
  21776565.039  
  23400391.539   125220229.253                    97393510.713    23400393.902  
  23400389.555  
  21652365.633   113783995.267    21652371.316    88662865.6404                 
                
  20558063.047   108033381.157    20558069.773    84181894.9854   20558069.652  
                
  21160536.227   113035831.907                    87916766.199    21160539.590  
  21160535.863  
  23338854.484   122646514.483    23338860.961    95568746.7254                 
                
  21887793.242   115021170.870    21887799.305    89626944.2944   21887799.230  
                
  22858264.242   120121001.995    22858271.105    93600814.5714   22858271.191  
                
  23578898.516   123907965.717    23578907.086    96551716.0884   23578907.488  
                
  22908304.445   122286121.184                    95111418.681    22908306.738  
  22908302.699  
  19543034.914   104615414.115                    81367561.415    19543038.488  
  19543033.824  
  20544626.680   107962793.445    20544634.910    84126913.5974   20544635.129  
                
  24555473.594   129039911.684    24555483.086   100550631.2854   24555482.816  
                
  19503001.789   104144921.987                    81001682.164    19503003.973  
  19503000.000  
  21335659.672   113851187.123                    88550919.648    21335663.062  
  21335657.562  
 21  8 15 20 32 50.0000000  0 18G17G15R14R 4R21G13G14R12G20G 7G 5G 8
                                R22R 3G30G 9R13R 2
  24004432.281   126144151.910    24004439.789    98294171.2734   24004439.488  
                
  23909571.703   125645645.615    23909578.340    97905729.4704   23909578.348  
                
  22223810.711   118465434.294                    92139773.995    22223815.180  
  22223810.332  
  21770369.562   116579363.303                    90672838.473    21770372.020  
  21770368.973  
  23401740.969   125227450.281                    97399127.077    23401743.316  
  23401739.023  
  21647563.484   113758759.840    21647569.172    88643201.6614                 
                
  20555343.898   108019091.927    20555350.613    84170760.5244   20555350.500  
                
  21165862.234   113064282.438                    87938894.378    21165865.602  
  21165861.871  
  23343970.586   122673400.026    23343977.102    95589696.5034                 
                
  21891355.484   115039890.528    21891361.570    89641531.0354   21891361.488  
                
  22860433.070   120132399.262    22860439.906    93609695.5694   22860440.023  
                
  23582326.836   123925981.716    23582335.406    96565754.5174   23582335.809  
                
  22904034.828   122263329.421                    95093691.756    22904037.070  
  22904033.023  
  19543845.586   104619753.630                    81370936.585    19543849.152  
  19543844.555  
  20545270.281   107966175.608    20545278.520    84129549.0514   20545278.746  
                
  24562498.312   129076826.786    24562507.777   100579396.3034   24562507.488  
                
  19502879.141   104144267.105                    81001172.816    19502881.348  
  19502877.355  
  21343161.625   113891219.071                    88582055.593    21343165.004  
  21343159.523  
 21  8 15 20 33  0.0000000  0 18G17G15R14R 4R21G13G14R12G20G 7G 5G 8
                                R22R 3G30G 9R13R 2
  23997983.242   126110262.397    23997990.812    98267763.8674   23997990.520  
                
  23903119.422   125611738.498    23903125.969    97879308.3164   23903125.980  
                
  22218342.000   118436283.000                    92117100.766    22218346.453  
  22218341.605  
  21764183.555   116546237.516                    90647073.982    21764186.000  
  21764182.914  
  23403106.188   125234755.811                    97404809.155    23403108.535  
  23403104.270  
  21642768.164   113733560.285    21642773.863    88623565.6304                 
                
  20552634.891   108004855.988    20552641.598    84159667.5904   20552641.488  
                
  21171191.375   113092749.737                    87961035.608    21171194.746  
  21171191.031  
  23349092.125   122700313.946    23349098.637    95610668.3704                 
                
  21894921.984   115058632.551    21894928.094    89656135.2034   21894928.016  
                
  22862613.141   120143855.616    22862619.949    93618622.5754   22862620.094  
                
  23585766.266   123944055.992    23585774.836    96579838.3964   23585775.215  
                
  22899777.438   122240603.382                    95076015.988    22899779.707  
  22899775.641  
  19544673.352   104624184.613                    81374382.905    19544676.910  
  19544672.352  
  20545920.211   107969591.017    20545928.457    84132210.4094   20545928.668  
                
  24569525.414   129113754.114    24569534.797   100608170.8384   24569534.484  
                
  19502765.359   104143659.531                    81000700.267    19502767.578  
  19502763.562  
  21350671.500   113931293.128                    88613224.288    21350674.859  
  21350669.387  
 21  8 15 20 33 10.0000000  0 18G17G15R14R 4R21G13G14R12G20G 7G 5G 8
                                R22R 3G30G 9R13R 2
  23991535.539   126076379.470    23991543.098    98241361.5894   23991542.797  
                
  23896671.633   125577855.108    23896678.148    97852905.6864   23896678.133  
                
  22212878.570   118407159.794                    92094449.402    22212883.027  
  22212878.141  
  21758007.703   116513166.136                    90621351.808    21758010.160  
  21758007.027  
  23404487.242   125242146.142                    97410557.191    23404489.605  
  23404485.297  
  21637979.742   113708396.966    21637985.457    88603957.8434                 
                
  20549936.078   107990673.620    20549942.781    84148616.4014   20549942.668  
                
  21176523.742   113121234.230                    87983190.203    21176527.117  
  21176523.402  
  23354219.117   122727256.446    23354225.629    95631662.5054                 
                
  21898492.781   115077397.177    21898498.938    89670756.9864   21898498.852  
                
  22864804.477   120155371.169    22864811.297    93627595.7374   22864811.465  
                
  23589216.812   123962188.706    23589225.371    96593967.7954   23589225.758  
                
  22895532.586   122217943.818                    95058391.881    22895534.754  
  22895530.766  
  19545518.242   104628707.338                    81377900.573    19545521.805  
  19545517.270  
  20546576.523   107973039.946    20546584.793    84134897.8874   20546584.984  
                
  24576554.852   129150693.873    24576564.168   100636955.0674   24576563.852  
                
  19502660.508   104143099.679                    81000264.827    19502662.734  
  19502658.711  
  21358189.148   113971408.925                    88644425.451    21358192.562  
  21358187.070  
 21  8 15 20 33 20.0000000  0 18G17G15R14R 4R21G13G14R12G20G 7G 5G 8
                                R22R 3G30G 9R13R 2
  23985089.102   126042503.131    23985096.645    98214964.4454   23985096.344  
                
  23890228.375   125543995.475    23890234.773    97826521.5274   23890234.738  
                
  22207420.391   118378064.826                    92071820.014    22207424.891  
  22207419.965  
  21751842.031   116480149.237                    90595671.997    21751844.477  
  21751841.336  
  23405884.117   125249621.122                    97416371.075    23405886.516  
  23405882.152  
  21633198.203   113683269.843    21633203.949    88584378.2624                 
                
  20547247.438   107976544.745    20547254.137    84137606.8974   20547254.016  
                
  21181859.297   113149735.798                    88005358.101    21181862.680  
  21181858.953  
  23359351.492   122754227.248    23359358.000    95652678.7284                 
                
  21902067.875   115096184.336    21902074.070    89685396.3174   21902073.957  
                
  22867007.070   120166945.828    22867013.891    93636614.9464   22867014.043  
                
  23592678.469   123980379.830    23592687.027    96608142.7034   23592687.414  
                
  22891300.078   122195350.523                    95040819.318    22891302.297  
  22891298.254  
  19546380.234   104633321.633                    81381489.472    19546383.816  
  19546379.270  
  20547239.188   107976522.268    20547247.480    84137611.3884   20547247.660  
                
  24583586.609   129187645.883    24583595.879   100665748.8354   24583595.578  
                
  19502564.500   104142586.995                    80999866.080    19502566.738  
  19502562.703  
  21365714.641   114011566.502                    88675659.117    21365718.090  
  21365712.562  
 21  8 15 20 33 30.0000000  0 18G17G15R14R 4R21G13G14R12G20G 7G 5G 8
                                R22R 3G30G 9R13R 2
  23978643.906   126008633.412    23978651.438    98188572.4564   23978651.156  
                
  23883789.648   125510159.642    23883795.910    97800155.9484   23883795.926  
                
  22201967.469   118348997.768                    92049212.325    22201972.000  
  22201967.031  
  21745686.547   116447186.906                    90570034.651    21745689.020  
  21745685.824  
  23407296.828   125257180.822                    97422250.850    23407299.242  
  23407294.879  
  21628423.594   113658179.113    21628429.387    88564827.0444                 
                
  20544569.000   107962469.409    20544575.676    84126639.1044   20544575.559  
                
  21187198.031   113178254.330                    88027539.164    21187201.398  
  21187197.676  
  23364489.297   122781226.291    23364495.746    95673716.9414                 
                
  21905647.242   115114994.007    21905653.461    89700053.1994   21905653.340  
                
  22869220.922   120178579.625    22869227.738    93645680.2414   22869227.895  
                
  23596151.219   123998629.194    23596159.746    96622362.9984   23596160.145  
                
  22887080.031   122172823.761                    95023298.524    22887082.297  
  22887078.227  
  19547259.344   104638027.527                    81385149.594    19547262.930  
  19547258.391  
  20547908.211   107980038.058    20547916.523    84140350.9694   20547916.676  
                
  24590620.641   129224610.088    24590629.930   100694552.0974   24590629.648  
                
  19502477.336   104142121.538                    80999504.046    19502479.555  
  19502475.543  
  21373248.023   114051765.994                    88706925.392    21373251.480  
  21373245.922  
 21  8 15 20 33 40.0000000  0 18G17G15R14R 4R21G13G14R12G20G 7G 5G 8
                                R22R 3G30G 9R13R 2
  23972199.984   125974770.493    23972207.512    98162185.7514   23972207.227  
                
  23877355.484   125476347.689    23877361.672    97773808.9564   23877361.688  
                
  22196519.836   118319958.837                    92026626.491    22196524.352  
  22196519.391  
  21739541.289   116414279.407                    90544439.936    21739543.766  
  21739540.570  
  23408725.336   125264825.049                    97428196.371    23408727.750  
  23408723.414  
  21623655.898   113633124.748    21623661.730    88545304.1494                 
                
  20541900.727   107948447.586    20541907.359    84115713.0074   20541907.258  
                
  21192539.938   113206789.809                    88049733.428    21192543.309  
  21192539.547  
  23369632.383   122808253.442    23369638.820    95694777.0504                 
                
  21909230.898   115133826.175    21909237.137    89714727.6144   21909236.992  
                
  22871446.016   120190272.497    22871452.836    93654791.5594   22871452.977  
                
  23599635.078   124016937.031    23599643.559    96636628.8434   23599643.988  
                
  22882872.523   122150363.805                    95005829.673    22882874.711  
  22882870.715  
  19548155.578   104642825.050                    81388881.005    19548159.164  
  19548154.660  
  20548583.594   107983587.250    20548591.926    84143116.5684   20548592.055  
                
  24597657.000   129261586.390    24597666.312   100723364.7904   24597666.027  
                
  19502399.023   104141703.359                    80999178.800    19502401.246  
  19502397.215  
  21380789.117   114092006.688                    88738223.702    21380792.570  
  21380787.020  
 21  8 15 20 33 50.0000000  0 18G17G15R14R 4R21G13G14R12G20G 7G 5G 8
                                R22R 3G30G 9R13R 2
  23965757.398   125940914.596    23965764.898    98135804.5234   23965764.629  
                
  23870925.898   125442559.840    23870932.070    97747480.7534   23870932.066  
                
  22191077.523   118290948.235                    92004062.692    22191082.031  
  22191077.074  
  21733406.289   116381426.821                    90518887.938    21733408.793  
  21733405.566  
  23410169.672   125272553.924                    97434207.714    23410172.062  
  23410167.754  
  21618895.172   113608106.968    21618901.035    88525809.7584                 
                
  20539242.664   107934479.395    20539249.250    84104828.7074   20539249.172  
                
  21197884.984   113235342.053                    88071940.707    21197888.355  
  21197884.594  
  23374780.805   122835308.709    23374787.250    95715859.0574                 
                
  21912818.852   115152680.942    21912825.094    89729419.6374   21912824.934  
                
  22873682.320   120202024.256    22873689.141    93663948.7644   22873689.305  
                
  23603130.016   124035303.054    23603138.492    96650940.0384   23603138.934  
                
  22878677.586   122127970.589                    94988412.741    22878679.660  
  22878675.730  
  19549068.938   104647714.216                    81392683.683    19549072.539  
  19549068.062  
  20549265.352   107987169.927    20549273.695    84145908.2724   20549273.809  
                
  24604695.688   129298574.859    24604704.977   100752186.9544   24604704.707  
                
  19502329.633   104141332.833                    80998890.616    19502331.848  
  19502327.836  
  21388337.914   114132288.568                    88769554.038    21388341.402  
  21388335.863  
 21  8 15 20 34  0.0000000  0 18G17G15R14R 4R21G13G14R12G20G 7G 5G 8
                                R22R 3G30G 9R13R 2
  23959316.188   125907065.763    23959323.637    98109428.7994   23959323.402  
                
  23864500.938   125408796.206    23864507.066    97721171.4154   23864507.086  
                
  22185640.414   118261965.609                    91981520.688    22185644.938  
  22185639.973  
  21727281.570   116348629.292                    90493378.767    21727284.090  
  21727280.848  
  23411629.812   125280367.324                    97440284.811    23411632.191  
  23411627.883  
  21614141.391   113583125.651    21614147.289    88506343.7884                 
                
  20536594.812   107920564.840    20536601.352    84093986.2094   20536601.289  
                
  21203233.180   113263911.126                    88094161.107    21203236.535  
  21203232.773  
  23379934.555   122862391.893    23379941.000    95736962.8334                 
                
  21916411.094   115171558.256    21916417.332    89744129.2194   21916417.188  
                
  22875929.812   120213834.861    22875936.633    93673151.8334   22875936.797  
                
  23606636.078   124053727.466    23606644.578    96665296.7304   23606645.020  
                
  22874495.242   122105644.361                    94971047.899    22874497.117  
  22874493.316  
  19549999.430   104652695.087                    81396557.687    19550003.035  
  19549998.609  
  20549953.492   107990786.118    20549961.844    84148726.0824   20549961.941  
                
  24611736.617   129335575.388    24611745.934   100781018.5074   24611745.684  
                
  19502269.117   104141009.730                    80998639.315    19502271.332  
  19502267.324  
  21395894.539   114172611.876                    88800916.612    21395898.004  
  21395892.492  
 21  8 15 20 34 10.0000000  0 18G17G15R14R 4R21G13G14R12G20G 7G 5G 8
                                R22R 3G30G 9R13R 2
  23952876.312   125873224.103    23952883.750    98083058.6684   23952883.516  
                
  23858080.562   125375056.833    23858086.668    97694880.9744   23858086.723  
                
  22180208.609   118233011.149                    91959000.549    22180213.137  
  22180208.203  
  21721167.180   116315887.015                    90467912.558    21721169.703  
  21721166.465  
  23413105.711   125288265.236                    97446427.655    23413108.105  
  23413103.746  
  21609394.562   113558180.891    21609400.484    88486906.3024                 
                
  20533957.164   107906703.913    20533963.660    84083185.4874   20533963.617  
                
  21208584.523   113292497.021                    88116394.596    21208587.898  
  21208584.105  
  23385093.609   122889502.885    23385100.031    95758088.2724                 
                
  21920007.617   115190458.015    21920013.852    89758856.2924   21920013.695  
                
  22878188.492   120225704.240    22878195.305    93682400.6914   22878195.461  
                
  23610153.141   124072209.688    23610161.664    96679698.4704   23610162.078  
                
  22870325.422   122083385.344                    94953735.324    22870327.191  
  22870323.488  
  19550947.031   104657767.560                    81400502.934    19550950.648  
  19550946.250  
  20550647.992   107994435.764    20550656.344    84151569.9624   20550656.441  
                
  24618779.820   129372587.855    24618789.156   100809859.3714   24618788.938  
                
  19502217.453   104140733.807                    80998424.712    19502219.660  
  19502215.656  
  21403458.789   114212976.009                    88832310.939    21403462.219  
  21403456.738  
 21  8 15 20 34 20.0000000  0 18G17G15R14R 4R21G13G14R12G20G 7G 5G 8
                                R22R 3G30G 9R13R 2
  23946437.859   125839389.703    23946445.230    98056694.1834   23946445.000  
                
  23851664.758   125341341.754    23851670.938    97668609.5024   23851671.000  
                
  22174782.109   118204084.917                    91936502.352    22174786.609  
  22174781.730  
  21715063.125   116283200.165                    90442489.461    21715065.656  
  21715062.398  
  23414597.422   125296247.761                    97452636.282    23414599.848  
  23414595.414  
  21604654.711   113533272.840    21604660.668    88467497.4394                 
                
  20531329.711   107892896.602    20531336.168    84072426.5464   20531336.145  
                
  21213938.969   113321099.551                    88138640.990    21213942.348  
  21213938.539  
  23390257.875   122916641.518    23390264.316    95779235.2554                 
                
  21923608.406   115209380.261    21923614.633    89773600.8924   21923614.473  
                
  22880458.336   120237632.317    22880465.145    93691695.2984   22880465.305  
                
  23613681.234   124090749.966    23613689.781    96694145.4484   23613690.172  
                
  22866168.203   122061193.544                    94936475.052    22866169.953  
  22866166.258  
  19551911.719   104662931.586                    81404519.395    19551915.340  
  19551910.941  
  20551348.859   107998118.868    20551357.207    84154439.9104   20551357.301  
                
  24625825.312   129409612.187    24625834.617   100838709.4824   24625834.406  
                
  19502174.602   104140504.976                    80998246.735    19502176.801  
  19502172.797  
  21411030.727   114253381.199                    88863737.209    21411034.102  
  21411028.668  
 21  8 15 20 34 30.0000000  0 18G17G15R14R 4R21G13G14R12G20G 7G 5G 8
                                R22R 3G30G 9R13R 2
  23940000.820   125805562.675    23940008.117    98030335.4434   23940007.898  
                
  23845253.594   125307651.149    23845259.852    97642357.0774   23845259.926  
                
  22169360.922   118175186.922                    91914026.136    22169365.375  
  22169360.543  
  21708969.438   116250568.802                    90417109.508    21708971.945  
  21708968.723  
  23416104.930   125304314.838                    97458910.672    23416107.398  
  23416102.938  
  21599921.867   113508401.581    21599927.883    88448117.2404                 
                
  20528712.469   107879142.949    20528718.883    84061709.4174   20528718.887  
                
  21219296.523   113349718.625                    88160900.272    21219299.898  
  21219296.105  
  23395427.484   122943807.706    23395433.875    95800403.7074                 
                
  21927213.492   115228325.054    21927219.688    89788363.0594   21927219.535  
                
  22882739.336   120249619.057    22882746.129    93701035.6134   22882746.305  
                
  23617220.344   124109348.127    23617228.855    96708637.5094   23617229.246  
                
  22862023.516   122039069.224                    94919267.245    22862025.297  
  22862021.629  
  19552893.523   104668187.212                    81408607.101    19552897.148  
  19552892.754  
  20552056.094   108001835.439    20552064.426    84157335.9424   20552064.523  
                
  24632873.117   129446648.358    24632882.348   100867568.8074   24632882.141  
                
  19502140.625   104140323.575                    80998105.644    19502142.824  
  19502138.820  
  21418610.219   114293827.045                    88895195.098    21418613.609  
  21418608.191  
 21  8 15 20 34 40.0000000  0 18G17G15R14R 4R21G13G14R12G20G 7G 5G 8
                                R22R 3G30G 9R13R 2
  23933565.211   125771743.179    23933572.477    98003982.5834   23933572.254  
                
  23838847.094   125273985.072    23838853.480    97616123.8014   23838853.547  
                
  22163945.062   118146317.316                    91891571.982    22163949.484  
  22163944.695  
  21702886.195   116217993.229                    90391772.935    21702888.699  
  21702885.473  
  23417628.234   125312466.338                    97465250.740    23417630.742  
  23417626.215  
  21595196.062   113483567.284    21595202.129    88428765.8374                 
                
  20526105.469   107865443.061    20526111.832    84051034.1874   20526111.855  
                
  21224657.203   113378354.382                    88183172.526    21224660.578  
  21224656.773  
  23400602.336   122971001.426    23400608.723    95821593.6314                 
                
  21930822.867   115247292.395    21930829.027    89803142.8084   21930828.902  
                
  22885031.531   120261664.634    22885038.293    93710421.7694   22885038.457  
                
  23620770.500   124128004.274    23620778.965    96723174.7754   23620779.383  
                
  22857891.469   122017012.541                    94902112.072    22857893.371  
  22857889.652  
  19553892.445   104673534.417                    81412766.037    19553896.074  
  19553891.695  
  20552769.727   108005585.554    20552778.027    84160258.1134   20552778.148  
                
  24639923.211   129483696.346    24639932.340   100896437.3594   24639932.141  
                
  19502115.469   104140189.233                    80998001.153    19502117.668  
  19502113.648  
  21426197.320   114334313.611                    88926684.651    21426200.754  
  21426195.309  
 21  8 15 20 34 50.0000000  0 18G17G15R14R 4R21G13G14R12G20G 7G 5G 8
                                R22R 3G30G 9R13R 2
  23927131.320   125737932.872    23927138.602    97977636.9034   23927138.375  
                
  23832445.594   125240345.148    23832452.086    97589910.9054   23832452.133  
                
  22158534.789   118117477.495                    91869141.011    22158539.176  
  22158534.434  
  21696813.664   116185475.094                    90366481.082    21696816.176  
  21696812.973  
  23419167.617   125320703.849                    97471657.692    23419170.129  
  23419165.617  
  21590477.594   113458771.563    21590483.684    88409444.4954                 
                
  20523508.969   107851798.442    20523515.273    84040402.0204   20523515.328  
                
  21230021.234   113407008.128                    88205458.777    21230024.613  
  21230020.820  
  23405782.602   122998224.102    23405789.043    95842806.1044                 
                
  21934436.820   115266283.800    21934442.969    89817941.3014   21934442.855  
                
  22887335.180   120273770.341    22887341.895    93719854.7784   22887342.051  
                
  23624331.969   124146719.857    23624340.391    96737758.3484   23624340.855  
                
  22853772.453   121995024.951                    94885010.636    22853774.371  
  22853770.629  
  19554908.812   104678975.037                    81416997.627    19554912.453  
  19554908.094  
  20553490.023   108009370.737    20553498.285    84163207.6114   20553498.441  
                
  24646975.742   129520757.605    24646984.852   100925316.2574   24646984.656  
                
  19502099.383   104140103.366                    80997934.373    19502101.570  
  19502097.562  
  21433792.352   114374842.372                    88958207.025    21433795.789  
  21433790.332  
 21  8 15 20 35  0.0000000  0 18G17G15R14R 4R21G13G14R12G20G 7G 5G 8
                                R22R 3G30G 9R13R 2
  23920698.484   125704127.595    23920705.672    97951295.1254   23920705.438  
                
  23826048.312   125206727.291    23826054.836    97563715.1734   23826054.863  
                
  22153129.328   118088663.252                    91846729.959    22153133.719  
  22153128.969  
  21690751.070   116153010.206                    90341230.613    21690753.574  
  21690750.406  
  23420722.258   125329023.058                    97478128.171    23420724.773  
  23420720.258  
  21585765.656   113434010.239    21585771.762    88390149.9434                 
                
  20520922.180   107838204.853    20520928.434    84029809.6174   20520928.512  
                
  21235387.828   113435675.510                    88227755.618    21235391.191  
  21235387.422  
  23410967.531   123025471.305    23410974.016    95864037.6704                 
                
  21938054.539   115285295.004    21938060.688    89832755.2144   21938060.586  
                
  22889649.430   120285931.743    22889656.113    93729331.2064   22889656.273  
                
  23627903.891   124165490.472    23627912.285    96752384.8034   23627912.773  
                
  22849665.594   121973102.475                    94867959.808    22849667.586  
  22849663.812  
  19555941.773   104684504.427                    81421298.265    19555945.414  
  19555941.098  
  20554216.172   108013186.723    20554224.395    84166181.1074   20554224.570  
                
  24654029.992   129557827.790    24654039.082   100954202.1014   24654038.891  
                
  19502091.648   104140062.124                    80997902.293    19502093.840  
  19502089.832  
  21441394.398   114415408.626                    88989758.543    21441397.863  
  21441392.391  
 21  8 15 20 35 10.0000000  0 18G17G15R14R 4R21G13G14R12G20G 7G 5G 8
                                R22R 3G30G 9R13R 2
  23914267.273   125670330.877    23914274.383    97924960.0164   23914274.164  
                
  23819655.930   125173135.078    23819662.469    97537539.4404   23819662.512  
                
  22147729.352   118059878.245                    91824341.621    22147733.711  
  22147729.000  
  21684699.109   116120602.214                    90316024.414    21684701.613  
  21684698.473  
  23422292.836   125337427.483                    97484664.980    23422295.367  
  23422290.891  
  21581060.977   113409286.941    21581067.074    88370885.0404                 
                
  20518345.789   107824665.812    20518351.988    84019259.7194   20518352.102  
                
  21240757.648   113464360.074                    88250065.830    21240761.000  
  21240757.238  
  23416157.789   123052746.381    23416164.289    95885290.9744                 
                
  21941676.703   115304329.486    21941682.848    89847587.2764   21941682.762  
                
  22891974.945   120298152.362    22891981.613    93738853.7674   22891981.785  
                
  23631486.984   124184319.740    23631495.344    96767056.9484   23631495.859  
                
  22845571.688   121951248.927                    94850962.628    22845573.699  
  22845569.926  
  19556991.953   104690126.027                    81425670.630    19556995.625  
  19556991.324  
  20554948.859   108017037.008    20554957.051    84169181.3344   20554957.262  
                
  24661086.555   129594910.364    24661095.703   100983097.6104   24661095.492  
                
  19502092.859   104140068.627                    80997907.360    19502095.051  
  19502091.059  
  21449004.219   114456015.926                    89021341.983    21449007.652  
  21449002.180  
 21  8 15 20 35 20.0000000  0 18G17G15R14R 4R21G13G14R12G20G 7G 5G 8
                                R22R 3G30G 9R13R 2
  23907837.578   125636542.266    23907844.617    97898631.2274   23907844.426  
                
  23813268.328   125139567.997    23813274.836    97511383.2894   23813274.879  
                
  22142334.727   118031121.728                    91801975.440    22142339.070  
  22142334.355  
  21678657.695   116088250.725                    90290862.148    21678660.188  
  21678657.094  
  23423879.188   125345916.376                    97491267.437    23423881.730  
  23423877.285  
  21576363.422   113384601.140    21576369.512    88351649.3454                 
                
  20515779.656   107811180.756    20515785.828    84008751.8884   20515785.965  
                
  21246130.578   113493061.221                    88272388.941    21246133.930  
  21246130.180  
  23421353.195   123080048.727    23421359.746    95906565.5244                 
                
  21945303.172   115323386.697    21945309.352    89862437.0544   21945309.250  
                
  22894311.586   120310431.507    22894318.266    93748421.9284   22894318.426  
                
  23635081.086   124203206.816    23635089.410    96781774.1534   23635089.922  
                
  22841490.641   121929463.648                    94834018.535    22841492.621  
  22841488.863  
  19558059.297   104695839.539                    81430114.465    19558062.992  
  19558058.672  
  20555687.961   108020921.011    20555696.121    84172207.8284   20555696.336  
                
  24668145.398   129632004.676    24668154.562   101012002.2424   24668154.312  
                
  19502102.938   104140122.438                    80997949.205    19502105.129  
  19502101.148  
  21456621.617   114496663.299                    89052956.612    21456624.961  
  21456619.520  
 21  8 15 20 35 30.0000000  0 18G17G15R14R 4R21G13G14R12G20G 7G 5G 8
                                R22R 3G30G 9R13R 2
  23901409.352   125602761.690    23901416.371    97872308.6924   23901416.211  
                
  23806885.461   125106025.811    23806891.938    97485246.5174   23806891.988  
                
  22136945.367   118002393.417                    91779631.204    22136949.695  
  22136944.996  
  21672626.820   116055955.680                    90265743.790    21672629.285  
  21672626.246  
  23425481.281   125354489.559                    97497935.470    23425483.801  
  23425479.371  
  21571672.984   113359952.739    21571679.074    88332442.7984                 
                
  20513223.742   107797749.409    20513229.898    83998285.9054   20513230.043  
                
  21251506.508   113521778.443                    88294724.570    21251509.859  
  21251506.141  
  23426553.734   123107377.892    23426560.355    95927860.9654                 
                
  21948933.922   115342466.354    21948940.141    89877304.3004   21948940.027  
                
  22896659.289   120322768.873    22896665.977    93758035.4334   22896666.121  
                
  23638686.117   124222151.369    23638694.426    96796536.1454   23638694.934  
                
  22837422.305   121907746.550                    94817127.451    22837424.195  
  22837420.547  
  19559143.719   104701644.485                    81434629.412    19559147.438  
  19559143.082  
  20556433.422   108024838.449    20556441.570    84175260.3744   20556441.801  
                
  24675206.289   129669110.347    24675215.578   101040915.7434   24675215.285  
                
  19502121.805   104140223.204                    80998027.572    19502124.012  
  19502120.012  
  21464246.562   114537350.789                    89084602.437    21464249.801  
  21464244.406  
 21  8 15 20 35 40.0000000  0 18G17G15R14R 4R21G13G14R12G20G 7G 5G 8
                                R22R 3G30G 9R13R 2
  23894982.672   125568989.320    23894989.688    97845992.5574   23894989.555  
                
  23800507.398   125072508.782    23800513.820    97459129.3364   23800513.883  
                
  22131561.336   117973693.604                    91757309.103    22131565.664  
  22131560.973  
  21666606.516   116023717.187                    90240669.408    21666608.980  
  21666605.949  
  23427099.141   125363147.010                    97504669.062    23427101.625  
  23427097.176  
  21566989.688   113335341.874    21566995.770    88313265.4984                 
                
  20510678.070   107784371.846    20510684.230    83987861.8364   20510684.383  
                
  21256885.484   113550511.887                    88317072.794    21256888.836  
  21256885.129  
  23431759.289   123134733.797    23431766.008    95949177.2514                 
                
  21952568.945   115361568.471    21952575.211    89892189.0664   21952575.074  
                
  22899018.086   120335164.445    22899024.766    93767694.3354   22899024.891  
                
  23642302.078   124241153.321    23642310.340    96811342.8714   23642310.855  
                
  22833366.789   121886097.956                    94800289.652    22833368.602  
  22833365.000  
  19560245.273   104707541.151                    81439215.696    19560249.016  
  19560244.617  
  20557185.258   108028789.384    20557193.398    84178339.0254   20557193.637  
                
  24682269.445   129706227.383    24682278.746   101069838.0974   24682278.422  
                
  19502149.383   104140370.497                    80998142.142    19502151.605  
  19502147.590  
  21471878.961   114578077.955                    89116279.104    21471882.105  
  21471876.723  
 21  8 15 20 35 50.0000000  0 18G17G15R14R 4R21G13G14R12G20G 7G 5G 8
                                R22R 3G30G 9R13R 2
  23888557.523   125535225.187    23888564.590    97819682.8524   23888564.461  
                
  23794134.117   125039016.983    23794140.512    97433031.8444   23794140.594  
                
  22126182.578   117945022.026                    91735008.991    22126186.980  
  22126182.207  
  21660596.812   115991535.406                    90215639.138    21660599.266  
  21660596.230  
  23428732.727   125371888.632                    97511468.096    23428735.211  
  23428730.746  
  21562313.547   113310768.578    21562319.625    88294117.4704                 
                
  20508142.617   107771048.036    20508148.793    83977479.6584   20508148.930  
                
  21262267.453   113579261.362                    88339433.500    21262270.820  
  21262267.117  
  23436970.039   123162116.342    23436976.691    95970514.2744                 
                
  21956208.219   115380692.928    21956214.535    89907091.2384   21956214.379  
                
  22901387.945   120347618.195    22901394.613    93777398.5514   22901394.727  
                
  23645928.969   124260212.706    23645937.188    96826194.3514   23645937.730  
                
  22829324.188   121864517.807                    94783505.092    22829325.867  
  22829322.316  
  19561363.867   104713529.050                    81443872.948    19561367.629  
  19561363.191  
  20557943.453   108032773.763    20557951.594    84181443.7394   20557951.832  
                
  24689334.766   129743355.667    24689344.020   101098769.2084   24689343.684  
                
  19502185.711   104140564.522                    80998293.052    19502187.949  
  19502183.930  
  21479518.711   114618844.593                    89147986.480    21479521.797  
  21479516.414  
 21  8 15 20 36  0.0000000  0 18G17G15R14R 4R21G13G14R12G20G 7G 5G 8
                                R22R 3G30G 9R13R 2
  23882133.867   125501469.174    23882141.039    97793379.4664   23882140.922  
                
  23787765.617   125005550.220    23787772.000    97406953.8574   23787772.086  
                
  22120809.156   117916378.809                    91712730.932    22120813.574  
  22120808.785  
  21654597.695   115959410.342                    90190652.977    21654600.133  
  21654597.094  
  23430382.016   125380714.268                    97518332.475    23430384.496  
  23430380.082  
  21557644.500   113286232.534    21557650.582    88274998.4764                 
                
  20505617.383   107757777.862    20505623.570    83967139.2664   20505623.699  
                
  21267652.359   113608026.521                    88361806.391    21267655.715  
  21267651.988  
  23442185.852   123189525.226    23442192.438    95991871.8434                 
                
  21959851.734   115399839.681    21959858.066    89922010.7714   21959857.902  
                
  22903768.844   120360129.912    22903775.484    93787147.9454   22903775.613  
                
  23649566.734   124279329.227    23649574.969    96841090.3374   23649575.543  
                
  22825294.344   121843006.152                    94766773.832    22825296.051  
  22825292.492  
  19562499.547   104719608.382                    81448601.311    19562503.316  
  19562498.855  
  20558708.000   108036791.457    20558716.137    84184574.4094   20558716.379  
                
  24696402.164   129780494.988    24696411.391   101127708.9244   24696411.047  
                
  19502230.805   104140805.344                    80998480.359    19502233.070  
  19502229.035  
  21487165.734   114659650.445                    89179724.357    21487168.832  
  21487163.441  
 21  8 15 20 36 10.0000000  0 18G17G15R14R 4R21G13G14R12G20G 7G 5G 8
                                R22R 3G30G 9R13R 2
  23875711.898   125467721.614    23875719.113    97767082.6644   23875718.977  
                
  23781401.945   124972108.793    23781408.305    97380895.6064   23781408.402  
                
  22115441.078   117887763.951                    91690474.950    22115445.488  
  22115440.707  
  21648609.188   115927342.255                    90165711.145    21648611.633  
  21648608.594  
  23432047.039   125389624.088                    97525262.334    23432049.512  
  23432045.109  
  21552982.609   113261734.078    21552988.676    88255908.7594                 
                
  20503102.391   107744561.512    20503108.590    83956840.8194   20503108.707  
                
  21273040.258   113636807.648                    88384191.727    21273043.617  
  21273039.914  
  23447406.609   123216960.484    23447413.207    96013249.9614                 
                
  21963499.523   115419008.891    21963505.879    89936947.8174   21963505.711  
                
  22906160.758   120372699.568    22906167.352    93796942.4754   22906167.500  
                
  23653215.406   124298503.071    23653223.656    96856030.9854   23653224.234  
                
  22821277.367   121821563.374                    94750096.124    22821279.172  
  22821275.586  
  19563652.312   104725779.142                    81453400.786    19563656.078  
  19563651.625  
  20559478.922   108040842.651    20559487.059    84187731.1854   20559487.297  
                
  24703471.727   129817645.452    24703480.867   101156657.3324   24703480.516  
                
  19502284.664   104141092.954                    80998704.058    19502286.918  
  19502282.895  
  21494820.117   114700495.695                    89211492.889    21494823.246  
  21494817.855  
 21  8 15 20 36 20.0000000  0 18G17G15R14R 4R21G13G14R12G20G 7G 5G 8
                                R22R 3G30G 9R13R 2
  23869291.648   125433982.604    23869298.781    97740792.5274   23869298.652  
                
  23775043.125   124938692.853    23775049.457    97354857.2054   23775049.578  
                
  22110078.383   117859177.628                    91668241.133    22110082.730  
  22110078.004  
  21642631.383   115895331.393                    90140813.810    21642633.836  
  21642630.781  
  23433727.766   125398618.010                    97532257.600    23433730.227  
  23433725.836  
  21548327.867   113237273.300    21548333.930    88236848.4164                 
                
  20500597.633   107731398.996    20500603.848    83946584.3144   20500603.965  
                
  21278431.125   113665604.676                    88406589.403    21278434.504  
  21278430.793  
  23452632.414   123244422.076    23452638.996    96034648.5844                 
                
  21967151.578   115438200.569    21967157.980    89951902.3604   21967157.797  
                
  22908563.672   120385326.996    22908570.203    93806782.0194   22908570.402  
                
  23656874.961   124317734.096    23656883.223    96871016.2064   23656883.781  
                
  22817273.352   121800189.328                    94733471.876    22817275.215  
  22817271.531  
  19564822.172   104732041.434                    81458271.470    19564825.949  
  19564821.480  
  20560256.203   108044927.353    20560264.352    84190914.0594   20560264.578  
                
  24710543.367   129854806.986    24710552.449   101185614.3624   24710552.094  
                
  19502347.273   104141427.289                    80998964.092    19502349.527  
  19502345.500  
  21502481.820   114741380.105                    89243291.875    21502484.945  
  21502479.582  
 21  8 15 20 36 30.0000000  0 18G17G15R14R 4R21G13G14R12G20G 7G 5G 8
                                R22R 3G30G 9R13R 2
  23862873.117   125400252.336    23862880.094    97714509.1864   23862879.984  
                
  23768689.203   124905302.576    23768695.461    97328838.7984   23768695.602  
                
  22104721.047   117830619.889                    91646029.533    22104725.352  
  22104720.668  
  21636664.266   115863377.726                    90115960.959    21636666.703  
  21636663.660  
  23435424.195   125407695.966                    97539318.260    23435426.664  
  23435422.242  
  21543680.367   113212850.475    21543686.422    88217817.6364                 
                
  20498103.141   107718290.381    20498109.379    83936369.8194   20498109.492  
                
  21283824.969   113694417.541                    88428999.413    21283828.352  
  21283824.660  
  23457863.180   123271909.904    23457869.762    96056067.6544                 
                
  21970807.914   115457414.676    21970814.316    89966874.3814   21970814.125  
                
  22910977.578   120398012.175    22910984.066    93816666.5724   22910984.277  
                
  23660545.383   124337022.200    23660553.633    96886045.9024   23660554.180  
                
  22813282.273   121778884.502                    94716901.476    22813284.215  
  22813280.445  
  19566009.102   104738395.140                    81463213.225    19566012.883  
  19566008.379  
  20561039.875   108049045.578    20561048.039    84194123.0704   20561048.258  
                
  24717617.133   129891979.548    24717626.129   101214579.9754   24717625.809  
                
  19502418.594   104141808.140                    80999260.308    19502420.859  
  19502416.812  
  21510150.797   114782303.702                    89275121.338    21510153.988  
  21510148.617  
 21  8 15 20 36 40.0000000  0 18G17G15R14R 4R21G13G14R12G20G 7G 5G 8
                                R22R 3G30G 9R13R 2
  23856456.203   125366530.766    23856463.062    97688232.6264   23856462.957  
                
  23762340.156   124871937.874    23762346.328    97302840.3394   23762346.492  
                
  22099369.031   117802090.566                    91623840.065    22099373.316  
  22099368.656  
  21630707.859   115831481.511                    90091152.806    21630710.316  
  21630707.230  
  23437136.336   125416857.982                    97546444.250    23437138.828  
  23437134.348  
  21539040.109   113188465.719    21539046.164    88198816.5324                 
                
  20495618.898   107705235.605    20495625.156    83926197.2704   20495625.258  
                
  21289221.742   113723246.130                    88451421.643    21289225.160  
  21289221.445  
  23463098.852   123299423.760    23463105.453    96077507.0394                 
                
  21974468.500   115476651.149    21974474.883    89981863.8474   21974474.707  
                
  22913402.469   120410755.099    22913408.926    93826596.1224   22913409.176  
                
  23664226.633   124356367.232    23664234.852    96901119.9594   23664235.410  
                
  22809304.188   121757648.897                    94700384.905    22809306.160  
  22809302.348  
  19567213.117   104744840.307                    81468226.143    19567216.926  
  19567212.363  
  20561829.914   108053197.270    20561838.105    84197358.1554   20561838.312  
                
  24724692.992   129929163.025    24724701.895   101243554.1104   24724701.594  
                
  19502498.688   104142235.799                    80999592.923    19502500.926  
  19502496.895  
  21517827.086   114823266.174                    89306981.030    21517830.344  
  21517824.953  
 21  8 15 20 36 50.0000000  0 18G17G15R14R 4R21G13G14R12G20G 7G 5G 8
                                R22R 3G30G 9R13R 2
  23850040.984   125332818.165    23850047.766    97661963.0614   23850047.656  
                
  23755996.031   124838598.987    23756002.113    97276861.9784   23756002.301  
                
  22094022.383   117773589.700                    91601672.700    22094026.609  
  22094022.012  
  21624762.250   115799643.084                    90066389.599    21624764.723  
  21624761.602  
  23438864.180   125426104.045                    97553635.652    23438866.672  
  23438862.156  
  21534407.117   113164119.145    21534413.180    88179845.1664                 
                
  20493144.914   107692234.755    20493151.195    83916066.7474   20493151.285  
                
  21294621.445   113752090.373                    88473856.047    21294624.875  
  21294621.137  
  23468339.539   123326963.616    23468346.082    96098966.6514                 
                
  21978133.336   115495909.994    21978139.719    89996870.7314   21978139.527  
                
  22915838.375   120423555.805    22915844.809    93836570.6974   22915845.043  
                
  23667918.734   124375769.300    23667926.914    96916238.4494   23667927.469  
                
  22805339.039   121736482.557                    94683922.204    22805341.008  
  22805337.234  
  19568434.234   104751377.023                    81473310.234    19568438.086  
  19568433.445  
  20562626.344   108057382.515    20562634.562    84200619.3874   20562634.766  
                
  24731770.883   129966357.405    24731779.785   101272536.7304   24731779.488  
                
  19502587.469   104142709.887                    80999961.666    19502589.695  
  19502585.684  
  21525510.680   114864267.354                    89338870.834    21525513.953  
  21525508.562  
 21  8 15 20 37  0.0000000  0 18G17G15R14R 4R21G13G14R12G20G 7G 5G 8
                                R22R 3G30G 9R13R 2
  23843627.414   125299114.425    23843634.164    97635700.4104   23843634.043  
                
  23749656.773   124805285.858    23749662.820    97250903.6984   23749662.980  
                
  22088681.047   117745117.229                    91579527.439    22088685.219  
  22088680.668  
  21618827.344   115767862.070                    90041671.048    21618829.852  
  21618826.715  
  23440607.672   125435433.851                    97560892.181    23440610.199  
  23440605.656  
  21529781.359   113139810.615    21529787.441    88160903.4574                 
                
  20490681.148   107679287.614    20490687.469    83905978.0704   20490687.547  
                
  21300024.039   113780950.069                    88496302.477    21300027.473  
  21300023.730  
  23473585.164   123354529.134    23473591.629    96120446.2874                 
                
  21981802.414   115515191.113    21981808.785    90011894.9674   21981808.598  
                
  22918285.195   120436413.938    22918291.656    93846590.0214   22918291.887  
                
  23671621.602   124395228.079    23671629.723    96931401.1274   23671630.262  
                
  22801386.906   121715385.579                    94667513.477    22801388.793  
  22801385.090  
  19569672.383   104758004.942                    81478465.283    19569676.266  
  19569671.551  
  20563429.094   108061601.058    20563437.340    84203906.5684   20563437.531  
                
  24738850.773   130003562.429    24738859.699   101301527.6524   24738859.414  
                
  19502684.938   104143230.390                    81000366.506    19502687.145  
  19502683.172  
  21533201.508   114905306.885                    89370790.464    21533204.738  
  21533199.348  
 21  8 15 20 37 10.0000000  0 18G17G15R14R 4R21G13G14R12G20G 7G 5G 8
                                R22R 3G30G 9R13R 2
  23837215.570   125265419.749    23837222.305    97609444.8314   23837222.180  
                
  23743322.453   124771998.813    23743328.512    97224965.7504   23743328.668  
                
  22083345.055   117716673.310                    91557404.374    22083349.211  
  22083344.691  
  21612903.328   115736139.267                    90016997.744    21612905.840  
  21612902.727  
  23442366.867   125444847.625                    97568213.994    23442369.410  
  23442364.863  
  21525162.852   113115540.163    21525168.938    88141991.4144                 
                
  20488227.664   107666394.474    20488234.039    83895931.4744   20488234.090  
                
  21305429.562   113809825.377                    88518761.041    21305432.984  
  21305429.250  
  23478835.688   123382120.466    23478842.090    96141946.0474                 
                
  21985475.781   115534494.761    21985482.117    90026936.7714   21985481.953  
                
  22920742.984   120449329.682    22920749.477    93856654.2434   22920749.684  
                
  23675335.336   124414743.903    23675343.387    96946608.2794   23675343.922  
                
  22797447.781   121694358.249                    94651158.851    22797449.594  
  22797445.961  
  19570927.609   104764724.241                    81483691.396    19570931.531  
  19570926.746  
  20564238.258   108065853.237    20564246.523    84207219.9484   20564246.707  
                
  24745932.711   130040778.273    24745941.695   101330527.0094   24745941.410  
                
  19502791.109   104143797.354                    81000807.481    19502793.332  
  19502789.367  
  21540899.586   114946385.026                    89402740.119    21540902.797  
  21540897.371  
 21  8 15 20 37 20.0000000  0 18G17G15R14R 4R21G13G14R12G20G 7G 5G 8
                                R22R 3G30G 9R13R 2
  23830805.430   125231734.124    23830812.199    97583196.3094   23830812.035  
                
  23736993.000   124738737.617    23736999.141    97199047.9474   23736999.262  
                
  22078014.391   117688257.834                    91535303.437    22078018.547  
  22078014.039  
  21606990.117   115704474.293                    89992369.445    21606992.609  
  21606989.484  
  23444141.727   125454345.199                    97575600.994    23444144.285  
  23444139.719  
  21520551.578   113091307.705    21520557.668    88123108.9804                 
                
  20485784.414   107653555.079    20485790.836    83885926.7594   20485790.852  
                
  21310837.953   113838716.010                    88541231.536    21310841.375  
  21310837.641  
  23484091.125   123409737.205    23484097.336    96163465.5874                 
                
  21989153.383   115553820.678    21989159.699    90041995.9314   21989159.535  
                
  22923211.695   120462302.821    22923218.188    93866763.1834   22923218.430  
                
  23679059.844   124434316.302    23679067.820    96961859.5104   23679068.387  
                
  22793521.602   121673400.474                    94634858.390    22793523.430  
  22793519.820  
  19572199.852   104771534.644                    81488988.373    19572203.789  
  19572198.980  
  20565053.758   108070138.711    20565062.047    84210559.2864   20565062.223  
                
  24753016.625   130078004.617    24753025.668   101359534.5354   24753025.398  
                
  19502905.938   104144410.545                    81001284.411    19502908.168  
  19502904.184  
  21548604.852   114987501.553                    89434719.626    21548608.043  
  21548602.602  
 21  8 15 20 37 30.0000000  0 18G17G15R14R 4R21G13G14R12G20G 7G 5G 8
                                R22R 3G30G 9R13R 2
  23824397.078   125198058.075    23824403.914    97556955.2474   23824403.730  
                
  23730668.523   124705502.681    23730674.762    97173150.6244   23730674.871  
                
  22072689.133   117659871.214                    91513224.974    22072693.285  
  22072688.777  
  21601087.773   115672867.563                    89967786.454    21601090.277  
  21601087.129  
  23445932.273   125463926.758                    97583053.330    23445934.824  
  23445930.316  
  21515947.641   113067113.861    21515953.730    88104256.6384                 
                
  20483351.461   107640769.852    20483357.930    83875964.2494   20483357.922  
                
  21316249.289   113867622.324                    88563714.210    21316252.703  
  21316248.969  
  23489351.375   123437379.692    23489357.480    96185005.1944                 
                
  21992835.281   115573169.209    21992841.578    90057072.7024   21992841.414  
                
  22925691.367   120475333.605    22925697.859    93876917.0234   22925698.094  
                
  23682795.188   124453945.745    23682803.137    96977155.1744   23682803.746  
                
  22789608.656   121652512.812                    94618612.429    22789610.469  
  22789606.906  
  19573489.227   104778436.768                    81494356.687    19573493.176  
  19573488.305  
  20565875.672   108074457.932    20565883.977    84213924.9074   20565884.141  
                
  24760102.555   130115241.793    24760111.680   101388550.5074   24760111.426  
                
  19503029.508   104145070.465                    81001797.677    19503031.742  
  19503027.770  
  21556317.180   115028656.458                    89466728.993    21556320.477  
  21556315.004  
 21  8 15 20 37 40.0000000  0 18G17G15R14R 4R21G13G14R12G20G 7G 5G 8
                                R22R 3G30G 9R13R 2
  23817990.523   125164391.532    23817997.449    97530721.5944   23817997.266  
                
  23724349.055   124672294.047    23724355.418    97147273.8104   23724355.520  
                
  22067369.242   117631513.260                    91491168.769    22067373.398  
  22067368.895  
  21595196.352   115641319.297                    89943248.918    21595198.875  
  21595195.723  
  23447738.484   125473592.113                    97590570.826    23447741.012  
  23447736.574  
  21511351.016   113042958.449    21511357.109    88085434.2344                 
                
  20480928.789   107628038.595    20480935.301    83866043.8004   20480935.270  
                
  21321663.484   113896543.919                    88586208.806    21321666.891  
  21321663.191  
  23494616.391   123465047.554    23494622.477    96206564.5724                 
                
  21996521.445   115592540.110    21996527.730    90072166.9054   21996527.555  
                
  22928181.961   120488421.692    22928188.469    93887115.5384   22928188.691  
                
  23686541.297   124473631.781    23686549.215    96992494.9544   23686549.871  
                
  22785708.883   121631695.237                    94602420.999    22785710.633  
  22785707.078  
  19574795.633   104785430.134                    81499795.978    19574799.602  
  19574794.668  
  20566703.969   108078810.684    20566712.289    84217316.6624   20566712.445  
                
  24767190.500   130152489.504    24767199.691   101417574.6704   24767199.445  
                
  19503161.781   104145776.798                    81002347.047    19503164.031  
  19503160.031  
  21564036.672   115069849.542                    89498768.048    21564040.082  
  21564034.562  
 21  8 15 20 37 50.0000000  0 18G17G15R14R 4R21G13G14R12G20G 7G 5G 8
                                R22R 3G30G 9R13R 2
  23811585.883   125130734.616    23811592.793    97504495.4494   23811592.633  
                
  23718034.641   124639111.744    23718041.094    97121417.4984   23718041.203  
                
  22062054.711   117603183.902                    91469134.839    22062058.910  
  22062054.375  
  21589315.852   115609829.558                    89918756.901    21589318.371  
  21589315.219  
  23449560.359   125483341.277                    97598153.514    23449562.828  
  23449558.453  
  21506761.727   113018841.556    21506767.828    88066641.8504                 
                
  20478516.383   107615361.325    20478522.926    83856165.4054   20478522.879  
                
  21327080.531   113925480.821                    88608715.289    21327083.945  
  21327080.219  
  23499886.203   123492740.657    23499892.277    96228143.6104                 
                
  22000211.867   115611933.371    22000218.137    90087278.5344   22000217.957  
                
  22930683.453   120501567.038    22930689.969    93897358.6544   22930690.188  
                
  23690298.188   124493374.359    23690306.086    97007878.7684   23690306.773  
                
  22781822.188   121610947.787                    94586284.097    22781823.859  
  22781820.398  
  19576119.094   104792514.786                    81505306.251    19576123.086  
  19576118.086  
  20567538.648   108083196.946    20567546.984    84220734.5304   20567547.133  
                
  24774280.484   130189747.701    24774289.691   101446607.0214   24774289.465  
                
  19503302.719   104146529.441                    81002932.434    19503304.957  
  19503300.969  
  21571763.164   115111080.097                    89530836.243    21571766.703  
  21571761.125  
 21  8 15 20 38  0.0000000  0 18G17G15R14R 4R21G13G14R12G20G 7G 5G 8
                                R22R 3G30G 9R13R 2
  23805183.086   125097087.319    23805189.941    97478276.7914   23805189.762  
                
  23711725.250   124605955.774    23711731.750    97095581.6784   23711731.867  
                
  22056745.531   117574883.117                    91447123.143    22056749.773  
  22056745.176  
  21583446.266   115578398.302                    89894310.384    21583448.797  
  21583445.625  
  23451397.859   125493174.054                    97605801.236    23451400.305  
  23451395.926  
  21502179.773   112994763.268    21502185.859    88047879.5594                 
                
  20476114.250   107602737.985    20476120.820    83846329.0394   20476120.758  
                
  21332500.430   113954432.884                    88631233.543    21332503.816  
  21332500.105  
  23505160.805   123520458.883    23505166.887    96249742.2314                 
                
  22003906.531   115631348.987    22003912.793    90102407.5754   22003912.625  
                
  22933195.781   120514769.447    22933202.297    93907646.2284   22933202.484  
                
  23694065.781   124513173.221    23694073.699    97023306.4434   23694074.391  
                
  22777948.711   121590270.577                    94570201.855    22777950.352  
  22777946.879  
  19577459.617   104799690.744                    81510887.554    19577463.621  
  19577458.570  
  20568379.695   108087616.683    20568388.039    84224178.4764   20568388.176  
                
  24781372.469   130227016.226    24781381.645   101475647.4124   24781381.438  
                
  19503452.305   104147328.248                    81003553.732    19503454.539  
  19503450.570  
  21579496.867   115152348.524                    89562933.903    21579500.406  
  21579494.762  
 21  8 15 20 38 10.0000000  0 18G17G15R14R 4R21G13G14R12G20G 7G 5G 8
                                R22R 3G30G 9R13R 2
  23798782.062   125063449.658    23798788.898    97452065.6384   23798788.711  
                
  23705420.867   124572826.158    23705427.484    97069766.4314   23705427.602  
                
  22051441.734   117546610.949                    91425133.683    22051446.008  
  22051441.402  
  21577587.664   115547025.798                    89869909.545    21577590.188  
  21577587.012  
  23453250.984   125503090.421                    97613513.979    23453253.391  
  23453249.020  
  21497605.180   112970723.596    21497611.234    88029147.3504                 
                
  20473722.367   107590168.538    20473728.957    83836534.6714   20473728.895  
                
  21337923.125   113983399.980                    88653763.510    21337926.508  
  21337922.777  
  23510440.164   123548202.080    23510446.246    96271360.2854                 
                
  22007605.461   115650786.953    22007611.730    90117554.0474   22007611.551  
                
  22935718.977   120528028.828    22935725.480    93917978.2364   22935725.652  
                
  23697844.094   124533028.409    23697852.047    97038778.0304   23697852.727  
                
  22774088.391   121569663.692                    94554174.277    22774090.020  
  22774086.516  
  19578817.164   104806957.819                    81516539.708    19578821.184  
  19578816.094  
  20569227.102   108092069.830    20569235.453    84227648.4644   20569235.590  
                
  24788466.398   130264294.985    24788475.551   101504695.7884   24788475.367  
                
  19503610.523   104148173.084                    81004210.824    19503612.766  
  19503608.801  
  21587237.633   115193654.621                    89595060.889    21587241.125  
  21587235.535  
 21  8 15 20 38 20.0000000  0 18G17G15R14R 4R21G13G14R12G20G 7G 5G 8
                                R22R 3G30G 9R13R 2
  23792382.984   125029821.908    23792389.723    97425862.2054   23792389.527  
                
  23699121.578   124539723.133    23699128.199    97043971.8574   23699128.328  
                
  22046143.336   117518367.468                    91403166.536    22046147.617  
  22046143.004  
  21571740.055   115515712.183                    89845554.526    21571742.586  
  21571739.379  
  23455119.703   125513090.322                    97621291.677    23455122.055  
  23455117.754  
  21493037.977   112946722.738    21493043.977    88010445.3724                 
                
  20471340.758   107577653.075    20471347.355    83826782.3664   20471347.297  
                
  21343348.656   114012382.155                    88676305.193    21343352.043  
  21343348.305  
  23515724.258   123575970.143    23515730.336    96292997.7294                 
                
  22011308.633   115670247.224    22011314.910    90132717.8894   22011314.719  
                
  22938253.000   120541345.210    22938259.488    93928354.6264   22938259.676  
                
  23701633.141   124552939.970    23701641.109    97054293.5434   23701641.781  
                
  22770241.203   121549127.254                    94538201.488    22770242.859  
  22770239.348  
  19580191.758   104814316.159                    81522262.859    19580195.781  
  19580190.691  
  20570080.883   108096556.484    20570089.234    84231144.5474   20570089.359  
                
  24795562.312   130301583.970    24795571.387   101533752.1364   24795571.227  
                
  19503777.375   104149064.046                    81004903.795    19503779.609  
  19503775.664  
  21594985.305   115234997.879                    89627216.760    21594988.816  
  21594983.250  
 21  8 15 20 38 30.0000000  0 18G17G15R14R 4R21G13G14R12G20G 7G 5G 8
                                R22R 3G30G 9R13R 2
  23785985.781   124996204.054    23785992.457    97399666.4894   23785992.254  
                
  23692827.391   124506646.931    23692834.027    97018198.2144   23692834.168  
                
  22040850.305   117490152.546                    91381221.602    22040854.582  
  22040849.969  
  21565903.484   115484457.617                    89821245.425    21565906.008  
  21565902.781  
  23457004.055   125523173.846                    97629134.424    23457006.367  
  23457002.133  
  21488478.195   112922760.882    21488484.129    87991773.7924                 
                
  20468969.414   107565191.564    20468976.016    83817072.1004   20468975.949  
                
  21348776.977   114041379.271                    88698858.513    21348780.359  
  21348776.598  
  23521013.055   123603763.130    23521019.129    96314654.5884                 
                
  22015016.039   115689729.767    22015022.301    90147899.0864   22015022.117  
                
  22940797.844   120554718.460    22940804.320    93938775.3444   22940804.516  
                
  23705432.859   124572907.628    23705440.848    97069852.7664   23705441.488  
                
  22766407.195   121528661.408                    94522283.628    22766408.844  
  22766405.426  
  19581583.398   104821765.721                    81528056.953    19581587.445  
  19581582.328  
  20570941.039   108101076.578    20570949.398    84234666.7054   20570949.531  
                
  24802660.156   130338883.084    24802669.188   101562816.3814   24802669.039  
                
  19503952.828   104150000.951                    81005632.500    19503955.051  
  19503951.125  
  21602739.992   115276378.667                    89659401.814    21602743.551  
  21602737.984  
 21  8 15 20 38 40.0000000  0 18G17G15R14R 4R21G13G14R12G20G 7G 5G 8
                                R22R 3G30G 9R13R 2
  23779590.500   124962596.261    23779597.117    97373478.6094   23779596.926  
                
  23686538.305   124473597.475    23686544.918    96992445.3934   23686545.074  
                
  22035562.664   117461966.398                    91359299.051    22035566.949  
  22035562.332  
  21560077.977   115453262.289                    89796982.395    21560080.480  
  21560077.262  
  23458904.016   125533340.837                    97637042.081    23458906.277  
  23458902.035  
  21483925.867   112898838.180    21483931.746    87973132.7214                 
                
  20466608.352   107552784.094    20466614.957    83807403.9514   20466614.887  
                
  21354208.078   114070391.294                    88721423.415    21354211.445  
  21354207.660  
  23526306.539   123631580.768    23526312.602    96336330.6734                 
                
  22018727.695   115709234.630    22018733.922    90163097.6764   22018733.746  
                
  22943353.531   120568148.671    22943360.023    93949240.4574   22943360.199  
                
  23709243.258   124592931.398    23709251.230    97085455.7164   23709251.887  
                
  22762586.469   121508266.383                    94506420.844    22762588.094  
  22762584.754  
  19582992.062   104829306.414                    81533921.934    19582996.121  
  19582990.973  
  20571807.570   108105630.214    20571815.938    84238214.9914   20571816.066  
                
  24809759.898   130376192.320    24809768.891   101591888.5054   24809768.742  
                
  19504136.977   104150984.243                    81006397.284    19504139.180  
  19504135.266  
  21610501.594   115317796.394                    89691615.584    21610505.215  
  21610499.641  
 21  8 15 20 38 50.0000000  0 17G17G15R14R 4R21G13G14R12G20G 7G 5G 8
                                R22R 3G30R13R 2
  23773197.078   124928998.607    23773203.711    97347298.6194   23773203.539  
                
  23680254.281   124440574.674    23680260.875    96966713.3594   23680261.039  
                
  22030280.406   117433808.925                    91337398.784    22030284.664  
  22030280.066  
  21554263.539   115422126.295                    89772765.504    21554266.031  
  21554262.832  
  23460819.547   125543591.279                    97645014.647    23460821.793  
  23460817.531  
  21479380.914   112874954.259    21479386.746    87954521.8674                 
                
  20464257.555   107540430.576    20464264.164    83797777.8324   20464264.086  
                
  21359641.969   114099418.194                    88743999.875    21359645.328  
  21359641.520  
  23531604.758   123659422.681    23531610.676    96358025.6694                 
                
  22022443.570   115728761.675    22022449.777    90178313.5604   22022449.613  
                
  22945920.008   120581635.643    22945926.535    93959749.7734   22945926.684  
                
  23713064.336   124613011.341    23713072.305    97101102.4214   23713072.961  
                
  22758779.047   121487942.267                    94490613.199    22758780.672  
  22758777.359  
  19584417.734   104836938.171                    81539857.738    19584421.777  
  19584416.617  
  20572680.469   108110217.311    20572688.848    84241789.3534   20572688.965  
                
  19504329.703   104152013.432                    81007197.754    19504331.879  
  19504327.984  
  21618270.336   115359251.376                    89723858.344    21618273.883  
  21618268.312  
 21  8 15 20 39  0.0000000  0 17G17G15R14R 4R21G13G14R12G20G 7G 5G 8
                                R22R 3G30R13R 2
  23766805.562   124895411.372    23766812.266    97321126.7624   23766812.105  
                
  23673975.445   124407579.005    23673981.977    96941002.4444   23673982.145  
                
  22025003.531   117405680.214                    91315520.903    22025007.789  
  22025003.230  
  21548460.234   115391049.834                    89748594.927    21548462.719  
  21548459.512  
  23462750.703   125553925.274                    97653052.204    23462752.938  
  23462748.688  
  21474843.422   112851109.527    21474849.230    87935941.5634                 
                
  20461917.062   107528131.220    20461923.676    83788193.9254   20461923.602  
                
  21365078.672   114128460.074                    88766588.015    21365082.016  
  21365078.223  
  23536907.648   123687289.110    23536913.488    96379739.7894                 
                
  22026163.719   115748311.197    22026169.918    90193546.9454   22026169.758  
                
  22948497.344   120595179.638    22948503.914    93970303.5324   22948504.039  
                
  23716896.086   124633147.400    23716904.102    97116792.8524   23716904.758  
                
  22754985.047   121467689.355                    94474860.911    22754986.551  
  22754983.332  
  19585860.477   104844661.272                    81545864.596    19585864.504  
  19585859.355  
  20573559.766   108114838.017    20573568.156    84245389.9054   20573568.262  
                
  19504531.070   104153088.704                    81008034.088    19504533.242  
  19504529.328  
  21626045.914   115400742.927                    89756129.556    21626049.402  
  21626043.844  
 21  8 15 20 39 10.0000000  0 17G17G15R14R 4R21G13G14R12G20G 7G 5G 8
                                R22R 3G30R13R 2
  23760416.023   124861834.372    23760422.703    97294962.8704   23760422.543  
                
  23667701.727   124374610.284    23667708.207    96915312.5614   23667708.348  
                
  22019732.070   117377580.196                    91293665.337    22019736.301  
  22019731.793  
  21542668.008   115360032.819                    89724470.582    21542670.500  
  21542667.281  
  23464697.406   125564342.539                    97661154.518    23464699.664  
  23464695.355  
  21470313.352   112827303.875    21470319.156    87917391.7074                 
                
  20459586.828   107515885.766    20459593.434    83778652.0174   20459593.355  
                
  21370518.102   114157516.480                    88789187.440    21370521.438  
  21370517.672  
  23542214.984   123715179.753    23542220.938    96401472.7414                 
                
  22029888.078   115767882.850    22029894.258    90208797.5874   22029894.109  
                
  22951085.398   120608779.953    22951091.992    93980901.1914   22951092.090  
                
  23720738.453   124653339.242    23720746.508    97132526.7514   23720747.152  
                
  22751204.305   121447507.396                    94459163.826    22751205.684  
  22751202.547  
  19587320.180   104852475.230                    81551942.112    19587324.203  
  19587319.055  
  20574445.406   108119492.088    20574453.809    84249016.4474   20574453.895  
                
  19504741.016   104154209.862                    81008906.085    19504743.172  
  19504739.254  
  21633828.273   115442271.170                    89788429.286    21633831.777  
  21633826.191  
 21  8 15 20 39 20.0000000  0 17G17G15R14R 4R21G13G14R12G20G 7G 5G 8
                                R22R 3G30R13R 2
  23754028.508   124828268.170    23754035.207    97268807.3914   23754035.043  
                
  23661433.258   124341669.038    23661439.582    96889644.0484   23661439.734  
                
  22014466.055   117349509.256                    91271832.369    22014470.238  
  22014465.793  
  21536887.047   115329076.029                    89700393.082    21536889.527  
  21536886.336  
  23466659.742   125574843.380                    97669321.849    23466662.035  
  23466657.715  
  21465790.844   112803537.905    21465796.656    87898872.7714                 
                
  20457266.945   107503694.695    20457273.543    83769152.4854   20457273.465  
                
  21375960.359   114186587.964                    88811798.591    21375963.699  
  21375959.949  
  23547526.961   123743094.880    23547533.059    96423224.7524                 
                
  22033616.758   115787477.141    22033622.926    90224065.8564   22033622.801  
                
  22953684.281   120622437.162    22953690.914    93991543.1724   22953691.035  
                
  23724591.492   124673587.137    23724599.590    97148304.3434   23724600.234  
                
  22747436.969   121427397.004                    94443522.417    22747438.309  
  22747435.191  
  19588797.000   104860380.730                    81558090.828    19588800.980  
  19588795.863  
  20575337.492   108124179.995    20575345.898    84252669.3684   20575345.992  
                
  19504959.641   104155377.255                    81009814.050    19504961.797  
  19504957.867  
  21641617.430   115483836.134                    89820757.571    21641621.047  
  21641615.395  
 21  8 15 20 39 30.0000000  0 17G17G15R14R 4R21G13G14R12G20G 7G 5G 8
                                R22R 3G30R13R 2
  23747642.906   124794712.315    23747649.695    97242659.9794   23747649.523  
                
  23655169.930   124308754.944    23655176.090    96863996.6694   23655176.270  
                
  22009205.398   117321466.881                    91250021.614    22009209.504  
  22009205.137  
  21531117.227   115298178.950                    89676362.029    21531119.703  
  21531116.508  
  23468637.617   125585427.441                    97677553.893    23468639.895  
  23468635.602  
  21461275.766   112779811.043    21461281.594    87880384.3174                 
                
  20454957.297   107491557.445    20454963.879    83759694.8924   20454963.809  
                
  21381405.312   114215673.864                    88834420.945    21381408.637  
  21381404.914  
  23552843.492   123771033.822    23552849.703    96444995.3624                 
                
  22037349.633   115807093.537    22037355.801    90239351.3534   22037355.664  
                
  22956293.852   120636150.577    22956300.508    94002228.9354   22956300.641  
                
  23728455.133   124693890.792    23728463.281    97164125.3584   23728463.895  
                
  22743682.891   121407357.909                    94427936.470    22743684.344  
  22743681.137  
  19590290.742   104868376.890                    81564310.067    19590294.703  
  19590289.602  
  20576235.898   108128901.156    20576244.297    84256348.1874   20576244.391  
                
  19505186.727   104156589.872                    81010757.215    19505188.887  
  19505184.969  
  21649413.508   115525437.686                    89853114.334    21649417.152  
  21649411.457  
 21  8 15 20 39 40.0000000  0 17G17G15R14R 4R21G13G14R12G20G 7G 5G 8
                                R22R 3G30R13R 2
  23741259.383   124761167.148    23741266.254    97216520.8994   23741266.051  
                
  23648911.766   124275868.165    23648917.812    96838370.6194   23648917.996  
                
  22003950.133   117293453.293                    91228233.265    22003954.176  
  22003949.836  
  21525358.586   115267341.819                    89652377.605    21525361.086  
  21525357.891  
  23470631.008   125596094.480                    97685850.496    23470633.238  
  23470628.984  
  21456768.203   112756123.639    21456774.043    87861926.6034                 
                
  20452657.922   107479474.239    20452664.477    83750279.4134   20452664.422  
                
  21386852.977   114244774.218                    88857054.553    21386856.289  
  21386852.605  
  23558164.672   123798996.629    23558170.891    96466784.5554                 
                
  22041086.742   115826732.200    22041092.887    90254654.2084   22041092.770  
                
  22958914.156   120649920.353    22958920.812    94012958.6324   22958920.949  
                
  23732329.352   124714249.972    23732337.527    97179989.6604   23732338.105  
                
  22739942.242   121387390.341                    94412406.182    22739943.812  
  22739940.547  
  19591801.516   104876464.157                    81570600.165    19591805.449  
  19591800.375  
  20577140.680   108133655.810    20577149.066    84260053.1134   20577149.168  
                
  19505422.414   104157848.452                    81011736.099    19505424.566  
  19505420.656  
  21657216.375   115567075.154                    89885499.035    21657219.973  
  21657214.285  
 21  8 15 20 39 50.0000000  0 17G17G15R14R 4R21G13G14R12G20G 7G 5G 8
                                R22R 3G30R13R 2
  23734877.984   124727632.834    23734884.910    97190390.2804   23734884.672  
                
  23642658.836   124243008.865    23642664.773    96812765.9634   23642664.977  
                
  21998700.281   117265468.642                    91206467.424    21998704.332  
  21998699.941  
  21519611.250   115236565.134                    89628440.165    21519613.777  
  21519610.586  
  23472639.977   125606844.884                    97694211.917    23472642.199  
  23472637.914  
  21452268.219   112732476.042    21452274.066    87843499.9064                 
                
  20450368.859   107467445.172    20450375.383    83740906.1224   20450375.340  
                
  21392303.359   114273889.127                    88879699.487    21392306.664  
  21392302.988  
  23563490.367   123826983.315    23563496.621    96488592.3574                 
                
  22044828.117   115846393.207    22044834.246    90269974.4724   22044834.129  
                
  22961545.188   120663746.494    22961551.824    94023732.2434   22961551.941  
                
  23736214.188   124734664.933    23736222.371    97195897.4214   23736222.910  
                
  22736214.977   121367494.393                    94396931.579    22736216.711  
  22736213.309  
  19593329.289   104884642.472                    81576961.064    19593333.203  
  19593328.145  
  20578051.852   108138444.019    20578060.219    84263784.1794   20578060.336  
                
  19505666.672   104159152.725                    81012750.540    19505668.816  
  19505664.926  
  21665026.078   115608748.874                    89917911.934    21665029.578  
  21665023.945  
 21  8 15 20 40  0.0000000  0 17G17G15R14R 4R21G13G14R12G20G 7G 5G 8
                                R22R 3G30R13R 2
  23728498.703   124694109.543    23728505.688    97164268.2414   23728505.434  
                
  23636411.164   124210177.170    23636417.098    96787182.8234   23636417.297  
                
  21993455.828   117237512.773                    91184723.971    21993459.871  
  21993455.438  
  21513875.195   115205848.800                    89604549.693    21513877.730  
  21513874.559  
  23474664.484   125617678.466                    97702638.032    23474666.699  
  23474662.430  
  21447775.766   112708868.012    21447781.621    87825104.0344                 
                
  20448090.102   107455470.245    20448096.578    83731575.0114   20448096.559  
                
  21397756.453   114303018.540                    88902355.702    21397759.730  
  21397756.109  
  23568820.562   123854993.739    23568826.852    96510418.6364                 
                
  22048573.727   115866076.552    22048579.867    90285312.1294   22048579.750  
                
  22964186.922   120677628.901    22964193.551    94034549.7154   22964193.664  
                
  23740109.602   124755135.531    23740117.785    97211848.5424   23740118.320  
                
  22732501.156   121347670.401                    94381512.910    22732503.070  
  22732499.512  
  19594874.078   104892911.805                    81583392.767    19594877.965  
  19594872.934  
  20578969.398   108143265.780    20578977.746    84267541.4014   20578977.883  
                
  19505919.555   104160503.071                    81013800.822    19505921.691  
  19505917.805  
  21672842.516   115650458.761                    89950352.959    21672845.957  
  21672840.375  
 21  8 15 20 40 10.0000000  0 17G17G15R14R 4R21G13G14R12G20G 7G 5G 8
                                R22R 3G30R13R 2
  23722121.523   124660597.245    23722128.551    97138154.7674   23722128.270  
                
  23630168.711   124177372.964    23630174.648    96761621.1174   23630174.852  
                
  21988216.781   117209585.794                    91163002.974    21988220.859  
  21988216.363  
  21508150.430   115175192.846                    89580706.175    21508152.961  
  21508149.785  
  23476704.531   125628595.092                    97711128.744    23476706.703  
  23476702.516  
  21443290.828   112685299.512    21443296.703    87806738.9754                 
                
  20445821.609   107443549.312    20445828.047    83722285.9754   20445828.047  
                
  21403212.219   114332162.200                    88925022.991    21403215.488  
  21403211.891  
  23574155.289   123883027.657    23574161.559    96532263.2414                 
                
  22052323.539   115885781.920    22052329.703    90300666.9644   22052329.582  
                
  22966839.391   120691567.658    22966846.020    94045411.0764   22966846.152  
                
  23744015.523   124775661.311    23744023.699    97227842.6574   23744024.238  
                
  22728800.898   121327918.205                    94366150.088    22728802.852  
  22728799.234  
  19596435.812   104901271.915                    81589895.064    19596439.668  
  19596434.660  
  20579893.305   108148120.952    20579901.625    84271324.6404   20579901.777  
                
  19506180.945   104161898.944                    81014886.504    19506183.098  
  19506179.195  
  21680665.758   115692204.648                    89982821.993    21680669.082  
  21680663.578  
 21  8 15 20 40 20.0000000  0 17G17G15R14R 4R21G13G14R12G20G 7G 5G 8
                                R22R 3G30R13R 2
  23715746.422   124627096.037    23715753.531    97112049.9654   23715753.238  
                
  23623931.500   124144596.367    23623937.527    96736080.9374   23623937.715  
                
  21982983.094   117181687.355                    91141304.205    21982987.191  
  21982982.680  
  21502436.961   115144597.466                    89556909.774    21502439.488  
  21502436.309  
  23478760.062   125639594.535                    97719683.882    23478762.184  
  23478758.102  
  21438813.445   112661770.731    21438819.336    87788404.8684                 
                
  20443563.398   107431682.388    20443569.797    83713039.0264   20443569.824  
                
  21408670.625   114361320.004                    88947701.264    21408673.863  
  21408670.273  
  23579494.484   123911085.031    23579500.727    96554126.1194                 
                
  22056077.562   115905509.518    22056083.766    90316039.1124   22056083.645  
                
  22969502.539   120705562.566    22969509.156    94056316.2024   22969509.297  
                
  23747931.969   124796242.346    23747940.148    97243879.8394   23747940.695  
                
  22725114.109   121308238.002                    94350843.266    22725116.129  
  22725112.434  
  19598014.523   104909722.855                    81596468.006    19598018.340  
  19598013.387  
  20580823.562   108153009.523    20580831.855    84275133.9194   20580832.023  
                
  19506450.883   104163340.376                    81016007.617    19506453.043  
  19506449.121  
  21688495.617   115733985.756                    90015318.428    21688498.805  
  21688493.387  
 21  8 15 20 40 30.0000000  0 17G17G15R14R 4R21G13G14R12G20G 7G 5G 8
                                R22R 3G30R13R 2
  23709373.422   124593606.095    23709380.652    97085953.9324   23709380.359  
                
  23617699.594   124111847.531    23617705.723    96710562.3824   23617705.883  
                
  21977754.852   117153817.946                    91119627.991    21977758.980  
  21977754.418  
  21496734.828   115114062.763                    89533160.574    21496737.379  
  21496734.176  
  23480831.086   125650676.971                    97728303.555    23480833.172  
  23480829.125  
  21434343.664   112638281.879    21434349.566    87770101.8714                 
                
  20441315.492   107419869.551    20441321.855    83703834.2184   20441321.895  
                
  21414131.688   114390491.980                    88970390.586    21414134.879  
  21414131.348  
  23584838.148   123939165.897    23584844.398    96576007.3144                 
                
  22059835.828   115925259.304    22059842.055    90331428.5414   22059841.930  
                
  22972176.312   120719613.234    22972182.914    94067264.7804   22972183.059  
                
  23751858.984   124816878.869    23751867.219    97259960.2424   23751867.738  
                
  22721440.836   121288630.055                    94335592.689    22721443.023  
  22721439.148  
  19599610.195   104918264.561                    81603111.567    19599613.973  
  19599609.066  
  20581760.211   108157931.589    20581768.480    84278969.2974   20581768.668  
                
  19506729.320   104164827.240                    81017164.067    19506731.496  
  19506727.543  
  21696331.969   115775802.569                    90047842.606    21696335.281  
  21696329.859  
 21  8 15 20 40 40.0000000  0 17G17G15R14R 4R21G13G14R12G20G 7G 5G 8
                                R22R 3G30R13R 2
  23703002.617   124560127.660    23703009.949    97059866.8634   23703009.645  
                
  23611473.016   124079126.796    23611479.238    96685065.7304   23611479.375  
                
  21972532.062   117125977.657                    91097974.422    21972536.234  
  21972531.676  
  21491044.117   115083589.277                    89509458.948    21491046.668  
  21491043.477  
  23482917.672   125661842.700                    97736988.029    23482919.734  
  23482915.746  
  21429881.531   112614833.224    21429887.430    87751830.1924                 
                
  20439077.914   107408111.082    20439084.246    83694671.7784   20439084.312  
                
  21419595.445   114419678.365                    88993091.103    21419598.613  
  21419595.105  
  23590186.211   123967270.151    23590192.441    96597906.7174                 
                
  22063598.352   115945031.517    22063604.598    90346835.4614   22063604.461  
                
  22974860.742   120733719.939    22974867.340    94078257.0034   22974867.512  
                
  23755796.539   124837570.851    23755804.840    97276083.8644   23755805.312  
                
  22717781.133   121269094.513                    94320398.378    22717783.410  
  22717779.449  
  19601222.898   104926897.455                    81609826.037    19601226.645  
  19601221.789  
  20582703.266   108162887.398    20582711.508    84282830.9574   20582711.711  
                
  19507016.320   104166359.809                    81018356.063    19507018.516  
  19507014.539  
  21704174.969   115817655.032                    90080394.487    21704178.445  
  21704172.910  
 21  8 15 20 40 50.0000000  0 17G17G15R14R 4R21G13G14R12G20G 7G 5G 8
                                R22R 3G30R13R 2
  23696634.102   124526660.701    23696641.422    97033788.7224   23696641.102  
                
  23605251.789   124046434.115    23605258.090    96659590.9454   23605258.188  
                
  21967314.703   117098166.235                    91076343.309    21967318.891  
  21967314.348  
  21485364.836   115053176.967                    89485804.932    21485367.379  
  21485364.211  
  23485019.719   125673091.158                    97745736.816    23485021.754  
  23485017.805  
  21425427.031   112591424.697    21425432.922    87733589.7784                 
                
  20436850.633   107396406.724    20436856.930    83685551.5054   20436857.012  
                
  21425061.852   114448878.895                    89015802.643    21425064.996  
  21425061.496  
  23595538.617   123995397.429    23595544.875    96619824.0654                 
                
  22067365.102   115964825.987    22067371.363    90362259.7154   22067371.227  
                
  22977555.773   120747882.370    22977562.375    94089292.6734   22977562.523  
                
  23759744.602   124858318.092    23759752.949    97292250.5504   23759753.402  
                
  22714135.047   121249631.545                    94305260.526    22714137.289  
  22714133.391  
  19602852.547   104935621.070                    81616611.080    19602856.266  
  19602851.449  
  20583652.688   108167876.688    20583660.902    84286718.7184   20583661.129  
                
  19507311.820   104167937.845                    81019583.427    19507314.008  
  19507310.023  
  21712024.508   115859542.706                    90112973.772    21712028.234  
  21712022.566  
 21  8 15 20 41  0.0000000  0 17G17G15R14R 4R21G13G14R12G20G 7G 5G 8
                                R22R 3G30R13R 2
  23690267.773   124493205.390    23690275.066    97007719.6494   23690274.762  
                
  23599035.930   124013769.652    23599042.285    96634138.1294   23599042.348  
                
  21962102.781   117070383.818                    91054734.739    21962107.020  
  21962102.449  
  21479696.984   115022825.876                    89462198.523    21479699.527  
  21479696.379  
  23487137.273   125684422.508                    97754550.078    23487139.285  
  23487135.387  
  21420980.180   112568056.299    21420986.062    87715380.6374                 
                
  20434633.680   107384756.557    20434639.926    83676473.4564   20434640.039  
                
  21430530.906   114478093.541                    89038525.129    21430534.031  
  21430530.570  
  23600895.477   124023547.698    23600901.688    96641759.3304                 
                
  22071136.094   115984642.666    22071142.387    90377701.2714   22071142.227  
                
  22980261.430   120762100.579    22980268.047    94100371.7814   22980268.180  
                
  23763703.133   124879120.355    23763711.500    97308460.1094   23763711.945  
                
  22710502.672   121230241.163                    94290179.129    22710504.773  
  22710500.949  
  19604499.180   104944435.597                    81623466.813    19604502.867  
  19604498.086  
  20584608.500   108172899.539    20584616.691    84290632.6214   20584616.926  
                
  19507615.812   104169561.167                    81020846.028    19507617.988  
  19507614.012  
  21719880.664   115901465.576                    90145580.415    21719884.613  
  21719878.844  
 21  8 15 20 41 10.0000000  0 17G17G15R14R 4R21G13G14R12G20G 7G 5G 8
                                R22R 3G30R13R 2
  23683903.695   124459761.713    23683910.898    96981659.6394   23683910.617  
                
  23592825.445   123981133.409    23592831.797    96608707.2974   23592831.840  
                
  21956896.281   117042630.344                    91033148.698    21956900.543  
  21956895.980  
  21474040.570   114992536.027                    89438639.758    21474043.113  
  21474039.980  
  23489270.273   125695836.678                    97763427.784    23489272.324  
  23489268.312  
  21416540.953   112544728.040    21416546.852    87697202.7854                 
                
  20432427.016   107373160.517    20432433.223    83667437.5824   20432433.359  
                
  21436002.539   114507322.014                    89061258.397    21436005.629  
  21436002.199  
  23606256.586   124051720.833    23606262.836    96663712.4024                 
                
  22074911.289   116004481.483    22074917.629    90393160.0824   22074917.457  
                
  22982977.648   120776374.373    22982984.281    94111494.2174   22982984.402  
                
  23767672.125   124899977.593    23767680.500    97324712.4984   23767680.961  
                
  22706883.820   121210923.359                    94275154.161    22706885.762  
  22706882.129  
  19606162.758   104953340.874                    81630393.132    19606166.418  
  19606161.684  
  20585570.688   108177955.858    20585578.863    84294572.6144   20585579.117  
                
  19507928.344   104171230.035                    81022144.042    19507930.527  
  19507926.531  
  21727743.422   115943423.071                    90178214.013    21727747.453  
  21727741.672  
 21  8 15 20 41 20.0000000  0 17G17G15R14R 4R21G13G14R12G20G 7G 5G 8
                                R22R 3G30R13R 2
  23677541.867   124426329.832    23677548.969    96955608.8184   23677548.723  
                
  23586620.344   123948525.467    23586626.707    96583298.5094   23586626.723  
                
  21951695.234   117014905.795                    91011585.162    21951699.465  
  21951694.965  
  21468395.672   114962307.818                    89415128.929    21468398.203  
  21468395.082  
  23491418.750   125707333.616                    97772369.858    23491420.801  
  23491416.766  
  21412109.406   112521440.101    21412115.332    87679056.3374                 
                
  20430230.672   107361618.686    20430236.852    83658443.9514   20430237.000  
                
  21441476.812   114536564.531                    89084002.575    21441479.875  
  21441476.484  
  23611621.992   124079916.784    23611628.355    96685683.2604                 
                
  22078690.742   116024342.654    22078697.074    90408636.3204   22078696.918  
                
  22985704.461   120790703.848    22985711.098    94122660.0554   22985711.203  
                
  23771651.570   124920889.790    23771659.949    97341007.7134   23771660.426  
                
  22703278.578   121191678.632                    94260186.061    22703280.539  
  22703276.953  
  19607843.297   104962336.849                    81637390.002    19607846.945  
  19607842.273  
  20586539.258   108183045.744    20586547.430    84298538.7614   20586547.660  
                
  19508249.344   104172944.210                    81023477.292    19508251.523  
  19508247.539  
  21735612.930   115985415.807                    90210875.040    21735616.902  
  21735611.141  
 21  8 15 20 41 30.0000000  0 17G17G15R14R 4R21G13G14R12G20G 7G 5G 8
                                R22R 3G30R13R 2
  23671182.250   124392909.882    23671189.309    96929567.3074   23671189.109  
                
  23580420.625   123915945.846    23580427.000    96557911.8204   23580427.000  
                
  21946499.656   116987210.304                    90990044.197    21946503.840  
  21946499.383  
  21462762.242   114932141.195                    89391666.001    21462764.777  
  21462761.645  
  23493582.664   125718913.253                    97781376.236    23493584.730  
  23493580.652  
  21407685.547   112498192.574    21407691.508    87660941.3814                 
                
  20428044.633   107350131.030    20428050.805    83649492.5314   20428050.961  
                
  21446953.688   114565820.975                    89106757.594    21446956.727  
  21446953.391  
  23616991.758   124108135.454    23616998.191    96707671.8224                 
                
  22082474.422   116044226.059    22082480.719    90424129.8784   22082480.566  
                
  22988441.867   120805089.101    22988448.500    94133869.3234   22988448.605  
                
  23775641.461   124941856.938    23775649.832    97357345.7444   23775650.336  
                
  22699687.062   121172506.809                    94245274.651    22699689.004  
  22699685.469  
  19609540.781   104971423.587                    81644457.457    19609544.395  
  19609539.770  
  20587514.203   108188169.145    20587522.375    84302531.0184   20587522.602  
                
  19508578.836   104174703.678                    81024845.771    19508581.008  
  19508577.031  
  21743488.875   116027443.046                    90243562.885    21743492.812  
  21743487.078  
 21  8 15 20 41 40.0000000  0 17G17G15R14R 4R21G13G14R12G20G 7G 5G 8
                                R22R 3G30R13R 2
  23664824.867   124359502.017    23664831.973    96903535.2194   23664831.809  
                
  23574226.375   123883394.847    23574232.734    96532547.4204   23574232.766  
                
  21941309.508   116959543.843                    90968525.819    21941313.680  
  21941309.242  
  21457140.406   114902036.548                    89368251.273    21457142.949  
  21457139.797  
  23495762.047   125730575.537                    97790446.899    23495764.121  
  23495759.957  
  21403269.422   112474985.646    21403275.422    87642858.0644                 
                
  20425868.922   107338697.615    20425875.102    83640583.3814   20425875.242  
                
  21452433.156   114595091.193                    89129523.322    21452436.191  
  21452432.871  
  23622365.812   124136376.723    23622372.258    96729678.0124                 
                
  22086262.344   116064131.677    22086268.648    90439640.7504   22086268.477  
                
  22991189.828   120819529.740    22991196.438    94145121.7654   22991196.582  
                
  23779641.805   124962878.934    23779650.199    97373726.5184   23779650.707  
                
  22696109.250   121153408.066                    94230420.058    22696111.082  
  22696107.625  
  19611255.211   104980600.983                    81651595.433    19611258.789  
  19611254.238  
  20588495.547   108193326.117    20588503.727    84306549.4434   20588503.949  
                
  19508916.812   104176508.469                    81026249.509    19508919.000  
  19508915.020  
  21751371.305   116069504.869                    90276277.634    21751375.172  
  21751369.512  
 21  8 15 20 41 50.0000000  0 17G17G15R14R 4R21G13G14R12G20G 7G 5G 8
                                R22R 3G30R13R 2
  23658469.836   124326106.229    23658476.930    96877512.5384   23658476.809  
                
  23568037.547   123850872.386    23568043.941    96507205.2714   23568044.004  
                
  21936124.797   116931906.397                    90947030.022    21936128.957  
  21936124.527  
  21451530.117   114871993.809                    89344884.705    21451532.664  
  21451529.512  
  23497956.836   125742320.334                    97799581.736    23497958.934  
  23497954.754  
  21398861.016   112451819.337    21398867.055    87624806.4054                 
                
  20423703.516   107327318.337    20423709.707    83631716.4174   20423709.828  
                
  21457915.172   114624375.184                    89152299.754    21457918.227  
  21457914.867  
  23627744.203   124164640.356    23627750.562    96751701.6104                 
                
  22090054.477   116084059.430    22090060.797    90455168.8614   22090060.605  
                
  22993948.289   120834025.601    22993954.879    94156417.2434   22993955.055  
                
  23783652.500   124983955.285    23783660.906    97390149.6524   23783661.410  
                
  22692545.094   121134382.503                    94215622.401    22692546.840  
  22692543.465  
  19612986.555   104989868.915                    81658803.832    19612990.102  
  19612985.605  
  20589483.258   108198516.594    20589491.441    84310593.9624   20589491.648  
                
  19509263.242   104178358.468                    81027688.411    19509265.434  
  19509261.441  
  21759260.336   116111601.257                    90309019.295    21759263.973  
  21759258.410  
 21  8 15 20 42  0.0000000  0 17G17G15R14R 4R21G13G14R12G20G 7G 5G 8
                                R22R 3G30R13R 2
  23652117.062   124292722.564    23652124.156    96851499.2974   23652124.066  
                
  23561854.133   123818378.478    23561860.555    96481885.3704   23561860.656  
                
  21930945.516   116904297.863                    90925556.714    21930949.680  
  21930945.234  
  21445931.406   114842012.991                    89321566.291    21445933.953  
  21445930.805  
  23500167.055   125754147.631                    97808780.739    23500169.152  
  23500164.977  
  21394460.406   112428694.012    21394466.473    87606786.6714                 
                
  20421548.391   107315993.137    20421554.598    83622891.5904   20421554.703  
                
  21463399.719   114653672.653                    89175086.660    21463402.801  
  21463399.414  
  23633126.898   124192926.158    23633133.109    96773742.5044                 
                
  22093850.805   116104009.246    22093857.098    90470714.1604   22093856.914  
                
  22996717.250   120848576.674    22996723.832    94167755.7194   22996724.008  
                
  23787673.570   125005086.201    23787682.000    97406615.3014   23787682.512  
                
  22688994.664   121115430.167                    94200881.734    22688996.449  
  22688993.016  
  19614734.789   104999227.320                    81666082.592    19614738.328  
  19614733.852  
  20590477.320   108203740.428    20590485.512    84314664.4834   20590485.703  
                
  19509618.125   104180253.598                    81029162.403    19509620.340  
  19509616.301  
  21767155.594   116153731.285                    90341787.107    21767159.020  
  21767153.590  
 21  8 15 20 42 10.0000000  0 17G17G15R14R 4R21G13G14R12G20G 7G 5G 8
                                R22R 3G30R13R 2
  23645766.688   124259351.322    23645773.730    96825495.7374   23645773.684  
                
  23555676.172   123785913.378    23555682.680    96456587.9404   23555682.773  
                
  21925771.727   116876718.535                    90904106.091    21925775.871  
  21925771.484  
  21440344.336   114812094.520                    89298296.370    21440346.863  
  21440343.730  
  23502392.695   125766057.421                    97818043.919    23502394.781  
  23502390.676  
  21390067.547   112405609.414    21390073.652    87588798.6794                 
                
  20419403.609   107304722.206    20419409.824    83614109.0504   20419409.918  
                
  21468886.836   114682983.791                    89197884.215    21468889.910  
  21468886.527  
  23638513.844   124221234.241    23638519.938    96795800.7224                 
                
  22097651.375   116123981.281    22097657.648    90486276.7764   22097657.453  
                
  22999496.750   120863183.058    22999503.336    94179137.3224   22999503.484  
                
  23791705.070   125026271.918    23791713.547    97423123.6454   23791714.051  
                
  22685458.023   121096551.401                    94186198.226    22685459.820  
  22685456.328  
  19616499.984   105008676.503                    81673431.950    19616503.504  
  19616499.055  
  20591477.781   108208997.888    20591485.973    84318761.2044   20591486.160  
                
  19509981.453   104182193.720                    81030671.393    19509983.664  
  19509979.637  
  21775057.305   116195895.874                    90374581.804    21775060.586  
  21775055.242  
 21  8 15 20 42 20.0000000  0 17G17G15R14R 4R21G13G14R12G20G 7G 5G 8
                                R22R 3G30R13R 2
  23639418.531   124225992.563    23639425.641    96799501.9074   23639425.633  
                
  23549503.742   123753477.178    23549510.262    96431312.9884   23549510.340  
                
  21920603.391   116849168.307                    90882678.126    21920607.539  
  21920603.195  
  21434768.938   114782238.507                    89275075.034    21434771.469  
  21434768.359  
  23504633.758   125778049.749                    97827371.255    23504635.824  
  23504631.793  
  21385682.438   112382565.481    21385688.574    87570842.3664                 
                
  20417269.156   107293505.574    20417275.359    83605368.8154   20417275.449  
                
  21474376.516   114712308.724                    89220692.493    21474379.602  
  21474376.191  
  23643904.961   124249564.454    23643910.980    96817876.2084                 
                
  22101456.180   116143975.530    22101462.438    90501856.7124   22101462.230  
                
  23002286.789   120877844.881    23002293.434    94190562.1114   23002293.566  
                
  23795746.953   125047512.165    23795755.453    97439674.4864   23795755.945  
                
  22681935.125   121077746.168                    94171571.944    22681937.008  
  22681933.477  
  19618282.086   105018216.180                    81680851.688    19618285.594  
  19618281.172  
  20592484.633   108214288.920    20592492.828    84322884.0894   20592493.008  
                
  19510353.211   104184178.851                    81032215.390    19510355.434  
  19510351.391  
  21782965.195   116238094.417                    90407402.880    21782968.570  
  21782963.230  
 21  8 15 20 42 30.0000000  0 17G17G15R14R 4R21G13G14R12G20G 7G 5G 8
                                R22R 3G30R13R 2
  23633072.742   124192646.269    23633079.926    96773517.7854   23633079.934  
                
  23543336.844   123721069.892    23543343.359    96406060.5834   23543343.418  
                
  21915440.516   116821647.155                    90861272.769    21915444.645  
  21915440.293  
  21429205.203   114752444.979                    89251902.290    21429207.727  
  21429204.660  
  23506890.172   125790124.266                    97836762.553    23506892.254  
  23506888.289  
  21381305.094   112359562.400    21381311.246    87552917.8984                 
                
  20415145.008   107282343.108    20415151.215    83596670.7984   20415151.316  
                
  21479868.734   114741647.073                    89243511.209    21479871.848  
  21479868.406  
  23649300.148   124277916.522    23649306.207    96839968.7164                 
                
  22105265.180   116163991.891    22105271.418    90517453.8774   22105271.230  
                
  23005087.375   120892562.139    23005094.074    94202030.1014   23005094.188  
                
  23799799.195   125068806.897    23799807.695    97456267.7914   23799808.172  
                
  22678426.039   121059014.458                    94157002.853    22678427.902  
  22678424.418  
  19620081.102   105027846.337                    81688341.817    19620084.609  
  19620080.207  
  20593497.859   108219613.457    20593506.062    84327033.0744   20593506.234  
                
  19510733.359   104186208.845                    81033794.279    19510735.590  
  19510731.551  
  21790879.367   116280326.882                    90440250.324    21790882.930  
  21790877.488  
 21  8 15 20 42 40.0000000  0 17G17G15R14R 4R21G13G14R12G20G 7G 5G 8
                                R22R 3G30R13R 2
  23626729.445   124159312.683    23626736.695    96747543.5644   23626736.691  
                
  23537175.477   123688691.704    23537182.023    96380830.8684   23537182.047  
                
  21910283.086   116794155.081                    90839890.044    21910287.215  
  21910282.863  
  21423653.195   114722714.246                    89228778.365    21423655.699  
  21423652.695  
  23509161.977   125802281.181                    97846217.934    23509164.016  
  23509160.133  
  21376935.555   112336600.303    21376941.715    87535025.3554                 
                
  20413031.195   107271234.913    20413037.422    83588015.0624   20413037.523  
                
  21485363.445   114770998.831                    89266340.345    21485366.586  
  21485363.102  
  23654699.523   124306290.446    23654705.598    96862078.2484                 
                
  22109078.406   116184030.464    22109084.633    90533068.3444   22109084.434  
                
  23007898.383   120907334.125    23007905.129    94213540.7294   23007905.223  
                
  23803861.805   125090156.031    23803870.316    97472903.4764   23803870.789  
                
  22674930.781   121040356.712                    94142491.266    22674932.711  
  22674929.168  
  19621897.016   105037566.999                    81695902.332    19621900.543  
  19621896.148  
  20594517.477   108224971.554    20594525.688    84331208.2154   20594525.859  
                
  19511121.984   104188284.105                    81035408.374    19511124.234  
  19511120.184  
  21798799.891   116322593.133                    90473124.049    21798803.660  
  21798798.090  
 21  8 15 20 42 50.0000000  0 17G17G15R14R 4R21G13G14R12G20G 7G 5G 8
                                R22R 3G30R13R 2
  23620388.664   124125991.941    23620395.953    96721579.3644   23620395.930  
                
  23531019.648   123656342.684    23531026.223    96355623.8674   23531026.227  
                
  21905131.109   116766692.108                    90818529.931    21905135.238  
  21905130.867  
  21418112.891   114693046.135                    89205703.184    21418115.383  
  21418112.410  
  23511449.172   125814520.468                    97855737.389    23511451.195  
  23511447.320  
  21372573.805   112313679.197    21372579.961    87517164.7454                 
                
  20410927.688   107260180.938    20410933.953    83579401.5834   20410934.043  
                
  21490860.641   114800363.930                    89289179.855    21490863.836  
  21490860.258  
  23660103.062   124334686.134    23660109.133    96884204.7544                 
                
  22112895.844   116204091.202    22112902.062    90548700.0834   22112901.863  
                
  23010719.773   120922160.773    23010726.570    94225093.9544   23010726.617  
                
  23807934.727   125111559.420    23807943.254    97489581.4404   23807943.727  
                
  22671449.438   121021772.961                    94128037.268    22671451.375  
  22671447.789  
  19623729.781   105047377.907                    81703533.035    19623733.312  
  19623728.918  
  20595543.461   108230363.154    20595551.688    84335409.4604   20595551.844  
                
  19511519.008   104190404.229                    81037057.373    19511521.258  
  19511517.211  
  21806726.773   116364892.740                    90506023.736    21806730.641  
  21806724.996  
 21  8 15 20 43  0.0000000  0 17G17G15R14R 4R21G13G14R12G20G 7G 5G 8
                                R22R 3G30R13R 2
  23614050.359   124092684.022    23614057.719    96695625.1654   23614057.664  
                
  23524869.344   123624022.809    23524875.949    96330439.5624   23524875.945  
                
  21899984.555   116739258.151                    90797192.413    21899988.734  
  21899984.305  
  21412584.320   114663440.855                    89182676.847    21412586.773  
  21412583.871  
  23513751.680   125826841.646                    97865320.536    23513753.711  
  23513749.855  
  21368219.859   112290799.060    21368226.020    87499336.0674                 
                
  20408834.477   107249181.035    20408840.801    83570830.2304   20408840.859  
                
  21496360.305   114829742.204                    89312029.606    21496363.547  
  21496359.898  
  23665510.664   124363103.225    23665516.738    96906347.9224                 
                
  22116717.477   116224173.954    22116723.695    90564348.9734   22116723.484  
                
  23013551.570   120937042.004    23013558.375    94236689.7264   23013558.434  
                
  23812017.922   125133016.812    23812026.473    97506301.4744   23812026.934  
                
  22667981.938   121003263.170                    94113640.775    22667983.855  
  22667980.273  
  19625579.453   105057279.282                    81711234.091    19625583.008  
  19625578.578  
  20596575.789   108235788.107    20596584.027    84339636.6964   20596584.184  
                
  19511924.398   104192568.997                    81038741.091    19511926.680  
  19511922.598  
  21814660.047   116407225.499                    90538949.203    21814663.844  
  21814658.188  
 21  8 15 20 43 10.0000000  0 17G17G15R14R 4R21G13G14R12G20G 7G 5G 8
                                R22R 3G30R13R 2
  23607714.609   124059389.259    23607722.004    96669681.2224   23607721.922  
                
  23518724.648   123591732.420    23518731.227    96305278.2254   23518731.242  
                
  21894843.484   116711853.455                    90775877.638    21894847.664  
  21894843.227  
  21407067.578   114633898.847                    89159699.729    21407070.004  
  21407067.152  
  23516069.562   125839245.115                    97874967.668    23516071.578  
  23516067.797  
  21363873.781   112267960.302    21363879.938    87481539.6454                 
                
  20406751.609   107238235.515    20406757.996    83562301.2604   20406758.012  
                
  21501862.492   114859133.901                    89334889.817    21501865.742  
  21501862.086  
  23670922.406   124391541.955    23670928.477    96928507.9614                 
                
  22120543.344   116244278.997    22120549.602    90580015.2274   22120549.371  
                
  23016393.805   120951978.097    23016400.590    94248328.2274   23016400.684  
                
  23816111.422   125154528.335    23816119.973    97523063.7074   23816120.441  
                
  22664528.375   120984827.689                    94099302.065    22664530.188  
  22664526.660  
  19627445.992   105067270.989                    81719005.413    19627449.547  
  19627445.094  
  20597614.523   108241246.729    20597622.766    84343890.1674   20597622.922  
                
  19512338.250   104194778.967                    81040459.963    19512340.523  
  19512336.457  
  21822599.602   116449591.553                    90571900.567    21822603.246  
  21822597.617  
 21  8 15 20 43 20.0000000  0 17G17G15R14R 4R21G13G14R12G20G 7G 5G 8
                                R22R 3G30R13R 2
  23601381.391   124026107.580    23601388.770    96643747.4674   23601388.676  
                
  23512585.570   123559471.494    23512592.090    96280139.8694   23512592.113  
                
  21889707.930   116684478.013                    90754585.635    21889712.102  
  21889707.656  
  21401562.625   114604420.034                    89136771.758    21401565.039  
  21401562.211  
  23518402.789   125851730.636                    97884678.649    23518404.777  
  23518401.070  
  21359535.578   112245162.912    21359541.734    87463775.4444                 
                
  20404679.070   107227344.231    20404685.520    83553814.5444   20404685.500  
                
  21507367.133   114888538.667                    89357760.196    21507370.383  
  21507366.738  
  23676338.266   124420002.030    23676344.270    96950684.6404                 
                
  22124373.406   116264406.097    22124379.699    90595698.6724   22124379.441  
                
  23019246.438   120966968.814    23019253.188    94260009.2974   23019253.270  
                
  23820215.172   125176093.689    23820223.711    97539867.8814   23820224.176  
                
  22661088.672   120966466.475                    94085021.115    22661090.418  
  22661087.000  
  19629329.406   105077353.030                    81726846.997    19629332.980  
  19629328.504  
  20598659.641   108246738.875    20598667.895    84348169.7624   20598668.059  
                
  19512760.469   104197033.517                    81042213.511    19512762.738  
  19512758.691  
  21830545.375   116491990.729                    90604877.715    21830548.895  
  21830543.273  
 21  8 15 20 43 30.0000000  0 17G17G15R14R 4R21G13G14R12G20G 7G 5G 8
                                R22R 3G30R13R 2
  23595050.602   123992838.909    23595057.977    96617823.8404   23595057.867  
                
  23506452.094   123527239.933    23506458.555    96255024.3774   23506458.602  
                
  21884577.820   116657131.642                    90733316.221    21884582.008  
  21884577.527  
  21396069.508   114575004.571                    89113893.049    21396071.895  
  21396069.074  
  23520751.297   125864297.960                    97894453.224    23520753.258  
  23520749.512  
  21355205.234   112222406.832    21355211.379    87446043.4344                 
                
  20402616.820   107216507.031    20402623.320    83545369.9794   20402623.277  
                
  21512874.195   114917956.393                    89380640.640    21512877.453  
  21512873.801  
  23681758.125   124448483.191    23681764.059    96972877.7374                 
                
  22128207.664   116284555.191    22128213.973    90611399.2634   22128213.703  
                
  23022109.422   120982013.968    23022116.145    94271732.7924   23022116.211  
                
  23824329.156   125197712.814    23824337.656    97556713.9544   23824338.129  
                
  22657662.945   120948179.511                    94070797.918    22657664.496  
  22657661.219  
  19631229.641   105087525.130                    81734758.627    19631233.246  
  19631228.730  
  20599711.117   108252264.392    20599719.371    84352475.3484   20599719.523  
                
  19513191.008   104199332.584                    81044001.683    19513193.273  
  19513189.238  
  21838497.266   116534422.675                    90637880.348    21838500.672  
  21838495.082  
 21  8 15 20 43 40.0000000  0 17G17G15R14R 4R21G13G14R12G20G 7G 5G 8
                                R22R 3G30R13R 2
  23588722.289   123959583.709    23588729.715    96591910.7174   23588729.602  
                
  23500324.281   123495038.140    23500330.742    96229932.1074   23500330.793  
                
  21879453.227   116629814.526                    90712069.564    21879457.395  
  21879452.895  
  21390588.266   114545652.687                    89091063.822    21390590.672  
  21390587.812  
  23523115.164   125876947.527                    97904291.796    23523117.137  
  23523113.324  
  21350882.859   112199692.560    21350888.996    87428344.0004                 
                
  20400564.930   107205724.283    20400571.477    83536967.8404   20400571.410  
                
  21518383.758   114947387.451                    89403531.471    21518387.012  
  21518383.375  
  23687182.039   124476985.669    23687187.914    96995087.4794                 
                
  22132046.156   116304726.541    22132052.492    90627117.1944   22132052.211  
                
  23024982.820   120997113.801    23024989.512    94283498.9064   23024989.590  
                
  23828453.445   125219386.039    23828461.938    97573602.1994   23828462.414  
                
  22654251.188   120929967.468                    94056632.990    22654252.613  
  22654249.465  
  19633146.758   105097787.604                    81742740.547    19633150.379  
  19633145.844  
  20600768.992   108257823.605    20600777.254    84356807.2074   20600777.410  
                
  19513629.992   104201676.684                    81045824.873    19513632.223  
  19513628.227  
  21846455.156   116576887.470                    90670908.518    21846458.582  
  21846453.023  
 21  8 15 20 43 50.0000000  0 17G17G15R14R 4R21G13G14R12G20G 7G 5G 8
                                R22R 3G30R13R 2
  23582396.523   123926341.773    23582404.004    96566007.9254   23582403.867  
                
  23494202.117   123462865.948    23494208.594    96204862.8914   23494208.637  
                
  21874334.070   116602526.479                    90690845.554    21874338.223  
  21874333.738  
  21385118.867   114516364.341                    89068283.981    21385121.266  
  21385118.426  
  23525494.289   125889678.759                    97914193.863    23525496.293  
  23525492.422  
  21346568.328   112177019.600    21346574.453    87410676.7604                 
                
  20398523.320   107194995.606    20398529.910    83528607.8354   20398529.836  
                
  21523895.695   114976831.223                    89426432.180    21523898.938  
  21523895.336  
  23692609.883   124505508.955    23692615.746    97017313.3984                 
                
  22135888.812   116324919.815    22135895.152    90642852.1934   22135894.859  
                
  23027866.547   121012267.846    23027873.188    94295307.2524   23027873.270  
                
  23832587.938   125241112.953    23832596.441    97590532.2634   23832596.930  
                
  22650853.430   120911829.723                    94042525.865    22650854.711  
  22650851.734  
  19635080.711   105108140.169                    81750792.538    19635084.363  
  19635079.789  
  20601833.219   108263416.181    20601841.484    84361165.0524   20601841.648  
                
  19514077.336   104204065.426                    81047682.793    19514079.539  
  19514075.570  
  21854419.117   116619385.089                    90703962.196    21854422.621  
  21854417.016  
 21  8 15 20 44  0.0000000  0 17G17G15R14R 4R21G13G14R12G20G 7G 5G 8
                                R22R 3G30R13R 2
  23576073.391   123893113.510    23576080.914    96540115.7914   23576080.762  
                
  23488085.664   123430723.722    23488092.137    96179817.0114   23488092.188  
                
  21869220.445   116575267.822                    90669644.376    21869224.562  
  21869220.160  
  21379661.453   114487139.944                    89045553.892    21379663.824  
  21379661.020  
  23527888.742   125902491.967                    97924159.684    23527890.730  
  23527886.852  
  21342261.758   112154388.408    21342267.879    87393042.0654                 
                
  20396492.070   107184321.326    20396498.703    83520290.2174   20396498.609  
                
  21529410.102   115006288.134                    89449343.099    21529413.340  
  21529409.723  
  23698041.680   124534053.312    23698047.656    97039555.7474                 
                
  22139735.688   116345135.260    22139741.980    90658604.4914   22139741.719  
                
  23030760.664   121027476.518    23030767.266    94307158.1704   23030767.344  
                
  23836732.656   125262893.572    23836741.180    97607504.1864   23836741.688  
                
  22647469.648   120893766.978                    94028477.068    22647470.969  
  22647468.000  
  19637031.508   105118582.932                    81758914.684    19637035.191  
  19637030.562  
  20602903.852   108269042.403    20602912.129    84365549.1194   20602912.301  
                
  19514533.008   104206498.670                    81049575.326    19514535.195  
  19514531.250  
  21862388.969   116661915.173                    90737041.130    21862392.715  
  21862387.051  
 21  8 15 20 44 10.0000000  0 17G17G15R14R 4R21G13G14R12G20G 7G 5G 8
                                R22R 3G30R13R 2
  23569752.859   123859899.001    23569760.438    96514234.3694   23569760.277  
                
  23481974.891   123398611.465    23481981.359    96154794.4954   23481981.430  
                
  21864112.320   116548038.518                    90648466.017    21864116.414  
  21864112.039  
  21374215.953   114457979.542                    89022873.592    21374218.316  
  21374215.500  
  23530298.492   125915387.004                    97934189.158    23530300.484  
  23530296.629  
  21337963.141   112131799.056    21337969.266    87375439.9804                 
                
  20394471.164   107173701.402    20394477.840    83512014.9584   20394477.734  
                
  21534926.945   115035758.070                    89472264.177    21534930.188  
  21534926.586  
  23703477.406   124562618.538    23703483.516    97061814.3474                 
                
  22143586.781   116365372.907    22143593.023    90674374.0904   22143592.805  
                
  23033665.102   121042739.434    23033671.668    94319051.3664   23033671.777  
                
  23840887.523   125284727.628    23840896.035    97624517.7434   23840896.555  
                
  22644099.953   120875779.209                    94014486.589    22644101.312  
  22644098.309  
  19638999.180   105129116.011                    81767107.067    19639002.883  
  19638998.203  
  20603980.883   108274702.262    20603989.160    84369959.3954   20603989.340  
                
  19514997.047   104208976.601                    81051502.612    19514999.227  
  19514995.312  
  21870364.969   116704477.516                    90770145.167    21870368.840  
  21870363.145  
 21  8 15 20 44 20.0000000  0 17G17G15R14R 4R21G13G14R12G20G 7G 5G 8
                                R22R 3G30R13R 2
  23563434.891   123826698.257    23563442.570    96488363.6584   23563442.402  
                
  23475869.836   123366529.224    23475876.352    96129795.3584   23475876.387  
                
  21859009.656   116520838.431                    90627310.385    21859013.742  
  21859009.348  
  21368782.430   114428883.251                    89000243.146    21368784.816  
  21368781.980  
  23532723.531   125928363.862                    97944282.262    23532725.527  
  23532721.711  
  21333672.508   112109251.601    21333678.633    87357870.5314                 
                
  20392460.578   107163135.742    20392467.305    83503781.9854   20392467.176  
                
  21540446.172   115065240.744                    89495195.138    21540449.410  
  21540445.812  
  23708917.133   124591204.456    23708923.281    97084089.0904                 
                
  22147442.078   116385632.617    22147448.293    90690160.8734   22147448.094  
                
  23036579.836   121058056.426    23036586.375    94330986.6744   23036586.504  
                
  23845052.609   125306615.349    23845061.102    97641573.1004   23845061.609  
                
  22640744.250   120857866.413                    94000554.432    22640745.691  
  22640742.676  
  19640983.648   105139739.029                    81775369.400    19640987.375  
  19640982.668  
  20605064.289   108280395.611    20605072.559    84374395.7724   20605072.746  
                
  19515469.367   104211498.732                    81053464.272    19515471.543  
  19515467.648  
  21878347.219   116747072.291                    90803274.442    21878351.051  
  21878345.363  
 21  8 15 20 44 30.0000000  0 17G17G15R14R 4R21G13G14R12G20G 7G 5G 8
                                R22R 3G30R13R 2
  23557119.602   123793511.419    23557127.320    96462503.8064   23557127.141  
                
  23469770.516   123334477.084    23469777.066    96104819.6934   23469777.094  
                
  21853912.484   116493667.594                    90606177.533    21853916.543  
  21853912.195  
  21363360.891   114399851.170                    88977662.641    21363363.289  
  21363360.430  
  23535163.820   125941422.342                    97954438.853    23535165.820  
  23535162.023  
  21329389.852   112086746.154    21329395.965    87340333.8214                 
                
  20390460.320   107152624.348    20390467.094    83495591.2924   20390466.953  
                
  21545967.797   115094736.224                    89518136.064    21545971.051  
  21545967.453  
  23714360.789   124619810.997    23714366.930    97106379.8874                 
                
  22151301.562   116405914.387    22151307.773    90705964.8464   22151307.566  
                
  23039504.844   121073427.392    23039511.379    94342964.0524   23039511.469  
                
  23849227.836   125328556.347    23849236.324    97658669.9694   23849236.848  
                
  22637402.664   120840028.898                    93986680.815    22637404.227  
  22637401.094  
  19642984.906   105150451.954                    81783701.675    19642988.656  
  19642983.910  
  20606154.078   108286122.490    20606162.340    84378858.2734   20606162.543  
                
  19515950.008   104214065.321                    81055460.521    19515952.164  
  19515948.297  
  21886335.500   116789699.234                    90836428.753    21886339.281  
  21886333.652  
 21  8 15 20 44 40.0000000  0 17G17G15R14R 4R21G13G14R12G20G 7G 5G 8
                                R22R 3G30R13R 2
  23550806.891   123760338.521    23550814.684    96436654.8194   23550814.508  
                
  23463676.938   123302455.184    23463683.559    96079867.5814   23463683.559  
                
  21848820.820   116466526.142                    90585067.511    21848824.859  
  21848820.547  
  21357951.336   114370883.348                    88955132.126    21357953.754  
  21357950.875  
  23537619.344   125954562.347                    97964658.870    23537621.332  
  23537617.516  
  21325115.195   112064282.688    21325121.289    87322829.8234                 
                
  20388470.391   107142167.236    20388477.219    83487442.8944   20388477.051  
                
  21551491.805   115124244.430                    89541086.881    21551495.078  
  21551491.461  
  23719808.344   124648437.929    23719814.496    97128686.5694                 
                
  22155165.250   116426218.227    22155171.453    90721786.0024   22155171.258  
                
  23042440.156   121088852.443    23042446.688    94354983.5784   23042446.758  
                
  23853413.195   125350550.819    23853421.719    97675808.5274   23853422.277  
                
  22634075.188   120822266.584                    93972865.714    22634076.766  
  22634073.605  
  19645003.016   105161255.082                    81792104.093    19645006.801  
  19645001.984  
  20607250.242   108291882.899    20607258.500    84383346.9044   20607258.715  
                
  19516439.031   104216676.586                    81057491.504    19516441.168  
  19516437.332  
  21894329.836   116832357.945                    90869607.756    21894333.477  
  21894327.918  
 21  8 15 20 44 50.0000000  0 17G17G15R14R 4R21G13G14R12G20G 7G 5G 8
                                R22R 3G30R13R 2
  23544496.844   123727179.552    23544504.707    96410816.6864   23544504.531  
                
  23457589.133   123270463.572    23457595.789    96054939.0574   23457595.734  
                
  21843734.641   116439413.893                    90563980.210    21843738.691  
  21843734.367  
  21352553.852   114341980.056                    88932651.790    21352556.289  
  21352553.383  
  23540090.094   125967783.851                    97974942.287    23540092.074  
  23540088.223  
  21320848.523   112041861.201    21320854.609    87305358.5384                 
                
  20386490.773   107131764.332    20386497.641    83479336.7414   20386497.457  
                
  21557018.172   115153765.202                    89564047.480    21557021.438  
  21557017.859  
  23725259.766   124677085.070    23725265.922    97151008.9984                 
                
  22159033.125   116446544.055    22159039.309    90737624.3024   22159039.121  
                
  23045385.688   121104331.292    23045392.195    94367045.0174   23045392.270  
                
  23857608.711   125372598.514    23857617.246    97692988.5434   23857617.832  
                
  22630761.852   120804579.531                    93959109.081    22630763.277  
  22630760.234  
  19647037.891   105172147.925                    81800576.307    19647041.680  
  19647036.824  
  20608352.773   108297676.761    20608361.027    84387861.6024   20608361.254  
                
  19516936.320   104219332.033                    81059556.850    19516938.441  
  19516934.629  
  21902330.078   116875048.596                    90902811.588    21902333.691  
  21902328.137  
 21  8 15 20 45  0.0000000  0 17G17G15R14R 4R21G13G14R12G20G 7G 5G 8
                                R22R 3G30R13R 2
  23538189.570   123694035.007    23538197.508    96384989.7694   23538197.320  
                
  23451507.125   123238502.524    23451513.777    96030034.3664   23451513.711  
                
  21838653.969   116412331.112                    90542915.823    21838658.059  
  21838653.703  
  21347168.461   114313141.514                    88910221.822    21347170.895  
  21347167.973  
  23542576.125   125981087.106                    97985289.263    23542578.090  
  23542574.277  
  21316589.922   112019482.088    21316596.016    87287920.2724                 
                
  20384521.531   107121415.960    20384528.430    83471273.0814   20384528.230  
                
  21562546.922   115183298.805                    89587018.068    21562550.191  
  21562546.633  
  23730715.016   124705752.595    23730721.195    97173347.3164                 
                
  22162905.234   116466892.154    22162911.395    90753479.9704   22162911.234  
                
  23048341.516   121119864.199    23048347.980    94379148.5884   23048348.070  
                
  23861814.359   125394699.485    23861822.879    97710210.0824   23861823.492  
                
  22627462.727   120786968.337                    93945411.459    22627463.984  
  22627461.047  
  19649089.594   105183130.878                    81809118.593    19649093.410  
  19649088.504  
  20609461.734   108303504.388    20609469.980    84392402.6134   20609470.215  
                
  19517441.938   104222032.040                    81061656.866    19517444.070  
  19517440.234  
  21910336.211   116917770.704                    90936039.855    21910339.828  
  21910334.230  
 21  8 15 20 45 10.0000000  0 17G17G15R14R 4R21G13G14R12G20G 7G 5G 8
                                R22R 3G30R13R 2
  23531885.094   123660904.648    23531893.020    96359173.9224   23531892.832  
                
  23445430.891   123206571.895    23445437.504    96005153.3834   23445437.461  
                
  21833578.805   116385277.618                    90521874.215    21833582.930  
  21833578.539  
  21341795.148   114284367.716                    88887842.196    21341797.590  
  21341794.660  
  23545077.336   125994471.524                    97995699.352    23545079.324  
  23545075.488  
  21312339.344   111997145.123    21312345.453    87270514.8594                 
                
  20382562.609   107111121.774    20382569.520    83463251.6374   20382569.320  
                
  21568077.984   115212844.746                    89609998.237    21568081.246  
  21568077.688  
  23736174.102   124734440.032    23736180.234    97195701.1634                 
                
  22166781.508   116487262.136    22166787.648    90769352.6654   22166787.508  
                
  23051307.531   121135450.655    23051313.965    94391293.8724   23051314.047  
                
  23866030.117   125416853.498    23866038.629    97727472.9544   23866039.270  
                
  22624177.641   120769432.540                    93931772.526    22624178.855  
  22624175.949  
  19651158.055   105194203.516                    81817730.640    19651161.898  
  19651156.953  
  20610577.062   108309365.422    20610585.309    84396969.6534   20610585.555  
                
  19517955.867   104224776.356                    81063791.347    19517957.992  
  19517954.148  
  21918348.289   116960524.252                    90969292.591    21918351.895  
  21918346.230  
 21  8 15 20 45 20.0000000  0 17G17G15R14R 4R21G13G14R12G20G 7G 5G 8
                                R22R 3G30R13R 2
  23525583.391   123627788.715    23525591.281    96333369.3084   23525591.090  
                
  23439360.477   123174671.774    23439367.031    95980296.1454   23439367.008  
                
  21828509.141   116358253.366                    90500855.359    21828513.305  
  21828508.875  
  21336433.977   114255658.871                    88865513.087    21336436.406  
  21336433.484  
  23547593.758   126007937.304                    98006172.738    23547595.738  
  23547591.941  
  21308096.812   111974850.492    21308102.902    87253142.4124                 
                
  20380614.016   107100881.876    20380620.934    83455272.4934   20380620.727  
                
  21573611.375   115242403.140                    89632988.106    21573614.625  
  21573611.055  
  23741636.953   124763147.387    23741643.027    97218070.5274                 
                
  22170661.992   116507654.180    22170668.109    90785242.5704   22170668.004  
                
  23054283.734   121151090.651    23054290.145    94403480.8894   23054290.215  
                
  23870255.945   125439060.429    23870264.473    97744777.0594   23870265.121  
                
  22620906.727   120751972.373                    93918192.412    22620907.918  
  22620905.027  
  19653243.297   105205366.002                    81826412.554    19653247.152  
  19653242.195  
  20611698.758   108315259.978    20611707.000    84401562.8104   20611707.242  
                
  19518478.016   104227564.577                    81065959.955    19518480.121  
  19518476.285  
  21926366.312   117003309.245                    91002569.817    21926369.848  
  21926364.172  
 21  8 15 20 45 30.0000000  0 17G17G15R14R 4R21G13G14R12G20G 7G 5G 8
                                R22R 3G30R13R 2
  23519284.469   123594687.425    23519292.312    96307576.1084   23519292.082  
                
  23433295.867   123142802.345    23433302.418    95955462.8574   23433302.395  
                
  21823445.016   116331258.755                    90479859.564    21823449.230  
  21823444.758  
  21331084.984   114227015.230                    88843234.705    21331087.398  
  21331084.480  
  23550125.383   126021484.506                    98016709.435    23550127.336  
  23550123.586  
  21303862.406   111952598.559    21303868.477    87235803.2464                 
                
  20378675.781   107090696.423    20378682.703    83447335.7874   20378682.496  
                
  21579147.133   115271974.142                    89655987.773    21579150.375  
  21579146.824  
  23747103.617   124791874.745    23747109.602    97240455.4714                 
                
  22174546.703   116528068.411    22174552.809    90801149.7604   22174552.738  
                
  23057270.156   121166784.431    23057276.582    94415709.7964   23057276.602  
                
  23874491.891   125461320.479    23874500.426    97762122.5514   23874501.094  
                
  22617650.070   120734588.313                    93904671.502    22617651.293  
  22617648.461  
  19655345.336   105216618.359                    81835164.392    19655349.211  
  19655344.250  
  20612826.867   108321188.233    20612835.098    84406182.2324   20612835.352  
                
  19519008.445   104230397.047                    81068163.002    19519010.543  
  19519006.707  
  21934390.188   117046125.341                    91035871.220    21934393.598  
  21934387.938  
 21  8 15 20 45 40.0000000  0 17G17G15R14R 4R21G13G14R12G20G 7G 5G 8
                                R22R 3G30R13R 2
  23512988.367   123561600.692    23512996.086    96281794.2454   23512995.840  
                
  23427237.141   123110963.660    23427243.672    95930653.5194   23427243.629  
                
  21818386.406   116304293.543                    90458886.622    21818390.645  
  21818386.141  
  21325748.141   114198436.754                    88821007.016    21325750.531  
  21325747.590  
  23552672.172   126035112.881                    98027309.293    23552674.117  
  23552670.414  
  21299636.133   111930389.344    21299642.188    87218497.3694                 
                
  20376747.875   107080565.244    20376754.809    83439441.3724   20376754.602  
                
  21584685.195   115301557.456                    89678996.996    21584688.414  
  21584684.891  
  23752574.008   124820621.752    23752579.961    97262855.7364                 
                
  22178435.578   116548504.562    22178441.688    90817074.0314   22178441.621  
                
  23060266.766   121182531.707    23060273.227    94427980.3994   23060273.223  
                
  23878737.922   125483633.565    23878746.465    97779509.3824   23878747.152  
                
  22614407.719   120717280.285                    93891209.684    22614408.953  
  22614406.094  
  19657464.133   105227960.456                    81843986.015    19657468.023  
  19657463.055  
  20613961.359   108327149.973    20613969.586    84410827.7454   20613969.844  
                
  19519547.141   104233273.668                    81070400.381    19519549.258  
  19519545.422  
  21942419.781   117088972.555                    91069196.826    21942423.191  
  21942417.496  
 21  8 15 20 45 50.0000000  0 17G17G15R14R 4R21G13G14R12G20G 7G 5G 8
                                R22R 3G30R13R 2
  23506695.094   123528528.652    23506702.625    96256023.8194   23506702.398  
                
  23421184.312   123079155.858    23421190.820    95905868.2274   23421190.777  
                
  21813333.281   116277357.564                    90437936.420    21813337.539  
  21813333.004  
  21320423.500   114169923.555                    88798830.075    21320425.891  
  21320422.934  
  23555234.125   126048822.439                    98037972.290    23555236.098  
  23555232.359  
  21295417.938   111908222.582    21295423.988    87201224.5744                 
                
  20374830.289   107070488.327    20374837.227    83431589.2324   20374837.008  
                
  21590225.555   115331153.018                    89702015.781    21590228.770  
  21590225.234  
  23758048.164   124849388.282    23758054.070    97285271.1944                 
                
  22182328.648   116568962.723    22182334.746    90833015.4484   22182334.699  
                
  23063273.539   121198332.376    23063280.035    94440292.6034   23063280.023  
                
  23882993.969   125505999.322    23883002.535    97796937.2294   23883003.242  
                
  22611179.477   120700048.051                    93877806.866    22611180.797  
  22611177.906  
  19659599.664   105239392.102                    81852877.288    19659603.551  
  19659598.582  
  20615102.219   108333145.208    20615110.445    84415499.3574   20615110.703  
                
  19520094.141   104236194.613                    81072672.228    19520096.254  
  19520092.402  
  21950455.117   117131850.737                    91102546.490    21950458.535  
  21950452.816  
 21  8 15 20 46  0.0000000  0 17G17G15R14R 4R21G13G14R12G20G 7G 5G 8
                                R22R 3G30R13R 2
  23500404.648   123495471.496    23500411.988    96230264.9904   23500411.805  
                
  23415137.391   123047379.096    23415143.906    95881107.1404   23415143.840  
                
  21808285.672   116250450.999                    90417009.108    21808289.934  
  21808285.402  
  21315111.078   114141475.810                    88776704.059    21315113.477  
  21315110.520  
  23557811.219   126062613.081                    98048698.357    23557813.246  
  23557809.395  
  21291207.852   111886098.441    21291213.875    87183984.9844                 
                
  20372923.055   107060465.749    20372929.973    83423779.4434   20372929.750  
                
  21595768.203   115360760.882                    89725044.124    21595771.453  
  21595767.863  
  23763525.930   124878174.327    23763531.938    97307701.8564                 
                
  22186225.914   116589442.945    22186232.004    90848974.0594   22186231.980  
                
  23066290.484   121214186.455    23066296.996    94452646.4394   23066296.945  
                
  23887260.062   125528417.794    23887268.660    97814406.1834   23887269.379  
                
  22607965.641   120682892.142                    93864463.401    22607967.020  
  22607964.043  
  19661751.945   105250913.392                    81861838.289    19661755.824  
  19661750.875  
  20616249.469   108339173.998    20616257.699    84420197.1124   20616257.957  
                
  19520649.391   104239159.606                    81074978.326    19520651.492  
  19520647.633  
  21958496.219   117174760.069                    91135920.421    21958499.715  
  21958494.000  
 21  8 15 20 46 10.0000000  0 17G17G15R14R 4R21G13G14R12G20G 7G 5G 8
                                R22R 3G30R13R 2
  23494117.031   123462429.382    23494124.238    96204517.8904   23494124.082  
                
  23409096.406   123015633.568    23409102.906    95856370.3804   23409102.875  
                
  21803243.641   116223574.137                    90396104.894    21803247.910  
  21803243.352  
  21309810.969   114113093.992                    88754629.318    21309813.367  
  21309810.410  
  23560403.477   126076484.846                    98059487.522    23560405.531  
  23560401.605  
  21287005.914   111864017.161    21287011.902    87166778.7934                 
                
  20371026.180   107050497.642    20371033.051    83416012.0924   20371032.855  
                
  21601313.148   115390381.000                    89748081.983    21601316.402  
  21601312.789  
  23769007.438   124906979.905    23769013.480    97330147.7204                 
                
  22190127.398   116609945.305    22190133.527    90864949.9114   22190133.473  
                
  23069317.570   121230093.876    23069324.086    94465041.8184   23069324.055  
                
  23891536.164   125550888.869    23891544.793    97831916.1084   23891545.516  
                
  22604766.078   120665812.629                    93851179.358    22604767.625  
  22604764.473  
  19663920.969   105262524.328                    81870869.004    19663924.836  
  19663919.906  
  20617403.125   108345236.481    20617411.359    84424921.1294   20617411.605  
                
  19521212.906   104242168.809                    81077318.824    19521215.020  
  19521211.148  
  21966542.898   117217699.322                    91169317.617    21966546.496  
  21966540.797  
 21  8 15 20 46 20.0000000  0 17G17G15R14R 4R21G13G14R12G20G 7G 5G 8
                                R22R 3G30R13R 2
  23487832.195   123429402.481    23487839.418    96178782.6474   23487839.262  
                
  23403061.375   122983919.278    23403067.801    95831657.9574   23403067.816  
                
  21798207.102   116196726.681                    90375223.562    21798211.367  
  21798206.777  
  21304523.156   114084777.972                    88732605.734    21304525.531  
  21304522.598  
  23563010.883   126090437.689                    98070339.703    23563012.934  
  23563008.988  
  21282812.156   111841978.786    21282818.121    87149606.0434                 
                
  20369139.656   107040583.930    20369146.465    83408287.1254   20369146.293  
                
  21606860.391   115420013.327                    89771129.355    21606863.660  
  21606860.008  
  23774492.617   124935804.786    23774498.688    97352608.6794                 
                
  22194033.070   116630469.716    22194039.246    90880942.9524   22194039.160  
                
  23072354.773   121246054.432    23072361.289    94477478.6214   23072361.270  
                
  23895822.266   125573412.560    23895830.926    97849467.0504   23895831.641  
                
  22601580.859   120648809.663                    93837954.815    22601582.512  
  22601579.238  
  19666106.758   105274224.953                    81879969.495    19666110.609  
  19666105.719  
  20618563.180   108351332.580    20618571.422    84429671.3354   20618571.652  
                
  19521784.688   104245222.100                    81079693.613    19521786.797  
  19521782.918  
  21974595.406   117260669.499                    91202738.878    21974599.074  
  21974593.387  
 21  8 15 20 46 30.0000000  0 17G17G15R14R 4R21G13G14R12G20G 7G 5G 8
                                R22R 3G30R13R 2
  23481550.266   123396390.801    23481557.516    96153059.2824   23481557.359  
                
  23397032.305   122952236.286    23397038.664    95806969.9194   23397038.715  
                
  21793176.109   116169908.682                    90354365.126    21793180.344  
  21793175.789  
  21299247.648   114056527.889                    88710633.442    21299250.027  
  21299247.082  
  23565633.414   126104471.410                    98081254.816    23565635.480  
  23565631.508  
  21278626.594   111819983.506    21278632.539    87132466.8624                 
                
  20367263.484   107030724.587    20367270.219    83400604.5304   20367270.090  
                
  21612409.883   115449657.744                    89794186.095    21612413.152  
  21612409.504  
  23779981.445   124964648.881    23779987.523    97375084.5954                 
                
  22197942.953   116651016.182    22197949.137    90896953.1794   22197949.059  
                
  23075402.078   121262068.076    23075408.609    94489956.7934   23075408.605  
                
  23900118.344   125595988.682    23900126.992    97867058.8134   23900127.711  
                
  22598410.055   120631883.397                    93824789.926    22598411.715  
  22598408.383  
  19668309.266   105286015.076                    81889139.576    19668313.113  
  19668308.246  
  20619729.625   108357462.260    20619737.879    84434447.7074   20619738.098  
                
  19522364.664   104248319.081                    81082102.377    19522366.742  
  19522362.883  
  21982653.648   117303669.948                    91236183.676    21982657.336  
  21982651.695  
 21  8 15 20 46 40.0000000  0 17G17G15R14R 4R21G13G14R12G20G 7G 5G 8
                                R22R 3G30R13R 2
  23475271.203   123363394.250    23475278.504    96127347.7114   23475278.340  
                
  23391009.164   122920584.507    23391015.469    95782306.1934   23391015.535  
                
  21788150.633   116143120.100                    90333529.564    21788154.805  
  21788150.285  
  21293984.453   114028343.698                    88688712.394    21293986.828  
  21293983.887  
  23568271.039   126118585.897                    98092232.764    23568273.141  
  23568269.121  
  21274449.164   111798031.051    21274455.094    87115361.0584                 
                
  20365397.625   107020919.426    20365404.281    83392964.1444   20365404.188  
                
  21617961.617   115479314.055                    89817252.134    21617964.871  
  21617961.266  
  23785473.883   124993511.825    23785479.988    97397575.1784                 
                
  22201856.984   116671584.476    22201863.176    90912980.4154   22201863.094  
                
  23078459.453   121278134.657    23078466.012    94502476.1974   23078465.988  
                
  23904424.352   125618616.977    23904432.965    97884691.2594   23904433.727  
                
  22595253.484   120615033.690                    93811684.595    22595255.227  
  22595251.812  
  19670528.438   105297894.455                    81898379.097    19670532.281  
  19670527.426  
  20620902.430   108363625.354    20620910.699    84439250.1194   20620910.918  
                
  19522952.805   104251459.784                    81084545.153    19522954.887  
  19522951.031  
  21990717.586   117346700.404                    91269651.801    21990721.219  
  21990715.633  
 21  8 15 20 46 50.0000000  0 17G17G15R14R 4R21G13G14R12G20G 7G 5G 8
                                R22R 3G30R13R 2
  23468995.133   123330413.273    23469002.465    96101648.2664   23469002.297  
                
  23384992.047   122888964.391    23384998.340    95757667.1654   23384998.406  
                
  21783130.711   116116361.106                    90312716.983    21783134.805  
  21783130.352  
  21288733.648   114000225.891                    88666842.986    21288736.000  
  21288733.086  
  23570923.781   126132781.231                    98103273.599    23570925.930  
  23570921.832  
  21270279.984   111776121.854    21270285.898    87098288.9574                 
                
  20363542.133   107011168.752    20363548.719    83385366.2244   20363548.656  
                
  21623515.609   115508982.482                    89840327.572    21623518.863  
  21623515.254  
  23790969.906   125022393.901    23790976.059    97420080.6814                 
                
  22205775.188   116692174.693    22205781.398    90929024.7344   22205781.301  
                
  23081526.938   121294254.344    23081533.559    94515037.0054   23081533.520  
                
  23908740.359   125641297.690    23908748.949    97902364.5584   23908749.742  
                
  22592111.344   120598260.835                    93798639.060    22592113.117  
  22592109.711  
  19672764.352   105309863.417                    81907688.286    19672768.188  
  19672763.336  
  20622081.641   108369822.128    20622089.922    84444078.7744   20622090.125  
                
  19523549.195   104254644.469                    81087022.134    19523551.277  
  19523547.426  
  21998787.164   117389761.162                    91303143.490    21998790.809  
  21998785.223  
 21  8 15 20 47  0.0000000  0 17G17G15R14R 4R21G13G14R12G20G 7G 5G 8
                                R22R 3G30R13R 2
  23462721.961   123297447.631    23462729.332    96075960.7784   23462729.176  
                
  23378980.867   122857375.614    23378987.195    95733052.5534   23378987.258  
                
  21778116.281   116089631.575                    90291927.370    21778120.375  
  21778115.914  
  21283495.219   113972174.291                    88645025.078    21283497.547  
  21283494.668  
  23573591.602   126147057.207                    98114377.098    23573593.750  
  23573589.656  
  21266118.992   111754255.750    21266124.906    87081250.4314                 
                
  20361696.953   107001472.289    20361703.488    83377810.5474   20361703.449  
                
  21629071.805   115538662.655                    89863412.145    21629075.035  
  21629071.449  
  23796469.445   125051294.585    23796475.602    97442600.6844                 
                
  22209697.570   116712786.883    22209703.773    90945086.1744   22209703.668  
                
  23084604.422   121310426.599    23084611.078    94527638.7494   23084611.051  
                
  23913066.297   125664030.659    23913074.848    97920078.5634   23913075.676  
                
  22588983.609   120581564.760                    93785653.211    22588985.395  
  22588981.957  
  19675016.914   105321921.501                    81917066.789    19675020.730  
  19675015.902  
  20623267.219   108376052.364    20623275.508    84448933.4994   20623275.707  
                
  19524153.742   104257872.726                    81089533.007    19524155.816  
  19524151.957  
  22006862.375   117432851.806                    91336658.429    22006865.992  
  22006860.402  
 21  8 15 20 47 10.0000000  0 17G17G15R14R 4R21G13G14R12G20G 7G 5G 8
                                R22R 3G30R13R 2
  23456451.727   123264497.729    23456459.227    96050285.5544   23456459.043  
                
  23372975.734   122825818.623    23372982.133    95708462.7254   23372982.184  
                
  21773107.430   116062931.611                    90271160.761    21773111.512  
  21773107.078  
  21278269.211   113944189.251                    88623258.942    21278271.551  
  21278268.652  
  23576274.516   126161413.937                    98125543.459    23576276.652  
  23576272.594  
  21261966.281   111732433.109    21261972.207    87064245.7904                 
                
  20359862.148   106991830.311    20359868.641    83370297.3194   20359868.605  
                
  21634630.250   115568354.854                    89886506.067    21634633.477  
  21634629.887  
  23801972.594   125080214.086    23801978.750    97465135.3334                 
                
  22213624.172   116733421.275    22213630.328    90961164.9254   22213630.246  
                
  23087691.945   121326651.590    23087698.609    94540281.6024   23087698.629  
                
  23917402.172   125686815.832    23917410.730    97937833.2494   23917411.578  
                
  22585870.297   120564945.893                    93772727.434    22585872.188  
  22585868.676  
  19677286.156   105334068.960                    81926514.804    19677289.973  
  19677285.148  
  20624459.195   108382316.264    20624467.488    84453814.4644   20624467.684  
                
  19524766.469   104261144.701                    81092077.868    19524768.531  
  19524764.691  
  22014943.219   117475972.252                    91370196.536    22014946.793  
  22014941.172  
 21  8 15 20 47 20.0000000  0 17G17G15R14R 4R21G13G14R12G20G 7G 5G 8
                                R22R 3G30R13R 2
  23450184.523   123231563.596    23450192.117    96024622.6354   23450191.945  
                
  23366976.680   122794293.427    23366983.117    95683897.6484   23366983.176  
                
  21768104.148   116036261.256                    90250417.137    21768108.188  
  21768103.824  
  21273055.656   113916270.892                    88601544.667    21273058.008  
  21273055.086  
  23578972.484   126175851.264                    98136772.491    23578974.637  
  23578970.578  
  21257821.844   111710653.942    21257827.789    87047275.0164                 
                
  20358037.688   106982242.707    20358044.133    83362826.4734   20358044.105  
                
  21640190.914   115598058.869                    89909609.206    21640194.117  
  21640190.543  
  23807479.352   125109152.199    23807485.527    97487684.5144                 
                
  22217554.961   116754077.627    22217561.078    90977260.7884   22217561.008  
                
  23090789.492   121342929.246    23090796.160    94552965.4914   23090796.203  
                
  23921747.969   125709653.180    23921756.520    97955628.5994   23921757.406  
                
  22582771.539   120548404.163                    93759861.662    22582773.445  
  22582769.840  
  19679572.109   105346305.816                    81936032.349    19679575.910  
  19679571.098  
  20625657.578   108388613.786    20625665.871    84458721.6254   20625666.070  
                
  19525387.391   104264460.429                    81094656.771    19525389.461  
  19525385.621  
  22023029.523   117519122.121                    91403757.539    22023033.074  
  22023027.461  
 21  8 15 20 47 30.0000000  0 17G17G15R14R 4R21G13G14R12G20G 7G 5G 8
                                R22R 3G30R13R 2
  23443920.422   123198645.214    23443927.973    95998971.9664   23443927.801  
                
  23360983.617   122762799.811    23360990.113    95659357.1834   23360990.148  
                
  21763106.383   116009620.269                    90229696.369    21763110.410  
  21763106.086  
  21267854.555   113888419.229                    88579882.259    21267856.906  
  21267853.965  
  23581685.453   126190368.937                    98148064.037    23581687.641  
  23581683.570  
  21253685.648   111688918.109    21253691.602    87030338.0074                 
                
  20356223.547   106972709.297    20356229.938    83355397.8434   20356229.926  
                
  21645753.734   115627774.470                    89932721.321    21645756.934  
  21645753.348  
  23812989.602   125138108.562    23812995.727    97510247.9014                 
                
  22221489.875   116774755.682    22221495.969    90993373.5554   22221495.898  
                
  23093897.008   121359259.349    23093903.703    94565690.2254   23093903.770  
                
  23926103.656   125732542.438    23926112.133    97973464.3914   23926113.086  
                
  22579687.172   120531939.524                    93747055.850    22579689.078  
  22579685.488  
  19681874.688   105358631.665                    81945619.112    19681878.484  
  19681873.668  
  20626862.320   108394944.716    20626870.617    84463654.8174   20626870.812  
                
  19526016.484   104267819.759                    81097269.580    19526018.570  
  19526014.707  
  22031121.352   117562301.312                    91437341.342    22031124.844  
  22031119.234  
 21  8 15 20 47 40.0000000  0 17G17G15R14R 4R21G13G14R12G20G 7G 5G 8
                                R22R 3G30R13R 2
  23437659.359   123165742.853    23437666.840    95973333.7574   23437666.672  
                
  23354996.656   122731338.213    23355003.188    95634841.6724   23355003.211  
                
  21758114.172   115983008.979                    90208998.710    21758118.211  
  21758113.918  
  21262665.938   113860634.451                    88558271.884    21262668.289  
  21262665.320  
  23584413.477   126204967.188                    98159418.235    23584415.664  
  23584411.582  
  21249557.781   111667225.989    21249563.762    87013435.0624                 
                
  20354419.766   106963230.330    20354426.094    83348011.6364   20354426.102  
                
  21651318.758   115657501.797                    89955842.582    21651321.953  
  21651318.367  
  23818503.391   125167083.332    23818509.438    97532825.6414                 
                
  22225428.977   116795455.745    22225435.066    91009503.4744   22225434.992  
                
  23097014.531   121375642.060    23097021.258    94578455.9734   23097021.316  
                
  23930469.195   125755483.437    23930477.605    97991340.5044   23930478.605  
                
  22576617.234   120515552.156                    93734310.129    22576619.207  
  22576615.578  
  19684193.953   105371046.801                    81955275.327    19684197.727  
  19684192.930  
  20628073.461   108401309.276    20628081.773    84468614.2164   20628081.961  
                
  19526653.750   104271222.734                    81099916.348    19526655.855  
  19526651.988  
  22039218.523   117605509.797                    91470947.940    22039222.113  
  22039216.484  
 21  8 15 20 47 50.0000000  0 17G17G15R14R 4R21G13G14R12G20G 7G 5G 8
                                R22R 3G30R13R 2
  23431401.328   123132856.466    23431408.738    95947708.0014   23431408.566  
                
  23349015.805   122699908.722    23349022.324    95610351.1814   23349022.344  
                
  21753127.508   115956427.235                    90188324.017    21753131.547  
  21753127.273  
  21257489.828   113832916.641                    88536713.589    21257492.148  
  21257489.176  
  23587156.508   126219645.736                    98170834.891    23587158.707  
  23587154.594  
  21245438.195   111645577.423    21245444.207    86996566.0514                 
                
  20352626.320   106953805.689    20352632.582    83340667.7614   20352632.613  
                
  21656885.945   115687240.728                    89978972.843    21656889.137  
  21656885.527  
  23824020.586   125196076.298    23824026.617    97555417.5634                 
                
  22229372.250   116816177.752    22229378.348    91025650.4804   22229378.254  
                
  23100142.008   121392077.100    23100148.742    94591262.4834   23100148.816  
                
  23934844.594   125778476.331    23934852.996    98009257.0434   23934854.031  
                
  22573561.867   120499242.347                    93721624.716    22573563.773  
  22573560.223  
  19686529.836   105383550.906                    81965000.737    19686533.578  
  19686528.832  
  20629290.977   108407707.403    20629299.309    84473599.7634   20629299.488  
                
  19527299.133   104274669.103                    81102596.860    19527301.258  
  19527297.363  
  22047321.242   117648747.340                    91504577.123    22047324.805  
  22047319.164  
 21  8 15 20 48  0.0000000  0 17G17G15R14R 4R21G13G14R12G20G 7G 5G 8
                                R22R 3G30R13R 2
  23425146.453   123099986.273    23425153.699    95922094.8704   23425153.523  
                
  23343041.094   122668511.393    23343047.539    95585885.7304   23343047.559  
                
  21748146.391   115929875.070                    90167672.351    21748150.453  
  21748146.148  
  21252326.258   113805265.995                    88515207.533    21252328.582  
  21252325.602  
  23589914.547   126234404.539                    98182313.961    23589916.691  
  23589912.633  
  21241326.906   111623972.452    21241332.930    86979731.0084                 
                
  20350843.203   106944435.331    20350849.398    83333366.1914   20350849.461  
                
  21662455.305   115716991.217                    90002112.110    21662458.492  
  21662454.883  
  23829541.266   125225087.290    23829547.250    97578023.5294                 
                
  22233319.719   116836921.802    22233325.812    91041814.6694   22233325.723  
                
  23103279.430   121408564.376    23103286.160    94604109.7114   23103286.207  
                
  23939229.805   125801520.762    23939238.234    98027213.7474   23939239.277  
                
  22570520.930   120483010.046                    93708999.567    22570522.777  
  22570519.328  
  19688882.336   105396143.939                    81974795.319    19688886.062  
  19688881.355  
  20630514.867   108414139.013    20630523.211    84478611.4114   20630523.383  
                
  19527952.664   104278158.946                    81105311.177    19527954.805  
  19527950.887  
  22055429.445   117692014.172                    91538229.108    22055432.988  
  22055427.340  
 21  8 15 20 48 10.0000000  0 17G17G15R14R 4R21G13G14R12G20G 7G 5G 8
                                R22R 3G30R13R 2
  23418894.727   123067132.349    23418901.746    95896494.4054   23418901.555  
                
  23337072.500   122637146.193    23337078.895    95561445.3134   23337078.879  
                
  21743170.812   115903352.439                    90147043.652    21743174.914  
  21743170.551  
  21247175.242   113777682.565                    88493753.756    21247177.574  
  21247174.570  
  23592687.547   126249243.460                    98193855.365    23592689.719  
  23592685.637  
  21237223.938   111602411.220    21237229.980    86962930.0564                 
                
  20349070.422   106935119.267    20349076.570    83326106.9224   20349076.656  
                
  21668026.812   115746753.212                    90025260.317    21668030.004  
  21668026.359  
  23835065.359   125254116.232    23835071.324    97600643.4854                 
                
  22237271.352   116857687.681    22237277.441    91057995.8894   22237277.359  
                
  23106426.766   121425103.702    23106433.504    94616997.5024   23106433.520  
                
  23943624.844   125824616.778    23943633.289    98045210.6454   23943634.332  
                
  22567494.531   120466855.430                    93696434.897    22567496.395  
  22567492.984  
  19691251.445   105408825.909                    81984659.075    19691255.168  
  19691250.480  
  20631745.133   108420604.133    20631753.492    84483649.1644   20631753.664  
                
  19528614.320   104281692.220                    81108059.299    19528616.461  
  19528612.543  
  22063543.039   117735309.652                    91571903.357    22063546.555  
  22063540.891  
 21  8 15 20 48 20.0000000  0 17G17G15R14R 4R21G13G14R12G20G 7G 5G 8
                                R22R 3G30R13R 2
  23412646.086   123034294.802    23412652.914    95870906.7104   23412652.711  
                
  23331110.055   122605813.322    23331116.383    95537030.0924   23331116.359  
                
  21738200.766   115876859.270                    90126437.870    21738204.902  
  21738200.504  
  21242036.812   113750166.551                    88472352.401    21242039.145  
  21242036.133  
  23595475.516   126264162.435                    98205458.983    23595477.645  
  23595473.602  
  21233129.320   111580893.874    21233135.367    86946163.2934                 
                
  20347307.977   106925857.518    20347314.086    83318889.9864   20347314.184  
                
  21673600.461   115776526.534                    90048417.327    21673603.613  
  21673600.008  
  23840592.812   125283163.057    23840598.773    97623277.3554                 
                
  22241227.148   116878475.517    22241233.230    91074194.1894   22241233.121  
                
  23109583.992   121441695.099    23109590.742    94629925.8524   23109590.809  
                
  23948029.688   125847764.346    23948038.156    98063247.7234   23948039.203  
                
  22564482.742   120450778.466                    93683930.617    22564484.668  
  22564481.176  
  19693637.164   105421596.821                    81994591.998    19693640.895  
  19693636.184  
  20632981.789   108427102.799    20632990.156    84488713.0574   20632990.332  
                
  19529284.117   104285268.974                    81110841.209    19529286.266  
  19529282.344  
  22071661.961   117778633.907                    91605599.981    22071665.523  
  22071659.805  
 21  8 15 20 48 30.0000000  0 17G17G15R14R 4R21G13G14R12G20G 7G 5G 8
                                R22R 3G30R13R 2
  23406400.523   123001474.017    23406407.293    95845332.0724   23406407.090  
                
  23325153.836   122574513.201    23325160.160    95512640.3924   23325160.117  
                
  21733236.367   115850396.181                    90105855.480    21733240.531  
  21733236.102  
  21236911.055   113722718.379                    88451003.816    21236913.398  
  21236910.379  
  23598278.531   126279161.926                    98217125.260    23598280.633  
  23598276.559  
  21229043.125   111559420.751    21229049.180    86929430.9974                 
                
  20345555.930   106916650.426    20345562.004    83311715.6244   20345562.113  
                
  21679176.281   115806311.531                    90071583.454    21679179.434  
  21679175.844  
  23846123.641   125312227.908    23846129.633    97645925.2754                 
                
  22245187.180   116899285.580    22245193.234    91090409.8204   22245193.152  
                
  23112751.195   121458338.818    23112757.934    94642894.9974   23112758.016  
                
  23952444.359   125870963.614    23952452.867    98081325.0834   23952453.926  
                
  22561485.695   120434779.608                    93671487.047    22561487.535  
  22561484.051  
  19696039.523   105434456.846                    82004594.232    19696043.258  
  19696038.539  
  20634224.883   108433635.317    20634233.258    84493803.3294   20634233.426  
                
  19529962.070   104288889.198                    81113656.941    19529964.238  
  19529960.301  
  22079786.352   117821987.224                    91639319.220    22079789.910  
  22079784.191  
 21  8 15 20 48 40.0000000  0 17G17G15R14R 4R21G13G14R12G20G 7G 5G 8
                                R22R 3G30R13R 2
  23400157.977   122968669.763    23400164.844    95819770.3144   23400164.637  
                
  23319203.781   122543245.529    23319210.141    95488275.9854   23319210.055  
                
  21728277.477   115823962.558                    90085296.000    21728281.625  
  21728277.191  
  21231797.922   113695337.845                    88429707.843    21231800.297  
  21231797.230  
  23601096.453   126294241.268                    98228853.647    23601098.578  
  23601094.445  
  21224965.312   111537991.709    21224971.379    86912733.0454                 
                
  20343814.195   106907497.566    20343820.246    83304583.5314   20343820.344  
                
  21684754.203   115836107.764                    90094758.291    21684757.348  
  21684753.766  
  23851657.820   125341310.285    23851663.844    97668586.8654                 
                
  22249151.352   116920117.461    22249157.379    91106642.4604   22249157.324  
                
  23115928.258   121475034.431    23115934.973    94655904.5414   23115935.082  
                
  23956868.805   125894214.221    23956877.352    98099442.4304   23956878.402  
                
  22558503.125   120418858.776                    93659104.188    22558504.941  
  22558501.469  
  19698458.477   105447405.753                    82014665.599    19698462.238  
  19698457.469  
  20635474.336   108440201.311    20635482.711    84498919.6884   20635482.887  
                
  19530648.109   104292552.624                    81116506.271    19530650.270  
  19530646.340  
  22087915.953   117865368.568                    91673060.260    22087919.527  
  22087913.824  
 21  8 15 20 48 50.0000000  0 17G17G15R14R 4R21G13G14R12G20G 7G 5G 8
                                R22R 3G30R13R 2
  23393918.656   122935882.298    23393925.629    95794221.6584   23393925.406  
                
  23313259.961   122512010.542    23313266.328    95463937.0434   23313266.230  
                
  21723324.180   115797558.702                    90064759.683    21723328.305  
  21723323.891  
  21226697.477   113668025.229                    88408464.708    21226699.891  
  21226696.781  
  23603929.305   126309400.522                    98240644.186    23603931.438  
  23603927.297  
  21220895.930   111516606.963    21220902.004    86896069.6084                 
                
  20342082.836   106898399.123    20342088.863    83297493.8404   20342088.965  
                
  21690334.258   115865915.365                    90117941.984    21690337.422  
  21690333.816  
  23857195.406   125370410.189    23857201.352    97691262.1134                 
                
  22253119.703   116940971.269    22253125.723    91122892.1714   22253125.688  
                
  23119115.219   121491781.945    23119121.941    94668954.5534   23119122.066  
                
  23961303.055   125917516.307    23961311.613    98117599.8984   23961312.664  
                
  22555535.219   120403016.053                    93646782.095    22555537.094  
  22555533.566  
  19700894.008   105460443.349                    82024805.942    19700897.793  
  19700892.988  
  20636730.211   108446800.937    20636738.578    84504062.2534   20636738.754  
                
  19531342.297   104296259.542                    81119389.440    19531344.434  
  19531340.520  
  22096050.891   117908778.357                    91706823.412    22096054.484  
  22096048.793  
 21  8 15 20 49  0.0000000  0 17G17G15R14R 4R21G13G14R12G20G 7G 5G 8
                                R22R 3G30R13R 2
  23387682.430   122903111.640    23387689.621    95768686.0984   23387689.395  
                
  23307322.359   122480808.165    23307328.711    95439623.5174   23307328.609  
                
  21718376.422   115771184.467                    90044246.385    21718380.535  
  21718376.125  
  21221609.734   113640780.614                    88387274.445    21221612.156  
  21221609.039  
  23606777.102   126324639.693                    98252496.869    23606779.215  
  23606775.109  
  21216834.914   111495266.231    21216840.992    86879440.4724                 
                
  20340361.781   106889354.944    20340367.801    83290446.4334   20340367.906  
                
  21695916.391   115895734.165                    90141134.380    21695919.590  
  21695915.941  
  23862736.211   125399527.424    23862742.176    97713950.8644                 
                
  22257092.180   116961846.869    22257098.195    91139158.8644   22257098.160  
                
  23122311.984   121508581.073    23122318.738    94682044.7784   23122318.820  
                
  23965746.992   125940869.436    23965755.566    98135797.1434   23965756.621  
                
  22552582.062   120387251.610                    93634520.868    22552583.918  
  22552580.363  
  19703346.102   105473569.555                    82035015.207    19703349.891  
  19703345.074  
  20637992.438   108453434.058    20638000.793    84509230.9194   20638000.980  
                
  19532044.523   104300009.434                    81122306.020    19532046.660  
  19532042.773  
  22104191.125   117952215.784                    91740608.072    22104194.602  
  22104188.945  
 21  8 15 20 49 10.0000000  0 17G17G15R14R 4R21G13G14R12G20G 7G 5G 8
                                R22R 3G30R13R 2
  23381449.438   122870357.864    23381456.852    95743163.7094   23381456.609  
                
  23301390.984   122449638.563    23301397.289    95415335.5214   23301397.199  
                
  21713434.227   115744839.836                    90023756.147    21713438.336  
  21713433.906  
  21216534.711   113613604.021                    88366137.084    21216537.133  
  21216534.023  
  23609639.797   126339958.526                    98264411.524    23609641.926  
  23609637.844  
  21212782.328   111473969.734    21212788.410    86862845.8084                 
                
  20338651.078   106880365.120    20338657.109    83283441.3774   20338657.207  
                
  21701500.609   115925564.042                    90164335.386    21701503.824  
  21701500.168  
  23868280.375   125428661.931    23868286.336    97736653.0564                 
                
  22261068.828   116982744.341    22261074.840    91155442.6034   22261074.824  
                
  23125518.617   121525432.044    23125525.363    94695175.4064   23125525.445  
                
  23970200.664   125964273.648    23970209.250    98154034.1884   23970210.281  
                
  22549643.430   120371565.459                    93622320.530    22549645.371  
  22549641.770  
  19705814.773   105486784.514                    82045293.501    19705818.574  
  19705813.746  
  20639261.070   108460100.761    20639269.414    84514425.7494   20639269.598  
                
  19532754.812   104303802.400                    81125256.110    19532756.934  
  19532753.086  
  22112336.727   117995681.527                    91774414.757    22112340.066  
  22112334.457  
 21  8 15 20 49 20.0000000  0 17G17G15R14R 4R21G13G14R12G20G 7G 5G 8
                                R22R 3G30R13R 2
  23375219.625   122837620.989    23375227.297    95717654.4754   23375227.047  
                
  23295465.844   122418501.832    23295472.117    95391073.1274   23295472.035  
                
  21708497.562   115718524.814                    90003288.910    21708501.664  
  21708497.230  
  21211472.422   113586495.681                    88345052.824    21211474.859  
  21211471.750  
  23612517.375   126355357.056                    98276388.165    23612519.512  
  23612515.473  
  21208738.164   111452717.536    21208744.258    86846285.6454                 
                
  20336950.688   106871429.511    20336956.738    83276478.5704   20336956.816  
                
  21707086.891   115955404.942                    90187544.969    21707090.102  
  21707086.469  
  23873827.688   125457813.456    23873833.723    97759368.5264                 
                
  22265049.609   117003663.565    22265055.629    91171743.2814   22265055.633  
                
  23128735.008   121542334.390    23128741.699    94708346.0494   23128741.805  
                
  23974664.008   125987728.731    23974672.598    98172310.8594   23974673.629  
                
  22546719.516   120355957.744                    93610181.219    22546721.523  
  22546717.895  
  19708299.938   105500087.816                    82055640.509    19708303.766  
  19708298.910  
  20640536.047   108466800.871    20640544.379    84519646.6164   20640544.574  
                
  19533473.148   104307638.283                    81128239.568    19533475.254  
  19533471.414  
  22120487.484   118039175.208                    91808243.176    22120490.785  
  22120485.203  
 21  8 15 20 49 30.0000000  0 17G17G15R14R 4R21G13G14R12G20G 7G 5G 8
                                R22R 3G30R13R 2
  23368993.250   122804901.540    23369001.059    95692158.8294   23369000.809  
                
  23289547.016   122387398.303    23289553.285    95366836.6194   23289553.207  
                
  21703566.555   115692239.783                    89982845.005    21703570.641  
  21703566.211  
  21206422.930   113559455.901                    88324021.889    21206425.375  
  21206422.305  
  23615409.898   126370835.456                    98288426.940    23615412.047  
  23615408.027  
  21204702.516   111431510.073    21204708.621    86829760.3644                 
                
  20335260.688   106862548.506    20335266.766    83269558.3124   20335266.832  
                
  21712675.320   115985257.304                    90210763.473    21712678.539  
  21712674.910  
  23879378.359   125486982.263    23879384.379    97782097.4594                 
                
  22269034.594   117024604.859    22269040.664    91188061.1714   22269040.664  
                
  23131961.258   121559288.429    23131967.910    94721556.9924   23131968.047  
                
  23979137.094   126011234.934    23979145.668    98190627.4024   23979146.691  
                
  22543810.398   120340428.752                    93598103.129    22543812.375  
  22543808.777  
  19710801.711   105513479.984                    82066056.630    19710805.559  
  19710800.676  
  20641817.477   108473534.839    20641825.801    84524893.8654   20641826.016  
                
  19534199.641   104311517.702                    81131256.901    19534201.746  
  19534197.906  
  22128643.422   118082696.791                    91842093.283    22128646.742  
  22128641.188  
 21  8 15 20 49 40.0000000  0 17G17G15R14R 4R21G13G14R12G20G 7G 5G 8
                                R22R 3G30R13R 2
  23362770.234   122772199.269    23362778.070    95666676.5674   23362777.820  
                
  23283634.477   122356327.792    23283640.734    95342625.8394   23283640.660  
                
  21698641.109   115665984.408                    89962424.165    21698645.176  
  21698640.770  
  21201386.242   113532484.639                    88303044.234    21201388.684  
  21201385.633  
  23618317.281   126386393.402                    98300527.550    23618319.371  
  23618315.379  
  21200675.391   111410347.439    21200681.492    86813270.0114                 
                
  20333581.016   106853721.805    20333587.141    83262680.3654   20333587.176  
                
  21718265.781   116015120.491                    90233990.383    21718268.996  
  21718265.383  
  23884932.164   125516167.947    23884938.285    97804839.5444                 
                
  22273023.750   117045568.061    22273029.887    91204396.1244   22273029.836  
                
  23135197.266   121576293.810    23135203.922    94734807.9134   23135204.039  
                
  23983619.859   126034791.969    23983628.438    98208983.5424   23983629.441  
                
  22540915.969   120324978.435                    93586086.208    22540917.988  
  22540914.352  
  19713319.984   105526960.516                    82076541.484    19713323.863  
  19713318.934  
  20643105.281   108480302.323    20643113.602    84530167.2264   20643113.816  
                
  19534934.148   104315439.950                    81134307.546    19534936.266  
  19534932.391  
  22136804.383   118126245.635                    91875964.599    22136807.793  
  22136802.258  
 21  8 15 20 49 50.0000000  0 17G17G15R14R 4R21G13G14R12G20G 7G 5G 8
                                R22R 3G30R13R 2
  23356550.648   122739514.419    23356558.375    95641207.8694   23356558.117  
                
  23277728.305   122325290.650    23277734.508    95318441.0434   23277734.461  
                
  21693721.266   115639758.872                    89942026.527    21693725.301  
  21693720.945  
  21196362.375   113505582.062                    88282120.014    21196364.832  
  21196361.758  
  23621239.516   126402030.811                    98312689.980    23621241.633  
  23621237.574  
  21196656.742   111389229.299    21196662.820    86796814.3214                 
                
  20331911.695   106844949.476    20331917.871    83255844.7954   20331917.867  
                
  21723858.305   116044994.709                    90257225.890    21723861.531  
  21723857.934  
  23890489.117   125545370.519    23890495.441    97827594.7644                 
                
  22277017.086   117066553.169    22277023.227    91220748.1504   22277023.180  
                
  23138443.055   121593350.516    23138449.715    94748098.8574   23138449.793  
                
  23988112.305   126058399.822    23988120.895    98227379.2844   23988121.871  
                
  22538036.281   120309606.863                    93574130.566    22538038.418  
  22538034.668  
  19715854.773   105540529.485                    82087095.120    19715858.680  
  19715853.699  
  20644399.477   108487103.419    20644407.797    84535466.7804   20644408.020  
                
  19535676.695   104319405.188                    81137391.633    19535678.828  
  19535674.914  
  22144970.594   118169821.926                    91909857.255    22144973.980  
  22144968.461  
 21  8 15 20 50  0.0000000  0 17G17G15R14R 4R21G13G14R12G20G 7G 5G 8
                                R22R 3G30R13R 2
  23350334.500   122706847.110    23350342.000    95615752.8354   23350341.734  
                
  23271828.477   122294286.809    23271834.656    95294282.2204   23271834.637  
                
  21688807.008   115613563.071                    89921652.025    21688811.012  
  21688806.695  
  21191351.367   113478748.357                    88261249.376    21191353.855  
  21191350.742  
  23624176.578   126417747.671                    98324914.217    23624178.742  
  23624174.633  
  21192646.602   111368155.859    21192652.656    86780393.4614                 
                
  20330252.727   106836231.529    20330258.957    83249051.5894   20330258.910  
                
  21729452.898   116074879.898                    90280469.918    21729456.117  
  21729452.539  
  23896049.281   125574589.825    23896055.738    97850363.0654                 
                
  22281014.602   117087560.152    22281020.750    91237117.2354   22281020.699  
                
  23141698.609   121610458.537    23141705.266    94761429.7724   23141705.355  
                
  23992614.375   126082058.338    23992622.984    98245814.4924   23992623.926  
                
  22535171.414   120294314.066                    93562236.162    22535173.551  
  22535169.789  
  19718406.094   105554186.908                    82097717.551    19718410.027  
  19718405.016  
  20645700.078   108493938.152    20645708.406    84540792.5504   20645708.629  
                
  19536427.328   104323413.543                    81140509.243    19536429.469  
  19536425.531  
  22153141.961   118213425.678                    91943771.287    22153145.305  
  22153139.828  
 21  8 15 20 50 10.0000000  0 17G17G15R14R 4R21G13G14R12G20G 7G 5G 8
                                R22R 3G30R13R 2
  23344121.625   122674197.237    23344128.895    95590311.3814   23344128.621  
                
  23265934.938   122263316.072    23265941.117    95270149.1884   23265941.129  
                
  21683898.266   115587396.770                    89901300.463    21683902.277  
  21683897.980  
  21186353.188   113451983.329                    88240432.127    21186355.672  
  21186352.590  
  23627128.445   126433543.753                    98337200.064    23627130.629  
  23627126.461  
  21188644.930   111347126.938    21188650.992    86764007.3004                 
                
  20328604.047   106827567.678    20328610.328    83242300.5414   20328610.258  
                
  21735049.461   116104775.644                    90303722.169    21735052.656  
  21735049.113  
  23901612.594   125603825.488    23901619.102    97873144.0614                 
                
  22285016.211   117108588.741    22285022.402    91253503.1464   22285022.320  
                
  23144963.844   121627617.458    23144970.461    94774800.3694   23144970.570  
                
  23997126.047   126105767.337    23997134.652    98264289.0384   23997135.543  
                
  22532321.281   120279100.154                    93550403.130    22532323.438  
  22532319.641  
  19720973.883   105567932.446                    82108408.521    19720977.824  
  19720972.801  
  20647007.016   108500806.197    20647015.348    84546144.2764   20647015.562  
                
  19537185.922   104327464.402                    81143659.907    19537188.090  
  19537184.117  
  22161318.258   118257056.179                    91977706.121    22161321.637  
  22161316.195  
 21  8 15 20 50 20.0000000  0 17G17G15R14R 4R21G13G14R12G20G 7G 5G 8
                                R22R 3G30R13R 2
  23337912.062   122641565.143    23337919.141    95564883.7644   23337918.891  
                
  23260047.773   122232378.867    23260053.988    95246042.2744   23260053.996  
                
  21678995.172   115561260.476                    89880972.241    21678999.191  
  21678994.895  
  21181367.930   113425287.512                    88219668.704    21181370.406  
  21181367.387  
  23630095.125   126449419.067                    98349547.525    23630097.320  
  23630093.168  
  21184651.805   111326142.932    21184657.875    86747656.1294                 
                
  20326965.711   106818958.221    20326972.043    83235591.8794   20326971.945  
                
  21740648.062   116134682.316                    90326982.912    21740651.230  
  21740647.727  
  23907179.109   125633077.616    23907185.637    97895937.9244                 
                
  22289022.000   117129639.212    22289028.199    91269906.1124   22289028.113  
                
  23148238.828   121644827.545    23148245.398    94788210.8314   23148245.488  
                
  24001647.352   126129526.990    24001655.941    98282803.0544   24001656.801  
                
  22529485.984   120263965.305                    93538631.624    22529488.191  
  22529484.277  
  19723558.156   105581766.257                    82119168.138    19723562.098  
  19723557.082  
  20648320.359   108507707.916    20648328.703    84551522.2364   20648328.910  
                
  19537952.516   104331558.037                    81146843.843    19537954.699  
  19537950.703  
  22169499.617   118300713.620                    92011661.901    22169502.988  
  22169497.582  
 21  8 15 20 50 30.0000000  0 17G17G15R14R 4R21G13G14R12G20G 7G 5G 8
                                R22R 3G30R13R 2
  23331705.867   122608951.001    23331712.793    95539470.1384   23331712.551  
                
  23254167.023   122201475.379    23254173.254    95221961.6254   23254173.258  
                
  21674097.664   115535153.968                    89860667.208    21674101.680  
  21674097.395  
  21176395.617   113398660.944                    88198959.155    21176398.086  
  21176395.090  
  23633076.641   126465373.772                    98361956.743    23633078.844  
  23633074.695  
  21180667.273   111305204.105    21180673.340    86731340.1594                 
                
  20325337.742   106810403.261    20325344.133    83228925.6794   20325344.004  
                
  21746248.703   116164599.875                    90350252.113    21746251.859  
  21746248.379  
  23912748.750   125662346.410    23912755.344    97918744.7674                 
                
  22293031.977   117150711.717    22293038.191    91286326.2444   22293038.109  
                
  23151523.539   121662088.752    23151530.070    94801661.1204   23151530.148  
                
  24006178.258   126153337.193    24006186.844    98301356.4484   24006187.691  
                
  22526665.555   120248909.896                    93526921.846    22526667.828  
  22526663.836  
  19726158.922   105595688.320                    82129996.407    19726162.867  
  19726157.859  
  20649640.125   108514643.339    20649648.480    84556926.4594   20649648.688  
                
  19538727.188   104335694.789                    81150061.321    19538729.355  
  19538725.363  
  22177685.977   118344397.950                    92045638.590    22177689.371  
  22177683.965  
 21  8 15 20 50 40.0000000  0 17G17G15R14R 4R21G13G14R12G20G 7G 5G 8
                                R22R 3G30R13R 2
  23325503.023   122576355.028    23325509.902    95514070.6724   23325509.672  
                
  23248292.734   122170605.801    23248298.926    95197907.4004   23248298.926  
                
  21669205.797   115509077.571                    89840385.576    21669209.797  
  21669205.527  
  21171436.289   113372103.985                    88178303.745    21171438.762  
  21171435.777  
  23636072.992   126481407.817                    98374427.646    23636075.176  
  23636071.051  
  21176691.375   111284310.597    21176697.438    86715059.5024                 
                
  20323720.172   106801902.894    20323726.621    83222302.0204   20323726.465  
                
  21751851.406   116194528.429                    90373529.882    21751854.539  
  21751851.109  
  23918321.570   125691631.622    23918328.109    97941564.4104                 
                
  22297046.148   117171806.315    22297052.414    91302763.5834   22297052.293  
                
  23154817.984   121679401.086    23154824.465    94815151.2494   23154824.562  
                
  24010718.789   126177197.955    24010727.387    98319949.2474   24010728.246  
                
  22523859.969   120233934.037                    93515273.965    22523862.309  
  22523858.324  
  19728776.203   105609698.791                    82140893.438    19728780.145  
  19728775.148  
  20650966.320   108521612.611    20650974.699    84562357.0534   20650974.914  
                
  19539509.953   104339874.721                    81153312.387    19539512.125  
  19539508.125  
  22185877.438   118388109.354                    92079636.326    22185880.840  
  22185875.438  
 21  8 15 20 50 50.0000000  0 17G17G15R14R 4R21G13G14R12G20G 7G 5G 8
                                R22R 3G30R13R 2
  23319303.453   122543776.540    23319310.324    95488684.8284   23319310.102  
                
  23242424.773   122139769.463    23242430.934    95173879.1054   23242430.949  
                
  21664319.391   115483030.339                    89820126.622    21664323.367  
  21664319.117  
  21166489.852   113345615.992                    88157701.963    21166492.320  
  21166489.355  
  23639084.016   126497520.347                    98386959.620    23639086.207  
  23639082.137  
  21172723.969   111263461.725    21172730.031    86698813.6294                 
                
  20322112.828   106793456.302    20322119.340    83215720.2584   20322119.152  
                
  21757455.977   116224467.017                    90396815.436    21757459.121  
  21757455.680  
  23923897.359   125720932.339    23923903.812    97964396.1354                 
                
  22301064.383   117192922.204    22301070.668    91319217.5284   22301070.520  
                
  23158121.969   121696763.536    23158128.438    94828680.4354   23158128.555  
                
  24015268.773   126201108.376    24015277.363    98338580.7414   24015278.219  
                
  22521069.203   120219037.029                    93503687.409    22521071.609  
  22521067.598  
  19731409.820   105623796.702                    82151858.464    19731413.762  
  19731408.781  
  20652298.812   108528614.914    20652307.215    84567813.3874   20652307.434  
                
  19540300.578   104344096.641                    81156596.091    19540302.727  
  19540298.746  
  22194073.852   118431846.869                    92113654.388    22194077.238  
  22194071.832  
 21  8 15 20 51  0.0000000  0 17G17G15R14R 4R21G13G14R12G20G 7G 5G 8
                                R22R 3G30R13R 2
  23313107.422   122511216.386    23313114.266    95463313.2764   23313114.051  
                
  23236563.312   122108967.253    23236569.461    95149877.3844   23236569.473  
                
  21659438.648   115457013.308                    89799891.143    21659442.594  
  21659438.359  
  21161556.445   113319197.823                    88137154.495    21161558.906  
  21161555.934  
  23642109.812   126513712.030                    98399553.174    23642112.004  
  23642107.934  
  21168765.180   111242658.152    21168771.242    86682603.0594                 
                
  20320515.859   106785064.240    20320522.426    83209180.9944   20320522.211  
                
  21763062.555   116254416.327                    90420109.336    21763065.703  
  21763062.266  
  23929476.188   125750249.156    23929482.617    97987240.3854                 
                
  22305086.797   117214060.117    22305093.062    91335688.6214   22305092.922  
                
  23161435.617   121714176.786    23161442.078    94842249.1904   23161442.191  
                
  24019828.297   126225068.982    24019836.871    98357251.3504   24019837.680  
                
  22518293.414   120204219.702                    93492162.850    22518295.844  
  22518291.836  
  19734059.938   105637982.941                    82162892.203    19734063.871  
  19734058.906  
  20653637.727   108535650.992    20653646.156    84573296.0454   20653646.371  
                
  19541099.203   104348361.307                    81159913.057    19541101.344  
  19541097.352  
  22202275.312   118475611.066                    92147693.204    22202278.629  
  22202273.250  
 21  8 15 20 51 10.0000000  0 17G17G15R14R 4R21G13G14R12G20G 7G 5G 8
                                R22R 3G30R13R 2
  23306914.766   122478674.369    23306921.707    95437955.8624   23306921.492  
                
  23230708.312   122078199.015    23230714.445    95125902.1374   23230714.484  
                
  21654563.469   115431025.912                    89779678.742    21654567.402  
  21654563.164  
  21156636.055   113292849.405                    88116661.293    21156638.539  
  21156635.566  
  23645150.344   126529982.507                    98412208.019    23645152.531  
  23645148.492  
  21164815.000   111221899.837    21164821.062    86666427.7554                 
                
  20318929.219   106776726.444    20318935.828    83202684.0104   20318935.617  
                
  21768671.109   116284376.145                    90443411.455    21768674.258  
  21768670.812  
  23935058.086   125779581.818    23935064.504    98010097.0114                 
                
  22309113.352   117235219.768    22309119.629    91352176.6624   22309119.480  
                
  23164758.875   121731640.545    23164765.289    94855857.3174   23164765.402  
                
  24024397.312   126249079.676    24024405.891    98375960.9744   24024406.707  
                
  22515532.602   120189481.962                    93480700.158    22515534.895  
  22515531.008  
  19736726.477   105652257.058                    82173994.289    19736730.406  
  19736725.445  
  20654983.016   108542720.610    20654991.477    84578804.8354   20654991.684  
                
  19541905.836   104352668.691                    81163263.242    19541907.977  
  19541903.980  
  22210481.586   118519401.231                    92181752.223    22210484.898  
  22210479.527  
 21  8 15 20 51 20.0000000  0 17G17G15R14R 4R21G13G14R12G20G 7G 5G 8
                                R22R 3G30R13R 2
  23300725.617   122446150.898    23300732.711    95412612.9084   23300732.508  
                
  23224859.812   122047464.903    23224865.957    95101953.4694   23224866.012  
                
  21649693.938   115405068.584                    89759489.716    21649697.824  
  21649693.617  
  21151728.742   113266570.963                    88096222.522    21151731.246  
  21151728.242  
  23648205.609   126546331.923                    98424924.213    23648207.793  
  23648203.781  
  21160873.516   111201187.168    21160879.574    86650288.0154                 
                
  20317352.938   106768443.111    20317359.586    83196229.4704   20317359.379  
                
  21774281.617   116314346.540                    90466721.743    21774284.770  
  21774281.301  
  23940642.922   125808930.349    23940649.418    98032965.9714                 
                
  22313144.078   117256401.350    22313150.371    91368681.7854   22313150.215  
                
  23168091.758   121749154.959    23168098.137    94869504.9044   23168098.270  
                
  24028975.898   126273140.492    24028984.500    98394709.6664   24028985.340  
                
  22512786.641   120174823.964                    93469299.519    22512788.961  
  22512785.074  
  19739409.445   105666619.177                    82185164.824    19739413.355  
  19739408.422  
  20656334.734   108549823.948    20656343.230    84584339.9084   20656343.422  
                
  19542720.445   104357018.692                    81166646.588    19542722.613  
  19542718.582  
  22218692.789   118563217.628                    92215831.643    22218696.105  
  22218690.738  
 21  8 15 20 51 30.0000000  0 17G17G15R14R 4R21G13G14R12G20G 7G 5G 8
                                R22R 3G30R13R 2
  23294540.047   122413645.960    23294547.234    95387284.3894   23294547.047  
                
  23219017.805   122016764.962    23219023.965    95078031.4474   23219024.016  
                
  21644830.016   115379141.150                    89739323.932    21644833.883  
  21644829.672  
  21146834.516   113240362.655                    88075838.285    21146837.035  
  21146833.957  
  23651275.609   126562760.079                    98437701.671    23651277.793  
  23651273.723  
  21156940.688   111180519.987    21156946.738    86634183.7234                 
                
  20315787.016   106760214.155    20315793.703    83189817.2934   20315793.480  
                
  21779894.102   116344327.434                    90490040.221    21779897.250  
  21779893.773  
  23946230.797   125838294.586    23946237.316    98055847.1914                 
                
  22317178.969   117277604.742    22317185.230    91385203.9114   22317185.094  
                
  23171434.242   121766719.769    23171440.605    94883191.7594   23171440.711  
                
  24033564.023   126297251.402    24033572.648    98413497.3794   24033573.441  
                
  22510055.727   120160245.818                    93457960.963    22510057.961  
  22510054.188  
  19742108.820   105681069.070                    82196403.620    19742112.730  
  19742107.805  
  20657692.852   108556960.915    20657701.387    84589901.1714   20657701.562  
                
  19543543.000   104361411.220                    81170062.996    19543545.203  
  19543541.133  
  22226908.836   118607060.062                    92249931.303    22226912.184  
  22226906.797  
 21  8 15 20 51 40.0000000  0 17G17G15R14R 4R21G13G14R12G20G 7G 5G 8
                                R22R 3G30R13R 2
  23288358.023   122381159.485    23288365.270    95361970.2614   23288365.090  
                
  23213182.266   121986099.190    23213188.445    95054136.0614   23213188.516  
                
  21639971.680   115353243.576                    89719181.394    21639975.547  
  21639971.320  
  21141953.359   113214224.328                    88055508.469    21141955.879  
  21141952.805  
  23654360.312   126579266.946                    98450540.338    23654362.520  
  23654358.355  
  21153016.531   111159898.427    21153022.586    86618114.9784                 
                
  20314231.406   106752039.437    20314238.121    83183447.3814   20314237.898  
                
  21785508.508   116374318.712                    90513366.750    21785511.684  
  21785508.156  
  23951821.555   125867674.212    23951828.082    98078740.4074                 
                
  22321217.984   117298829.910    22321224.234    91401743.0014   22321224.102  
                
  23174786.281   121784334.866    23174792.641    94896917.8104   23174792.742  
                
  24038161.594   126321411.974    24038170.215    98432323.7954   24038170.949  
                
  22507339.758   120145747.489                    93446684.488    22507341.941  
  22507338.199  
  19744824.562   105695606.612                    82207710.591    19744828.461  
  19744823.559  
  20659057.336   108564131.398    20659065.906    84595488.5614   20659066.066  
                
  19544373.500   104365846.070                    81173512.313    19544375.676  
  19544371.625  
  22235129.719   118650928.288                    92284051.018    22235133.070  
  22235127.680  
 21  8 15 20 51 50.0000000  0 17G17G15R14R 4R21G13G14R12G20G 7G 5G 8
                                R22R 3G30R13R 2
  23282179.656   122348691.761    23282186.879    95336670.7484   23282186.715  
                
  23207353.312   121955467.841    23207359.473    95030267.4794   23207359.566  
                
  21635118.977   115327375.966                    89699062.131    21635122.875  
  21635118.609  
  21137085.375   113188156.447                    88035233.439    21137087.875  
  21137084.840  
  23657459.719   126595852.442                    98463440.189    23657461.941  
  23657457.770  
  21149101.055   111139322.487    21149107.113    86602081.7854                 
                
  20312686.148   106743919.100    20312692.891    83177119.8564   20312692.664  
                
  21791124.875   116404320.335                    90536701.345    21791128.094  
  21791124.527  
  23957415.227   125897069.377    23957421.719    98101645.7184                 
                
  22325261.172   117320076.869    22325267.441    91418299.0794   22325267.273  
                
  23178147.906   121802000.273    23178154.285    94910683.0624   23178154.371  
                
  24042768.656   126345622.252    24042777.254    98451188.9684   24042777.965  
                
  22504638.742   120131329.275                    93435470.334    22504640.969  
  22504637.234  
  19747556.703   105710231.931                    82219085.841    19747560.590  
  19747555.703  
  20660428.242   108571335.533    20660436.848    84601102.1684   20660436.988  
                
  19545211.922   104370323.183                    81176994.525    19545214.090  
  19545210.039  
  22243355.398   118694822.221                    92318190.732    22243358.777  
  22243353.367  
 21  8 15 20 52  0.0000000  0 17G17G15R14R 4R21G13G14R12G20G 7G 5G 8
                                R22R 3G30R13R 2
  23276004.906   122316242.817    23276012.062    95311385.8734   23276011.910  
                
  23201530.922   121924870.953    23201537.074    95006425.7424   23201537.176  
                
  21630271.875   115301538.267                    89678966.135    21630275.805  
  21630271.480  
  21132230.516   113162158.865                    88015013.096    21132232.980  
  21132229.969  
  23660573.781   126612516.387                    98476401.039    23660576.023  
  23660571.848  
  21145194.281   111118792.251    21145200.324    86586084.2004                 
                
  20311151.227   106735853.095    20311157.988    83170834.6654   20311157.766  
                
  21796743.156   116434332.168                    90560043.883    21796746.406  
  21796742.789  
  23963011.891   125926479.978    23963018.332    98124563.0754                 
                
  22329308.492   117341345.639    22329314.758    91434872.1494   22329314.598  
                
  23181519.062   121819715.830    23181525.477    94924487.3944   23181525.539  
                
  24047385.180   126369882.255    24047393.750    98470092.8724   24047394.484  
                
  22501952.742   120116991.184                    93424318.479    22501955.000  
  22501951.270  
  19750305.211   105724944.857                    82230529.220    19750309.090  
  19750304.211  
  20661805.547   108578573.300    20661814.184    84606741.9814   20661814.309  
                
  19546058.297   104374842.792                    81180509.773    19546060.434  
  19546056.406  
  22251585.828   118738741.688                    92352350.298    22251589.246  
  22251583.855  
 21  8 15 20 52 10.0000000  0 17G17G15R14R 4R21G13G14R12G20G 7G 5G 8
                                R22R 3G30R13R 2
  23269833.734   122283812.543    23269840.809    95286115.5424   23269840.668  
                
  23195715.078   121894308.541    23195721.227    94982610.8754   23195721.344  
                
  21625430.359   115275730.384                    89658893.347    21625434.352  
  21625429.980  
  21127388.797   113136231.742                    87994847.565    21127391.246  
  21127388.246  
  23663702.469   126629258.620                    98489422.752    23663704.691  
  23663700.523  
  21141296.195   111098307.686    21141302.234    86570122.2124                 
                
  20309626.617   106727841.293    20309633.402    83164591.7044   20309633.176  
                
  21802363.312   116464354.112                    90583394.273    21802366.598  
  21802362.906  
  23968611.375   125955905.583    23968617.824    98147492.1104                 
                
  22333359.914   117362636.027    22333366.180    91451462.0484   22333366.016  
                
  23184899.727   121837481.390    23184906.148    94938330.6744   23184906.191  
                
  24052011.133   126394191.817    24052019.711    98489035.3964   24052020.449  
                
  22499281.750   120102733.155                    93413228.887    22499284.035  
  22499280.293  
  19753070.047   105739745.217                    82242040.600    19753073.914  
  19753069.059  
  20663189.211   108585844.519    20663197.867    84612407.8684   20663197.977  
                
  19546912.609   104379404.757                    81184057.963    19546914.723  
  19546910.695  
  22259821.078   118782686.272                    92386529.421    22259824.438  
  22259819.043  
 21  8 15 20 52 20.0000000  0 17G17G15R14R 4R21G13G14R12G20G 7G 5G 8
                                R22R 3G30R13R 2
  23263666.188   122251401.318    23263673.184    95260860.0474   23263673.059  
                
  23189905.828   121863780.768    23189911.980    94958823.0084   23189912.090  
                
  21620594.469   115249952.376                    89638843.799    21620598.520  
  21620594.102  
  21122560.289   113110375.267                    87974736.962    21122562.703  
  21122559.746  
  23666845.781   126646079.139                    98502505.359    23666847.980  
  23666843.770  
  21137406.828   111077868.953    21137412.852    86554195.9264                 
                
  20308112.352   106719883.777    20308119.152    83158391.0454   20308118.914  
                
  21807985.398   116494386.223                    90606752.565    21807988.699  
  21807984.973  
  23974213.742   125985346.252    23974220.223    98170432.8944                 
                
  22337415.484   117383948.157    22337421.777    91468068.8894   22337421.574  
                
  23188289.914   121855296.909    23188296.332    94952212.8964   23188296.367  
                
  24056646.508   126418550.907    24056655.098    98508016.5144   24056655.797  
                
  22496625.812   120088555.348                    93402201.734    22496628.094  
  22496624.324  
  19755851.234   105754633.090                    82253620.047    19755855.094  
  19755850.262  
  20664579.273   108593149.335    20664587.949    84618099.9264   20664588.051  
                
  19547774.844   104384009.099                    81187639.123    19547776.949  
  19547772.930  
  22268060.977   118826656.110                    92420728.170    22268064.359  
  22268058.961  
 21  8 15 20 52 30.0000000  0 17G17G15R14R 4R21G13G14R12G20G 7G 5G 8
                                R22R 3G30R13R 2
  23257502.289   122219009.275    23257509.219    95235619.5064   23257509.102  
                
  23184103.203   121833287.760    23184109.352    94935062.2274   23184109.449  
                
  21615764.203   115224204.426                    89618817.630    21615768.289  
  21615763.828  
  21117744.992   113084589.551                    87954681.413    21117747.387  
  21117744.430  
  23670003.719   126662977.954                    98515648.911    23670005.910  
  23670001.676  
  21133526.227   111057476.245    21133532.215    86538305.5074                 
                
  20306608.406   106711980.536    20306615.219    83152232.6764   20306614.988  
                
  21813609.367   116524428.433                    90630118.721    21813612.699  
  21813608.965  
  23979818.977   126014801.844    23979825.430    98193385.2944                 
                
  22341475.180   117405282.017    22341481.473    91484692.6734   22341481.262  
                
  23191689.570   121873162.265    23191695.984    94966133.9544   23191696.027  
                
  24061291.242   126442959.201    24061299.848    98527035.9714   24061300.547  
                
  22493984.961   120074458.009                    93391237.166    22493987.238  
  22493983.422  
  19758648.734   105769608.316                    82265267.448    19758652.578  
  19758647.777  
  20665975.719   108600487.716    20665984.410    84623818.1484   20665984.508  
                
  19548644.953   104388655.464                    81191252.956    19548647.074  
  19548643.035  
  22276305.680   118870651.005                    92454946.413    22276309.012  
  22276303.609  
 21  8 15 20 52 40.0000000  0 17G17G15R14R 4R21G13G14R12G20G 7G 5G 8
                                R22R 3G30R13R 2
  23251342.062   122186636.544    23251348.949    95210394.0144   23251348.828  
                
  23178307.242   121802829.675    23178313.387    94911328.6504   23178313.477  
                
  21610939.547   115198486.381                    89598814.713    21610943.656  
  21610939.152  
  21112942.945   113058874.855                    87934681.094    21112945.324  
  21112942.363  
  23673176.273   126679955.011                    98528853.248    23673178.480  
  23673174.207  
  21129654.391   111037129.587    21129660.352    86522450.9784                 
                
  20305114.797   106704131.626    20305121.613    83146116.6504   20305121.383  
                
  21819235.219   116554480.645                    90653492.672    21819238.574  
  21819234.848  
  23985426.992   126044272.259    23985433.461    98216349.2374                 
                
  22345539.031   117426637.653    22345545.285    91501333.4334   22345545.102  
                
  23195098.703   121891077.381    23195105.121    94980093.7644   23195105.176  
                
  24065945.375   126467416.836    24065954.016    98546093.8714   24065954.711  
                
  22491359.219   120060441.454                    93380335.389    22491361.395  
  22491357.625  
  19761462.570   105784670.952                    82276982.823    19761466.410  
  19761461.621  
  20667378.570   108607859.731    20667387.270    84629562.5764   20667387.352  
                
  19549522.969   104393344.103                    81194899.682    19549525.129  
  19549521.066  
  22284555.102   118914671.107                    92489184.258    22284558.414  
  22284552.953  
 21  8 15 20 52 50.0000000  0 17G17G15R14R 4R21G13G14R12G20G 7G 5G 8
                                R22R 3G30R13R 2
  23245185.453   122154283.217    23245192.332    95185183.6364   23245192.223  
                
  23172517.938   121772406.556    23172524.066    94887622.3244   23172524.113  
                
  21606120.516   115172798.265                    89578835.096    21606124.637  
  21606120.105  
  21108154.156   113033231.186                    87914736.020    21108156.539  
  21108153.574  
  23676363.430   126697010.135                    98542118.368    23676365.664  
  23676361.387  
  21125791.328   111016829.081    21125797.250    86506632.4014                 
                
  20303631.539   106696337.040    20303638.359    83140042.9404   20303638.137  
                
  21824862.953   116584542.916                    90676874.435    21824866.320  
  21824862.602  
  23991037.727   126073757.430    23991044.336    98239324.6654                 
                
  22349607.023   117448015.068    22349613.266    91517991.1594   22349613.086  
                
  23198517.289   121909042.138    23198523.754    94994092.2694   23198523.789  
                
  24070608.844   126491923.573    24070617.520    98565190.0184   24070618.207  
                
  22488748.469   120046505.220                    93369496.113    22488750.586  
  22488746.902  
  19764292.703   105799820.799                    82288766.024    19764296.531  
  19764291.762  
  20668787.812   108615265.357    20668796.516    84635333.1894   20668796.598  
                
  19550408.820   104398074.505                    81198578.883    19550410.969  
  19550406.945  
  22292809.148   118958715.856                    92523441.291    22292812.430  
  22292806.941  
 21  8 15 20 53  0.0000000  0 17G17G15R14R 4R21G13G14R12G20G 7G 5G 8
                                R22R 3G30R13R 2
  23239032.617   122121949.590    23239039.406    95159988.6144   23239039.320  
                
  23166735.328   121742018.766    23166741.434    94863943.5394   23166741.477  
                
  21601307.141   115147140.353                    89558878.945    21601311.289  
  21601306.754  
  21103378.711   113007658.959                    87894846.522    21103381.102  
  21103378.133  
  23679565.180   126714143.433                    98555444.252    23679567.434  
  23679563.148  
  21121937.125   110996575.084    21121943.012    86490850.0654                 
                
  20302158.641   106688596.972    20302165.469    83134011.7194   20302165.258  
                
  21830492.594   116614615.354                    90700264.108    21830495.965  
  21830492.258  
  23996651.258   126103257.490    23996658.066    98262311.7274                 
                
  22353679.219   117469414.510    22353685.449    91534666.0304   22353685.238  
                
  23201945.328   121927056.601    23201951.855    95008129.5164   23201951.883  
                
  24075281.734   126516479.673    24075290.410    98584324.6454   24075291.086  
                
  22486152.906   120032649.940                    93358719.806    22486155.062  
  22486151.324  
  19767139.188   105815058.263                    82300617.388    19767143.016  
  19767138.246  
  20670203.500   108622704.822    20670212.203    84641130.1754   20670212.285  
                
  19551302.641   104402847.467                    81202291.199    19551304.805  
  19551300.793  
  22301067.781   119002785.247                    92557717.474    22301071.035  
  22301065.539  
 21  8 15 20 53 10.0000000  0 17G17G15R14R 4R21G13G14R12G20G 7G 5G 8
                                R22R 3G30R13R 2
  23232883.328   122089635.386    23232890.113    95134808.7074   23232890.035  
                
  23160959.398   121711666.072    23160965.473    94840292.0804   23160965.527  
                
  21596499.391   115121512.375                    89538946.109    21596503.574  
  21596499.039  
  21098616.586   112982158.030                    87875012.466    21098618.980  
  21098615.984  
  23682781.477   126731354.561                    98568830.685    23682783.777  
  23682779.441  
  21118091.695   110976367.263    21118097.551    86475103.7134                 
                
  20300696.055   106680911.036    20300702.906    83128022.6834   20300702.668  
                
  21836124.047   116644697.554                    90723661.371    21836127.430  
  21836123.699  
  24002267.594   126132771.857    24002274.523    98285309.9144                 
                
  22357755.516   117490835.601    22357761.691    91551357.8014   22357761.488  
                
  23205382.766   121945120.466    23205389.320    95022205.2504   23205389.336  
                
  24079963.898   126541084.678    24079972.578    98603497.3694   24079973.230  
                
  22483572.508   120018875.532                    93348006.391    22483574.641  
  22483570.883  
  19770001.898   105830382.586                    82312536.293    19770005.730  
  19770000.949  
  20671625.555   108630177.756    20671634.250    84646953.2364   20671634.328  
                
  19552204.297   104407662.310                    81206036.062    19552206.480  
  19552202.469  
  22309331.008   119046879.221                    92592012.778    22309334.246  
  22309328.742  
 21  8 15 20 53 20.0000000  0 17G17G15R14R 4R21G13G14R12G20G 7G 5G 8
                                R22R 3G30R13R 2
  23226737.781   122057340.863    23226744.520    95109644.1354   23226744.469  
                
  23155190.172   121681348.490    23155196.227    94816667.9874   23155196.309  
                
  21591697.250   115095914.280                    89519036.479    21591701.426  
  21591696.930  
  21093867.812   112956728.537                    87855233.979    21093870.238  
  21093867.191  
  23686012.336   126748643.518                    98582277.640    23686014.629  
  23686010.328  
  21114255.109   110956205.847    21114260.953    86459393.5214                 
                
  20299243.789   106673279.353    20299250.648    83122075.9124   20299250.406  
                
  21841757.367   116674789.690                    90747066.357    21841760.758  
  21841757.020  
  24007886.766   126162300.540    24007893.688    98308319.2564                 
                
  22361835.961   117512278.375    22361842.027    91568066.4494   22361841.879  
                
  23208829.609   121963233.760    23208836.176    95036319.4934   23208836.195  
                
  24084655.383   126565738.602    24084664.098    98622708.2184   24084664.711  
                
  22481007.219   120005181.909                    93337355.797    22481009.336  
  22481005.625  
  19772880.906   105845794.051                    82324522.977    19772884.734  
  19772879.945  
  20673054.000   108637684.250    20673062.684    84652802.4494   20673062.770  
                
  19553113.820   104412519.044                    81209813.533    19553115.988  
  19553112.004  
  22317598.656   119090997.315                    92626326.824    22317601.980  
  22317596.441  
 21  8 15 20 53 30.0000000  0 17G17G15R14R 4R21G13G14R12G20G 7G 5G 8
                                R22R 3G30R13R 2
  23220596.008   122025066.064    23220602.656    95084494.9454   23220602.672  
                
  23149427.656   121651066.160    23149433.672    94793071.3604   23149433.758  
                
  21586900.727   115070346.209                    89499150.190    21586904.891  
  21586900.441  
  21089132.398   112931370.678                    87835511.199    21089134.844  
  21089131.797  
  23689257.727   126766010.188                    98595785.061    23689259.969  
  23689255.727  
  21110427.344   110936090.837    21110433.195    86443719.4914                 
                
  20297801.844   106665701.916    20297808.715    83116171.4234   20297808.469  
                
  21847392.492   116704891.473                    90770478.874    21847395.910  
  21847392.156  
  24013508.680   126191843.398    24013515.520    98331339.6764                 
                
  22365920.516   117533742.770    22365926.512    91584791.9634   22365926.414  
                
  23212285.836   121981396.306    23212292.418    95050472.1384   23212292.422  
                
  24089356.172   126590441.417    24089364.914    98641957.1734   24089365.504  
                
  22478457.148   119991569.232                    93326768.151    22478459.188  
  22478455.543  
  19775776.141   105861292.514                    82336577.339    19775779.977  
  19775775.172  
  20674488.836   108645224.319    20674497.500    84658677.8284   20674497.594  
                
  19554031.180   104417417.731                    81213623.617    19554033.336  
  19554029.379  
  22325870.930   119135139.824                    92660659.865    22325874.266  
  22325868.688  
 21  8 15 20 53 40.0000000  0 17G17G15R14R 4R21G13G14R12G20G 7G 5G 8
                                R22R 3G30R13R 2
  23214458.102   121992811.014    23214464.586    95059361.1384   23214464.660  
                
  23143671.828   121620818.988    23143677.816    94769502.1264   23143677.918  
                
  21582109.836   115044808.024                    89479287.160    21582113.996  
  21582109.555  
  21084410.352   112906084.307                    87815844.015    21084412.812  
  21084409.742  
  23692517.578   126783454.293                    98609352.687    23692519.793  
  23692515.570  
  21106608.453   110916022.448    21106614.309    86428081.7924                 
                
  20296370.195   106658178.553    20296377.066    83110309.0574   20296376.816  
                
  21853029.398   116735002.767                    90793898.749    21853032.824  
  21853029.055  
  24019133.219   126221400.201    24019139.992    98354370.9314                 
                
  22370009.148   117555228.647    22370015.152    91601534.2044   22370015.043  
                
  23215751.438   121999608.217    23215758.047    95064663.2284   23215758.062  
                
  24094066.180   126615192.702    24094074.941    98661243.8934   24094075.508  
                
  22475922.203   119978037.479                    93316243.471    22475924.191  
  22475920.641  
  19778687.625   105876877.853                    82348699.257    19778691.465  
  19778686.652  
  20675930.023   108652797.795    20675938.672    84664579.2374   20675938.773  
                
  19554956.344   104422358.032                    81217466.071    19554958.492  
  19554954.562  
  22334147.680   119179306.055                    92695011.363    22334150.977  
  22334145.418  
 21  8 15 20 53 50.0000000  0 17G17G15R14R 4R21G13G14R12G20G 7G 5G 8
                                R22R 3G30R13R 2
  23208324.055   121960575.889    23208330.379    95034242.8594   23208330.508  
                
  23137922.742   121590607.452    23137928.703    94745960.6714   23137928.828  
                
  21577324.586   115019299.902                    89459447.523    21577328.727  
  21577324.320  
  21079701.734   112880869.860                    87796232.792    21079704.207  
  21079701.113  
  23695791.914   126800976.026                    98622980.701    23695794.133  
  23695789.855  
  21102798.422   110896000.599    21102804.273    86412480.3554                 
                
  20294948.883   106650709.508    20294955.742    83104489.0334   20294955.492  
                
  21858668.156   116765123.966                    90817326.335    21858671.586  
  21858667.828  
  24024760.367   126250971.163    24024767.184    98377413.2194                 
                
  22374101.906   117576736.260    22374107.938    91618293.3844   22374107.820  
                
  23219226.414   122017869.315    23219233.031    95078892.6594   23219233.062  
                
  24098785.477   126639992.836    24098794.250    98680568.6664   24098794.801  
                
  22473402.500   119964587.025                    93305782.018    22473404.504  
  22473400.930  
  19781615.297   105892549.910                    82360888.636    19781619.148  
  19781614.320  
  20677377.609   108660404.946    20677386.242    84670506.8864   20677386.344  
                
  19555889.336   104427340.191                    81221341.083    19555891.492  
  19555887.594  
  22342428.922   119223496.310                    92729381.563    22342432.152  
  22342426.676  
 21  8 15 20 54  0.0000000  0 17G17G15R14R 4R21G13G14R12G20G 7G 5G 8
                                R22R 3G30R13R 2
  23202193.906   121928361.150    23202200.129    95009140.4594   23202200.250  
                
  23132180.477   121560431.688    23132186.418    94722447.0764   23132186.570  
                
  21572544.984   114993821.934                    89439631.317    21572549.109  
  21572544.742  
  21075006.594   112855727.636                    87776677.734    21075009.102  
  21075005.973  
  23699080.766   126818575.371                    98636669.083    23699082.984  
  23699078.660  
  21098997.289   110876025.532    21099003.129    86396915.3784                 
                
  20293537.930   106643294.886    20293544.754    83098711.4064   20293544.512  
                
  21864308.742   116795254.914                    90840761.518    21864312.156  
  21864308.418  
  24030390.117   126280556.156    24030397.051    98400466.4704                 
                
  22378198.820   117598265.759    22378204.844    91635069.6114   22378204.730  
                
  23222710.750   122036179.549    23222717.395    95093160.3664   23222717.426  
                
  24103514.062   126664841.711    24103522.832    98699931.4354   24103523.375  
                
  22470897.961   119951217.836                    93295383.768    22470900.062  
  22470896.391  
  19784559.250   105908309.066                    82373145.751    19784563.094  
  19784558.277  
  20678831.633   108668045.857    20678840.250    84676460.8454   20678840.355  
                
  19556830.188   104432364.244                    81225248.683    19556832.367  
  19556828.469  
  22350714.742   119267710.338                    92763770.275    22350717.801  
  22350712.426  
 21  8 15 20 54 10.0000000  0 17G17G15R14R 4R21G13G14R12G20G 7G 5G 8
                                R22R 3G30R13R 2
  23196067.633   121896166.652    23196073.742    94984053.8384   23196073.855  
                
  23126445.000   121530291.549    23126450.984    94698961.2554   23126451.133  
                
  21567771.055   114968374.189                    89419838.621    21567775.152  
  21567770.809  
  21070324.883   112830657.331                    87757178.608    21070327.430  
  21070324.270  
  23702384.070   126836252.197                    98650417.726    23702386.309  
  23702381.879  
  21095205.047   110856097.223    21095210.859    86381386.8264                 
                
  20292137.289   106635934.479    20292144.066    83092976.0254   20292143.852  
                
  21869951.133   116825395.472                    90864204.164    21869954.508  
  21869950.797  
  24036022.586   126310154.878    24036029.508    98423530.3714                 
                
  22382299.852   117619816.859    22382305.848    91651862.6744   22382305.766  
                
  23226204.336   122054538.507    23226211.035    95107466.0334   23226211.062  
                
  24108251.852   126689739.008    24108260.641    98719331.9214   24108261.172  
                
  22468408.766   119937930.218                    93285048.951    22468410.879  
  22468407.211  
  19787519.367   105924154.767                    82385470.170    19787523.191  
  19787518.406  
  20680292.039   108675720.342    20680300.645    84682440.9584   20680300.754  
                
  19557778.805   104437429.854                    81229188.610    19557780.992  
  19557777.102  
  22359005.000   119311947.998                    92798177.332    22359007.930  
  22359002.582  
 21  8 15 20 54 20.0000000  0 16G17G15R14R 4G13G14R12G20G 7G 5G 8R22
                                R 3G30R13R 2
  23189945.070   121863992.350    23189951.191    94958982.9634   23189951.293  
                
  23120716.328   121500187.138    23120722.375    94675503.2694   23120722.488  
                
  21563002.727   114942956.368                    89400069.238    21563006.797  
  21563002.484  
  21065656.664   112805659.232                    87737735.639    21065659.227  
  21065656.051  
  21091421.719   110836215.720    21091427.504    86365894.7424                 
                
  20290746.961   106628628.201    20290753.688    83087282.8234   20290753.504  
                
  21875595.281   116855545.354                    90887654.070    21875598.605  
  21875594.934  
  24041657.586   126339767.171    24041664.535    98446604.9084                 
                
  22386404.984   117641389.568    22386410.973    91668672.5824   22386410.906  
                
  23229707.180   122072946.081    23229713.906    95121809.5904   23229713.934  
                
  24112998.852   126714684.653    24113007.625    98738770.0874   24113008.168  
                
  22465934.859   119924724.052                    93274777.509    22465936.902  
  22465933.270  
  19790495.672   105940087.102                    82397861.996    19790499.500  
  19790494.707  
  20681758.828   108683428.314    20681767.414    84688447.1674   20681767.527  
                
  19558735.242   104442537.190                    81233160.974    19558737.434  
  19558733.547  
  22367299.523   119356208.930                    92832602.489    22367302.398  
  22367297.109  
 21  8 15 20 54 30.0000000  0 16G17G15R14R 4G13G14R12G20G 7G 5G 8R22
                                R 3G30R13R 2
  23183826.328   121831838.269    23183832.488    94933927.8474   23183832.598  
                
  23114994.461   121470118.482    23115000.520    94652073.1414   23115000.617  
                
  21558240.031   114917568.460                    89380323.082    21558244.070  
  21558239.781  
  21061001.953   112780733.480                    87718348.948    21061004.516  
  21061001.371  
  21087647.305   110816381.076    21087653.074    86350439.1814                 
                
  20289366.914   106621376.010    20289373.598    83081631.7694   20289373.430  
                
  21881241.156   116885704.584                    90911111.248    21881244.438  
  21881240.828  
  24047295.125   126369392.885    24047302.102    98469689.8964                 
                
  22390514.250   117662983.891    22390520.266    91685499.3184   22390520.191  
                
  23233219.258   122091402.216    23233225.992    95136190.9804   23233226.062  
                
  24117755.039   126739678.456    24117763.801    98758245.7854   24117764.352  
                
  22463476.164   119911599.232                    93264569.312    22463478.102  
  22463474.578  
  19793488.133   105956105.971                    82410321.113    19793491.969  
  19793487.176  
  20683231.977   108691169.758    20683240.547    84694479.4624   20683240.656  
                
  19559699.422   104447685.877                    81237165.515    19559701.621  
  19559697.730  
  22375598.438   119400493.190                    92867045.817    22375601.262  
  22375595.984  
 21  8 15 20 54 40.0000000  0 16G17G15R14R 4G13G14R12G20G 7G 5G 8R22
                                R 3G30R13R 2
  23177711.531   121799705.053    23177717.762    94908888.9794   23177717.871  
                
  23109279.492   121440086.126    23109285.527    94628671.2964   23109285.625  
                
  21553483.016   114892210.917                    89360600.534    21553487.020  
  21553482.758  
  21056360.820   112755880.420                    87699018.791    21056363.371  
  21056360.246  
  21083881.891   110796593.714    21083887.648    86335020.4614                 
                
  20287997.250   106614178.345    20288003.895    83076023.2004   20288003.738  
                
  21886888.883   116915873.664                    90934576.094    21886892.137  
  21886888.559  
  24052935.281   126399032.379    24052942.355    98492785.6004                 
                
  22394627.664   117684600.066    22394633.719    91702343.0914   22394633.621  
                
  23236740.633   122109907.167    23236747.363    95150610.4264   23236747.445  
                
  24122520.430   126764720.680    24122529.191    98777759.2124   24122529.723  
                
  22461032.758   119898556.296                    93254424.794    22461034.695  
  22461031.172  
  19796496.789   105972211.490                    82422847.620    19796500.609  
  19796495.824  
  20684711.578   108698945.097    20684720.121    84700538.1674   20684720.242  
                
  19560671.523   104452876.798                    81241202.894    19560673.680  
  19560669.832  
  22383901.609   119444800.919                    92901507.390    22383904.531  
  22383899.223  
 21  8 15 20 54 50.0000000  0 16G17G15R14R 4G13G14R12G20G 7G 5G 8R22
                                R 3G30R13R 2
  23171600.625   121767592.456    23171606.977    94883866.1824   23171607.055  
                
  23103571.383   121410089.826    23103577.395    94605297.5424   23103577.504  
                
  21548731.625   114866883.393                    89340901.386    21548735.648  
  21548731.371  
  21051733.242   112731099.935                    87679745.088    21051735.801  
  21051732.660  
  21080125.430   110776853.393    21080131.191    86319638.3934                 
                
  20286637.883   106607034.824    20286644.488    83070456.8274   20286644.352  
                
  21892538.367   116946052.063                    90958048.177    21892541.570  
  21892538.039  
  24058578.039   126428685.128    24058585.133    98515891.6184                 
                
  22398745.203   117706237.880    22398751.246    91719203.7214   22398751.164  
                
  23240271.273   122128460.748    23240278.023    95165067.7684   23240278.086  
                
  24127294.969   126789810.950    24127303.707    98797310.0934   24127304.230  
                
  22458604.664   119885595.047                    93244343.863    22458606.590  
  22458603.039  
  19799521.594   105988403.467                    82435441.373    19799525.406  
  19799520.633  
  20686197.570   108706753.980    20686206.086    84706623.0124   20686206.211  
                
  19561651.414   104458109.352                    81245272.657    19561653.582  
  19561649.723  
  22392208.984   119489131.567                    92935986.762    22392212.109  
  22392206.738  
 21  8 15 20 55  0.0000000  0 16G17G15R14R 4G13G14R12G20G 7G 5G 8R22
                                R 3G30R13R 2
  23165493.688   121735500.646    23165500.133    94858859.5984   23165500.188  
                
  23097870.164   121380129.729    23097876.223    94581952.0254   23097876.316  
                
  21543985.914   114841586.008                    89321225.631    21543989.926  
  21543985.629  
  21047119.281   112706392.355                    87660528.089    21047121.848  
  21047118.691  
  21076377.953   110757160.281    21076383.719    86304293.1114                 
                
  20285288.844   106599945.543    20285295.402    83064932.7154   20285295.277  
                
  21898189.578   116976239.786                    90981527.515    21898192.742  
  21898189.246  
  24064223.344   126458351.110    24064230.430    98539007.9524                 
                
  22402866.875   117727897.442    22402872.898    91736081.3024   22402872.852  
                
  23243811.133   122147062.783    23243817.926    95179562.8644   23243817.984  
                
  24132078.664   126814949.348    24132087.410    98816898.4564   24132087.922  
                
  22456191.953   119872715.710                    93234326.612    22456193.855  
  22456190.266  
  19802562.531   106004681.803                    82448102.276    19802566.359  
  19802561.570  
  20687689.953   108714596.489    20687698.441    84712734.0564   20687698.578  
                
  19562639.023   104463383.078                    81249374.448    19562641.184  
  19562637.340  
  22400520.680   119533485.081                    92970483.910    22400523.969  
  22400518.547  
 21  8 15 20 55 10.0000000  0 16G17G15R14R 4G13G14R12G20G 7G 5G 8R22
                                R 3G30R13R 2
  23159390.812   121703429.789    23159397.270    94833869.3294   23159397.309  
                
  23092175.836   121350205.919    23092181.996    94558634.7924   23092182.062  
                
  21539245.852   114816318.837                    89301573.384    21539249.852  
  21539245.562  
  21042518.906   112681757.581                    87641367.709    21042521.488  
  21042518.312  
  21072639.484   110737514.490    21072645.258    86288984.7104                 
                
  20283950.109   106592910.463    20283956.613    83059450.8374   20283956.512  
                
  21903842.523   117006436.743                    91005014.037    21903845.660  
  21903842.234  
  24069871.094   126488030.206    24069878.191    98562134.5574                 
                
  22406992.664   117749578.607    22406998.711    91752975.7184   22406998.652  
                
  23247360.195   122165713.161    23247367.012    95194095.6184   23247367.055  
                
  24136871.453   126840135.592    24136880.191    98836524.1114   24136880.699  
                
  22453794.578   119859918.413                    93224373.163    22453796.461  
  22453792.855  
  19805619.594   106021046.484                    82460830.353    19805623.418  
  19805618.641  
  20689188.727   108722472.611    20689197.191    84718871.2954   20689197.344  
                
  19563634.438   104468698.578                    81253508.732    19563636.602  
  19563632.762  
  22408836.703   119577861.409                    93004998.827    22408840.160  
  22408834.621  
 21  8 15 20 55 20.0000000  0 16G17G15R14R 4G13G14R12G20G 7G 5G 8R22
                                R 3G30R13R 2
  23153291.852   121671379.937    23153298.371    94808895.4274   23153298.414  
                
  23086488.453   121320318.528    23086494.668    94535345.9014   23086494.691  
                
  21534511.422   114791081.663                    89281944.478    21534515.402  
  21534511.121  
  21037932.188   112657195.885                    87622264.171    21037934.777  
  21037931.605  
  21068910.047   110717916.147    21068915.836    86273713.2734                 
                
  20282621.695   106585929.578    20282628.148    83054011.1884   20282628.070  
                
  21909497.234   117036643.053                    91028507.832    21909500.340  
  21909496.941  
  24075521.359   126517722.262    24075528.395    98585271.1994                 
                
  22411122.570   117771281.370    22411128.652    91769886.9584   22411128.574  
                
  23250918.422   122184411.748    23250925.234    95208665.9394   23250925.285  
                
  24141673.344   126865369.677    24141682.074    98856187.0474   24141682.570  
                
  22451412.508   119847203.039                    93214483.450    22451414.461  
  22451410.820  
  19808692.766   106037497.343                    82473625.466    19808696.602  
  19808691.797  
  20690693.906   108730382.325    20690702.344    84725034.7084   20690702.504  
                
  19564637.586   104474055.318                    81257675.087    19564639.758  
  19564635.914  
  22417157.016   119622260.564                    93039531.484    22417160.629  
  22417154.957  
 21  8 15 20 55 30.0000000  0 16G17G15R14R 4G13G14R12G20G 7G 5G 8R22
                                R 3G30R13R 2
  23147196.906   121639351.089    23147203.453    94783937.8904   23147203.500  
                
  23080808.000   121290467.585    23080814.258    94512085.4204   23080814.238  
                
  21529782.641   114765874.650                    89262339.054    21529786.617  
  21529782.352  
  21033359.109   112632707.269                    87603217.479    21033361.707  
  21033358.543  
  21065189.617   110698365.199    21065195.418    86258478.7654                 
                
  20281303.586   106579002.863    20281309.992    83048613.7524   20281309.930  
                
  21915153.656   117066858.542                    91052008.758    21915156.738  
  21915153.344  
  24081174.078   126547427.203    24081181.066    98608417.8934                 
                
  22415256.586   117793005.711    22415262.691    91786815.0154   22415262.613  
                
  23254485.812   122203158.457    23254492.617    95223273.7744   23254492.680  
                
  24146484.320   126890651.559    24146493.062    98875887.2224   24146493.551  
                
  22449045.844   119834569.719                    93204657.531    22449047.824  
  22449044.199  
  19811782.016   106054034.312                    82486487.546    19811785.855  
  19811781.047  
  20692205.477   108738325.651    20692213.891    84731224.3104   20692214.051  
                
  19565648.477   104479453.414                    81261873.613    19565650.664  
  19565646.805  
  22425481.539   119666682.089                    93074081.539    22425485.285  
  22425479.504  
 21  8 15 20 55 40.0000000  0 16G17G15R14R 4G13G14R12G20G 7G 5G 8R22
                                R 3G30R13R 2
  23141106.055   121607343.477    23141112.551    94758996.9074   23141112.602  
                
  23075134.508   121260653.209    23075140.789    94488853.4294   23075140.742  
                
  21525059.516   114740697.756                    89242757.002    21525063.469  
  21525059.215  
  21028799.711   112608291.906                    87584227.758    21028802.320  
  21028799.180  
  21061478.234   110678861.801    21061484.043    86243281.3184                 
                
  20279995.789   106572130.303    20280002.137    83043258.5104   20280002.094  
                
  21920811.742   117097083.034                    91075516.714    21920814.797  
  21920811.430  
  24086829.164   126577144.836    24086836.191    98631574.4794                 
                
  22419394.703   117814751.652    22419400.828    91803759.8994   22419400.734  
                
  23258062.320   122221953.162    23258069.141    95237918.9814   23258069.203  
                
  24151304.406   126915981.255    24151313.145    98895624.6354   24151313.641  
                
  22446694.672   119822018.738                    93194895.657    22446696.625  
  22446693.020  
  19814887.352   106070657.398                    82499416.598    19814891.207  
  19814886.383  
  20693723.430   108746302.550    20693731.816    84737440.0774   20693731.988  
                
  19566667.102   104484892.771                    81266104.221    19566669.270  
  19566665.430  
  22433810.250   119711125.792                    93108648.828    22433814.043  
  22433808.223  
 21  8 15 20 55 50.0000000  0 16G17G15R14R 4G13G14R12G20G 7G 5G 8R22
                                R 3G30R13R 2
  23135019.344   121575357.287    23135025.773    94734072.6044   23135025.809  
                
  23069468.023   121230875.653    23069474.312    94465650.1394   23069474.246  
                
  21520342.102   114715551.206                    89223198.592    21520346.035  
  21520341.812  
  21024254.062   112583950.145                    87565295.282    21024256.684  
  21024253.531  
  21057775.945   110659406.110    21057781.785    86228121.0454                 
                
  20278698.328   106565312.061    20278704.613    83037945.5984   20278704.594  
                
  21926471.555   117127316.753                    91099031.816    21926474.617  
  21926471.242  
  24092486.641   126606875.273    24092493.754    98654741.0534                 
                
  22423536.977   117836519.339    22423543.121    91820721.7384   22423542.996  
                
  23261648.008   122240796.037    23261654.844    95252601.7284   23261654.902  
                
  24156133.555   126941358.583    24156142.301    98915399.1684   24156142.777  
                
  22444358.867   119809550.150                    93185197.865    22444360.840  
  22444357.281  
  19818008.758   106087366.513                    82512412.567    19818012.625  
  19818007.785  
  20695247.820   108754313.221    20695256.168    84743682.1554   20695256.359  
                
  19567693.453   104490373.379                    81270366.911    19567695.633  
  19567691.770  
  22442143.203   119755591.532                    93143233.282    22442146.957  
  22442141.090  
 21  8 15 20 56  0.0000000  0 16G17G15R14R 4G13G14R12G20G 7G 5G 8R22
                                R 3G30R13R 2
  23128936.766   121543392.522    23128943.082    94709165.0014   23128943.086  
                
  23063808.508   121201134.724    23063814.840    94442475.4024   23063814.758  
                
  21515630.328   114690434.809                    89203663.615    21515634.250  
  21515630.023  
  21019722.117   112559681.793                    87546419.893    21019724.730  
  21019721.578  
  21054082.703   110639998.032    21054088.570    86212997.8694                 
                
  20277411.148   106558547.904    20277417.379    83032674.8294   20277417.395  
                
  21932133.055   117157559.555                    91122554.000    21932136.137  
  21932132.723  
  24098146.500   126636618.150    24098153.641    98677917.3264                 
                
  22427683.336   117858308.522    22427689.523    91837700.3344   22427689.363  
                
  23265242.773   122259686.576    23265249.582    95267321.6394   23265249.660  
                
  24160971.695   126966783.269    24160980.469    98935210.6224   24160980.930  
                
  22442038.500   119797163.806                    93175564.065    22442040.492  
  22442036.898  
  19821146.227   106104161.610                    82525475.417    19821150.098  
  19821145.246  
  20696778.586   108762357.423    20696786.895    84749950.3634   20696787.098  
                
  19568727.508   104495895.149                    81274661.632    19568729.695  
  19568725.840  
  22450480.156   119800079.261                    93177834.860    22450483.938  
  22450478.074  
 21  8 15 20 56 10.0000000  0 16G17G15R14R 4G13G14R12G20G 7G 5G 8R22
                                R 3G30R13R 2
  23122858.250   121511449.443    23122864.504    94684274.2934   23122864.484  
                
  23058156.039   121171430.816    23058162.398    94419329.5124   23058162.309  
                
  21510924.250   114665348.740                    89184152.243    21510928.160  
  21510923.945  
  21015203.953   112535487.177                    87527601.861    21015206.547  
  21015203.410  
  21050398.586   110620637.875    21050404.473    86197912.0364                 
                
  20276134.305   106551838.038    20276140.488    83027446.3684   20276140.527  
                
  21937796.242   117187811.334                    91146083.150    21937799.348  
  21937795.906  
  24103808.641   126666373.439    24103815.883    98701103.2664                 
                
  22431833.844   117880119.517    22431840.074    91854695.9084   22431839.895  
                
  23268846.664   122278625.026    23268853.426    95282078.8764   23268853.500  
                
  24165818.891   126992255.497    24165827.723    98955059.1184   24165828.145  
                
  22439733.641   119784860.199                    93165994.610    22439735.621  
  22439732.027  
  19824299.750   106121042.656                    82538605.112    19824303.629  
  19824298.746  
  20698315.773   108770435.365    20698324.039    84756244.8624   20698324.266  
                
  19569769.273   104501458.103                    81278988.374    19569771.461  
  19569767.605  
  22458821.352   119844589.180                    93212453.682    22458825.051  
  22458819.238  
 21  8 15 20 56 20.0000000  0 16G17G15R14R 4G13G14R12G20G 7G 5G 8R22
                                R 3G30R13R 2
  23116783.766   121479527.971    23116790.023    94659400.4294   23116789.996  
                
  23052510.602   121141763.826    23052516.961    94396212.3654   23052516.867  
                
  21506223.812   114640292.845                    89164664.324    21506227.742  
  21506223.488  
  21010699.570   112511366.430                    87508841.289    21010702.156  
  21010699.027  
  21046723.562   110601325.502    21046729.469    86182863.4444                 
                
  20274867.758   106545182.272    20274873.883    83022260.0624   20274873.945  
                
  21943461.094   117218072.026                    91169619.249    21943464.223  
  21943460.750  
  24109473.133   126696140.993    24109480.457    98724298.7374                 
                
  22435988.422   117901952.024    22435994.652    91871708.2404   22435994.457  
                
  23272459.633   122297611.168    23272466.344    95296873.2804   23272466.438  
                
  24170675.109   127017775.097    24170684.012    98974944.5254   24170684.402  
                
  22437444.219   119772639.130                    93156489.353    22437446.211  
  22437442.598  
  19827469.297   106138009.457                    82551801.503    19827473.195  
  19827468.273  
  20699859.352   108778546.877    20699867.578    84762565.5204   20699867.832  
                
  19570818.727   104507062.132                    81283347.078    19570820.934  
  19570817.051  
  22467166.672   119889120.779                    93247089.379    22467170.227  
  22467164.492  
 21  8 15 20 56 30.0000000  0 16G17G15R14R 4G13G14R12G20G 7G 5G 8R22
                                R 3G30R13R 2
  23110713.398   121447628.187    23110719.648    94634543.4594   23110719.625  
                
  23046872.211   121112133.920    23046878.570    94373124.1234   23046878.469  
                
  21501529.039   114615267.093                    89145199.843    21501532.984  
  21501528.719  
  21006208.977   112487319.534                    87490138.152    21006211.539  
  21006208.441  
  21043057.656   110582061.087    21043063.562    86167852.2164                 
                
  20273611.508   106538580.627    20273617.582    83017115.9294   20273617.676  
                
  21949127.594   117248341.596                    91193162.222    21949130.766  
  21949127.238  
  24115140.031   126725920.726    24115147.332    98747503.7114                 
                
  22440147.109   117923806.125    22440153.336    91888737.4234   22440153.141  
                
  23276081.656   122316644.980    23276088.309    95311704.8124   23276088.426  
                
  24175540.266   127043341.751    24175549.227    98994866.5914   24175549.598  
                
  22435170.141   119760500.658                    93147048.364    22435172.242  
  22435168.609  
  19830654.836   106155061.913                    82565064.518    19830658.746  
  19830653.809  
  20701409.312   108786691.982    20701417.500    84768912.3544   20701417.766  
                
  19571875.859   104512707.191                    81287737.676    19571878.078  
  19571874.195  
  22475515.969   119933673.682                    93281741.652    22475519.395  
  22475513.707  
 21  8 15 20 56 40.0000000  0 16G17G15R14R 4G13G14R12G20G 7G 5G 8R22
                                R 3G30R13R 2
  23104647.203   121415750.115    23104653.410    94609703.4164   23104653.402  
                
  23041240.859   121082541.010    23041247.254    94350064.7154   23041247.137  
                
  21496839.922   114590271.476                    89125758.847    21496843.898  
  21496839.598  
  21001732.180   112463346.521                    87471492.474    21001734.742  
  21001731.629  
  21039400.867   110562844.528    21039406.781    86152878.2704                 
                
  20272365.531   106532032.983    20272371.562    83012013.8704   20272371.672  
                
  21954795.758   117278619.994                    91216712.075    21954798.980  
  21954795.367  
  24120809.227   126755712.326    24120816.461    98770717.9594                 
                
  22444309.867   117945681.683    22444316.098    91905783.3014   22444315.906  
                
  23279712.703   122335726.178    23279719.285    95326573.2684   23279719.422  
                
  24180414.422   127068955.642    24180423.418    99014825.4624   24180423.789  
                
  22432911.711   119748445.075                    93137671.801    22432913.859  
  22432910.191  
  19833856.336   106172199.824                    82578393.993    19833860.277  
  19833855.312  
  20702965.648   108794870.541    20702973.797    84775285.2584   20702974.090  
                
  19572940.703   104518393.402                    81292160.285    19572942.910  
  19572939.055  
  22483869.227   119978248.036                    93316410.595    22483872.605  
  22483866.961  
 21  8 15 20 56 50.0000000  0 16G17G15R14R 4G13G14R12G20G 7G 5G 8R22
                                R 3G30R13R 2
  23098585.164   121383893.888    23098591.359    94584880.4004   23098591.359  
                
  23035616.594   121052985.446    23035623.055    94327034.4174   23035622.930  
                
  21492156.477   114565306.064                    89106341.280    21492160.473  
  21492156.148  
  20997269.234   112439447.620                    87452904.442    20997271.789  
  20997268.676  
  21035753.234   110543676.138    21035759.164    86137941.8764                 
                
  20271129.867   106525539.510    20271135.867    83006954.0224   20271135.988  
                
  21960465.570   117308907.142                    91240268.740    21960468.828  
  21960465.137  
  24126480.711   126785515.943    24126487.902    98793941.5694                 
                
  22448476.758   117967578.910    22448482.977    91922846.0734   22448482.797  
                
  23283352.797   122354854.920    23283359.340    95341478.7934   23283359.465  
                
  24185297.547   127094616.629    24185306.547    99034821.0304   24185306.941  
                
  22430668.812   119736472.163                    93128359.542    22430670.984  
  22430667.234  
  19837073.852   106189423.327                    82591790.040    19837077.793  
  19837072.824  
  20704528.391   108803082.797    20704536.508    84781684.4184   20704536.812  
                
  19574013.266   104524120.864                    81296614.973    19574015.473  
  19574011.602  
  22492226.508   120022843.819                    93351096.192    22492229.836  
  22492224.223  
 21  8 15 20 57  0.0000000  0 16G17G15R14R 4G13G14R12G20G 7G 5G 8R22
                                R 3G30R13R 2
  23092527.367   121352059.751    23092533.520    94560074.5934   23092533.508  
                
  23029999.453   121023467.155    23030005.969    94304033.1604   23030005.801  
                
  21487478.703   114540370.857                    89086947.285    21487482.727  
  21487478.367  
  20992820.148   112415622.998                    87434374.179    20992822.668  
  20992819.617  
  21032114.766   110524555.855    21032120.703    86123042.9614                 
                
  20269904.477   106519100.035    20269910.453    83001936.2594   20269910.582  
                
  21966136.984   117339202.933                    91263832.133    21966140.270  
  21966136.512  
  24132154.375   126815331.347    24132161.617    98817174.3534                 
                
  22452647.727   117989497.586    22452653.910    91939925.5524   22452653.746  
                
  23287001.875   122374030.874    23287008.371    95356421.0894   23287008.527  
                
  24190189.547   127120324.242    24190198.559    99054852.9484   24190198.980  
                
  22428441.406   119724582.214                    93119111.814    22428443.668  
  22428439.844  
  19840307.289   106206732.132                    82605252.446    19840311.234  
  19840306.270  
  20706097.500   108811328.543    20706105.586    84788109.6734   20706105.906  
                
  19575093.375   104529888.582                    81301100.990    19575095.590  
  19575091.707  
  22500587.680   120067460.729                    93385798.227    22500591.008  
  22500585.398  
 21  8 15 20 57 10.0000000  0 16G17G15R14R 4G13G14R12G20G 7G 5G 8R22
                                R 3G30R13R 2
  23086473.836   121320248.073    23086479.969    94535286.2894   23086479.949  
                
  23024389.453   120993986.453    23024395.992    94281061.1914   23024395.801  
                
  21482806.617   114515466.054                    89067576.885    21482810.645  
  21482806.285  
  20988384.992   112391872.977                    87415901.948    20988387.480  
  20988384.473  
  21028485.500   110505483.999    21028491.453    86108181.7794                 
                
  20268689.422   106512714.859    20268695.383    82996960.7944   20268695.508  
                
  21971810.078   117369507.665                    91287402.475    21971813.383  
  21971809.582  
  24137830.234   126845158.641    24137837.555    98840416.3934                 
                
  22456822.820   118011437.925    22456828.996    91957021.9314   22456828.859  
                
  23290659.945   122393254.089    23290666.387    95371400.2244   23290666.551  
                
  24195090.523   127146079.038    24195099.535    99074921.6244   24195099.969  
                
  22426229.625   119712775.347                    93109928.727    22426231.848  
  22426228.043  
  19843556.711   106224126.503                    82618781.390    19843560.656  
  19843555.699  
  20707673.047   108819608.122    20707681.109    84794561.2874   20707681.434  
                
  19576181.211   104535697.588                    81305619.108    19576183.414  
  19576179.527  
  22508952.828   120112098.755                    93420516.685    22508956.141  
  22508950.527  
 21  8 15 20 57 20.0000000  0 16G17G15R14R 4G13G14R12G20G 7G 5G 8R22
                                R 3G30R13R 2
  23080424.516   121288458.590    23080430.629    94510515.2774   23080430.609  
                
  23018786.570   120964543.145    23018793.137    94258118.3464   23018792.926  
                
  21478140.188   114490591.391                    89048229.947    21478144.219  
  21478139.863  
  20983963.734   112368197.394                    87397487.616    20983966.211  
  20983963.215  
  21024865.422   110486460.373    21024871.379    86093358.1794                 
                
  20267484.625   106506383.637    20267490.559    82992027.3754   20267490.695  
                
  21977484.781   117399820.910                    91310979.431    21977488.102  
  21977484.289  
  24143508.422   126874997.393    24143515.641    98863667.3804                 
                
  22461001.992   118033399.706    22461008.172    91974135.0024   22461008.051  
                
  23294326.945   122412524.247    23294333.332    95386415.9304   23294333.496  
                
  24200000.336   127171880.383    24200009.355    99095026.5584   24200009.793  
                
  22424033.344   119701051.503                    93100810.156    22424035.527  
  22424031.754  
  19846822.047   106241606.104                    82632376.633    19846825.996  
  19846821.039  
  20709254.969   108827921.187    20709263.004    84801039.0014   20709263.348  
                
  19577276.711   104541547.550                    81310169.081    19577278.926  
  19577275.004  
  22517321.844   120156757.523                    93455251.272    22517325.180  
  22517319.543  
