     2.11           OBSERVATION DATA    M (MIXED)           RINEX VERSION / TYPE
EFT-CORS.RU                             20210817 145343 UTC PGM / RUN BY / DATE 
MDNG                                                        MARKER NAME         
                                                            MARKER NUMBER       
MDNG                EFT-CORS.RU                             OBSERVER / AGENCY   
0                   TRIMBLE BD970       2.0                 REC # / TYPE / VERS 
0                   UNKNOWN EXT NONE                        ANT # / TYPE        
  3463911.2830  3030468.2400  4402179.3760                  APPROX POSITION XYZ 
        0.0000        0.0000        0.0000                  ANTENNA: DELTA H/E/N
     1     1                                                WAVELENGTH FACT L1/2
     6    C1    L1    P2    L2    C2    P1                  # / TYPES OF OBSERV 
    10.000                                                  INTERVAL            
  2021     8    15    17    30    0.0000000     GPS         TIME OF FIRST OBS   
  2021     8    15    18    30    0.0000000     GPS         TIME OF LAST OBS    
     0                                                      RCV CLOCK OFFS APPL 
                                                            END OF HEADER       
 21  8 15 17 30  0.0000000  0 14G16R 1G 4R 8R12G20G 7R10G 2G 6G30G 9
                                G 3R 2
  22393419.359   117678248.510    22393425.422    91697373.9974                 
                
  19511139.508   104298251.937                    81120880.777    19511144.688  
  19511138.750  
  21487680.883   112918577.592    21487688.781    87988563.9594   21487688.492  
                
  22509386.227   120536775.860                    93750832.768    22509389.551  
  22509385.641  
  20541667.648   109729926.983                    85345502.061    20541671.918  
  20541667.066  
  23856583.859   125367191.831    23856590.797    97688752.8954                 
                
  21085640.109   110805819.453    21085646.840    86342253.1314   21085646.645  
                
  22852639.844   121817455.146                                                  
  22852639.027  
  24710168.586   129852818.594    24710174.387   101184030.9314                 
                
  23757632.578   124847175.639    23757643.188    97283565.5244   23757643.520  
                
  23532171.375   123662413.184    23532181.613    96360375.1284   23532181.746  
                
  20349984.203   106939929.339    20349992.105    83329869.6714   20349991.852  
                
  24557897.148   129052652.132    24557907.492   100560553.1834   24557908.000  
                
  20726862.836   110602533.745                    86024190.180    20726865.867  
  20726860.641  
 21  8 15 17 30 10.0000000  0 14G16R 1G 4R 8R12G20G 7R10G 2G 6G30G 9
                                G 3R 2
  22396074.844   117692203.277    22396080.949    91708247.8414                 
                
  19513245.148   104309507.804                    81129635.331    19513250.309  
  19513244.402  
  21491244.969   112937306.981    21491252.875    88003158.2844   21491252.586  
                
  22515736.977   120570783.278                    93777282.981    22515740.203  
  22515736.324  
  20535631.867   109697685.020                    85320424.990    20535636.133  
  20535631.277  
  23850533.773   125335398.611    23850540.750    97663978.9784                 
                
  21082936.484   110791611.852    21082943.242    86331182.2774   21082943.047  
                
  22860232.633   121857929.069                                                  
  22860231.828  
  24711236.617   129858431.179    24711242.523   101188404.3544                 
                
  23762167.469   124871006.477    23762178.070    97302134.9824   23762178.414  
                
  23526436.539   123632276.321    23526446.742    96336891.8754   23526446.871  
                
  20349728.086   106938583.440    20349735.973    83328820.9184   20349735.730  
                
  24565171.633   129090879.336    24565181.883   100590340.6194   24565182.379  
                
  20721251.289   110572589.540                    86000900.250    20721254.324  
  20721249.098  
 21  8 15 17 30 20.0000000  0 14G16R 1G 4R 8R12G20G 7R10G 2G 6G30G 9
                                G 3R 2
  22398743.492   117706227.217    22398749.637    91719175.5974                 
                
  19515362.453   104320825.980                    81138438.351    19515367.625  
  19515361.715  
  21494814.633   112956065.697    21494822.535    88017775.4494   21494822.266  
                
  22522093.500   120604822.566                    93803757.980    22522096.816  
  22522092.902  
  20529606.859   109665500.607                    85295392.678    20529611.105  
  20529606.266  
  23844489.484   125303635.934    23844496.492    97639228.8664                 
                
  21080239.969   110777441.627    21080246.754    86320140.5554   21080246.551  
                
  22867829.484   121898424.784                                                  
  22867828.695  
  24712314.023   129864093.077    24712319.992   101192816.1974                 
                
  23766709.117   124894872.783    23766719.703    97320732.0874   23766720.059  
                
  23520705.750   123602160.717    23520715.914    96313425.1844   23520716.043  
                
  20349479.281   106937275.989    20349487.152    83327802.1284   20349486.910  
                
  24572447.805   129129115.481    24572457.934   100620135.0244   24572458.457  
                
  20715645.008   110542673.376                    85977632.127    20715648.059  
  20715642.809  
 21  8 15 17 30 30.0000000  0 14G16R 1G 4R 8R12G20G 7R10G 2G 6G30G 9
                                G 3R 2
  22401425.297   117720320.280    22401431.449    91730157.2124                 
                
  19517491.422   104332206.538                    81147289.894    19517496.594  
  19517490.703  
  21498389.883   112974853.772    21498397.781    88032415.5134   21498397.516  
                
  22528455.977   120638893.893                    93830257.878    22528459.426  
  22528455.422  
  20523592.641   109633373.863                    85270405.231    20523596.891  
  20523592.047  
  23838451.070   125271903.923    23838458.074    97614502.6404                 
                
  21077550.570   110763308.767    21077557.375    86309127.9494   21077557.172  
                
  22875430.492   121938942.404                                                  
  22875429.766  
  24713400.812   129869804.243    24713406.750   101197266.4864                 
                
  23771257.484   124918774.462    23771268.055    97339356.7544   23771268.398  
                
  23514979.016   123572066.462    23514989.168    96289975.1274   23514989.293  
                
  20349237.820   106936007.072    20349245.676    83326813.3614   20349245.438  
                
  24579725.688   129167360.629    24579735.719   100649936.4304   24579736.242  
                
  20710044.000   110512785.389                    85954385.949    20710047.082  
  20710041.793  
 21  8 15 17 30 40.0000000  0 14G16R 1G 4R 8R12G20G 7R10G 2G 6G30G 9
                                G 3R 2
  22404120.266   117734482.539    22404126.414    91741192.7554                 
                
  19519632.062   104343649.493                    81156189.964    19519637.242  
  19519631.336  
  21501970.750   112993671.333    21501978.652    88047078.5424   21501978.398  
                
  22534824.633   120672997.287                    93856782.732    22534828.000  
  22534823.992  
  20517589.312   109601305.191                    85245462.943    20517593.555  
  20517588.727  
  23832418.516   125240202.806    23832425.516    97589800.4844                 
                
  21074868.328   110749213.492    21074875.145    86298144.6274   21074874.945  
                
  22883035.609   121979481.786                                                  
  22883034.910  
  24714496.992   129875564.777    24714502.867   101201755.2014                 
                
  23775812.602   124942711.580    23775823.133    97358009.0404   23775823.477  
                
  23509256.359   123541993.741    23509266.516    96266541.8554   23509266.625  
                
  20349003.711   106934776.818    20349011.555    83325854.7224   20349011.312  
                
  24587005.250   129205614.732    24587015.230   100679744.8224   24587015.758  
                
  20704448.188   110482925.103                    85931161.288    20704451.277  
  20704446.000  
 21  8 15 17 30 50.0000000  0 14G16R 1G 4R 8R12G20G 7R10G 2G 6G30G 9
                                G 3R 2
  22406828.336   117748713.598    22406834.473    91752281.9024                 
                
  19521784.344   104355154.703                    81165138.448    19521789.543  
  19521783.617  
  21505557.164   113012518.038    21505565.070    88061764.2764   21505564.820  
                
  22541199.273   120707132.511                    93883332.350    22541202.492  
  22541198.574  
  20511596.781   109569294.173                    85220565.493    20511601.016  
  20511596.199  
  23826391.781   125208532.337    23826398.770    97565122.2194                 
                
  21072193.156   110735155.443    21072199.984    86287190.3104   21072199.785  
                
  22890644.664   122020042.322                                                  
  22890643.977  
  24715602.500   129881374.302    24715608.340   101206282.0934                 
                
  23780374.359   124966683.692    23780384.887    97376688.5734   23780385.223  
                
  23503537.734   123511942.231    23503547.887    96243125.1144   23503547.996  
                
  20348776.906   106933584.940    20348784.738    83324925.9824   20348784.492  
                
  24594286.406   129243877.420    24594296.375   100709559.9064   24594296.898  
                
  20698857.711   110453093.254                    85907958.749    20698860.789  
  20698855.535  
 21  8 15 17 31  0.0000000  0 14G16R 1G 4R 8R12G20G 7R10G 2G 6G30G 9
                                G 3R 2
  22409549.562   117763013.792    22409555.680    91763424.9124                 
                
  19523948.367   104366722.605                    81174135.710    19523953.578  
  19523947.641  
  21509149.195   113031394.257    21509157.098    88076473.0084   21509156.852  
                
  22547579.867   120741299.776                    93909906.891    22547583.004  
  22547579.129  
  20505615.133   109537341.337                    85195713.304    20505619.367  
  20505614.555  
  23820371.016   125176893.046    23820377.969    97540468.2344                 
                
  21069525.164   110721135.064    21069532.000    86276265.3484   21069531.801  
                
  22898257.797   122060624.483                                                  
  22898257.090  
  24716717.398   129887233.172    24716723.273   101210847.4334                 
                
  23784942.789   124990690.988    23784953.355    97395395.5464   23784953.699  
                
  23497823.227   123481912.347    23497833.406    96219725.2304   23497833.516  
                
  20348557.469   106932431.812    20348565.285    83324027.4454   20348565.039  
                
  24601569.242   129282148.970    24601579.254   100739381.8924   24601579.762  
                
  20693272.625   110423290.179                    85884778.578    20693275.691  
  20693270.441  
 21  8 15 17 31 10.0000000  0 14G16R 1G 4R 8R12G20G 7R10G 2G 6G30G 9
                                G 3R 2
  22412283.836   117777382.603    22412289.949    91774621.4064                 
                
  19526123.992   104378352.561                    81183181.218    19526129.219  
  19526123.281  
  21512746.750   113050299.569    21512754.672    88091204.4164   21512754.422  
                
  22553966.281   120775498.376                    93936505.801    22553969.383  
  22553965.504  
  20499644.344   109505446.536                    85170906.249    20499648.582  
  20499643.777  
  23814356.117   125145284.642    23814363.023    97515838.2974                 
                
  21066864.242   110707151.908    21066871.086    86265369.3934   21066870.875  
                
  22905874.852   122101227.679                                                  
  22905874.152  
  24717841.602   129893140.928    24717847.547   101215450.8384                 
                
  23789517.828   125014733.025    23789528.414    97414129.5714   23789528.746  
                
  23492112.758   123451903.738    23492122.973    96196341.9114   23492123.062  
                
  20348345.344   106931317.095    20348353.148    83323158.8344   20348352.902  
                
  24608853.680   129320428.927    24608863.703   100769210.4234   24608864.211  
                
  20687692.820   110393515.384                    85861620.416    20687695.891  
  20687690.648  
 21  8 15 17 31 20.0000000  0 14G16R 1G 4R 8R12G20G 7R10G 2G 6G30G 9
                                G 3R 2
  22415031.234   117791820.320    22415037.320    91785871.5754                 
                
  19528311.305   104390044.969                    81192275.321    19528316.547  
  19528310.621  
  21516349.906   113069234.295    21516357.855    88105958.7414   21516357.586  
                
  22560358.617   120809729.056                    93963129.651    22560361.777  
  22560357.871  
  20493684.477   109473610.039                    85146144.540    20493688.723  
  20493683.918  
  23808347.180   125113707.528    23808354.066    97491232.7724                 
                
  21064210.492   110693206.331    21064217.348    86254502.7174   21064217.121  
                
  22913495.805   122141851.916                                                  
  22913495.109  
  24718975.188   129899097.850    24718981.152   101220092.6204                 
                
  23794099.555   125038809.995    23794110.113    97432890.8354   23794110.445  
                
  23486406.383   123421916.766    23486416.645    96172975.4584   23486416.727  
                
  20348140.594   106930241.107    20348148.387    83322320.4054   20348148.141  
                
  24616139.742   129358717.521    24616149.809   100799045.6844   24616150.328  
                
  20682118.398   110363769.231                    85838484.534    20682121.477  
  20682116.242  
 21  8 15 17 31 30.0000000  0 14G16R 1G 4R 8R12G20G 7R10G 2G 6G30G 9
                                G 3R 2
  22417791.711   117806326.759    22417797.766    91797175.2984                 
                
  19530510.305   104401799.871                    81201418.005    19530515.562  
  19530509.637  
  21519958.625   113088198.273    21519966.578    88120735.8514   21519966.312  
                
  22566756.992   120843991.302                    93989778.055    22566760.059  
  22566756.191  
  20487735.523   109441831.812                    85121428.155    20487739.789  
  20487734.969  
  23802344.195   125082161.696    23802351.043    97466651.6084                 
                
  21061563.859   110679298.234    21061570.730    86243665.2464   21061570.500  
                
  22921120.766   122182497.183                                                  
  22921120.039  
  24720118.078   129905103.759    24720124.070   101224772.5314                 
                
  23798687.805   125062921.653    23798698.391    97451679.1184   23798698.727  
                
  23480704.070   123391951.288    23480714.375    96149625.7514   23480714.469  
                
  20347943.180   106929203.717    20347950.961    83321512.0484   20347950.719  
                
  24623427.484   129397014.515    24623437.500   100828887.4864   24623438.027  
                
  20676549.312   110334051.592                    85815370.809    20676552.402  
  20676547.156  
 21  8 15 17 31 40.0000000  0 14G16R 1G 4R 8R12G20G 7R10G 2G 6G30G 9
                                G 3R 2
  22420565.242   117820901.829    22420571.262    91808532.5164                 
                
  19532720.938   104413616.967                    81210609.084    19532726.219  
  19532720.289  
  21523572.906   113107191.464    21523580.855    88135535.7344   21523580.582  
                
  22573161.242   120878285.069                    94016450.997    22573164.266  
  22573160.402  
  20481797.484   109410111.946                    85096757.175    20481801.758  
  20481796.941  
  23796347.156   125050647.160    23796353.992    97442094.8344                 
                
  21058924.328   110665427.512    21058931.203    86232856.9014   21058930.977  
                
  22928749.617   122223163.182                                                  
  22928748.859  
  24721270.258   129911158.542    24721276.266   101229490.5394                 
                
  23803282.641   125087067.841    23803293.234    97470494.3064   23803293.586  
                
  23475005.820   123362007.318    23475016.191    96126292.8214   23475016.301  
                
  20347753.117   106928204.932    20347760.891    83320733.7734   20347760.648  
                
  24630716.703   129435319.820    24630726.789   100858735.7634   24630727.312  
                
  20670985.641   110304362.847                    85792279.586    20670988.738  
  20670983.488  
 21  8 15 17 31 50.0000000  0 14G16R 1G 4R 8R12G20G 7R10G 2G 6G30G 9
                                G 3R 2
  22423351.891   117835545.751    22423357.883    91819943.3694                 
                
  19534943.320   104425496.852                    81219848.987    19534948.629  
  19534942.672  
  21527192.789   113126214.127    21527200.723    88150358.5864   21527200.457  
                
  22579571.391   120912610.660                    94043148.687    22579574.414  
  22579570.570  
  20475870.453   109378450.833                    85072131.890    20475874.750  
  20475869.918  
  23790356.148   125019164.201    23790363.016    97417562.6804                 
                
  21056291.969   110651594.375    21056298.824    86222077.8474   21056298.609  
                
  22936382.383   122263849.885                                                  
  22936381.570  
  24722431.805   129917262.431    24722437.789   101234246.8324                 
                
  23807884.047   125111248.701    23807894.688    97489336.5254   23807895.020  
                
  23469311.773   123332085.214    23469322.219    96102976.9344   23469322.312  
                
  20347570.461   106927245.028    20347578.230    83319985.8074   20347577.996  
                
  24638007.516   129473633.598    24638017.703   100888590.6514   24638018.211  
                
  20665427.469   110274703.404                    85769211.133    20665430.547  
  20665425.309  
 21  8 15 17 32  0.0000000  0 14G16R 1G 4R 8R12G20G 7R10G 2G 6G30G 9
                                G 3R 2
  22426151.531   117850258.020    22426157.480    91831407.4804                 
                
  19537177.336   104437438.905                    81229137.239    19537182.668  
  19537176.688  
  21530818.203   113145265.809    21530826.109    88165204.0454   21530825.855  
                
  22585987.250   120946967.527                    94069870.645    22585990.418  
  22585986.523  
  20469954.359   109346848.185                    85047552.072    20469958.672  
  20469953.852  
  23784371.078   124987712.519    23784377.969    97393054.8754                 
                
  21053666.688   110637798.461    21053673.516    86211327.7854   21053673.312  
                
  22944019.023   122304557.209                                                  
  22944018.191  
  24723602.609   129923415.059    24723608.637   101239041.0534                 
                
  23812492.008   125135463.746    23812502.645    97508205.3634   23812502.961  
                
  23463621.828   123302184.552    23463632.277    96079677.7294   23463632.387  
                
  20347395.117   106926323.628    20347402.879    83319267.8264   20347402.645  
                
  24645299.906   129511955.357    24645310.102   100918451.7584   24645310.613  
                
  20659874.664   110245072.622                    85746164.983    20659877.727  
  20659872.508  
 21  8 15 17 32 10.0000000  0 14G16R 1G 4R 8R12G20G 7R10G 2G 6G30G 9
                                G 3R 2
  22428964.211   117865038.738    22428970.086    91842924.9354                 
                
  19539423.023   104449443.360                    81238474.027    19539428.379  
  19539422.391  
  21534449.172   113164346.683    21534457.047    88180072.2514   21534456.812  
                
  22592409.102   120981355.776                    94096617.045    22592412.273  
  22592408.332  
  20464049.242   109315304.117                    85023017.809    20464053.539  
  20464048.770  
  23778392.039   124956292.398    23778398.941    97368571.6634                 
                
  21051048.523   110624039.956    21051055.316    86200606.8794   21051055.113  
                
  22951659.430   122345284.943                                                  
  22951658.613  
  24724782.688   129929616.456    24724788.770   101243873.2964                 
                
  23817106.508   125159712.949    23817117.094    97527100.8474   23817117.422  
                
  23457935.992   123272305.515    23457946.461    96056395.3844   23457946.578  
                
  20347227.133   106925440.887    20347234.875    83318579.9834   20347234.652  
                
  24652593.875   129550285.178    24652604.027   100948319.1424   24652604.566  
                
  20654327.312   110215470.934                    85723141.465    20654330.363  
  20654325.160  
 21  8 15 17 32 20.0000000  0 14G16R 1G 4R 8R12G20G 7R10G 2G 6G30G 9
                                G 3R 2
  22431789.938   117879887.974    22431795.719    91854495.7684                 
                
  19541680.406   104461510.361                    81247859.476    19541685.793  
  19541679.789  
  21538085.727   113183456.856    21538093.574    88194963.2844   21538093.348  
                
  22598836.836   121015775.703                    94123388.092    22598840.027  
  22598836.051  
  20458155.133   109283818.857                    84998529.289    20458159.410  
  20458154.676  
  23772419.062   124924904.110    23772425.977    97344113.2584                 
                
  21048437.500   110610318.973    21048444.258    86189915.2144   21048444.062  
                
  22959303.641   122386032.876                                                  
  22959302.816  
  24725972.062   129935866.696    24725978.184   101248743.6134                 
                
  23821727.492   125183996.403    23821738.023    97546022.9994   23821738.391  
                
  23452254.297   123242448.287    23452264.773    96033130.0384   23452264.902  
                
  20347066.539   106924596.961    20347074.258    83317922.3844   20347074.043  
                
  24659889.352   129588623.104    24659899.477   100978192.8444   24659900.031  
                
  20648785.508   110185898.856                    85700140.967    20648788.527  
  20648783.355  
 21  8 15 17 32 30.0000000  0 14G16R 1G 4R 8R12G20G 7R10G 2G 6G30G 9
                                G 3R 2
  22434628.633   117894805.366    22434634.363    91866119.7204                 
                
  19543949.430   104473639.580                    81257293.303    19543954.836  
  19543948.812  
  21541727.789   113202596.056    21541735.613    88209876.9374   21541735.395  
                
  22605270.547   121050226.888                    94150183.429    22605273.625  
  22605269.660  
  20452272.031   109252392.422                    84974086.511    20452276.273  
  20452271.590  
  23766452.094   124893547.476    23766459.027    97319679.5224                 
                
  21045833.570   110596635.297    21045840.289    86179252.6144   21045840.105  
                
  22966951.609   122426800.771                                                  
  22966950.785  
  24727170.688   129942165.513    24727176.809   101253651.7784                 
                
  23826354.914   125208313.690    23826365.395    97564971.5104   23826365.777  
                
  23446576.750   123212612.650    23446587.199    96009881.5064   23446587.340  
                
  20346913.281   106923791.616    20346920.977    83317294.8434   20346920.766  
                
  24667186.312   129626968.807    24667196.410   101008072.6054   24667196.965  
                
  20643249.109   110156355.613                    85677162.902    20643252.098  
  20643246.949  
 21  8 15 17 32 40.0000000  0 14G16R 1G 4R 8R12G20G 7R10G 2G 6G30G 9
                                G 3R 2
  22437480.352   117909791.237    22437486.043    91877797.0254                 
                
  19546230.164   104485831.386                    81266775.826    19546235.586  
  19546229.555  
  21545375.445   113221764.567    21545383.238    88224813.4334   21545383.039  
                
  22611710.117   121084709.325                    94177003.111    22611713.004  
  22611709.141  
  20446400.000   109221025.052                    84949689.669    20446404.227  
  20446399.543  
  23760491.242   124862222.855    23760498.195    97295270.7444                 
                
  21043236.781   110582989.102    21043243.461    86168619.2294   21043243.301  
                
  22974603.359   122467588.735                                                  
  22974602.547  
  24728378.594   129948513.058    24728384.719   101258597.9124                 
                
  23830988.789   125232665.021    23830999.320    97583946.5394   23830999.699  
                
  23440903.406   123182798.899    23440913.812    95986650.0354   23440913.961  
                
  20346767.438   106923025.195    20346775.113    83316697.6354   20346774.930  
                
  24674484.719   129665322.505    24674494.867   101037958.6024   24674495.426  
                
  20637718.258   110126841.991                    85654207.861    20637721.215  
  20637716.090  
 21  8 15 17 32 50.0000000  0 14G16R 1G 4R 8R12G20G 7R10G 2G 6G30G 9
                                G 3R 2
  22440345.070   117924845.366    22440350.734    91889527.5234                 
                
  19548522.594   104498085.700                    81276306.946    19548528.020  
  19548521.992  
  21549028.656   113240962.289    21549036.414    88239772.6864   21549036.215  
                
  22618155.398   121119223.058                    94203847.126    22618158.215  
  22618154.402  
  20440539.016   109189716.797                    84925338.833    20440543.246  
  20440538.559  
  23754536.500   124830930.280    23754543.469    97270886.9354                 
                
  21040647.125   110569380.403    21040653.762    86158015.0594   21040653.625  
                
  22982258.844   122508396.489                                                  
  22982258.016  
  24729595.766   129954909.236    24729601.934   101263581.9604                 
                
  23835629.156   125257050.147    23835639.691    97602947.9294   23835640.055  
                
  23435234.227   123153007.019    23435244.559    95963435.6014   23435244.711  
                
  20346628.977   106922297.582    20346636.645    83316130.6644   20346636.457  
                
  24681784.633   129703684.004    24681794.832   101067850.6754   24681795.387  
                
  20632192.984   110097358.094                    85631275.952    20632195.914  
  20632190.820  
 21  8 15 17 33  0.0000000  0 14G16R 1G 4R 8R12G20G 7R10G 2G 6G30G 9
                                G 3R 2
  22443222.750   117939967.678    22443228.371    91901311.1524                 
                
  19550826.695   104510402.417                    81285886.607    19550832.133  
  19550826.102  
  21552687.406   113260189.131    21552695.113    88254754.6284   21552694.930  
                
  22624606.336   121153767.867                    94230715.324    22624609.207  
  22624605.453  
  20434689.109   109158467.723                    84901034.018    20434693.344  
  20434688.648  
  23748587.820   124799669.775    23748594.840    97246528.1214                 
                
  21038064.578   110555809.073    21038071.176    86147440.0124   21038071.051  
                
  22989918.039   122549224.158                                                  
  22989917.223  
  24730822.172   129961354.024    24730828.461   101268603.8434                 
                
  23840275.844   125281468.912    23840286.449    97621975.5134   23840286.816  
                
  23429569.188   123123236.929    23429579.406    95940238.1334   23429579.566  
                
  20346497.891   106921608.751    20346505.559    83315593.9144   20346505.379  
                
  24689086.055   129742053.138    24689096.238   101097748.6944   24689096.793  
                
  20626673.289   110067903.995                    85608367.216    20626676.203  
  20626671.137  
 21  8 15 17 33 10.0000000  0 14G16R 1G 4R 8R12G20G 7R10G 2G 6G30G 9
                                G 3R 2
  22446113.422   117955158.213    22446118.980    91913147.9374                 
                
  19553142.523   104522781.750                    81295514.969    19553147.984  
  19553141.949  
  21556351.742   113279445.247    21556359.391    88269759.3914   21556359.238  
                
  22631063.086   121188343.902                    94257607.782    22631066.059  
  22631062.332  
  20428850.312   109127277.914                    84876775.284    20428854.531  
  20428849.836  
  23742645.305   124768441.558    23742652.305    97222194.4474                 
                
  21035489.195   110542275.326    21035495.750    86136894.2474   21035495.629  
                
  22997580.914   122590071.580                                                  
  22997580.145  
  24732057.852   129967847.583    24732064.211   101273663.7284                 
                
  23844929.008   125305921.364    23844939.641    97641029.3334   23844940.027  
                
  23423908.336   123093488.832    23423918.469    95917057.8084   23423918.660  
                
  20346374.219   106920958.835    20346381.895    83315087.4874   20346381.723  
                
  24696388.922   129780430.008    24696399.125   101127652.7384   24696399.684  
                
  20621159.141   110038479.417                    85585481.446    20621162.062  
  20621156.992  
 21  8 15 17 33 20.0000000  0 14G16R 1G 4R 8R12G20G 7R10G 2G 6G30G 9
                                G 3R 2
  22449016.992   117970416.587    22449022.500    91925037.5884                 
                
  19555469.969   104535223.352                    81305191.763    19555475.434  
  19555469.391  
  21560021.562   113298730.258    21560029.160    88284786.6674   21560029.039  
                
  22637525.680   121222950.936                    94284524.353    22637528.676  
  22637524.984  
  20423022.594   109096147.363                    84852562.647    20423026.805  
  20423022.094  
  23736708.898   124737245.445    23736715.855    97197885.7874                 
                
  21032920.883   110528778.808    21032927.383    86126377.4774   21032927.277  
                
  23005247.359   122630938.088                                                  
  23005246.602  
  24733302.711   129974389.398    24733309.039   101278761.2724                 
                
  23849588.508   125330407.025    23849599.145    97660109.0474   23849599.535  
                
  23418251.594   123063762.406    23418261.637    95893894.3714   23418261.852  
                
  20346257.883   106920347.551    20346265.562    83314611.1604   20346265.395  
                
  24703693.164   129818814.160    24703703.379   101157562.4634   24703703.914  
                
  20615650.578   110009084.703                    85562618.888    20615653.496  
  20615648.414  
 21  8 15 17 33 30.0000000  0 14G16R 1G 4R 8R12G20G 7R10G 2G 6G30G 9
                                G 3R 2
  22451933.531   117985743.056    22451938.973    91936980.2944                 
                
  19557809.133   104547727.427                    81314917.151    19557814.578  
  19557808.555  
  21563696.969   113318044.532    21563704.547    88299836.7474   21563704.430  
                
  22643994.266   121257588.859                    94311464.956    22643997.086  
  22643993.496  
  20417206.016   109065076.244                    84828396.243    20417210.223  
  20417205.504  
  23730778.672   124706081.833    23730785.578    97173602.4524                 
                
  21030359.734   110515319.857    21030366.180    86115889.9914   21030366.090  
                
  23012917.492   122671824.055                                                  
  23012916.711  
  24734556.828   129980979.643    24734563.078   101283896.5424                 
                
  23854254.422   125354926.122    23854265.031    97679214.8194   23854265.434  
                
  23412599.062   123034058.067    23412609.035    95870748.1454   23412609.266  
                
  20346148.984   106919775.265    20346156.672    83314165.2274   20346156.496  
                
  24710998.820   129857205.876    24711009.082   101187478.0804   24711009.617  
                
  20610147.633   109979719.919                    85539779.619    20610150.566  
  20610145.453  
 21  8 15 17 33 40.0000000  0 14G16R 1G 4R 8R12G20G 7R10G 2G 6G30G 9
                                G 3R 2
  22454862.992   118001137.467    22454868.371    91948975.9484                 
                
  19560160.016   104560294.224                    81324691.329    19560165.453  
  19560159.434  
  21567377.930   113337388.008    21567385.484    88314909.5724   21567385.387  
                
  22650468.414   121292257.798                    94338429.698    22650471.289  
  22650467.727  
  20411400.586   109034064.775                    84804276.225    20411404.785  
  20411400.070  
  23724854.609   124674950.732    23724861.457    97149344.4414                 
                
  21027805.711   110501898.383    21027812.105    86105431.7054   21027812.039  
                
  23020591.273   122712729.426                                                  
  23020590.480  
  24735820.148   129987618.330    24735826.414   101289069.5264                 
                
  23858926.648   125379478.519    23858937.238    97698346.5344   23858937.641  
                
  23406950.688   123004375.779    23406960.641    95847619.1044   23406960.879  
                
  20346047.492   106919241.953    20346055.188    83313749.6574   20346055.008  
                
  24718305.930   129895605.016    24718316.180   101217399.4864   24718316.691  
                
  20604650.367   109950385.501                    85516963.971    20604653.324  
  20604648.203  
 21  8 15 17 33 50.0000000  0 14G16R 1G 4R 8R12G20G 7R10G 2G 6G30G 9
                                G 3R 2
  22457805.359   118016599.755    22457810.660    91961024.5004                 
                
  19562522.570   104572923.434                    81334514.045    19562528.004  
  19562521.988  
  21571064.422   113356760.585    21571071.969    88330005.0804   21571071.887  
                
  22656948.055   121326957.706                    94365418.492    22656951.258  
  22656947.582  
  20405606.344   109003113.026                    84780202.660    20405610.531  
  20405605.805  
  23718936.758   124643852.303    23718943.539    97125111.9294                 
                
  21025258.820   110488514.400    21025265.184    86095002.6384   21025265.125  
                
  23028268.602   122753653.713                                                  
  23028267.812  
  24737092.656   129994305.345    24737098.988   101294280.1754                 
                
  23863605.148   125404064.032    23863615.762    97717504.0544   23863616.156  
                
  23401306.445   122974715.484    23401316.438    95824507.2224   23401316.664  
                
  20345953.398   106918747.546    20345961.105    83313364.4144   20345960.930  
                
  24725614.430   129934011.449    24725624.656   101247326.5814   24725625.180  
                
  20599158.688   109921080.912                    85494171.545    20599161.660  
  20599156.512  
 21  8 15 17 34  0.0000000  0 14G16R 1G 4R 8R12G20G 7R10G 2G 6G30G 9
                                G 3R 2
  22460760.633   118032129.820    22460765.895    91973125.8624                 
                
  19564896.820   104585615.161                    81344385.380    19564902.242  
  19564896.219  
  21574756.461   113376162.307    21574764.016    88345123.3004   21574763.922  
                
  22663433.703   121361688.624                    94392431.413    22663437.020  
  22663433.297  
  20399823.289   108972221.033                    84756175.577    20399827.473  
  20399822.738  
  23713025.164   124612786.648    23713031.859    97100904.9254                 
                
  21022719.070   110475167.923    21022725.410    86084602.7924   21022725.352  
                
  23035949.469   122794596.998                                                  
  23035948.656  
  24738374.359   130001040.682    24738380.703   101299528.4674                 
                
  23868289.922   125428682.579    23868300.578    97736687.3124   23868300.973  
                
  23395666.422   122945077.322    23395676.465    95801412.5744   23395676.672  
                
  20345866.727   106918292.141    20345874.438    83313009.5544   20345874.270  
                
  24732924.367   129972425.128    24732934.535   101277259.3154   24732935.055  
                
  20593672.734   109891806.811                    85471402.794    20593675.699  
  20593670.562  
 21  8 15 17 34 10.0000000  0 14G16R 1G 4R 8R12G20G 7R10G 2G 6G30G 9
                                G 3R 2
  22463728.828   118047727.780    22463734.074    91985280.1154                 
                
  19567282.805   104598369.571                    81354305.494    19567288.219  
  19567282.188  
  21578454.055   113395593.221    21578461.629    88360264.2674   21578461.520  
                
  22669925.172   121396450.354                    94419468.313    22669928.574  
  22669924.797  
  20394051.477   108941389.094                    84732195.182    20394055.656  
  20394050.957  
  23707119.859   124581753.884    23707126.488    97076723.5624                 
                
  21020186.461   110461858.972    21020192.781    86074232.1914   21020192.711  
                
  23043633.859   122835559.258                                                  
  23043633.027  
  24739665.266   130007824.357    24739671.551   101304814.4754                 
                
  23872980.922   125453334.102    23872991.656    97755896.2814   23872992.043  
                
  23390030.648   122915461.398    23390040.746    95778335.2444   23390040.941  
                
  20345787.500   106917875.784    20345795.219    83312685.1274   20345795.051  
                
  24740235.711   130010846.059    24740245.777   101307197.6844   24740246.324  
                
  20588192.578   109862563.651                    85448658.117    20588195.543  
  20588190.422  
 21  8 15 17 34 20.0000000  0 14G16R 1G 4R 8R12G20G 7R10G 2G 6G30G 9
                                G 3R 2
  22466709.891   118063393.348    22466715.145    91997487.0554                 
                
  19569680.438   104611186.276                    81364274.022    19569685.820  
  19569679.820  
  21582157.164   113415053.128    21582164.766    88375427.8104   21582164.652  
                
  22676422.297   121431242.584                    94446528.917    22676425.848  
  22676421.953  
  20388290.844   108910616.895                    84708261.267    20388295.023  
  20388290.328  
  23701220.773   124550753.891    23701227.332    97052567.7444                 
                
  21017660.977   110448587.409    21017667.281    86063890.7174   21017667.211  
                
  23051321.680   122876539.929                                                  
  23051320.828  
  24740965.352   130014656.192    24740971.602   101310137.9854                 
                
  23877678.180   125478018.297    23877688.941    97775130.6914   23877689.336  
                
  23384399.055   122885867.465    23384409.199    95755275.0524   23384409.367  
                
  20345715.664   106917498.319    20345723.379    83312390.9934   20345723.219  
                
  24747548.273   130049273.915    24747558.355   101337141.4774   24747558.898  
                
  20582718.062   109833350.653                    85425936.915    20582721.027  
  20582715.910  
 21  8 15 17 34 30.0000000  0 14G16R 1G 4R 8R12G20G 7R10G 2G 6G30G 9
                                G 3R 2
  22469703.812   118079126.514    22469709.078    92009746.6884                 
                
  19572089.734   104624065.414                    81374291.125    19572095.086  
  19572089.094  
  21585865.805   113434542.096    21585873.445    88390614.0114   21585873.312  
                
  22682925.312   121466065.580                    94473613.455    22682928.883  
  22682924.906  
  20382541.461   108879904.756                    84684374.052    20382545.648  
  20382540.949  
  23695327.969   124519786.898    23695334.438    97028437.6214                 
                
  21015142.594   110435353.233    21015148.891    86053578.3834   21015148.812  
                
  23059012.977   122917539.151                                                  
  23059012.117  
  24742274.594   130021536.186    24742280.855   101315499.0134                 
                
  23882381.586   125502735.171    23882392.445    97794390.5594   23882392.871  
                
  23378771.695   122856295.704    23378781.883    95732232.1534   23378782.035  
                
  20345651.250   106917159.858    20345658.965    83312127.2604   20345658.801  
                
  24754862.133   130087708.750    24754872.266   101367090.6864   24754872.801  
                
  20577249.305   109804168.329                    85403239.552    20577252.246  
  20577247.156  
 21  8 15 17 34 40.0000000  0 14G16R 1G 4R 8R12G20G 7R10G 2G 6G30G 9
                                G 3R 2
  22472710.586   118094927.245    22472715.863    92022058.9464                 
                
  19574510.758   104637007.176                    81384356.941    19574516.090  
  19574510.105  
  21589579.969   113454060.107    21589587.613    88405822.8474   21589587.477  
                
  22689434.172   121500919.272                    94500721.862    22689437.590  
  22689433.617  
  20376803.336   108849252.777                    84660533.641    20376807.531  
  20376802.832  
  23689441.438   124488852.943    23689447.820    97004333.2464                 
                
  21012631.312   110422156.369    21012637.617    86043295.1204   21012637.523  
                
  23066707.820   122958557.020                                                  
  23066706.957  
  24743592.969   130028464.262    24743599.234   101320897.4844                 
                
  23887091.234   125527484.534    23887102.121    97813675.7564   23887102.555  
                
  23373148.578   122826746.136    23373158.809    95709206.5324   23373158.945  
                
  20345594.258   106916860.421    20345601.961    83311893.9334   20345601.809  
                
  24762177.312   130126150.465    24762187.508   101397045.2504   24762188.031  
                
  20571786.250   109775016.454                    85380565.884    20571789.176  
  20571784.113  
 21  8 15 17 34 50.0000000  0 14G16R 1G 4R 8R12G20G 7R10G 2G 6G30G 9
                                G 3R 2
  22475730.219   118110795.554    22475735.508    92034423.8694                 
                
  19576943.484   104650011.507                    81394471.415    19576948.781  
  19576942.816  
  21593299.680   113473607.256    21593307.324    88421054.3754   21593307.207  
                
  22695948.586   121535803.398                    94527853.952    22695951.996  
  22695947.953  
  20371076.477   108818660.973                    84636740.038    20371080.680  
  20371075.984  
  23683561.250   124457952.294    23683567.547    96980254.8094                 
                
  21010127.164   110408996.995    21010133.484    86033041.0764   21010133.383  
                
  23074406.133   122999593.170                                                  
  23074405.262  
  24744920.508   130035440.452    24744926.750   101326333.4854                 
                
  23891807.086   125552266.413    23891818.000    97832986.2884   23891818.426  
                
  23367529.711   122797218.886    23367540.008    95686198.3124   23367540.125  
                
  20345544.719   106916600.106    20345552.410    83311691.0924   20345552.277  
                
  24769493.789   130164599.043    24769504.066   101427005.1664   24769504.574  
                
  20566329.070   109745895.949                    85357916.603    20566331.980  
  20566326.973  
 21  8 15 17 35  0.0000000  0 14G16R 1G 4R 8R12G20G 7R10G 2G 6G30G 9
                                G 3R 2
  22478762.656   118126731.138    22478767.945    92046841.2264                 
                
  19579387.914   104663078.405                    81404634.553    19579393.191  
  19579387.219  
  21597024.922   113493183.435    21597032.590    88436308.5434   21597032.453  
                
  22702468.641   121570718.240                    94555009.931    22702472.102  
  22702468.016  
  20365360.938   108788129.672                    84612993.485    20365365.137  
  20365360.453  
  23677687.414   124427084.964    23677693.594    96956202.3444                 
                
  21007630.148   110395875.079    21007636.492    86022816.2144   21007636.375  
                
  23082107.875   123040647.361                                                  
  23082106.973  
  24746257.188   130042464.652    24746263.422   101331806.8984                 
                
  23896529.125   125577080.652    23896540.078    97852322.0344   23896540.492  
                
  23361915.117   122767713.936    23361925.469    95663207.4654   23361925.547  
                
  20345502.617   106916378.875    20345510.297    83311518.7094   20345510.184  
                
  24776811.609   130203054.351    24776821.898   101456970.3384   24776822.387  
                
  20560877.633   109716806.052                    85335291.140    20560880.539  
  20560875.535  
 21  8 15 17 35 10.0000000  0 14G16R 1G 4R 8R12G20G 7R10G 2G 6G30G 9
                                G 3R 2
  22481807.883   118142733.942    22481813.164    92059310.9484                 
                
  19581844.008   104676207.634                    81414846.183    19581849.270  
  19581843.277  
  21600755.648   113512788.484    21600763.324    88451585.1924   21600763.191  
                
  22708994.430   121605663.533                    94582189.598    22708997.875  
  22708993.770  
  20359656.680   108757658.610                    84589293.781    20359660.871  
  20359656.195  
  23671819.898   124396250.849    23671825.992    96932175.7534                 
                
  21005140.227   110382790.476    21005146.598    86012620.4234   21005146.457  
                
  23089812.914   123081719.517                                                  
  23089811.996  
  24747602.961   130049536.625    24747609.227   101337317.5354                 
                
  23901257.227   125601926.910    23901268.234    97871682.7334   23901268.637  
                
  23356304.719   122738231.106    23356315.121    95640233.8564   23356315.172  
                
  20345467.922   106916196.579    20345475.598    83311376.6594   20345475.492  
                
  24784130.625   130241516.123    24784140.984   101486940.5454   24784141.453  
                
  20555432.039   109687747.362                    85312689.954    20555434.922  
  20555429.941  
 21  8 15 17 35 20.0000000  0 14G16R 1G 4R 8R12G20G 7R10G 2G 6G30G 9
                                G 3R 2
  22484865.922   118158804.115    22484871.195    92071833.1754                 
                
  19584311.805   104689399.483                    81425106.494    19584317.035  
  19584311.023  
  21604491.930   113532422.694    21604499.605    88466884.5634   21604499.457  
                
  22715525.914   121640638.987                    94609392.733    22715529.281  
  22715525.172  
  20353963.758   108727248.096                    84565641.177    20353967.938  
  20353963.246  
  23665958.750   124365450.434    23665964.875    96908175.4554                 
                
  21002657.461   110369743.489    21002663.875    86002453.9494   21002663.719  
                
  23097521.305   123122809.662                                                  
  23097520.383  
  24748957.898   130056656.674    24748964.168   101342865.6144                 
                
  23905991.445   125626805.287    23906002.516    97891068.4614   23906002.879  
                
  23350698.625   122708770.792    23350709.066    95617277.7874   23350709.090  
                
  20345440.695   106916053.522    20345448.375    83311265.1934   20345448.262  
                
  24791451.039   130279984.600    24791461.367   101516915.9814   24791461.797  
                
  20549992.328   109658720.044                    85290113.147    20549995.199  
  20549990.242  
 21  8 15 17 35 30.0000000  0 14G16R 1G 4R 8R12G20G 7R10G 2G 6G30G 9
                                G 3R 2
  22487936.766   118174941.547    22487942.043    92084407.7894                 
                
  19586791.312   104702653.926                    81435415.515    19586796.531  
  19586790.504  
  21608233.703   113552085.853    21608241.398    88482206.4984   21608241.234  
                
  22722063.008   121675644.955                    94636619.595    22722066.391  
  22722062.258  
  20348282.156   108696898.081                    84542035.627    20348286.316  
  20348281.625  
  23660104.008   124334683.598    23660110.148    96884201.3174                 
                
  21000181.812   110356733.929    21000188.270    85992316.6444   21000188.086  
                
  23105233.055   123163917.517                                                  
  23105232.086  
  24750321.930   130063824.544    24750328.191   101348450.9804                 
                
  23910731.758   125651715.704    23910742.832    97910479.1524   23910743.195  
                
  23345096.758   122679332.772    23345107.230    95594339.0964   23345107.254  
                
  20345420.906   106915949.560    20345428.590    83311184.1814   20345428.473  
                
  24798772.602   130318459.507    24798782.957   101546896.4324   24798783.355  
                
  20544558.430   109629723.747                    85267560.475    20544561.312  
  20544556.359  
 21  8 15 17 35 40.0000000  0 14G16R 1G 4R 8R12G20G 7R10G 2G 6G30G 9
                                G 3R 2
  22491020.391   118191146.127    22491025.699    92097034.7514                 
                
  19589282.492   104715970.764                    81445773.038    19589287.703  
  19589281.664  
  21611981.008   113571778.026    21611988.703    88497551.0274   21611988.547  
                
  22728605.664   121710681.201                    94663869.990    22728609.164  
  22728604.953  
  20342611.961   108666608.972                    84518477.449    20342616.113  
  20342611.422  
  23654255.680   124303950.438    23654261.812    96860253.4054                 
                
  20997713.297   110343761.842    20997719.805    85982208.5324   20997719.613  
                
  23112948.156   123205043.051                                                  
  23112947.129  
  24751695.062   130071040.252    24751701.289   101354073.6104                 
                
  23915478.203   125676657.996    23915489.250    97929914.6954   23915489.605  
                
  23339499.156   122649917.183    23339509.656    95571417.8884   23339509.691  
                
  20345408.578   106915884.775    20345416.266    83311133.6964   20345416.152  
                
  24806095.383   130356940.827    24806105.754   101576881.8744   24806106.148  
                
  20539130.492   109600759.171                    85245032.489    20539133.387  
  20539128.406  
 21  8 15 17 35 50.0000000  0 14G16R 1G 4R 8R12G20G 7R10G 2G 6G30G 9
                                G 3R 2
  22494116.797   118207417.934    22494122.113    92109714.0914                 
                
  19591785.414   104729350.338                    81456179.363    19591790.648  
  19591784.586  
  21615733.828   113591499.237    21615741.547    88512918.1944   21615741.379  
                
  22735154.008   121745747.718                    94691143.923    22735157.562  
  22735153.344  
  20336953.164   108636380.722                    84494966.591    20336957.289  
  20336952.613  
  23648413.797   124273251.135    23648419.848    96836331.8664                 
                
  20995251.906   110330827.200    20995258.465    85972129.5994   20995258.270  
                
  23120666.500   123246186.341                                                  
  23120665.477  
  24753077.289   130078303.817    24753083.488   101359733.5344                 
                
  23920230.633   125701632.125    23920241.688    97949375.0264   23920242.039  
                
  23333905.859   122620524.143    23333916.355    95548514.2354   23333916.398  
                
  20345403.711   106915859.241    20345411.402    83311113.7974   20345411.297  
                
  24813419.320   130395428.536    24813429.789   101606872.2914   24813430.148  
                
  20533708.359   109571825.742                    85222528.716    20533711.281  
  20533706.301  
 21  8 15 17 36  0.0000000  0 14G16R 1G 4R 8R12G20G 7R10G 2G 6G30G 9
                                G 3R 2
  22497225.938   118223756.603    22497231.246    92122445.5244                 
                
  19594300.016   104742792.335                    81466634.252    19594305.254  
  19594299.191  
  21619492.148   113611249.339    21619499.887    88528307.8794   21619499.711  
                
  22741708.023   121780844.217                    94718441.216    22741711.551  
  22741707.332  
  20331305.734   108606213.290                    84471503.045    20331309.848  
  20331305.176  
  23642578.320   124242585.595    23642584.273    96812436.6484                 
                
  20992797.641   110317930.006    20992804.246    85962079.8504   20992804.043  
                
  23128388.109   123287346.915                                                  
  23128387.086  
  24754468.578   130085614.989    24754474.836   101365430.5604                 
                
  23924989.047   125726637.805    23925000.105    97968859.9554   23925000.488  
                
  23328316.773   122591153.465    23328327.238    95525628.0114   23328327.312  
                
  20345406.281   106915872.803    20345413.980    83311124.3654   20345413.867  
                
  24820744.461   130433922.416    24820755.000   101636867.5174   24820755.309  
                
  20528292.203   109542924.109                    85200049.685    20528295.133  
  20528290.137  
 21  8 15 17 36 10.0000000  0 14G16R 1G 4R 8R12G20G 7R10G 2G 6G30G 9
                                G 3R 2
  22500347.852   118240162.417    22500353.188    92135229.2594                 
                
  19596826.383   104756297.196                    81477138.015    19596831.629  
  19596825.578  
  21623256.023   113631028.633    21623263.793    88543720.3014   21623263.605  
                
  22748267.672   121815971.308                    94745762.298    22748271.281  
  22748267.031  
  20325669.750   108576106.941                    84448087.002    20325673.863  
  20325669.168  
  23636749.336   124211954.280    23636755.258    96788568.1084                 
                
  20990350.555   110305070.499    20990357.203    85952059.4664   20990356.984  
                
  23136113.039   123328524.861                                                  
  23136111.969  
  24755869.000   130092974.090    24755875.305   101371164.9314                 
                
  23929753.508   125751675.246    23929764.617    97988369.6304   23929764.996  
                
  23322732.055   122561805.542    23322742.430    95502759.5144   23322742.543  
                
  20345416.375   106915925.834    20345424.082    83311165.6844   20345423.969  
                
  24828070.836   130472422.686    24828081.422   101666867.7164   24828081.691  
                
  20522882.008   109514054.331                    85177595.424    20522884.934  
  20522879.910  
 21  8 15 17 36 20.0000000  0 14G16R 1G 4R 8R12G20G 7R10G 2G 6G30G 9
                                G 3R 2
  22503482.484   118256635.113    22503487.859    92148065.1314                 
                
  19599364.445   104769864.587                    81487690.434    19599369.695  
  19599363.656  
  21627025.406   113650836.817    21627033.203    88559155.2354   21627033.004  
                
  22754832.844   121851128.439                    94773106.715    22754836.633  
  22754832.309  
  20320045.188   108546061.655                    84424718.464    20320049.320  
  20320044.582  
  23630926.828   124181356.997    23630932.762    96764726.0794                 
                
  20987910.578   110292248.381    20987917.258    85942068.2164   20987917.020  
                
  23143841.117   123369719.778                                                  
  23143840.043  
  24757278.461   130100380.778    24757284.754   101376936.3684                 
                
  23934523.945   125776744.033    23934535.078    98007903.7374   23934535.449  
                
  23317151.586   122532480.110    23317161.906    95479908.5424   23317162.039  
                
  20345433.914   106916018.046    20345441.637    83311237.5424   20345441.520  
                
  24835398.297   130510928.995    24835409.016   101696872.6134   24835409.230  
                
  20517477.742   109485216.150                    85155165.741    20517480.664  
  20517475.637  
 21  8 15 17 36 30.0000000  0 14G16R 1G 4R 8R12G20G 7R10G 2G 6G30G 9
                                G 3R 2
  22506629.836   118273174.569    22506635.234    92160953.0284                 
                
  19601914.203   104783494.433                    81498291.426    19601919.445  
  19601913.418  
  21630800.297   113670673.951    21630808.102    88574612.7284   21630807.895  
                
  22761403.781   121886315.514                    94800474.428    22761407.613  
  22761403.273  
  20314432.055   108516077.427                    84401397.417    20314436.207  
  20314431.434  
  23625110.836   124150793.866    23625116.781    96740910.6704                 
                
  20985477.719   110279463.656    20985484.434    85932106.1124   20985484.184  
                
  23151572.484   123410931.943                                                  
  23151571.387  
  24758696.961   130107835.027    24758703.188   101382744.8824                 
                
  23939300.328   125801844.119    23939311.520    98027462.2214   23939311.840  
                
  23311575.398   122503177.259    23311585.688    95457075.1664   23311585.824  
                
  20345458.922   106916149.506    20345466.660    83311339.9804   20345466.539  
                
  24842726.930   130549441.265    24842737.707   101726882.1574   24842737.898  
                
  20512079.508   109456410.189                    85132761.115    20512082.441  
  20512077.402  
 21  8 15 17 36 40.0000000  0 14G16R 1G 4R 8R12G20G 7R10G 2G 6G30G 9
                                G 3R 2
  22509789.859   118289780.692    22509795.289    92173892.8844                 
                
  19604475.664   104797186.907                    81508941.125    19604480.906  
  19604474.906  
  21634580.688   113690539.999    21634588.488    88590092.7564   21634588.289  
                
  22767980.266   121921532.543                    94827865.428    22767984.160  
  22767979.805  
  20308830.383   108486154.429                    84378123.992    20308834.555  
  20308829.746  
  23619301.391   124120265.075    23619307.348    96717122.0084                 
                
  20983051.977   110266716.360    20983058.727    85922173.1674   20983058.473  
                
  23159306.914   123452160.779                                                  
  23159305.852  
  24760124.523   130115336.825    24760130.699   101388590.4414                 
                
  23944082.609   125826975.366    23944093.844    98047044.9844   23944094.164  
                
  23306003.523   122473897.022    23306013.773    95434259.4234   23306013.918  
                
  20345491.406   106916320.242    20345499.156    83311473.0174   20345499.031  
                
  24850056.703   130587959.487    24850067.512   101756896.3414   24850067.695  
                
  20506687.320   109427636.477                    85110381.574    20506690.242  
  20506685.199  
 21  8 15 17 36 50.0000000  0 14G16R 1G 4R 8R12G20G 7R10G 2G 6G30G 9
                                G 3R 2
  22512962.586   118306453.528    22512968.023    92186884.6874                 
                
  19607048.805   104810941.798                    81519639.361    19607054.047  
  19607048.066  
  21638366.578   113710434.955    21638374.375    88605595.3094   21638374.176  
                
  22774562.398   121956779.637                    94855279.832    22774566.328  
  22774561.910  
  20303240.203   108456292.789                    84354898.295    20303244.371  
  20303239.566  
  23613498.477   124089770.631    23613504.465    96693360.1264                 
                
  20980633.352   110254006.441    20980640.129    85912269.3454   20980639.871  
                
  23167044.445   123493406.252                                                  
  23167043.430  
  24761561.141   130122886.149    24761567.332   101394473.0304                 
                
  23948870.812   125852137.655    23948882.090    98066651.9454   23948882.402  
                
  23300435.953   122444639.416    23300446.160    95411461.2974   23300446.336  
                
  20345531.375   106916530.270    20345539.133    83311636.6774   20345539.008  
                
  24857387.672   130626483.497    24857398.398   101786915.0414   24857398.590  
                
  20501301.133   109398894.730                    85088026.887    20501304.055  
  20501299.004  
 21  8 15 17 37  0.0000000  0 13G16R 1G 4R 8R12G20G 7R10G 2G 6G30G 9
                                R 2
  22516147.875   118323192.332    22516153.336    92199927.9334                 
                
  19609633.539   104824758.645                    81530385.799    19609638.797  
  19609632.840  
  21642157.852   113730358.165    21642165.602    88621119.8884   21642165.410  
                
  22781149.773   121992055.828                    94882716.859    22781153.914  
  22781149.355  
  20297661.398   108426491.938                    84331719.870    20297665.555  
  20297660.773  
  23607701.961   124059309.960    23607707.992    96669624.5564                 
                
  20978221.719   110241333.289    20978228.504    85902394.1704   20978228.246  
                
  23174784.930   123534667.750                                                  
  23174783.980  
  24763006.648   130130482.201    24763012.871   101400392.0004                 
                
  23953664.789   125877330.235    23953676.082    98086282.5104   23953676.375  
                
  23294872.570   122415403.860    23294882.766    95388680.3644   23294882.961  
                
  20345578.695   106916778.985    20345586.461    83311830.4784   20345586.332  
                
  20495920.844   109370184.530                    85065696.728    20495923.770  
  20495918.707  
 21  8 15 17 37 10.0000000  0 13G16R 1G 4R 8R12G20G 7R10G 2G 6G30G 9
                                R 2
  22519345.898   118339998.129    22519351.387    92213023.3784                 
                
  19612230.070   104838638.559                    81541181.290    19612235.320  
  19612229.398  
  21645954.719   113750310.834    21645962.418    88636667.4054   21645962.266  
                
  22787742.781   122027362.153                    94910177.325    22787747.129  
  22787742.449  
  20292094.219   108396753.158                    84308589.717    20292098.371  
  20292093.609  
  23601912.125   124028884.370    23601918.176    96645916.3354                 
                
  20975817.328   110228698.148    20975824.105    85892548.6164   20975823.855  
                
  23182528.656   123575946.253                                                  
  23182527.703  
  24764461.242   130138126.066    24764467.496   101406348.2324                 
                
  23958464.805   125902554.254    23958476.020    98105937.5644   23958476.324  
                
  23289313.617   122386191.545    23289323.824    95365917.5504   23289324.016  
                
  20345633.609   106917067.577    20345641.391    83312055.3574   20345641.254  
                
  20490546.727   109341507.252                    85043392.193    20490549.664  
  20490544.578  
 21  8 15 17 37 20.0000000  0 13G16R 1G 4R 8R12G20G 7R10G 2G 6G30G 9
                                R 2
  22522556.602   118356870.515    22522562.113    92226170.7024                 
                
  19614838.305   104852581.012                    81552025.416    19614843.559  
  19614837.652  
  21649757.094   113770292.414    21649764.766    88652237.4624   21649764.617  
                
  22794341.438   122062698.387                    94937661.064    22794345.914  
  22794341.199  
  20286538.594   108367076.100                    84285507.577    20286542.746  
  20286537.977  
  23596128.930   123998493.543    23596135.047    96622235.1974                 
                
  20973420.070   110216100.498    20973426.828    85882732.2744   20973426.598  
                
  23190275.547   123617241.232                                                  
  23190274.562  
  24765924.812   130145817.253    24765931.062   101412341.3484                 
                
  23963270.625   125927809.002    23963281.824    98125616.5694   23963282.102  
                
  23283759.039   122357002.063    23283769.246    95343172.5164   23283769.422  
                
  20345696.016   106917395.583    20345703.816    83312310.9464   20345703.664  
                
  20485178.703   109312862.528                    85021112.981    20485181.656  
  20485176.543  
 21  8 15 17 37 30.0000000  0 13G16R 1G 4R 8R12G20G 7R10G 2G 6G30G 9
                                R 2
  22525779.961   118373809.352    22525785.496    92239369.7884                 
                
  19617458.242   104866586.071                    81562918.240    19617463.520  
  19617457.594  
  21653564.961   113790302.873    21653572.602    88667830.0274   21653572.465  
                
  22800945.766   122098064.483                    94965168.009    22800950.277  
  22800945.570  
  20280994.523   108337460.746                    84262473.422    20280998.680  
  20280993.879  
  23590352.352   123968137.544    23590358.512    96598581.1944                 
                
  20971029.938   110203540.322    20971036.668    85872945.1284   20971036.449  
                
  23198025.414   123658552.426                                                  
  23198024.406  
  24767397.391   130153555.648    24767403.598   101418371.2744                 
                
  23968082.352   125953094.356    23968093.477    98145319.4354   23968093.758  
                
  23278208.781   122327835.350    23278219.004    95320445.2334   23278219.168  
                
  20345765.930   106917762.979    20345773.754    83312597.2254   20345773.598  
                
  20479816.805   109284250.473                    84998859.167    20479819.785  
  20479814.625  
 21  8 15 17 37 40.0000000  0 13G16R 1G 4R 8R12G20G 7R10G 2G 6G30G 9
                                R 2
  22529015.930   118390814.479    22529021.488    92252620.5364                 
                
  19620089.867   104880653.559                    81573859.616    19620095.160  
  19620089.230  
  21657378.328   113810342.194    21657385.945    88683445.0644   21657385.836  
                
  22807555.539   122133459.980                    94992697.831    22807560.141  
  22807555.410  
  20275462.031   108307907.234                    84239487.373    20275466.195  
  20275461.391  
  23584582.422   123937816.418    23584588.648    96574954.3684                 
                
  20968646.938   110191017.579    20968653.633    85863187.1554   20968653.430  
                
  23205778.320   123699879.667                                                  
  23205777.320  
  24768878.945   130161341.298    24768885.141   101424438.0064                 
                
  23972899.945   125978410.190    23972910.977    98165046.0464   23972911.258  
                
  23272662.922   122298691.471    23272673.102    95297735.7304   23272673.277  
                
  20345843.336   106918169.785    20345851.176    83312914.2194   20345851.000  
                
  20474461.047   109255671.145                    84976630.827    20474464.043  
  20474458.820  
 21  8 15 17 37 50.0000000  0 13G16R 1G 4R 8R12G20G 7R10G 2G 6G30G 9
                                R 2
  22532264.500   118407885.810    22532270.070    92265922.8864                 
                
  19622733.211   104894783.736                    81584849.757    19622738.523  
  19622732.570  
  21661197.156   113830410.273    21661204.801    88699082.5254   21661204.672  
                
  22814170.859   122168885.035                    95020250.633    22814175.520  
  22814170.754  
  20269941.086   108278415.436                    84216549.316    20269945.250  
  20269940.449  
  23578819.078   123907530.092    23578825.379    96551354.6554                 
                
  20966271.031   110178532.126    20966277.680    85853458.2374   20966277.488  
                
  23213534.211   123741222.934                                                  
  23213533.223  
  24770369.477   130169174.020    24770375.672   101430541.4304                 
                
  23977723.180   126003756.336    23977734.195    98184796.2714   23977734.480  
                
  23267121.391   122269570.356    23267131.559    95275043.9654   23267131.734  
                
  20345928.234   106918615.931    20345936.094    83313261.8644   20345935.914  
                
  20469111.422   109227124.574                    84954427.957    20469114.422  
  20469109.168  
 21  8 15 17 38  0.0000000  0 13G16R 1G 4R 8R12G20G 7R10G 2G 6G30G 9
                                R 2
  22535525.672   118425023.359    22535531.242    92279276.8304                 
                
  19625388.250   104908976.413                    81595888.503    19625393.578  
  19625387.613  
  21665021.492   113850507.238    21665029.152    88714742.4844   21665029.016  
                
  22820791.953   122204339.745                    95047826.480    22820796.422  
  22820791.633  
  20264431.766   108248985.658                    84193659.505    20264435.926  
  20264431.141  
  23573062.430   123877278.886    23573068.738    96527782.2704                 
                
  20963902.258   110166084.141    20963908.855    85843758.5194   20963908.688  
                
  23221293.086   123782581.949                                                  
  23221292.105  
  24771868.984   130177053.868    24771875.172   101436681.5804                 
                
  23982552.172   126029132.799    23982563.195    98204570.1194   23982563.512  
                
  23261584.227   122240472.194    23261594.375    95252370.0784   23261594.555  
                
  20346020.648   106919101.573    20346028.516    83313640.2894   20346028.328  
                
  20463768.031   109198611.281                    84932250.954    20463771.035  
  20463765.781  
 21  8 15 17 38 10.0000000  0 13G16R 1G 4R 8R12G20G 7R10G 2G 6G30G 9
                                R 2
  22538799.430   118442227.106    22538804.977    92292682.3584                 
                
  19628054.977   104923231.627                    81606975.882    19628060.320  
  19628054.328  
  21668851.320   113870633.125    21668858.980    88730424.9844   21668858.844  
                
  22827418.328   122239823.705                    95075425.121    22827422.777  
  22827418.008  
  20258934.070   108219618.035                    84170818.032    20258938.234  
  20258933.449  
  23567312.484   123847062.923    23567318.801    96504237.3934                 
                
  20961540.625   110153673.688    20961547.160    85834088.0454   20961547.016  
                
  23229054.906   123823956.675                                                  
  23229053.887  
  24773377.445   130184980.888    24773383.625   101442858.4444                 
                
  23987387.031   126054539.499    23987397.941    98224367.5294   23987398.250  
                
  23256051.414   122211397.033    23256061.562    95229714.1294   23256061.730  
                
  20346120.594   106919626.787    20346128.453    83314049.5504   20346128.270  
                
  20458430.805   109170130.853                    84910099.499    20458433.793  
  20458428.582  
 21  8 15 17 38 20.0000000  0 13G16R 1G 4R 8R12G20G 7R10G 2G 6G30G 9
                                R 2
  22542085.766   118459496.925    22542091.285    92306139.3774                 
                
  19630733.430   104937549.493                    81618112.006    19630738.785  
  19630732.766  
  21672686.641   113890787.849    21672694.324    88746129.9554   21672694.180  
                
  22834050.312   122275337.467                    95103046.915    22834054.695  
  22834049.977  
  20253448.023   108190312.614                    84148024.935    20253452.172  
  20253447.410  
  23561569.281   123816882.257    23561575.598    96480720.0034                 
                
  20959186.125   110141300.698    20959192.594    85824446.7594   20959192.484  
                
  23236819.656   123865347.084                                                  
  23236818.598  
  24774894.852   130192954.840    24774901.020   101449071.9024                 
                
  23992227.445   126079976.258    23992238.383    98244188.3714   23992238.727  
                
  23250523.000   122182344.883    23250533.141    95207076.1124   23250533.309  
                
  20346228.055   106920191.516    20346235.895    83314489.5954   20346235.723  
                
  20453099.781   109141683.548                    84887973.830    20453102.766  
  20453097.555  
 21  8 15 17 38 30.0000000  0 13G16R 1G 4R 8R12G20G 7R10G 2G 6G30G 9
                                R 2
  22545384.648   118476832.686    22545390.125    92319647.7724                 
                
  19633423.609   104951930.070                    81629296.888    19633428.965  
  19633422.922  
  21676527.469   113910971.518    21676535.191    88761857.4694   21676535.031  
                
  22840687.680   122310880.385                    95130691.426    22840692.012  
  22840687.332  
  20247973.656   108161069.620                    84125280.398    20247977.793  
  20247973.055  
  23555832.812   123786737.058    23555839.176    96457230.2824                 
                
  20956838.766   110128965.244    20956845.168    85814834.7264   20956845.078  
                
  23244587.273   123906753.047                                                  
  23244586.238  
  24776421.219   130200975.841    24776427.414   101455322.0534                 
                
  23997073.617   126105443.087    23997084.527    98264032.6364   23997084.902  
                
  23244998.945   122153315.808    23245009.113    95184456.0764   23245009.281  
                
  20346343.055   106920795.874    20346350.879    83314960.5254   20346350.727  
                
  20447775.031   109113269.763                    84865874.228    20447778.004  
  20447772.793  
 21  8 15 17 38 40.0000000  0 13G16R 1G 4R 8R12G20G 7R10G 2G 6G30G 9
                                R 2
  22548696.070   118494234.306    22548701.527    92333207.4874                 
                
  19636125.492   104966373.169                    81640530.407    19636130.848  
  19636124.773  
  21680373.773   113931183.911    21680381.504    88777607.3874   21680381.336  
                
  22847330.547   122346452.699                    95158358.796    22847334.871  
  22847330.203  
  20242510.961   108131888.886                    84102584.290    20242515.082  
  20242510.379  
  23550103.109   123756627.299    23550109.496    96433768.1654                 
                
  20954498.523   110116667.177    20954504.852    85805251.8214   20954504.789  
                
  23252357.836   123948174.386                                                  
  23252356.824  
  24777956.500   130209043.658    24777962.707   101461608.6664                 
                
  24001925.398   126130939.661    24001936.375    98283900.0934   24001936.777  
                
  23239479.250   122124309.740    23239489.457    95161853.9724   23239489.613  
                
  20346465.586   106921439.745    20346473.391    83315462.2354   20346473.238  
                
  20442456.555   109084889.381                    84843800.625    20442459.527  
  20442454.309  
 21  8 15 17 38 50.0000000  0 13G16R 1G 4R 8R12G20G 7R10G 2G 6G30G 9
                                R 2
  22552020.039   118511701.957    22552025.488    92346818.6524                 
                
  19638839.086   104980878.939                    81651812.676    19638844.473  
  19638838.359  
  21684225.570   113951425.209    21684233.324    88793379.8164   21684233.148  
                
  22853978.891   122382054.376                    95186048.982    22853983.188  
  22853978.566  
  20237059.961   108102770.694                    84079936.811    20237064.062  
  20237059.402  
  23544380.195   123726553.194    23544386.586    96410333.8154                 
                
  20952165.422   110104406.653    20952171.676    85795698.1684   20952171.629  
                
  23260131.203   123989610.962                                                  
  23260130.246  
  24779500.695   130217158.437    24779506.887   101467931.8544                 
                
  24006782.781   126156466.079    24006793.945    98303790.7644   24006794.359  
                
  23233963.969   122095326.842    23233974.195    95139269.9184   23233974.340  
                
  20346595.648   106922123.263    20346603.449    83315994.8524   20346603.301  
                
  20437144.422   109056542.901                    84821753.362    20437147.387  
  20437142.191  
 21  8 15 17 39  0.0000000  0 13G16R 1G 4R 8R12G20G 7R10G 2G 6G30G 9
                                R 2
  22555356.531   118529235.381    22555361.969    92360481.0634                 
                
  19641564.383   104995447.241                    81663143.564    19641569.793  
  19641563.621  
  21688082.844   113971695.261    21688090.641    88809174.6524   21688090.426  
                
  22860632.812   122417685.076                    95213761.739    22860636.930  
  22860632.371  
  20231620.656   108073714.971                    84057337.917    20231624.742  
  20231620.086  
  23538664.062   123696514.698    23538670.461    96386927.2274                 
                
  20949839.453   110092183.598    20949845.625    85786173.7144   20949845.605  
                
  23267907.414   124031062.616                                                  
  23267906.477  
  24781053.820   130225320.065    24781060.016   101474291.5524                 
                
  24011645.930   126182022.036    24011657.133    98323704.4774   24011657.543  
                
  23228453.070   122066367.014    23228463.309    95116703.8314   23228463.449  
                
  20346733.242   106922846.332    20346741.039    83316558.2844   20346740.895  
                
  20431838.484   109028229.476                    84799731.820    20431841.426  
  20431836.254  
 21  8 15 17 39 10.0000000  0 13G16R 1G 4R 8R12G20G 7R10G 2G 6G30G 9
                                R 2
  22558705.523   118546834.480    22558710.957    92374194.6464                 
                
  19644301.367   105010078.019                    81674523.065    19644306.812  
  19644300.586  
  21691945.586   113991994.057    21691953.410    88824991.8834   21691953.168  
                
  22867292.094   122453344.803                    95241497.101    22867296.102  
  22867291.617  
  20226193.055   108044721.741                    84034787.646    20226197.129  
  20226192.480  
  23532954.750   123666511.978    23532961.156    96363548.4874                 
                
  20947520.602   110079997.923    20947526.695    85776678.3854   20947526.715  
                
  23275686.422   124072529.176                                                  
  23275685.535  
  24782615.844   130233528.373    24782622.000   101480687.6634                 
                
  24016514.734   126207607.454    24016525.891    98343641.1464   24016526.320  
                
  23222946.555   122037430.308    23222956.820    95094155.7764   23222956.941  
                
  20346878.375   106923608.995    20346886.164    83317152.5684   20346886.023  
                
  20426538.922   108999950.001                    84777736.679    20426541.836  
  20426536.688  
 21  8 15 17 39 20.0000000  0 13G16R 1G 4R 8R12G20G 7R10G 2G 6G30G 9
                                R 2
  22562066.969   118564499.030    22562072.406    92387959.2394                 
                
  19647050.031   105024771.242                    81685951.122    19647055.473  
  19647049.215  
  21695813.773   114012321.445    21695821.641    88840831.3984   21695821.371  
                
  22873956.805   122489033.539                    95269254.987    22873960.719  
  22873956.258  
  20220777.172   108015791.112                    84012286.047    20220781.242  
  20220776.609  
  23527252.234   123636544.984    23527258.637    96340197.5974                 
                
  20945208.828   110067849.483    20945214.852    85767212.0824   20945214.898  
                
  23283468.180   124114010.420                                                  
  23283467.324  
  24784186.703   130241783.268    24784192.840   101487120.0364                 
                
  24021389.055   126233222.048    24021400.172    98363600.5504   24021400.641  
                
  23217444.422   122008516.581    23217454.680    95071625.6324   23217454.812  
                
  20347031.016   106924411.117    20347038.801    83317777.5974   20347038.668  
                
  20421245.703   108971704.426                    84755767.903    20421248.617  
  20421243.477  
 21  8 15 17 39 30.0000000  0 13G16R 1G 4R 8R12G20G 7R10G 2G 6G30G 9
                                R 2
  22565440.898   118582229.166    22565446.352    92401774.9404                 
                
  19649810.398   105039527.014                    81697427.817    19649815.824  
  19649809.566  
  21699687.453   114032677.717    21699695.375    88856693.4234   21699695.090  
                
  22880626.859   122524751.471                    95297035.596    22880630.777  
  22880626.316  
  20215373.078   107986923.449                    83989833.428    20215377.148  
  20215372.520  
  23521556.578   123606614.045    23521562.973    96316874.8074                 
                
  20942904.211   110055738.622    20942910.176    85757775.0584   20942910.254  
                
  23291252.797   124155506.603                                                  
  23291251.930  
  24785766.445   130250084.875    24785772.605   101493588.8014                 
                
  24026269.008   126258866.024    24026280.062    98383582.8524   24026280.551  
                
  23211946.734   121979626.200    23211956.984    95049113.6674   23211957.121  
                
  20347191.219   106925253.020    20347199.000    83318433.6234   20347198.867  
                
  20415958.859   108943492.841                    84733825.566    20415961.770  
  20415956.637  
 21  8 15 17 39 40.0000000  0 13G16R 1G 4R 8R12G20G 7R10G 2G 6G30G 9
                                R 2
  22568827.266   118600024.718    22568832.707    92415641.6114                 
                
  19652582.469   105054345.389                    81708953.218    19652587.906  
  19652581.633  
  21703566.594   114053062.691    21703574.555    88872577.8084   21703574.258  
                
  22887302.266   122560498.296                    95324838.685    22887306.246  
  22887301.777  
  20209980.734   107958118.611                    83967429.678    20209984.816  
  20209980.188  
  23515867.773   123576719.179    23515874.148    96293580.1254                 
                
  20940606.695   110043665.146    20940612.609    85748367.1594   20940612.711  
                
  23299040.133   124197017.210                                                  
  23299039.242  
  24787355.031   130258432.979    24787361.227   101500093.7894                 
                
  24031154.422   126284539.111    24031165.488    98403587.8364   24031165.973  
                
  23206453.469   121950759.019    23206463.672    95026619.7824   23206463.828  
                
  20347358.961   106926134.539    20347366.742    83319120.5234   20347366.621  
                
  20410678.289   108915314.780                    84711909.299    20410681.184  
  20410676.059  
 21  8 15 17 39 50.0000000  0 13G16R 1G 4R 8R12G20G 7R10G 2G 6G30G 9
                                R 2
  22572226.133   118617885.802    22572231.555    92429559.3454                 
                
  19655366.266   105069226.326                    81720527.276    19655371.711  
  19655365.422  
  21707451.234   114073476.503    21707459.219    88888484.6694   21707458.930  
                
  22893983.188   122596273.988                    95352664.204    22893987.133  
  22893982.648  
  20204600.219   107929376.840                    83945074.989    20204604.312  
  20204599.676  
  23510185.875   123546860.571    23510192.270    96270313.6844                 
                
  20938316.344   110031629.225    20938322.215    85738988.5294   20938322.332  
                
  23306830.250   124238542.536                                                  
  23306829.344  
  24788952.508   130266827.773    24788958.758   101506635.1884                 
                
  24036045.453   126310241.353    24036056.469    98423615.5374   24036056.957  
                
  23200964.672   121921915.253    23200974.820    95004144.1304   23200975.004  
                
  20347534.297   106927055.900    20347542.078    83319838.4684   20347541.953  
                
  20405404.281   108887171.649                    84690020.201    20405407.145  
  20405402.043  
 21  8 15 17 40  0.0000000  0 13G16R 1G 4R 8R12G20G 7R10G 2G 6G30G 9
                                R 2
  22575637.359   118635812.006    22575642.785    92443527.8284                 
                
  19658161.742   105084169.768                    81732149.953    19658167.188  
  19658160.914  
  21711341.281   114093918.843    21711349.277    88904413.7554   21711348.980  
                
  22900669.547   122632078.455                    95380512.100    22900673.367  
  22900668.930  
  20199231.453   107900697.925                    83922769.179    20199235.551  
  20199230.914  
  23504510.820   123517038.026    23504517.188    96247075.3594                 
                
  20936033.055   110019630.549    20936038.891    85729638.9194   20936039.031  
                
  23314622.992   124280082.153                                                  
  23314622.074  
  24790558.781   130275268.842    24790565.031   101513212.6484                 
                
  24040941.898   126335972.297    24040952.867    98443665.6244   24040953.363  
                
  23195480.266   121893094.611    23195490.355    94981686.5014   23195490.570  
                
  20347717.133   106928016.776    20347724.914    83320587.2014   20347724.789  
                
  20400136.570   108859062.215                    84668157.328    20400139.441  
  20400134.328  
 21  8 15 17 40 10.0000000  0 13G16R 1G 4R 8R12G20G 7R10G 2G 6G30G 9
                                R 2
  22579061.047   118653803.624    22579066.461    92457547.2664                 
                
  19660968.922   105099175.740                    81743821.257    19660974.359  
  19660968.105  
  21715236.828   114114389.994    21715244.816    88920365.2934   21715244.523  
                
  22907361.328   122667911.788                    95408382.477    22907364.988  
  22907360.613  
  20193874.531   107872082.248                    83900512.545    20193878.641  
  20193873.980  
  23498842.719   123487251.967    23498849.031    96223865.4534                 
                
  20933756.930   110007669.430    20933762.754    85720318.5804   20933762.898  
                
  23322418.352   124321635.887                                                  
  23322417.406  
  24792173.898   130283756.468    24792180.109   101519826.3524                 
                
  24045843.812   126361732.160    24045854.793    98463738.2164   24045855.309  
                
  23190000.344   121864297.404    23190010.406    94959247.1384   23190010.613  
                
  20347907.562   106929017.474    20347915.340    83321366.9724   20347915.223  
                
  20394875.383   108830987.590                    84646321.510    20394878.270  
  20394873.148  
 21  8 15 17 40 20.0000000  0 13G16R 1G 4R 8R12G20G 7R10G 2G 6G30G 9
                                R 2
  22582497.133   118671860.398    22582502.523    92471617.4964                 
                
  19663787.797   105114244.259                    81755541.231    19663793.230  
  19663786.980  
  21719137.828   114134889.796    21719145.801    88936339.1614   21719145.516  
                
  22914058.398   122703774.087                    95436275.376    22914062.062  
  22914057.660  
  20188529.445   107843529.776                    83878305.086    20188533.574  
  20188528.895  
  23493181.547   123457502.411    23493187.848    96200684.0094                 
                
  20931487.906   109995745.685    20931493.734    85711027.3614   20931493.875  
                
  23330216.352   124363203.731                                                  
  23330215.402  
  24793797.844   130292290.461    24793804.027   101526476.2084                 
                
  24050751.156   126387520.624    24050762.188    98483833.1094   24050762.703  
                
  23184524.883   121835523.555    23184534.902    94936825.9704   23184535.098  
                
  20348105.555   106930057.900    20348113.320    83322177.6894   20348113.207  
                
  20389620.633   108802947.263                    84624512.379    20389623.523  
  20389618.406  
 21  8 15 17 40 30.0000000  0 13G16R 1G 4R 8R12G20G 7R10G 2G 6G30G 9
                                R 2
  22585945.594   118689982.200    22585950.980    92485738.3814                 
                
  19666618.359   105129375.215                    81767309.732    19666623.777  
  19666617.543  
  21723044.258   114155418.158    21723052.219    88952335.2764   21723051.926  
                
  22920760.594   122739664.387                    95464190.034    22920764.375  
  22920759.891  
  20183196.164   107815040.423                    83856146.703    20183200.293  
  20183195.629  
  23487527.320   123427789.347    23487533.602    96177530.9884                 
                
  20929225.977   109983859.212    20929231.812    85701765.1774   20929231.934  
                
  23338016.945   124404785.408                                                  
  23338015.996  
  24795430.602   130300870.672    24795436.746   101533162.0444                 
                
  24055664.016   126413337.527    24055674.996    98503950.1574   24055675.520  
                
  23179053.828   121806772.991    23179063.816    94914422.9394   23179063.996  
                
  20348311.078   106931137.963    20348318.828    83323019.2984   20348318.727  
                
  20384372.367   108774941.568                    84602730.174    20384375.250  
  20384370.148  
 21  8 15 17 40 40.0000000  0 13G16R 1G 4R 8R12G20G 7R10G 2G 6G30G 9
                                R 2
  22589406.430   118708169.066    22589411.805    92499909.9604                 
                
  19669460.617   105144568.703                    81779126.887    19669466.020  
  19669459.824  
  21726956.141   114175975.179    21726964.086    88968353.7234   21726963.789  
                
  22927468.203   122775583.599                    95492127.171    22927472.059  
  22927467.551  
  20177874.750   107786614.417                    83834037.594    20177878.891  
  20177874.250  
  23481880.062   123398112.836    23481886.301    96154406.4494                 
                
  20926971.156   109972010.120    20926977.016    85692532.1234   20926977.121  
                
  23345820.180   124446381.124                                                  
  23345819.227  
  24797072.156   130309497.016    24797078.270   101539883.8984                 
                
  24060582.195   126439182.873    24060593.215    98524089.3564   24060593.742  
                
  23173587.227   121778045.829    23173597.184    94892038.1494   23173597.359  
                
  20348524.172   106932257.791    20348531.906    83323891.8924   20348531.816  
                
  20379130.648   108746970.784                    84580975.129    20379133.539  
  20379128.426  
 21  8 15 17 40 50.0000000  0 13G16R 1G 4R 8R12G20G 7R10G 2G 6G30G 9
                                R 2
  22592879.641   118726420.935    22592885.027    92514132.1964                 
                
  19672314.562   105159824.670                    81790992.628    19672319.949  
  19672313.789  
  21730873.484   114196560.918    21730881.418    88984394.5524   21730881.117  
                
  22934181.219   122811531.297                    95520086.493    22934185.027  
  22934180.559  
  20172565.242   107758251.956                    83811977.911    20172569.367  
  20172564.750  
  23476239.805   123368473.059    23476245.996    96131310.5454                 
                
  20924723.477   109960198.515    20924729.383    85683328.2924   20924729.469  
                
  23353625.984   124487990.343                                                  
  23353624.984  
  24798722.508   130318169.616    24798728.539   101546641.7524                 
                
  24065505.812   126465056.596    24065516.824    98544250.6814   24065517.395  
                
  23168125.102   121749342.197    23168135.059    94869671.7064   23168135.207  
                
  20348744.859   106933417.517    20348752.578    83324795.5734   20348752.496  
                
  20373895.438   108719034.666                    84559247.043    20373898.320  
  20373893.215  
 21  8 15 17 41  0.0000000  0 13G16R 1G 4R 8R12G20G 7R10G 2G 6G30G 9
                                R 2
  22596365.203   118744737.698    22596370.621    92528405.0074                 
                
  19675180.234   105175143.257                    81802907.079    19675185.617  
  19675179.469  
  21734796.305   114217175.378    21734804.223    89000457.7604   21734803.930  
                
  22940899.664   122847507.487                    95548068.010    22940903.297  
  22940898.953  
  20167267.656   107729953.196                    83789967.779    20167271.793  
  20167267.168  
  23470606.547   123338870.170    23470612.734    96108243.3834                 
                
  20922482.930   109948424.421    20922488.895    85674153.6854   20922488.949  
                
  23361434.375   124529613.283                                                  
  23361433.352  
  24800381.648   130326888.443    24800387.609   101553435.6274                 
                
  24070434.781   126490958.614    24070445.812    98564434.0514   24070446.375  
                
  23162667.484   121720662.155    23162677.438    94847323.6354   23162677.562  
                
  20348973.141   106934617.134    20348980.852    83325730.3394   20348980.777  
                
  20368666.836   108691133.883                    84537546.441    20368669.734  
  20368664.617  
 21  8 15 17 41 10.0000000  0 13G16R 1G 4R 8R12G20G 7R10G 2G 6G30G 9
                                R 2
  22599863.062   118763119.139    22599868.508    92542728.2044                 
                
  19678057.578   105190524.277                    81814870.110    19678062.949  
  19678056.840  
  21738724.547   114237818.386    21738732.434    89016543.2234   21738732.152  
                
  22947623.406   122883512.172                    95576071.628    22947626.859  
  22947622.633  
  20161981.969   107701718.041                    83768007.114    20161986.113  
  20161981.465  
  23464980.297   123309304.129    23464986.500    96085204.9344                 
                
  20920249.469   109936687.600    20920255.500    85665008.1204   20920255.520  
                
  23369245.266   124571249.548                                                  
  23369244.230  
  24802049.539   130335653.330    24802055.473   101560265.3834                 
                
  24075369.094   126516888.654    24075380.125    98584639.2614   24075380.695  
                
  23157214.320   121692005.594    23157224.297    94824993.8554   23157224.422  
                
  20349208.992   106935856.527    20349216.695    83326696.1064   20349216.625  
                
  20363444.734   108663267.782                    84515872.815    20363447.637  
  20363442.508  
 21  8 15 17 41 20.0000000  0 13G16R 1G 4R 8R12G20G 7R10G 2G 6G30G 9
                                R 2
  22603373.242   118781565.303    22603378.684    92557101.8424                 
                
  19680946.578   105205967.641                    81826881.600    19680951.914  
  19680945.848  
  21742658.234   114258489.978    21742666.105    89032650.9544   21742665.820  
                
  22954352.141   122919544.983                    95604097.168    22954355.699  
  22954351.520  
  20156708.172   107673546.435                    83746095.877    20156712.328  
  20156707.660  
  23459361.094   123279775.128    23459367.297    96062195.3354                 
                
  20918023.125   109924988.139    20918029.211    85655891.6684   20918029.203  
                
  23377058.688   124612899.117                                                  
  23377057.613  
  24803726.203   130344464.185    24803732.152   101567130.9844                 
                
  24080308.758   126542846.611    24080319.758    98604866.2304   24080320.336  
                
  23151765.594   121663372.522    23151775.633    94802682.3954   23151775.754  
                
  20349452.422   106937135.771    20349460.121    83327692.9184   20349460.043  
                
  20358229.242   108635436.991                    84494226.654    20358232.133  
  20358227.000  
 21  8 15 17 41 30.0000000  0 13G16R 1G 4R 8R12G20G 7R10G 2G 6G30G 9
                                R 2
  22606895.734   118800076.145    22606901.188    92571525.8844                 
                
  19683847.266   105221473.440                    81838941.666    19683852.609  
  19683846.551  
  21746597.367   114279190.165    21746605.227    89048780.9664   21746604.961  
                
  22961086.289   122955606.116                    95632144.686    22961089.855  
  22961085.695  
  20151446.344   107645438.756                    83724234.371    20151450.500  
  20151445.836  
  23453748.969   123250283.248    23453755.215    96039214.6754                 
                
  20915803.898   109913326.080    20915810.023    85646804.3594   20915810.000  
                
  23384874.516   124654561.899                                                  
  23384873.453  
  24805411.594   130353320.916    24805417.574   101574032.3214                 
                
  24085253.719   126568832.433    24085264.652    98625114.9034   24085265.277  
                
  23146321.336   121634763.027    23146331.477    94780389.3254   23146331.586  
                
  20349703.438   106938454.870    20349711.141    83328720.7904   20349711.055  
                
  20353020.367   108607641.481                    84472607.939    20353023.273  
  20353018.117  
 21  8 15 17 41 40.0000000  0 13G16R 1G 4R 8R12G20G 7R10G 2G 6G30G 9
                                R 2
  22610430.516   118818651.600    22610436.012    92586000.2694                 
                
  19686759.680   105237041.880                    81851050.444    19686765.004  
  19686758.973  
  21750541.945   114299918.998    21750549.793    89064933.2964   21750549.523  
                
  22967825.812   122991695.637                    95660214.291    22967829.375  
  22967825.195  
  20146196.492   107617395.003                    83702422.559    20146200.629  
  20146195.977  
  23448143.922   123220828.616    23448150.211    96016263.0364                 
                
  20913591.797   109901701.472    20913597.961    85637746.2384   20913597.926  
                
  23392692.875   124696237.954                                                  
  23392691.777  
  24807105.742   130362223.624    24807111.762   101580969.4864                 
                
  24090204.000   126594846.049    24090214.863    98645385.2394   24090215.527  
                
  23140881.602   121606177.242    23140891.805    94758114.7254   23140891.926  
                
  20349962.062   106939813.936    20349969.773    83329779.8104   20349969.680  
                
  20347818.125   108579881.368                    84451016.746    20347821.051  
  20347815.883  
 21  8 15 17 41 50.0000000  0 13G16R 1G 4R 8R12G20G 7R10G 2G 6G30G 9
                                R 2
  22613977.539   118837291.404    22613983.098    92600524.7774                 
                
  19689683.742   105252672.660                    81863207.720    19689689.047  
  19689683.055  
  21754491.930   114320676.239    21754499.758    89081107.7584   21754499.500  
                
  22974570.453   123027813.211                    95688305.710    22974574.105  
  22974569.895  
  20140958.555   107589414.961                    83680660.322    20140962.668  
  20140958.016  
  23442545.953   123191411.159    23442552.289    95993340.3634                 
                
  20911386.773   109890114.054    20911392.980    85628717.0854   20911392.934  
                
  23400513.594   124737927.033                                                  
  23400512.508  
  24808808.562   130371172.012    24808814.602   101587942.2434                 
                
  24095159.453   126620887.141    24095170.305    98665676.9774   24095170.984  
                
  23135446.359   121577614.954    23135456.559    94735858.3974   23135456.688  
                
  20350228.242   106941212.752    20350235.957    83330869.7964   20350235.867  
                
  20342622.539   108552156.774                    84429453.186    20342625.492  
  20342620.293  
 21  8 15 17 42  0.0000000  0 13G16R 1G 4R 8R12G20G 7R10G 2G 6G30G 9
                                R 2
  22617536.844   118855995.742    22617542.426    92615099.5954                 
                
  19692619.508   105268365.971                    81875413.623    19692624.816  
  19692618.836  
  21758447.359   114341462.147    21758455.148    89097304.5664   21758454.922  
                
  22981320.398   123063958.842                    95716418.963    22981324.074  
  22981319.848  
  20135732.664   107561499.244                    83658948.108    20135736.773  
  20135732.109  
  23436955.109   123162031.218    23436961.492    95970446.9294                 
                
  20909188.875   109878564.082    20909195.148    85619717.1184   20909195.062  
                
  23408336.648   124779628.809                                                  
  23408335.562  
  24810520.125   130380166.300    24810526.137   101594950.7734                 
                
  24100120.227   126646955.839    24100130.992    98685990.2354   24100131.684  
                
  23130015.656   121549076.469    23130025.848    94713620.6374   23130025.977  
                
  20350502.055   106942651.642    20350509.766    83331991.0134   20350509.680  
                
  20337433.648   108524467.908                    84407917.406    20337436.598  
  20337431.402  
 21  8 15 17 42 10.0000000  0 13G16R 1G 4R 8R12G20G 7R10G 2G 6G30G 9
                                R 2
  22621108.391   118874764.356    22621113.988    92629724.4994                 
                
  19695566.984   105284121.838                    81887668.179    19695572.266  
  19695566.344  
  21762408.219   114362276.581    21762415.965    89113523.6004   21762415.773  
                
  22988075.430   123100132.655                    95744554.142    22988079.344  
  22988074.988  
  20130518.766   107533647.576                    83637285.726    20130522.875  
  20130518.227  
  23431371.438   123132688.786    23431377.816    95947582.7204                 
                
  20906998.102   109867051.525    20907004.445    85610746.3124   20907004.332  
                
  23416162.125   124821343.275                                                  
  23416161.023  
  24812240.406   130389206.317    24812246.398   101601994.9524                 
                
  24105086.203   126673051.921    24105096.930    98706324.8214   24105097.598  
                
  23124589.445   121520561.680    23124599.648    94691401.3424   23124599.773  
                
  20350783.469   106944130.456    20350791.180    83333143.3414   20350791.090  
                
  20332251.484   108496814.886                    84386409.513    20332254.441  
  20332249.250  
 21  8 15 17 42 20.0000000  0 13G16R 1G 4R 8R12G20G 7R10G 2G 6G30G 9
                                R 2
  22624692.148   118893597.179    22624697.758    92644399.4194                 
                
  19698526.117   105299940.097                    81899971.277    19698531.379  
  19698525.508  
  21766374.516   114383119.575    21766382.254    89129764.8704   21766382.066  
                
  22994835.750   123136334.244                    95772710.894    22994839.754  
  22994835.363  
  20125316.891   107505860.163                    83615673.289    20125320.988  
  20125316.352  
  23425794.922   123103384.008    23425801.297    95924747.8194                 
                
  20904814.438   109855576.346    20904820.852    85601804.6274   20904820.707  
                
  23423990.047   124863070.424                                                  
  23423988.891  
  24813969.367   130398292.006    24813975.367   101609074.7054                 
                
  24110057.336   126699175.305    24110068.059    98726680.6804   24110068.738  
                
  23119167.766   121492070.630    23119177.961    94669200.5474   23119178.094  
                
  20351072.484   106945649.253    20351080.191    83334326.8224   20351080.109  
                
  20327075.969   108469197.381                    84364929.237    20327078.926  
  20327073.734  
 21  8 15 17 42 30.0000000  0 13G16R 1G 4R 8R12G20G 7R10G 2G 6G30G 9
                                R 2
  22628288.102   118912494.106    22628293.703    92659124.2964                 
                
  19701496.938   105315820.801                    81912322.929    19701502.215  
  19701496.340  
  21770346.227   114403991.068    21770353.961    89146028.3644   21770353.777  
                
  23001601.305   123172563.614                    95800889.306    23001605.352  
  23001600.914  
  20120127.055   107478137.076                    83594110.894    20120131.156  
  20120126.504  
  23420225.578   123074116.902    23420231.945    95901942.3184                 
                
  20902637.875   109844138.482    20902644.348    85592892.0194   20902644.172  
                
  23431820.289   124904810.011                                                  
  23431819.113  
  24815707.023   130407423.325    24815713.020   101616190.0164                 
                
  24115033.641   126725325.811    24115044.355    98747057.6674   24115045.043  
                
  23113750.617   121463603.357    23113760.789    94647018.2724   23113760.922  
                
  20351369.109   106947208.023    20351376.824    83335541.4554   20351376.734  
                
  20321907.250   108441616.189                    84343477.205    20321910.203  
  20321905.031  
 21  8 15 17 42 40.0000000  0 13G16R 1G 4R 8R12G20G 7R10G 2G 6G30G 9
                                R 2
  22631896.383   118931455.745    22631901.965    92673899.6164                 
                
  19704479.539   105331764.482                    81924723.559    19704484.824  
  19704478.949  
  21774323.484   114424891.660    21774331.215    89162314.5394   21774331.031  
                
  23008372.266   123208821.615                    95829089.950    23008376.277  
  23008371.832  
  20114949.367   107450478.823                    83572598.935    20114953.461  
  20114948.812  
  23414663.516   123044888.178    23414669.859    95879166.6994                 
                
  20900468.539   109832738.569    20900475.051    85584008.9784   20900474.863  
                
  23439652.930   124946562.458                                                  
  23439651.793  
  24817453.469   130416600.814    24817459.523   101623341.2974                 
                
  24120015.188   126751503.935    24120025.891    98767456.2034   24120026.613  
                
  23108338.141   121435160.508    23108348.242    94624855.0224   23108348.391  
                
  20351673.461   106948807.418    20351681.172    83336787.7404   20351681.082  
                
  20316745.375   108414071.461                    84322053.545    20316748.320  
  20316743.145  
 21  8 15 17 42 50.0000000  0 13G16R 1G 4R 8R12G20G 7R10G 2G 6G30G 9
                                R 2
  22635516.664   118950480.451    22635522.223    92688724.0744                 
                
  19707473.625   105347769.562                    81937171.961    19707478.910  
  19707473.039  
  21778305.969   114445819.711    21778313.711    89178622.1104   21778313.512  
                
  23015148.297   123245106.401                    95857311.426    23015152.254  
  23015147.816  
  20109783.562   107422884.091                    83551136.376    20109787.652  
  20109782.992  
  23409108.477   123015696.344    23409114.820    95856419.8494                 
                
  20898306.102   109821374.901    20898312.645    85575154.1614   20898312.438  
                
  23447487.695   124988326.037                                                  
  23447486.504  
  24819208.375   130425822.811    24819214.434   101630527.2694                 
                
  24125001.594   126777707.866    24125012.363    98787874.8344   24125013.094  
                
  23102929.977   121406740.486    23102940.008    94602709.5404   23102940.180  
                
  20351985.234   106950445.822    20351992.945    83338064.4274   20351992.848  
                
  20311590.109   108386562.047                    84300657.336    20311593.074  
  20311587.855  
 21  8 15 17 43  0.0000000  0 13G16R 1G 4R 8R12G20G 7R10G 2G 6G30G 9
                                R 2
  22639149.172   118969569.427    22639154.688    92703598.5724                 
                
  19710479.453   105363837.372                    81949669.138    19710484.758  
  19710478.867  
  21782293.945   114466776.639    21782301.672    89194952.1694   21782301.469  
                
  23021929.586   123281419.379                    95885554.845    23021933.500  
  23021929.059  
  20104629.906   107395354.257                    83529724.298    20104634.004  
  20104629.328  
  23403560.773   122986542.945    23403567.109    95833702.9404                 
                
  20896150.836   109810048.905    20896157.391    85566328.7134   20896157.176  
                
  23455324.766   125030102.180                                                  
  23455323.508  
  24820971.992   130435090.639    24820977.980   101637748.9294                 
                
  24129993.219   126803939.084    24130004.074    98808314.7304   24130004.766  
                
  23097526.430   121378344.707    23097536.430    94580582.9764   23097536.598  
                
  20352304.711   106952124.651    20352312.418    83339372.6134   20352312.328  
                
  20306441.688   108359089.199                    84279289.582    20306444.672  
  20306439.449  
 21  8 15 17 43 10.0000000  0 13G16R 1G 4R 8R12G20G 7R10G 2G 6G30G 9
                                R 2
  22642793.836   118988722.335    22642799.316    92718522.8994                 
                
  19713496.969   105379967.731                    81962214.972    19713502.285  
  19713496.375  
  21786287.344   114487762.073    21786295.059    89211304.4624   21786294.852  
                
  23028716.062   123317759.880                    95913819.648    23028719.871  
  23028715.434  
  20099488.375   107367889.135                    83508362.554    20099492.480  
  20099487.805  
  23398020.320   122957427.735    23398026.672    95811015.7604                 
                
  20894002.688   109798760.330    20894009.250    85557532.4334   20894009.020  
                
  23463164.078   125071890.280                                                  
  23463162.793  
  24822744.258   130444403.865    24822750.145   101645005.9814                 
                
  24134989.914   126830197.073    24135000.859    98828775.4734   24135001.520  
                
  23092127.430   121349972.889    23092137.434    94558475.0844   23092137.594  
                
  20352631.820   106953843.600    20352639.527    83340712.0594   20352639.434  
                
  20301300.125   108331652.885                    84257950.234    20301303.137  
  20301297.883  
 21  8 15 17 43 20.0000000  0 13G16R 1G 4R 8R12G20G 7R10G 2G 6G30G 9
                                R 2
  22646450.672   119007939.182    22646456.105    92733497.0664                 
                
  19716526.164   105396160.484                    81974809.333    19716531.480  
  19716525.566  
  21790286.172   114508776.051    21790293.887    89227678.9834   21790293.668  
                
  23035507.695   123354128.143                    95942106.073    23035511.445  
  23035506.973  
  20094358.953   107340488.746                    83487051.143    20094363.059  
  20094358.375  
  23392487.148   122928350.783    23392493.523    95788358.4144                 
                
  20891861.664   109787509.189    20891868.215    85548765.3174   20891867.988  
                
  23471005.688   125113690.306                                                  
  23471004.422  
  24824525.164   130453762.513    24824530.996   101652298.4324                 
                
  24139991.719   126856481.696    24140002.699    98849256.9834   24140003.344  
                
  23086733.000   121321625.070    23086743.035    94536385.8924   23086743.191  
                
  20352966.602   106955602.870    20352974.312    83342082.9224   20352974.219  
                
  20296165.406   108304253.074                    84236639.281    20296168.418  
  20296163.160  
 21  8 15 17 43 30.0000000  0 13G16R 1G 4R 8R12G20G 7R10G 2G 6G30G 9
                                R 2
  22650119.625   119027219.666    22650125.012    92748520.8154                 
                
  19719567.000   105412415.499                    81987452.123    19719572.301  
  19719566.383  
  21794290.406   114529818.439    21794298.094    89244075.6404   21794297.898  
                
  23042304.438   123390523.924                    95970413.911    23042308.086  
  23042303.699  
  20089241.664   107313153.150                    83465790.135    20089245.770  
  20089241.098  
  23386961.258   122899312.087    23386967.664    95765730.8924                 
                
  20889727.758   109776295.395    20889734.297    85540027.3034   20889734.070  
                
  23478849.508   125155502.075                                                  
  23478848.309  
  24826314.680   130463166.296    24826320.438   101659626.0334                 
                
  24144998.586   126882792.709    24145009.566    98869759.0544   24145010.203  
                
  23081343.117   121293301.169    23081353.211    94514315.3454   23081353.355  
                
  20353308.969   106957402.034    20353316.680    83343484.8774   20353316.570  
                
  20291037.594   108276890.119                    84215356.990    20291040.613  
  20291035.355  
 21  8 15 17 43 40.0000000  0 13G16R 1G 4R 8R12G20G 7R10G 2G 6G30G 9
                                R 2
  22653800.672   119046563.738    22653806.020    92763594.1284                 
                
  19722619.484   105428732.785                    82000143.343    19722624.797  
  19722618.855  
  21798300.047   114550889.240    21798307.703    89260494.4404   21798307.535  
                
  23049106.258   123426947.166                    95998743.115    23049109.797  
  23049105.520  
  20084136.508   107285882.365                    83444579.549    20084140.598  
  20084135.941  
  23381442.648   122870311.709    23381449.098    95743133.1964                 
                
  20887600.945   109765118.916    20887607.469    85531318.3624   20887607.246  
                
  23486695.461   125197325.331                                                  
  23486694.328  
  24828112.773   130472615.323    24828118.488   101666988.8794                 
                
  24150010.414   126909130.073    24150021.457    98890281.6524   24150022.078  
                
  23075957.789   121265001.242    23075967.914    94492263.4804   23075968.059  
                
  20353658.977   106959241.311    20353666.688    83344918.0884   20353666.570  
                
  20285916.680   108249563.989                    84194103.347    20285919.699  
  20285914.457  
 21  8 15 17 43 50.0000000  0 13G16R 1G 4R 8R12G20G 7R10G 2G 6G30G 9
                                R 2
  22657493.812   119065971.363    22657499.148    92778716.9474                 
                
  19725683.664   105445112.599                    82012883.192    19725688.996  
  19725683.004  
  21802315.094   114571988.458    21802322.742    89276935.3944   21802322.574  
                
  23055913.109   123463397.952                    96027093.741    23055916.668  
  23055912.457  
  20079043.508   107258676.515                    83423419.452    20079047.594  
  20079042.949  
  23375931.375   122841349.847    23375937.852    95720565.5434                 
                
  20885481.242   109753979.793    20885487.738    85522638.5284   20885487.516  
                
  23494543.570   125239160.206                                                  
  23494542.484  
  24829919.453   130482109.488    24829925.121   101674386.8864                 
                
  24155027.188   126935493.722    24155038.355    98910824.7034   24155038.957  
                
  23070577.039   121236725.392    23070587.180    94470230.3684   23070587.332  
                
  20354016.617   106961120.757    20354024.316    83346382.6014   20354024.195  
                
  20280802.617   108222274.416                    84172878.122    20280805.617  
  20280800.410  
 21  8 15 17 44  0.0000000  0 13G16R 1G 4R 8R12G20G 7R10G 2G 6G30G 9
                                R 2
  22661199.062   119085442.589    22661204.398    92793889.3254                 
                
  19728759.539   105461554.949                    82025671.695    19728764.891  
  19728758.867  
  21806335.570   114593116.224    21806343.219    89293398.5844   21806343.047  
                
  23062725.078   123499876.133                    96055465.640    23062728.754  
  23062724.469  
  20073962.711   107231535.836                    83402310.044    20073966.781  
  20073962.164  
  23370427.461   122812426.653    23370433.961    95698028.0164                 
                
  20883368.672   109742878.144    20883375.145    85513987.8994   20883374.926  
                
  23502393.875   125281006.580                                                  
  23502392.840  
  24831734.742   130491648.796    24831740.363   101681820.1134                 
                
  24160048.984   126961883.580    24160060.188    98931388.2084   24160060.785  
                
  23065200.898   121208473.727    23065211.055    94448216.1074   23065211.223  
                
  20354381.938   106963040.505    20354389.629    83347878.5184   20354389.512  
                
  20275695.547   108195022.121                    84151681.904    20275698.539  
  20275693.355  
 21  8 15 17 44 10.0000000  0 13G16R 1G 4R 8R12G20G 7R10G 2G 6G30G 9
                                R 2
  22664916.375   119104977.212    22664921.715    92809111.1084                 
                
  19731847.062   105478059.572                    82038508.607    19731852.453  
  19731846.363  
  21810361.469   114614272.436    21810369.109    89309883.9424   21810368.949  
                
  23069542.281   123536381.612                    96083858.743    23069545.930  
  23069541.590  
  20068894.102   107204460.275                    83381251.291    20068898.164  
  20068893.570  
  23364930.922   122783542.202    23364937.406    95675520.6754                 
                
  20881263.203   109731813.843    20881269.641    85505366.3734   20881269.434  
                
  23510246.289   125322864.215                                                  
  23510245.273  
  24833558.602   130501233.124    24833564.137   101689288.4464                 
                
  24165075.719   126988299.484    24165086.965    98951972.0204   24165087.562  
                
  23059829.359   121180246.183    23059839.512    94426220.6484   23059839.707  
                
  20354754.906   106965000.469    20354762.598    83349405.7744   20354762.484  
                
  20270595.383   108167806.686                    84130514.361    20270598.371  
  20270593.199  
 21  8 15 17 44 20.0000000  0 13G16R 1G 4R 8R12G20G 7R10G 2G 6G30G 9
                                R 2
  22668645.703   119124574.986    22668651.031    92824382.0994                 
                
  19734946.227   105494626.411                    82051393.928    19734951.633  
  19734945.516  
  21814392.734   114635456.861    21814400.391    89326391.2914   21814400.223  
                
  23076364.531   123572914.361                    96112273.092    23076368.191  
  23076363.824  
  20063837.680   107177449.770                    83360243.133    20063841.723  
  20063837.156  
  23359441.734   122754696.499    23359448.211    95653043.5224                 
                
  20879164.805   109720786.680    20879171.203    85496773.7824   20879171.023  
                
  23518100.758   125364732.800                                                  
  23518099.738  
  24835390.984   130510862.279    24835396.375   101696791.6724                 
                
  24170107.453   127014741.103    24170118.672    98972575.8684   24170119.273  
                
  23054462.406   121152042.633    23054472.531    94404243.8714   23054472.746  
                
  20355135.492   106967000.475    20355143.180    83350964.2274   20355143.062  
                
  20265502.273   108140628.877                    84109376.072    20265505.246  
  20265500.105  
 21  8 15 17 44 30.0000000  0 13G16R 1G 4R 8R12G20G 7R10G 2G 6G30G 9
                                R 2
  22672387.062   119144235.955    22672392.402    92839702.3364                 
                
  19738057.070   105511255.642                    82064327.761    19738062.469  
  19738056.359  
  21818429.398   114656669.643    21818437.074    89342920.7404   21818436.891  
                
  23083191.781   123609474.333                    96140708.633    23083195.578  
  23083191.137  
  20058793.461   107150504.469                    83339285.684    20058797.488  
  20058792.953  
  23353959.969   122725889.652    23353966.441    95630596.6514                 
                
  20877073.500   109709796.840    20877079.848    85488210.2724   20877079.695  
                
  23525957.273   125406612.299                                                  
  23525956.266  
  24837231.898   130520536.367    24837237.207   101704329.9074                 
                
  24175144.086   127041208.470    24175155.285    98993199.7844   24175155.871  
                
  23049100.039   121123863.230    23049110.133    94382285.9144   23049110.367  
                
  20355523.742   106969040.709    20355531.430    83352554.0364   20355531.305  
                
  20260416.148   108113488.296                    84088266.734    20260419.098  
  20260413.988  
 21  8 15 17 44 40.0000000  0 13G16R 1G 4R 8R12G20G 7R10G 2G 6G30G 9
                                R 2
  22676140.445   119163960.113    22676145.832    92855071.8174                 
                
  19741179.547   105527947.061                    82077309.982    19741184.945  
  19741178.859  
  21822471.453   114677910.803    21822479.109    89359472.2734   21822478.961  
                
  23090024.047   123646061.200                    96169165.060    23090027.965  
  23090023.465  
  20053761.484   107123624.580                    83318379.111    20053765.488  
  20053760.980  
  23348485.625   122697121.773    23348492.070    95608180.1274                 
                
  20874989.297   109698844.278    20874995.590    85479675.8154   20874995.453  
                
  23533815.812   125448502.591                                                  
  23533814.859  
  24839081.336   130530255.228    24839086.637   101711903.0414                 
                
  24180185.562   127067701.540    24180196.781    99013843.7064   24180197.363  
                
  23043742.281   121095708.040    23043752.324    94360346.8114   23043752.574  
                
  20355919.641   106971121.194    20355927.320    83354175.1954   20355927.191  
                
  20255336.977   108086384.899                    84067186.315    20255339.922  
  20255334.816  
 21  8 15 17 44 50.0000000  0 13G16R 1G 4R 8R12G20G 7R10G 2G 6G30G 9
                                R 2
  22679905.836   119183747.404    22679911.262    92870490.4884                 
                
  19744313.688   105544700.815                    82090340.661    19744319.098  
  19744312.988  
  21826518.914   114699180.350    21826526.574    89376045.9584   21826526.445  
                
  23096861.320   123682675.289                    96197642.672    23096865.469  
  23096860.867  
  20048741.750   107096810.118                    83297523.432    20048745.746  
  20048741.246  
  23343018.703   122668393.008    23343025.133    95585794.0884                 
                
  20872912.180   109687929.001    20872918.410    85471170.4264   20872918.305  
                
  23541676.383   125490403.893                                                  
  23541675.551  
  24840939.312   130540018.930    24840944.652   101719511.1184                 
                
  24185231.844   127094220.156    24185243.094    99034507.5434   24185243.723  
                
  23038389.141   121067577.111    23038399.133    94338426.6204   23038399.387  
                
  20356323.219   106973241.981    20356330.891    83355827.7694   20356330.766  
                
  20250264.898   108059319.344                    84046135.330    20250267.859  
  20250262.742  
 21  8 15 17 45  0.0000000  0 13G16R 1G 4R 8R12G20G 7R10G 2G 6G30G 9
                                R 2
  22683683.211   119203597.625    22683688.664    92885958.1914                 
                
  19747459.477   105561516.786                    82103419.751    19747464.891  
  19747458.789  
  21830571.773   114720478.221    21830579.473    89392641.7054   21830579.316  
                
  23103703.781   123719316.335                    96226141.249    23103708.016  
  23103703.340  
  20043734.289   107070061.202                    83276718.733    20043738.266  
  20043733.781  
  23337559.234   122639703.345    23337565.633    95563438.5274                 
                
  20870842.172   109677051.042    20870848.336    85462694.0934   20870848.262  
                
  23549538.930   125532315.704                                                  
  23549538.184  
  24842805.805   130549827.359    24842811.203   101727154.0524                 
                
  24190282.977   127120764.188    24190294.270    99055191.1764   24190294.918  
                
  23033040.602   121039470.405    23033050.547    94316525.3034   23033050.812  
                
  20356734.453   106975403.036    20356742.117    83357511.7174   20356742.000  
                
  20245199.875   108032291.431                    84025113.645    20245202.855  
  20245197.715  
 21  8 15 17 45 10.0000000  0 13G16R 1G 4R 8R12G20G 7R10G 2G 6G30G 9
                                R 2
  22687472.547   119223510.712    22687478.059    92901474.8694                 
                
  19750616.906   105578395.102                    82116547.331    19750622.332  
  19750616.211  
  21834630.008   114741804.399    21834637.746    89409259.5004   21834637.578  
                
  23110551.344   123755984.467                    96254660.898    23110555.559  
  23110550.855  
  20038739.086   107043377.778                    83255964.969    20038743.051  
  20038738.582  
  23332107.227   122611052.917    23332113.645    95541113.5404                 
                
  20868779.242   109666210.356    20868785.355    85454246.8124   20868785.309  
                
  23557403.438   125574237.949                                                  
  23557402.727  
  24844680.781   130559680.433    24844686.180   101734831.7894                 
                
  24195338.984   127147333.477    24195350.250    99075894.5124   24195350.891  
                
  23027696.672   121011387.993    23027706.555    94294642.9094   23027706.840  
                
  20357153.344   106977604.361    20357161.000    83359227.0444   20357160.887  
                
  20240141.930   108005301.332                    84004121.331    20240144.898  
  20240139.777  
 21  8 15 17 45 20.0000000  0 13G16R 1G 4R 8R12G20G 7R10G 2G 6G30G 9
                                R 2
  22691273.852   119243486.690    22691279.465    92917040.5534                 
                
  19753786.008   105595335.754                    82129723.395    19753791.434  
  19753785.324  
  21838693.648   114763158.920    21838701.414    89425899.3844   21838701.242  
                
  23117403.773   123792679.397                    96283201.393    23117408.105  
  23117403.336  
  20033756.188   107016760.060                    83235262.303    20033760.141  
  20033755.668  
  23326662.734   122582441.923    23326669.184    95518819.2824                 
                
  20866723.438   109655407.109    20866729.496    85445828.6774   20866729.465  
                
  23565269.945   125616170.771                                                  
  23565269.207  
  24846564.273   130569578.213    24846569.684   101742544.3374                 
                
  24200399.781   127173927.989    24200411.043    99096617.4894   24200411.672  
                
  23022357.375   120983329.898    23022367.223    94272779.4844   23022367.543  
                
  20357579.922   106979846.058    20357587.574    83360973.8234   20357587.461  
                
  20235091.031   107978348.803                    83983158.267    20235094.016  
  20235088.895  
 21  8 15 17 45 30.0000000  0 13G16R 1G 4R 8R12G20G 7R10G 2G 6G30G 9
                                R 2
  22695087.102   119263525.336    22695092.789    92932655.0744                 
                
  19756966.766   105612338.662                    82142947.863    19756972.184  
  19756966.090  
  21842762.664   114784541.692    21842770.477    89442561.3034   21842770.289  
                
  23124261.234   123829401.111                    96311762.721    23124265.660  
  23124260.852  
  20028785.594   106990208.062                    83214610.774    20028789.551  
  20028785.070  
  23321225.719   122553870.293    23321232.172    95496555.6894                 
                
  20864674.711   109644641.032    20864680.715    85437439.5414   20864680.703  
                
  23573138.375   125658113.899                                                  
  23573137.586  
  24848456.211   130579520.363    24848461.719   101750291.4654                 
                
  24205465.320   127200547.518    24205476.621    99117359.9634   24205477.246  
                
  23017022.711   120955296.099    23017032.562    94250934.9914   23017032.883  
                
  20358014.164   106982128.003    20358021.828    83362751.9774   20358021.703  
                
  20230047.273   107951434.329                    83962224.805    20230050.250  
  20230045.121  
 21  8 15 17 45 40.0000000  0 13G16R 1G 4R 8R12G20G 7R10G 2G 6G30G 9
                                R 2
  22698912.273   119283626.687    22698917.984    92948318.4734                 
                
  19760159.141   105629403.756                    82156220.714    19760164.555  
  19760158.480  
  21846837.062   114805952.786    21846844.887    89459245.2684   21846844.707  
                
  23131123.750   123866149.567                    96340344.838    23131128.207  
  23131123.352  
  20023827.312   106963721.870                    83194010.407    20023831.273  
  20023826.801  
  23315796.227   122525338.270    23315802.695    95474322.9764                 
                
  20862633.102   109633912.335    20862639.051    85429079.5244   20862639.066  
                
  23581008.664   125700067.202                                                  
  23581007.883  
  24850356.672   130589507.240    24850362.273   101758073.4164                 
                
  24210535.656   127227192.071    24210546.938    99138121.9484   24210547.555  
                
  23011692.688   120927286.758    23011702.562    94229109.5484   23011702.859  
                
  20358456.094   106984450.380    20358463.773    83364561.6274   20358463.641  
                
  20225010.758   107924558.590                    83941321.473    20225013.734  
  20225008.602  
 21  8 15 17 45 50.0000000  0 13G16R 1G 4R 8R12G20G 7R10G 2G 6G30G 9
                                R 2
  22702749.320   119303790.411    22702755.066    92964030.4494                 
                
  19763363.148   105646530.957                    82169541.877    19763368.566  
  19763362.500  
  21850916.820   114827392.012    21850924.672    89475951.1594   21850924.480  
                
  23137991.250   123902924.523                    96368947.575    23137995.719  
  23137990.809  
  20018881.352   106937301.450                    83173461.204    20018885.324  
  20018880.828  
  23310374.266   122496845.798    23310380.723    95452121.0664                 
                
  20860598.539   109623220.729    20860604.426    85420748.4114   20860604.473  
                
  23588880.805   125742030.207                                                  
  23588880.012  
  24852265.555   130599538.424    24852271.191   101765889.9174                 
                
  24215610.680   127253861.313    24215621.949    99158903.1784   24215622.578  
                
  23006367.289   120899301.677    23006377.188    94207303.0124   23006377.477  
                
  20358905.672   106986812.996    20358913.375    83366402.6294   20358913.230  
                
  20219981.344   107897720.711                    83920447.560    20219984.312  
  20219979.211  
 21  8 15 17 46  0.0000000  0 13G16R 1G 4R 8R12G20G 7R10G 2G 6G30G 9
                                R 2
  22706598.266   119324016.694    22706604.059    92979791.1654                 
                
  19766578.797   105663720.463                    82182911.488    19766584.207  
  19766578.152  
  21855001.961   114848859.535    21855009.844    89492679.0964   21855009.629  
                
  23144863.664   123939726.090                    96397571.008    23144868.145  
  23144863.215  
  20013947.734   106910947.079                    83152963.371    20013951.711  
  20013947.207  
  23304959.891   122468393.165    23304966.352    95429950.1864                 
                
  20858571.070   109612566.404    20858576.902    85412446.3514   20858576.984  
                
  23596754.828   125784003.308                                                  
  23596754.066  
  24854182.875   130609613.927    24854188.457   101773740.9524                 
                
  24220690.383   127280555.332    24220701.688    99179703.6874   24220702.293  
                
  23001046.562   120871341.105    23001056.461    94185515.5724   23001056.746  
                
  20359362.953   106989216.051    20359370.684    83368275.1494   20359370.527  
                
  20214959.172   107870921.439                    83899603.708    20214962.137  
  20214957.020  
 21  8 15 17 46 10.0000000  0 13G16R 1G 4R 8R12G20G 7R10G 2G 6G30G 9
                                R 2
  22710459.086   119344305.422    22710464.898    92995600.5574                 
                
  19769806.109   105680972.228                    82196329.515    19769811.508  
  19769805.488  
  21859092.492   114870355.351    21859100.398    89509429.0894   21859100.152  
                
  23151741.031   123976554.513                    96426215.318    23151745.582  
  23151740.535  
  20009026.508   106884658.790                    83132516.932    20009030.488  
  20009025.992  
  23299553.117   122439980.390    23299559.605    95407810.3834                 
                
  20856550.711   109601949.390    20856556.496    85404173.3514   20856556.605  
                
  23604630.750   125825986.152                                                  
  23604629.957  
  24856108.625   130619733.745    24856114.086   101781626.5104                 
                
  24225774.805   127307274.038    24225786.121    99200523.4384   24225786.727  
                
  22995730.500   120843405.051    22995740.406    94163747.2334   22995740.688  
                
  20359827.945   106991659.573    20359835.691    83370179.1994   20359835.531  
                
  20209944.250   107844160.901                    83878789.963    20209947.203  
  20209942.082  
 21  8 15 17 46 20.0000000  0 13G16R 1G 4R 8R12G20G 7R10G 2G 6G30G 9
                                R 2
  22714331.711   119364656.144    22714337.516    93011458.2774                 
                
  19773045.039   105698286.101                    82209795.874    19773050.406  
  19773044.445  
  21863188.367   114891879.302    21863196.301    89526200.9964   21863196.051  
                
  23158623.320   124013409.316                    96454880.163    23158627.945  
  23158622.832  
  20004117.641   106858436.539                    83112121.848    20004121.617  
  20004117.129  
  23294153.922   122411607.523    23294160.449    95385701.6804                 
                
  20854537.422   109591369.560    20854543.188    85395929.3324   20854543.305  
                
  23612508.508   125867978.755                                                  
  23612507.660  
  24858042.789   130629897.722    24858048.148   101789546.4924                 
                
  24230863.938   127334017.103    24230875.172    99221362.1704   24230875.785  
                
  22990419.086   120815493.405    22990429.000    94141997.9114   22990429.281  
                
  20360300.602   106994143.423    20360308.359    83372114.6744   20360308.188  
                
  20204936.508   107817438.692                    83858006.023    20204939.441  
  20204934.355  
 21  8 15 17 46 30.0000000  0 13G16R 1G 4R 8R12G20G 7R10G 2G 6G30G 9
                                R 2
  22718216.227   119385069.364    22718222.062    93027364.6904                 
                
  19776295.633   105715662.311                    82223310.687    19776300.969  
  19776295.043  
  21867289.648   114913431.672    21867297.617    89542995.0494   21867297.352  
                
  23165510.625   124050290.587                    96483565.597    23165515.254  
  23165510.137  
  19999221.188   106832280.609                    83091778.368    19999225.156  
  19999220.676  
  23288762.375   122383274.884    23288768.930    95363624.3244                 
                
  20852531.266   109580827.192    20852537.031    85387714.5134   20852537.148  
                
  23620388.039   125909981.088                                                  
  23620387.129  
  24859985.359   130640106.048    24859990.688   101797501.0004                 
                
  24235957.656   127360784.752    24235968.891    99242220.0544   24235969.527  
                
  22985112.383   120787606.483    22985122.328    94120267.8644   22985122.602  
                
  20360780.992   106996667.899    20360788.762    83374081.8104   20360788.586  
                
  20199936.023   107790755.133                    83837252.159    20199938.941  
  20199933.875  
 21  8 15 17 46 40.0000000  0 13G16R 1G 4R 8R12G20G 7R10G 2G 6G30G 9
                                R 2
  22722112.570   119405544.750    22722118.445    93043319.5294                 
                
  19779557.812   105733100.532                    82236873.754    19779563.145  
  19779557.230  
  21871396.266   114935012.080    21871404.262    89559810.9414   21871403.969  
                
  23172402.938   124087198.109                    96512271.424    23172407.449  
  23172402.359  
  19994337.109   106806190.781                    83071486.280    19994341.074  
  19994336.602  
  23283378.438   122354982.206    23283384.973    95341578.0894                 
                
  20850532.156   109570321.876    20850537.938    85379528.5624   20850538.043  
                
  23628269.266   125951992.487                                                  
  23628268.324  
  24861936.305   130650358.282    24861941.664   101805489.7194                 
                
  24241055.992   127387576.464    24241067.207    99263096.7034   24241067.855  
                
  22979810.297   120759743.936    22979820.285    94098556.8144   22979820.535  
                
  20361269.055   106999232.704    20361276.840    83376080.3614   20361276.648  
                
  20194942.773   107764110.256                    83816528.374    20194945.676  
  20194940.637  
 21  8 15 17 46 50.0000000  0 13G16R 1G 4R 8R12G20G 7R10G 2G 6G30G 9
                                R 2
  22726020.766   119426082.369    22726026.652    93059322.8654                 
                
  19782831.641   105750600.969                    82250485.206    19782836.941  
  19782831.055  
  21875508.258   114956620.744    21875516.266    89576648.8534   21875515.961  
                
  23179300.070   124124132.107                    96540997.857    23179304.605  
  23179299.508  
  19989465.469   106780167.389                    83051245.890    19989469.426  
  19989464.977  
  23278002.188   122326729.842    23278008.699    95319563.2794                 
                
  20848540.148   109559853.867    20848545.945    85371371.6814   20848546.039  
                
  23636152.281   125994013.531                                                  
  23636151.293  
  24863895.664   130660654.612    24863901.055   101813512.8184                 
                
  24246158.891   127414392.401    24246170.121    99283992.2114   24246170.789  
                
  22974512.922   120731906.083    22974522.949    94076864.9944   22974523.176  
                
  20361764.828   107001838.051    20361772.633    83378110.5044   20361772.434  
                
  20189956.859   107737504.466                    83795834.988    20189959.750  
  20189954.715  
 21  8 15 17 47  0.0000000  0 13G16R 1G 4R 8R12G20G 7R10G 2G 6G30G 9
                                R 2
  22729940.750   119446681.985    22729946.625    93075374.5134                 
                
  19786117.086   105768163.480                    82264144.931    19786122.348  
  19786116.512  
  21879625.625   114978257.638    21879633.633    89593508.7774   21879633.336  
                
  23186202.117   124161092.447                    96569744.782    23186206.703  
  23186201.609  
  19984606.281   106754210.536                    83031057.238    19984610.238  
  19984605.805  
  23272633.617   122298517.853    23272640.148    95297579.9174                 
                
  20846555.242   109549423.128    20846561.059    85363243.8374   20846561.141  
                
  23644037.000   126036043.652                                                  
  23644035.988  
  24865863.414   130670995.019    24865868.824   101821570.2724                 
                
  24251266.312   127441232.431    24251277.633    99304906.4844   24251278.316  
                
  22969220.234   120704092.882    22969230.293    94055192.3834   22969230.496  
                
  20362268.336   107004483.964    20362276.172    83380172.2574   20362275.949  
                
  20184978.289   107710937.878                    83775172.076    20184981.176  
  20184976.148  
 21  8 15 17 47 10.0000000  0 13G16R 1G 4R 8R12G20G 7R10G 2G 6G30G 9
                                R 2
  22733872.508   119467343.545    22733878.355    93091474.4374                 
                
  19789414.148   105785788.160                    82277853.026    19789419.387  
  19789413.582  
  21883748.359   114999922.737    21883756.340    89610390.6664   21883756.070  
                
  23193109.070   124198078.754                    96598511.930    23193113.617  
  23193108.566  
  19979759.547   106728320.196                    83010920.326    19979763.500  
  19979759.094  
  23267272.719   122270346.297    23267279.289    95275628.0784                 
                
  20844577.414   109539029.663    20844583.242    85355145.0384   20844583.316  
                
  23651923.461   126078082.930                                                  
  23651922.426  
  24867839.477   130681379.318    24867844.914   101829661.9044                 
                
  24256378.250   127468096.371    24256389.691    99325839.4014   24256390.352  
                
  22963932.234   120676304.382    22963942.312    94033539.0194   22963942.500  
                
  20362779.531   107007170.407    20362787.395    83382265.5874   20362787.156  
                
  20180007.039   107684410.437                    83754539.634    20180009.926  
  20180004.902  
 21  8 15 17 47 20.0000000  0 13G16R 1G 4R 8R12G20G 7R10G 2G 6G30G 9
                                R 2
  22737816.047   119488066.946    22737821.855    93107622.5394                 
                
  19792722.828   105803474.867                    82291609.343    19792728.055  
  19792722.266  
  21887876.461   115021615.995    21887884.398    89627294.5034   21887884.152  
                
  23200021.000   124235091.403                    96627299.555    23200025.488  
  23200020.445  
  19974925.273   106702496.386                    82990835.142    19974929.215  
  19974924.840  
  23261919.562   122242215.310    23261926.141    95253707.8524                 
                
  20842606.680   109528673.413    20842612.520    85347075.2434   20842612.590  
                
  23659811.641   126120131.316                                                  
  23659810.586  
  24869823.867   130691807.514    24869829.352   101837787.7214                 
                
  24261494.859   127494984.136    24261506.250    99346790.8784   24261506.930  
                
  22958648.953   120648540.576    22958659.016    94011904.9014   22958659.199  
                
  20363298.469   107009897.417    20363306.352    83384390.5374   20363306.094  
                
  20175043.156   107657922.164                    83733937.655    20175046.031  
  20175041.016  
 21  8 15 17 47 30.0000000  0 13G16R 1G 4R 8R12G20G 7R10G 2G 6G30G 9
                                R 2
  22741771.328   119508852.108    22741777.102    93123818.7644                 
                
  19796043.133   105821223.808                    82305414.076    19796048.355  
  19796042.582  
  21892009.914   115043337.393    21892017.797    89644220.2624   21892017.586  
                
  23206937.766   124272130.018                    96656107.361    23206942.199  
  23206937.191  
  19970103.484   106676739.239                    82970801.810    19970107.410  
  19970103.055  
  23256574.148   122214124.979    23256580.672    95231819.2824                 
                
  20840643.039   109518354.419    20840648.906    85339034.4814   20840648.973  
                
  23667701.516   126162188.623                                                  
  23667700.406  
  24871816.617   130702279.490    24871822.141   101845947.6804                 
                
  24266615.961   127521895.516    24266627.312    99367760.7894   24266628.000  
                
  22953370.352   120620801.461    22953380.391    93990290.0364   22953380.590  
                
  20363825.117   107012664.983    20363833.020    83386547.0794   20363832.754  
                
  20170086.617   107631473.167                    83713366.211    20170089.488  
  20170084.477  
 21  8 15 17 47 40.0000000  0 13G16R 1G 4R 8R12G20G 7R10G 2G 6G30G 9
                                R 2
  22745738.305   119529698.784    22745744.031    93140062.9234                 
                
  19799375.016   105839034.605                    82319266.906    19799380.188  
  19799374.484  
  21896148.688   115065086.805    21896156.520    89661167.8664   21896156.332  
                
  23213859.391   124309194.583                    96684935.332    23213863.719  
  23213858.785  
  19965294.156   106651048.720                    82950820.318    19965298.066  
  19965293.738  
  23251236.469   122186075.320    23251242.934    95209962.4234                 
                
  20838686.445   109508072.487    20838692.348    85331022.5944   20838692.410  
                
  23675592.906   126204254.270                                                  
  23675591.781  
  24873817.688   130712795.085    24873823.250   101854141.6354                 
                
  24271741.570   127548830.382    24271752.855    99388748.9944   24271753.559  
                
  22948096.453   120593087.028    22948106.445    93968694.3824   22948106.652  
                
  20364359.461   107015473.014    20364367.371    83388735.1594   20364367.102  
                
  20165137.492   107605063.729                    83692825.538    20165140.359  
  20165135.348  
 21  8 15 17 47 50.0000000  0 13G16R 1G 4R 8R12G20G 7R10G 2G 6G30G 9
                                R 2
  22749716.992   119550606.943    22749722.691    93156354.9964                 
                
  19802718.508   105856907.431                    82333167.983    19802723.684  
  19802717.988  
  21900292.805   115086864.246    21900300.598    89678137.3054   21900300.438  
                
  23220785.766   124346285.058                    96713783.488    23220790.129  
  23220785.184  
  19960497.336   106625424.963                    82930890.728    19960501.238  
  19960496.930  
  23245906.539   122158066.357    23245912.938    95188137.2724                 
                
  20836736.906   109497827.613    20836742.871    85323039.6024   20836742.902  
                
  23683485.969   126246328.615                                                  
  23683484.777  
  24875827.055   130723354.241    24875832.656   101862369.5674                 
                
  24276871.570   127575788.609    24276882.902    99409755.3684   24276883.594  
                
  22942827.258   120565397.275    22942837.203    93947117.9614   22942837.406  
                
  20364901.516   107018321.560    20364909.430    83390954.8004   20364909.160  
                
  20160195.820   107578694.057                    83672315.808    20160198.676  
  20160193.648  
 21  8 15 17 48  0.0000000  0 12G16R 1G 4R 8R12G20G 7G 2G 6G30G 9R 2
  22753707.383   119571576.573    22753713.027    93172694.9564                 
                
  19806073.570   105874842.130                    82347117.216    19806078.746  
  19806073.051  
  21904442.273   115108669.808    21904450.035    89695128.6474   21904449.883  
                
  23227716.633   124383401.163                    96742651.537    23227721.316  
  23227716.262  
  19955713.008   106599867.951                    82911013.072    19955716.898  
  19955712.617  
  23240584.383   122130098.278    23240590.742    95166343.9634                 
                
  20834794.461   109487619.991    20834800.492    85315085.6164   20834800.496  
                
  24877844.719   130733957.092    24877850.328   101870631.4994                 
                
  24282005.992   127602770.174    24282017.418    99430779.9374   24282018.062  
                
  22937562.789   120537732.347    22937572.707    93925560.8884   22937572.891  
                
  20365451.305   107021210.736    20365459.219    83393206.1104   20365458.941  
                
  20155261.594   107552364.139                    83651836.983    20155264.461  
  20155259.410  
 21  8 15 17 48 10.0000000  0 12G16R 1G 4R 8R12G20G 7G 2G 6G30G 9R 2
  22757709.453   119592607.565    22757715.059    93189082.7634                 
                
  19809440.242   105892838.944                    82361114.732    19809445.418  
  19809439.695  
  21908597.062   115130503.385    21908604.805    89712141.8274   21908604.652  
                
  23234652.602   124420543.179                    96771539.764    23234657.348  
  23234652.191  
  19950941.211   106574377.940                    82891187.513    19950945.102  
  19950940.824  
  23235270.016   122102171.170    23235276.340    95144582.5944                 
                
  20832859.078   109477449.497    20832865.184    85307160.5624   20832865.141  
                
  24879870.641   130744603.419    24879876.340   101878927.3124                 
                
  24287144.867   127629774.899    24287156.332    99451822.5634   24287156.934  
                
  22932303.031   120510092.199    22932312.961    93904023.1284   22932313.129  
                
  20366008.812   107024140.478    20366016.730    83395489.0284   20366016.449  
                
  20150334.844   107526074.116                    83631389.199    20150337.703  
  20150332.680  
 21  8 15 17 48 20.0000000  0 12G16R 1G 4R 8R12G20G 7G 2G 6G30G 9R 2
  22761723.164   119613699.793    22761728.766    93205518.2554                 
                
  19812818.500   105910897.629                    82375160.369    19812823.652  
  19812817.938  
  21912757.188   115152365.008    21912764.898    89729176.8504   21912764.766  
                
  23241593.344   124457710.784                    96800447.875    23241598.172  
  23241592.930  
  19946181.938   106548954.808                    82871413.970    19946185.840  
  19946181.551  
  23229963.469   122074285.119    23229969.758    95122853.1864                 
                
  20830930.750   109467316.088    20830936.922    85299264.4114   20830936.848  
                
  24881904.844   130755293.202    24881910.664   101887256.9574                 
                
  24292288.125   127656802.683    24292299.578    99472883.1594   24292300.160  
                
  22927048.008   120482476.856    22927057.938    93882504.6974   22927058.102  
                
  20366574.047   107027110.830    20366581.965    83397803.5854   20366581.676  
                
  20145415.547   107499823.854                    83610972.329    20145418.391  
  20145413.379  
 21  8 15 17 48 30.0000000  0 12G16R 1G 4R 8R12G20G 7G 2G 6G30G 9R 2
  22765748.555   119634853.382    22765754.152    93222001.5424                 
                
  19816208.367   105929018.376                    82389254.280    19816213.492  
  19816207.789  
  21916922.680   115174254.760    21916930.344    89746233.8114   21916930.230  
                
  23248538.953   124494904.199                    96829376.086    23248543.801  
  23248538.543  
  19941435.242   106523598.836                    82851692.672    19941439.133  
  19941434.840  
  23224664.773   122046440.336    23224671.031    95101155.9624                 
                
  20829009.523   109457219.943    20829015.746    85291397.2944   20829015.645  
                
  24883947.328   130766026.440    24883953.266   101895620.5014                 
                
  24297435.781   127683853.507    24297447.211    99493961.7064   24297447.781  
                
  22921797.727   120454886.532    22921807.645    93861005.7554   22921807.824  
                
  20367147.039   107030121.923    20367154.949    83400149.8924   20367154.656  
                
  20140503.812   107473613.905                    83590586.820    20140506.668  
  20140501.637  
 21  8 15 17 48 40.0000000  0 12G16R 1G 4R 8R12G20G 7G 2G 6G30G 9R 2
  22769785.570   119656068.101    22769791.160    93238532.4844                 
                
  19819609.836   105947201.161                    82403396.444    19819614.930  
  19819609.242  
  21921093.516   115196172.590    21921101.141    89763312.6474   21921101.051  
                
  23255489.430   124532123.240                    96858324.232    23255494.191  
  23255488.949  
  19936701.109   106498309.969                    82832023.553    19936704.992  
  19936700.699  
  23219373.953   122018636.901    23219380.172    95079490.9484                 
                
  20827095.383   109447161.042    20827101.652    85283559.1944   20827101.520  
                
  24885998.055   130776803.033    24886004.008   101904017.8404                 
                
  24302587.789   127710927.218    24302599.168    99515058.0894   24302599.734  
                
  22916552.195   120427321.151    22916562.109    93839526.2494   22916562.301  
                
  20367727.781   107033173.743    20367735.676    83402527.9274   20367735.391  
                
  20135599.664   107447444.445                    83570232.798    20135602.520  
  20135597.500  
 21  8 15 17 48 50.0000000  0 12G16R 1G 4R 8R12G20G 7G 2G 6G30G 9R 2
  22773834.203   119677343.884    22773839.789    93255111.0134                 
                
  19823022.891   105965445.909                    82417586.794    19823027.992  
  19823022.273  
  21925269.680   115218118.461    21925277.293    89780413.3204   21925277.211  
                
  23262444.695   124569367.831                    96887292.269    23262449.324  
  23262444.141  
  19931979.570   106473088.400                    82812406.790    19931983.465  
  19931979.129  
  23214091.000   121990874.885    23214097.227    95057858.2184                 
                
  20825188.312   109437139.339    20825194.621    85275750.0824   20825194.473  
                
  24888056.992   130787622.915    24888062.957   101912448.9214                 
                
  24307744.164   127738023.651    24307755.465    99536172.1944   24307756.016  
                
  22911311.398   120399780.724    22911321.316    93818066.1924   22911321.523  
                
  20368316.258   107036266.237    20368324.141    83404937.6644   20368323.859  
                
  20130703.039   107421315.135                    83549910.013    20130705.875  
  20130700.867  
 21  8 15 17 49  0.0000000  0 12G16R 1G 4R 8R12G20G 7G 2G 6G30G 9R 2
  22777894.453   119698680.647    22777900.008    93271737.0614                 
                
  19826447.523   105983752.584                    82431825.319    19826452.648  
  19826446.887  
  21929451.180   115240092.359    21929458.801    89797535.8464   21929458.699  
                
  23269404.750   124606637.936                    96916280.132    23269409.227  
  23269404.086  
  19927270.633   106447934.161                    82792842.387    19927274.535  
  19927270.180  
  23208815.945   121963154.368    23208822.223    95036257.8124                 
                
  20823288.312   109427154.770    20823294.660    85267969.9074   20823294.488  
                
  24890124.164   130798486.066    24890130.148   101920913.6964                 
                
  24312904.883   127765142.757    24312916.090    99557303.9474   24312916.629  
                
  22906075.359   120372265.297    22906085.297    93796625.6274   22906085.496  
                
  20368912.492   107039399.491    20368920.352    83407379.1594   20368920.086  
                
  20125813.992   107395226.233                    83529618.655    20125816.844  
  20125811.836  
 21  8 15 17 49 10.0000000  0 12G16R 1G 4R 8R12G20G 7G 2G 6G30G 9R 2
  22781966.258   119720078.150    22781971.801    93288410.4144                 
                
  19829883.727   106002121.095                    82446111.936    19829888.863  
  19829883.078  
  21933637.992   115262094.199    21933645.629    89814680.1334   21933645.523  
                
  23276369.484   124643933.609                    96945287.869    23276373.855  
  23276368.766  
  19922574.281   106422847.134                    82773330.260    19922578.176  
  19922573.809  
  23203548.773   121935475.336    23203555.098    95014689.7484                 
                
  20821395.367   109417207.275    20821401.758    85260218.6194   20821401.562  
                
  24892199.547   130809392.254    24892205.605   101929412.0064                 
                
  24318069.789   127792284.292    24318081.008    99578453.1714   24318081.535  
                
  22900844.078   120344774.808    22900854.039    93775204.4884   22900854.230  
                
  20369516.461   107042573.394    20369524.297    83409852.3234   20369524.051  
                
  20120932.531   107369177.841                    83509358.784    20120935.375  
  20120930.383  
 21  8 15 17 49 20.0000000  0 12G16R 1G 4R 8R12G20G 7G 2G 6G30G 9R 2
  22786049.641   119741536.532    22786055.188    93305131.2364                 
                
  19833331.523   106020551.571                    82460446.726    19833336.656  
  19833330.844  
  21937830.133   115284124.043    21937837.781    89831846.2344   21937837.672  
                
  23283338.953   124681254.502                    96974315.250    23283343.270  
  23283338.223  
  19917890.562   106397827.588                    82753870.618    19917894.438  
  19917890.082  
  23198289.539   121907837.983    23198295.902    94993154.1544                 
                
  20819509.500   109407296.927    20819515.930    85252496.2744   20819515.711  
                
  24894283.125   130820341.501    24894289.277   101937943.8554                 
                
  24323238.945   127819448.211    24323250.172    99599619.8584   24323250.695  
                
  22895617.555   120317309.361    22895627.512    93753802.8634   22895627.715  
                
  20370128.188   107045788.067    20370135.996    83412357.2584   20370135.758  
                
  20116058.648   107343169.932                    83489130.429    20116061.496  
  20116056.504  
 21  8 15 17 49 30.0000000  0 12G16R 1G 4R 8R12G20G 7G 2G 6G30G 9R 2
  22790144.609   119763055.766    22790150.160    93321899.4544                 
                
  19836790.898   106039043.936                    82474829.677    19836796.070  
  19836790.211  
  21942027.617   115306181.949    21942035.309    89849034.2104   21942035.152  
                
  23290313.195   124718600.816                    97003362.369    23290317.410  
  23290312.426  
  19913219.508   106372875.719                    82734463.626    19913223.387  
  19913219.031  
  23193038.281   121880242.526    23193044.695    94971651.2124                 
                
  20817630.711   109397423.823    20817637.168    85244802.9544   20817636.930  
                
  24896374.906   130831333.888    24896381.133   101946509.3074                 
                
  24328412.336   127846634.531    24328423.590    99620803.9734   24328424.117  
                
  22890395.828   120289869.095    22890405.750    93732420.8524   22890405.977  
                
  20370747.688   107049043.602    20370755.484    83414894.0304   20370755.262  
                
  20111192.414   107317202.749                    83468933.742    20111195.262  
  20111190.266  
 21  8 15 17 49 40.0000000  0 12G16R 1G 4R 8R12G20G 7G 2G 6G30G 9R 2
  22794251.109   119784635.622    22794256.633    93338714.9224                 
                
  19840261.852   106057598.145                    82489260.713    19840267.047  
  19840261.145  
  21946230.422   115328267.810    21946238.121    89866243.9804   21946237.945  
                
  23297292.055   124755972.318                    97032429.097    23297296.258  
  23297291.332  
  19908561.086   106347991.297                    82715109.087    19908564.961  
  19908560.598  
  23187794.977   121852688.938    23187801.473    94950180.8884                 
                
  20815758.984   109387587.818    20815765.457    85237138.5424   20815765.223  
                
  24898474.852   130842369.217    24898481.059   101955108.2774                 
                
  24333589.938   127873842.990    24333601.230    99642005.3484   24333601.746  
                
  22885178.883   120262453.936    22885188.742    93711058.3974   22885188.996  
                
  20371374.953   107052339.914    20371382.738    83417462.5774   20371382.527  
                
  20106333.898   107291276.827                    83448769.134    20106336.727  
  20106331.762  
 21  8 15 17 49 50.0000000  0 12G16R 1G 4R 8R12G20G 7G 2G 6G30G 9R 2
  22798369.133   119806276.032    22798374.641    93355577.5734                 
                
  19843744.367   106076214.156                    82503739.842    19843749.582  
  19843743.668  
  21950438.547   115350381.673    21950446.219    89883475.5614   21950446.078  
                
  23304275.570   124793368.853                    97061515.293    23304279.848  
  23304274.875  
  19903915.344   106323174.603                    82695807.221    19903919.215  
  19903914.855  
  23182559.672   121825177.344    23182566.195    94928743.2784                 
                
  20813894.312   109377788.937    20813900.793    85229503.0604   20813900.566  
                
  24900583.000   130853447.488    24900589.070   101963740.7184                 
                
  24338771.680   127901073.498    24338783.035    99663223.9104   24338783.547  
                
  22879966.742   120235063.931    22879976.543    93689715.5524   22879976.812  
                
  20372009.992   107055677.062    20372017.762    83420062.9454   20372017.570  
                
  20101483.109   107265392.105                    83428636.589    20101485.941  
  20101480.957  
 21  8 15 17 50  0.0000000  0 12G16R 1G 4R 8R12G20G 7G 2G 6G30G 9R 2
  22802498.641   119827976.785    22802504.148    93372487.2754                 
                
  19847238.453   106094892.072                    82518267.097    19847243.727  
  19847237.734  
  21954651.984   115372523.393    21954659.676    89900728.8494   21954659.551  
                
  23311263.945   124830790.460                    97090620.947    23311268.117  
  23311263.156  
  19899282.258   106298425.557                    82676557.969    19899286.125  
  19899281.770  
  23177332.375   121797707.795    23177338.914    94907338.4334                 
                
  20812036.711   109368027.168    20812043.191    85221896.4934   20812042.965  
                
  24902699.305   130864568.549    24902705.293   101972406.4754                 
                
  24343957.648   127928325.887    24343968.980    99684459.5184   24343969.496  
                
  22874759.367   120207699.022    22874769.105    93668392.2564   22874769.391  
                
  20372652.773   107059054.961    20372660.539    83422695.0644   20372660.348  
                
  20096639.992   107239548.338                    83408535.866    20096642.836  
  20096637.836  
 21  8 15 17 50 10.0000000  0 12G16R 1G 4R 8R12G20G 7G 2G 6G30G 9R 2
  22806639.625   119849737.854    22806645.125    93389443.9444                 
                
  19850744.055   106113631.585                    82532842.257    19850749.367  
  19850743.332  
  21958870.711   115394692.978    21958878.438    89918003.8394   21958878.277  
                
  23318256.953   124868237.048                    97119746.084    23318261.043  
  23318256.051  
  19894661.852   106273744.190                    82657361.371    19894665.711  
  19894661.367  
  23172113.070   121770280.287    23172119.621    94885966.3724                 
                
  20810186.141   109358302.413    20810192.609    85214318.7704   20810192.395  
                
  24904823.719   130875732.298    24904829.719   101981105.4854                 
                
  24349147.758   127955600.014    24349159.016    99705712.0824   24349159.570  
                
  22869556.766   120180359.250    22869566.438    93647088.5474   22869566.742  
                
  20373303.320   107062473.636    20373311.078    83425358.9594   20373310.891  
                
  20091804.594   107213745.797                    83388467.242    20091807.430  
  20091802.422  
 21  8 15 17 50 20.0000000  0 12G16R 1G 4R 8R12G20G 7G 2G 6G30G 9R 2
  22810792.102   119871559.284    22810797.629    93406447.6584                 
                
  19854261.258   106132433.028                    82547465.601    19854266.586  
  19854260.516  
  21963094.773   115416890.541    21963102.496    89935300.6414   21963102.328  
                
  23325254.438   124905708.662                    97148890.661    23325258.609  
  23325253.613  
  19890054.148   106249130.693                    82638217.546    19890058.020  
  19890053.656  
  23166901.805   121742895.024    23166908.359    94864627.2104                 
                
  20808342.648   109348614.792    20808349.105    85206769.9854   20808348.895  
                
  24906956.250   130886938.782    24906962.332   101989837.7394                 
                
  24354341.984   127982895.898    24354353.215    99726981.5844   24354353.801  
                
  22864358.992   120153044.750    22864368.613    93625804.5314   22864368.941  
                
  20373961.664   107065933.232    20373969.410    83428054.7404   20373969.227  
                
  20086977.008   107187984.932                    83368431.018    20086979.844  
  20086974.816  
 21  8 15 17 50 30.0000000  0 12G16R 1G 4R 8R12G20G 7G 2G 6G30G 9R 2
  22814956.016   119893440.788    22814961.559    93423498.1904                 
                
  19857789.992   106151296.158                    82562136.909    19857795.355  
  19857789.254  
  21967324.125   115439115.923    21967331.844    89952619.1264   21967331.684  
                
  23332256.617   124943205.268                    97178054.656    23332260.816  
  23332255.812  
  19885459.164   106224585.161                    82619126.583    19885463.035  
  19885458.672  
  23161698.594   121715552.074    23161705.117    94843321.0094                 
                
  20806506.195   109338964.208    20806512.629    85199250.0564   20806512.434  
                
  24909096.875   130898187.841    24909103.016   101998603.2124                 
                
  24359540.281   128010213.294    24359551.512    99748267.8414   24359552.109  
                
  22859166.000   120125755.452    22859175.598    93604540.1594   22859175.930  
                
  20374627.758   107069433.645    20374635.492    83430782.3284   20374635.316  
                
  20082157.148   107162265.298                    83348426.870    20082159.973  
  20082154.961  
 21  8 15 17 50 40.0000000  0 12G16R 1G 4R 8R12G20G 7G 2G 6G30G 9R 2
  22819131.359   119915382.313    22819136.895    93440595.4964                 
                
  19861330.250   106170220.853                    82576856.124    19861335.633  
  19861329.527  
  21971558.781   115461369.142    21971566.543    89969959.2814   21971566.352  
                
  23339263.266   124980726.416                    97207237.771    23339267.633  
  23339262.613  
  19880876.906   106200107.556                    82600088.467    19880880.773  
  19880876.398  
  23156503.461   121688251.530    23156509.984    94822047.8754                 
                
  20804676.781   109329350.639    20804683.195    85191758.9684   20804683.012  
                
  24911245.617   130909479.418    24911251.742   102007401.8594                 
                
  24364742.719   128037552.089    24364753.902    99769570.7864   24364754.523  
                
  22853977.820   120098491.370    22853987.430    93583295.4454   22853987.754  
                
  20375301.641   107072974.904    20375309.359    83433541.7454   20375309.195  
                
  20077345.031   107136586.959                    83328454.818    20077347.836  
  20077342.875  
 21  8 15 17 50 50.0000000  0 12G16R 1G 4R 8R12G20G 7G 2G 6G30G 9R 2
  22823318.086   119937383.718    22823323.641    93457739.4284                 
                
  19864882.039   106189207.236                    82591623.293    19864887.441  
  19864881.336  
  21975798.695   115483650.083    21975806.484    89987321.0534   21975806.258  
                
  23346274.539   125018272.282                    97236440.105    23346279.039  
  23346274.031  
  19876307.344   106175697.836                    82581103.138    19876311.207  
  19876306.832  
  23151316.398   121660993.396    23151322.934    94800807.7544                 
                
  20802854.398   109319774.020    20802860.797    85184296.6774   20802860.613  
                
  24913402.422   130920813.345    24913408.410   102016233.5144                 
                
  24369949.188   128064912.101    24369960.324    99790890.2564   24369960.961  
                
  22848794.422   120071252.461    22848804.012    93562070.3354   22848804.344  
                
  20375983.273   107076556.961    20375990.984    83436332.9474   20375990.816  
                
  20072540.805   107110950.741                    83308515.537    20072543.594  
  20072538.652  
 21  8 15 17 51  0.0000000  0 12G16R 1G 4R 8R12G20G 7G 2G 6G30G 9R 2
  22827516.195   119959444.928    22827521.770    93474929.9784                 
                
  19868445.359   106208255.139                    82606438.333    19868450.793  
  19868444.680  
  21980043.914   115505958.820    21980051.684    90004704.4874   21980051.477  
                
  23353290.516   125055842.883                    97265661.680    23353295.059  
  23353290.090  
  19871750.523   106151356.173                    82562170.748    19871754.379  
  19871750.004  
  23146137.438   121633777.769    23146143.969    94779600.7884                 
                
  20801039.078   109310234.436    20801045.453    85176863.2404   20801045.277  
                
  24915567.266   130932189.585    24915573.129   102025098.1164                 
                
  24375159.680   128092293.282    24375170.777    99812226.2124   24375171.441  
                
  22843615.828   120044038.839    22843625.387    93540864.9264   22843625.734  
                
  20376672.695   107080179.858    20376680.406    83439155.9824   20376680.242  
                
  20067744.383   107085356.096                    83288608.586    20067747.168  
  20067742.246  
 21  8 15 17 51 10.0000000  0 12G16R 1G 4R 8R12G20G 7G 2G 6G30G 9R 2
  22831725.758   119981566.302    22831731.320    93492167.4034                 
                
  19872020.258   106227365.034                    82621301.572    19872025.695  
  19872019.578  
  21984294.469   115528295.651    21984302.238    90022109.8014   21984302.047  
                
  23360311.289   125093438.232                    97294902.495    23360315.707  
  23360310.785  
  19867206.516   106127082.942                    82543291.577    19867210.359  
  19867206.008  
  23140966.641   121606605.132    23140973.168    94758427.3304                 
                
  20799230.836   109300732.140    20799237.168    85169458.8674   20799237.016  
                
  24917740.203   130943608.472    24917746.055   102033995.9204                 
                
  24380374.203   128119695.821    24380385.297    99833578.8074   24380385.984  
                
  22838442.094   120016850.805    22838451.617    93519679.4664   22838451.984  
                
  20377369.938   107083843.948    20377377.645    83442011.1184   20377377.477  
                
  20062955.852   107059803.601                    83268734.445    20062958.645  
  20062953.719  
 21  8 15 17 51 20.0000000  0 12G16R 1G 4R 8R12G20G 7G 2G 6G30G 9R 2
  22835946.695   120003747.454    22835952.246    93509451.4294                 
                
  19875606.695   106246536.596                    82636212.783    19875612.152  
  19875606.035  
  21988550.328   115550660.337    21988558.137    90039536.8324   21988557.930  
                
  23367336.602   125131058.064                    97324162.353    23367340.910  
  23367336.039  
  19862675.305   106102878.075                    82524465.581    19862679.145  
  19862674.789  
  23135804.016   121579475.432    23135810.523    94737287.2934                 
                
  20797429.648   109291266.924    20797435.926    85162083.3814   20797435.801  
                
  24919921.188   130955069.681    24919927.094   102042926.7084                 
                
  24385592.812   128147119.390    24385603.820    99854947.8174   24385604.555  
                
  22833273.211   119989688.215    22833282.707    93498513.8314   22833283.109  
                
  20378074.992   107087549.047    20378082.703    83444898.2024   20378082.547  
                
  20058175.273   107034293.516                    83248893.258    20058178.074  
  20058173.141  
 21  8 15 17 51 30.0000000  0 12G16R 1G 4R 8R12G20G 7G 2G 6G30G 9R 2
  22840178.977   120025988.177    22840184.512    93526781.8604                 
                
  19879204.656   106265769.701                    82651171.866    19879210.117  
  19879204.020  
  21992811.469   115573052.780    21992819.301    90056985.4964   21992819.090  
                
  23374366.562   125168702.633                    97353441.429    23374370.738  
  23374365.910  
  19858156.883   106078741.486                    82505692.686    19858160.715  
  19858156.367  
  23130649.562   121552388.630    23130656.070    94716180.6934                 
                
  20795635.516   109281838.718    20795641.727    85154736.7284   20795641.629  
                
  24922110.234   130966573.047    24922116.137   102051890.3864                 
                
  24390815.375   128174563.787    24390826.336    99876333.0374   24390827.066  
                
  22828109.172   119962551.020    22828118.645    93477367.9704   22828119.055  
                
  20378787.828   107091295.062    20378795.543    83447817.1734   20378795.391  
                
  20053402.547   107008825.326                    83229084.675    20053405.352  
  20053400.406  
 21  8 15 17 51 40.0000000  0 12G16R 1G 4R 8R12G20G 7G 2G 6G30G 9R 2
  22844422.570   120048288.365    22844428.105    93544158.6254                 
                
  19882814.125   106285064.351                    82666178.803    19882819.594  
  19882813.496  
  21997077.898   115595473.020    21997085.750    90074455.7984   21997085.535  
                
  23381400.969   125206371.520                    97382739.455    23381405.109  
  23381400.316  
  19853651.234   106054673.161                    82486972.879    19853655.066  
  19853650.715  
  23125503.281   121525344.800    23125509.805    94695107.5824                 
                
  20793848.414   109272447.519    20793854.570    85147418.9224   20793854.504  
                
  24924307.289   130978118.676    24924313.230   102060886.9624                 
                
  24396041.867   128202028.912    24396052.797    99897734.4254   24396053.539  
                
  22822949.961   119935439.252    22822959.422    93456241.9294   22822959.836  
                
  20379508.461   107095082.031    20379516.180    83450768.0484   20379516.020  
                
  20048637.773   106983399.621                    83209309.135    20048640.602  
  20048635.633  
 21  8 15 17 51 50.0000000  0 12G16R 1G 4R 8R12G20G 7G 2G 6G30G 9R 2
  22848677.445   120070647.871    22848682.977    93561581.6494                 
                
  19886435.109   106304420.555                    82681233.620    19886440.594  
  19886434.492  
  22001349.602   115617920.964    22001357.465    90091947.6984   22001357.254  
                
  23388440.016   125244064.644                    97412056.317    23388443.938  
  23388439.277  
  19849158.414   106030673.362                    82468306.390    19849162.230  
  19849157.887  
  23120365.203   121498344.049    23120371.750    94674068.0414                 
                
  20792068.352   109263093.278    20792074.453    85140129.9054   20792074.414  
                
  24926512.352   130989706.301    24926518.277   102069916.3044                 
                
  24401272.219   128229514.612    24401283.160    99919151.8394   24401283.910  
                
  22817795.594   119908352.881    22817805.031    93435135.6834   22817805.434  
                
  20380236.891   107098909.959    20380244.617    83453750.8444   20380244.453  
                
  20043880.883   106958015.998                    83189566.314    20043883.707  
  20043878.746  
 21  8 15 17 52  0.0000000  0 12G16R 1G 4R 8R12G20G 7G 2G 6G30G 9R 2
  22852943.641   120093066.836    22852949.160    93579050.9604                 
                
  19890067.609   106323838.333                    82696336.327    19890073.090  
  19890066.996  
  22005626.594   115640396.690    22005634.469    90109461.2514   22005634.254  
                
  23395483.484   125281782.155                    97441392.214    23395487.301  
  23395482.789  
  19844678.391   106006741.934                    82449693.069    19844682.180  
  19844677.867  
  23115235.344   121471386.507    23115241.898    94653062.1684                 
                
  20790295.320   109253776.052    20790301.371    85132869.7374   20790301.371  
                
  24928725.391   131001335.920    24928731.230   102078978.3274                 
                
  24406506.500   128257020.833    24406517.457    99940585.2474   24406518.223  
                
  22812646.078   119881292.053    22812655.504    93414049.3444   22812655.887  
                
  20380973.125   107102778.937    20380980.859    83456765.6304   20380980.707  
                
  20039131.961   106932674.885                    83169856.566    20039134.789  
  20039129.828  
 21  8 15 17 52 10.0000000  0 12G16R 1G 4R 8R12G20G 7G 2G 6G30G 9R 2
  22857221.156   120115545.211    22857226.676    93596566.5714                 
                
  19893711.648   106343317.767                    82711487.000    19893717.133  
  19893711.055  
  22009908.875   115662900.245    22009916.738    90126996.4864   22009916.527  
                
  23402531.570   125319523.928                    97470746.954    23402535.254  
  23402530.859  
  19840211.242   105982879.210                    82431133.185    19840215.020  
  19840210.719  
  23110113.742   121444472.336    23110120.293    94632090.0824                 
                
  20788529.367   109244495.921    20788535.359    85125638.4734   20788535.395  
                
  24930946.422   131013007.544    24930952.152   102088073.1244                 
                
  24411744.648   128284547.537    24411755.672    99962034.6234   24411756.426  
                
  22807501.453   119854256.855    22807510.871    93392982.9644   22807511.238  
                
  20381717.195   107106689.042    20381724.941    83459812.4604   20381724.793  
                
  20034391.117   106907376.822                    83150180.295    20034393.957  
  20034388.980  
 21  8 15 17 52 20.0000000  0 12G16R 1G 4R 8R12G20G 7G 2G 6G30G 9R 2
  22861509.930   120138082.873    22861515.477    93614128.3784                 
                
  19897367.195   106362858.742                    82726685.524    19897372.664  
  19897366.590  
  22014196.445   115685431.560    22014204.273    90144553.3514   22014204.094  
                
  23409584.250   125357289.895                    97500120.463    23409587.773  
  23409583.504  
  19835756.938   105959085.136                    82412626.677    19835760.707  
  19835756.395  
  23105000.406   121417601.619    23105006.922    94611151.8514                 
                
  20786770.461   109235252.844    20786776.387    85118436.0764   20786776.453  
                
  24933175.406   131024721.029    24933181.047   102097200.5084                 
                
  24416986.727   128312094.566    24416997.723    99983499.8174   24416998.473  
                
  22802361.680   119827247.203    22802371.078    93371936.4934   22802371.445  
                
  20382469.070   107110640.200    20382476.836    83462891.2844   20382476.684  
                
  20029658.273   106882121.507                    83130537.277    20029661.113  
  20029656.137  
 21  8 15 17 52 30.0000000  0 12G16R 1G 4R 8R12G20G 7G 2G 6G30G 9R 2
  22865809.930   120160679.536    22865815.504    93631736.1704                 
                
  19901034.203   106382460.986                    82741931.707    19901039.676  
  19901033.590  
  22018489.266   115707990.496    22018497.102    90162131.7394   22018496.902  
                
  23416641.383   125395079.829                    97529512.629    23416644.816  
  23416640.582  
  19831315.477   105935359.705                    82394173.577    19831319.246  
  19831314.945  
  23099895.320   121390774.260    23099901.840    94590247.4274                 
                
  20785018.555   109226046.590    20785024.422    85111262.3804   20785024.520  
                
  24935412.297   131036476.218    24935417.863   102106360.3864                 
                
  24422232.602   128339661.663    24422243.617   100004980.6634   24422244.332  
                
  22797226.758   119800263.053    22797236.117    93350909.8964   22797236.484  
                
  20383228.742   107114632.336    20383236.535    83466002.0354   20383236.363  
                
  20024933.477   106856909.122                    83110927.639    20024936.332  
  20024931.340  
 21  8 15 17 52 40.0000000  0 12G16R 1G 4R 8R12G20G 7G 2G 6G30G 9R 2
  22870121.156   120183335.162    22870126.750    93649389.9104                 
                
  19904712.703   106402124.671                    82757225.677    19904718.176  
  19904712.086  
  22022787.352   115730577.117    22022795.195    90179731.6914   22022794.977  
                
  23423702.859   125432893.949                    97558923.597    23423706.375  
  23423702.062  
  19826886.883   105911702.963                    82375773.907    19826890.652  
  19826886.344  
  23094798.523   121363990.454    23094805.039    94569376.9334                 
                
  20783273.680   109216877.268    20783279.488    85104117.4524   20783279.609  
                
  24937657.055   131048273.064    24937662.660   102115552.7104                 
                
  24427482.305   128367248.747    24427493.332   100026477.0824   24427494.020  
                
  22792096.695   119773304.482    22792106.051    93329903.2304   22792106.426  
                
  20383996.234   107118665.543    20384004.066    83469144.7844   20384003.875  
                
  20020216.727   106831739.681                    83091351.437    20020219.594  
  20020214.578  
 21  8 15 17 52 50.0000000  0 12G16R 1G 4R 8R12G20G 7G 2G 6G30G 9R 2
  22874443.586   120206049.625    22874449.207    93667089.4844                 
                
  19908402.703   106421849.800                    82772567.433    19908408.191  
  19908402.086  
  22027090.703   115753191.331    22027098.508    90197353.1584   22027098.320  
                
  23430768.750   125470732.001                    97588353.145    23430772.395  
  23430767.973  
  19822471.148   105888114.956                    82357427.692    19822474.918  
  19822470.617  
  23089710.031   121337250.259    23089716.555    94548540.4174                 
                
  20781535.828   109207744.859    20781541.590    85097001.2974   20781541.734  
                
  24939909.805   131060111.485    24939915.418   102124777.4524                 
                
  24432735.812   128394855.692    24432746.816   100047988.9784   24432747.480  
                
  22786971.516   119746371.497    22786980.891    93308916.5074   22786981.258  
                
  20384771.531   107122739.758    20384779.406    83472319.4944   20384779.188  
                
  20015508.055   106806613.311                    83071808.706    20015510.934  
  20015505.887  
 21  8 15 17 53  0.0000000  0 12G16R 1G 4R 8R12G20G 7G 2G 6G30G 9R 2
  22878777.203   120228822.906    22878782.875    93684834.9004                 
                
  19912104.180   106441636.288                    82787956.922    19912109.684  
  19912103.562  
  22031399.312   115775833.223    22031407.117    90214996.1944   22031406.914  
                
  23437839.242   125508593.793                    97617801.184    23437842.828  
  23437838.414  
  19818068.336   105864595.934                    82339135.115    19818072.117  
  19818067.805  
  23084629.867   121310553.840    23084636.398    94527738.0274                 
                
  20779805.016   109198649.432    20779810.746    85089913.9484   20779810.895  
                
  24942170.508   131071991.593    24942176.145   102134034.6584                 
                
  24437993.008   128422482.478    24438004.090   100069516.3134   24438004.742  
                
  22781851.211   119719464.187    22781860.582    93287949.7824   22781860.949  
                
  20385554.641   107126855.097    20385562.559    83475526.2484   20385562.328  
                
  20010807.484   106781530.205                    83052299.628    20010810.371  
  20010805.332  
 21  8 15 17 53 10.0000000  0 12G16R 1G 4R 8R12G20G 7G 2G 6G30G 9R 2
  22883122.008   120251655.020    22883127.711    93702626.1434                 
                
  19915817.141   106461484.196                    82803394.166    19915822.641  
  19915816.516  
  22035713.211   115798502.931    22035721.004    90232660.8984   22035720.797  
                
  23444914.195   125546479.450                    97647267.823    23444917.715  
  23444913.309  
  19813678.422   105841145.869                    82320896.195    19813682.203  
  19813677.895  
  23079558.055   121283901.310    23079564.570    94506969.8224                 
                
  20778081.250   109189591.018    20778086.969    85082855.4484   20778087.121  
                
  24944439.125   131083913.433    24944444.879   102143324.3774                 
                
  24443253.969   128450129.070    24443265.105   100091059.0924   24443265.758  
                
  22776735.828   119692582.687    22776745.184    93267003.1764   22776745.562  
                
  20386345.609   107131011.688    20386353.562    83478765.1494   20386353.320  
                
  20006115.023   106756490.395                    83032824.225    20006117.895  
  20006112.875  
 21  8 15 17 53 20.0000000  0 12G16R 1G 4R 8R12G20G 7G 2G 6G30G 9R 2
  22887477.977   120274545.793    22887483.680    93720463.1024                 
                
  19919541.641   106481393.746                    82818879.377    19919547.152  
  19919541.004  
  22040032.391   115821200.325    22040040.195    90250347.1814   22040039.973  
                
  23451993.523   125584389.073                    97676753.077    23451997.105  
  23451992.711  
  19809301.477   105817765.003                    82302711.091    19809305.266  
  19809300.961  
  23074494.633   121257292.819    23074501.129    94486235.9364                 
                
  20776364.531   109180569.628    20776370.262    85075825.8034   20776370.402  
                
  24946715.625   131095876.721    24946721.484   102152646.3934                 
                
  24448518.625   128477795.309    24448529.844   100112617.1804   24448530.512  
                
  22771625.352   119665726.987    22771634.711    93246076.6724   22771635.094  
                
  20387144.422   107135209.481    20387152.402    83482036.1474   20387152.156  
                
  20001430.719   106731494.082                    83013382.654    20001433.582  
  20001428.566  
 21  8 15 17 53 30.0000000  0 12G16R 1G 4R 8R12G20G 7G 2G 6G30G 9R 2
  22891845.141   120297495.385    22891850.832    93738345.9004                 
                
  19923277.633   106501364.800                    82834412.420    19923283.137  
  19923276.992  
  22044356.883   115843925.657    22044364.695    90268055.2324   22044364.453  
                
  23459077.281   125622322.638                    97706256.968    23459080.980  
  23459076.559  
  19804937.500   105794453.474                    82284579.912    19804941.270  
  19804936.980  
  23069439.656   121230728.707    23069446.141    94465536.6394                 
                
  20774654.914   109171585.521    20774660.664    85068825.1964   20774660.766  
                
  24949000.031   131107881.703    24949005.973   102162000.9064                 
                
  24453787.000   128505481.311    24453798.352   100134190.6774   24453798.996  
                
  22766519.844   119638897.350    22766529.230    93225170.4764   22766529.570  
                
  20387951.125   107139448.753    20387959.121    83485339.4704   20387958.875  
                
  19996754.648   106706541.690                    82993975.238    19996757.508  
  19996752.496  
 21  8 15 17 53 40.0000000  0 12G16R 1G 4R 8R12G20G 7G 2G 6G30G 9R 2
  22896223.383   120320503.220    22896229.035    93756274.0924                 
                
  19927025.062   106521396.952                    82849992.973    19927030.559  
  19927024.418  
  22048686.586   115866678.365    22048694.391    90285784.6214   22048694.145  
                
  23466165.359   125660279.535                    97735778.968    23466169.199  
  23466164.754  
  19800586.438   105771210.902                    82266502.362    19800590.203  
  19800585.918  
  23064393.008   121204208.444    23064399.500    94444871.5064                 
                
  20772952.266   109162638.082    20772958.039    85061853.1724   20772958.109  
                
  24951292.312   131119927.762    24951298.230   102171387.4814                 
                
  24459059.094   128533186.429    24459070.527   100155779.0564   24459071.156  
                
  22761419.188   119612093.260    22761428.602    93204284.1854   22761428.926  
                
  20388765.609   107143728.961    20388773.621    83488674.6934   20388773.367  
                
  19992086.734   106681632.796                    82974601.663    19992089.586  
  19992084.582  
 21  8 15 17 53 50.0000000  0 12G16R 1G 4R 8R12G20G 7G 2G 6G30G 9R 2
  22900612.727   120343569.311    22900618.324    93774247.6594                 
                
  19930783.906   106541490.152                    82865621.007    19930789.406  
  19930783.250  
  22053021.523   115889458.548    22053029.316    90303535.4184   22053029.078  
                
  23473257.953   125698259.947                    97765319.266    23473261.797  
  23473257.340  
  19796248.305   105748037.323                    82248478.474    19796252.070  
  19796247.789  
  23059354.766   121177732.310    23059361.273    94424240.7714                 
                
  20771256.633   109153727.448    20771262.422    85054909.8234   20771262.477  
                
  24953592.453   131132014.933    24953598.230   102180806.0644                 
                
  24464334.805   128560910.632    24464346.344   100177382.3174   24464346.945  
                
  22756323.430   119585314.866    22756332.855    93183417.9064   22756333.176  
                
  20389587.930   107148050.251    20389595.957    83492041.9254   20389595.695  
                
  19987427.008   106656767.579                    82955262.040    19987429.867  
  19987424.871  
 21  8 15 17 54  0.0000000  0 12G16R 1G 4R 8R12G20G 7G 2G 6G30G 9R 2
  22905013.125   120366693.594    22905018.727    93792266.5784                 
                
  19934554.203   106561644.614                    82881296.693    19934559.688  
  19934553.562  
  22057361.656   115912266.124    22057369.430    90321307.5484   22057369.207  
                
  23480354.945   125736263.663                    97794877.707    23480358.730  
  23480354.289  
  19791923.086   105724932.875                    82230508.346    19791926.852  
  19791922.566  
  23054324.914   121151300.382    23054331.430    94403644.4814                 
                
  20769567.977   109144853.572    20769573.781    85047995.1214   20769573.820  
                
  24955900.375   131144143.116    24955906.121   102190256.6154                 
                
  24469614.148   128588653.789    24469625.746   100199000.3444   24469626.316  
                
  22751232.531   119558562.133    22751241.953    93162571.6324   22751242.281  
                
  20390418.039   107152412.586    20390426.070    83495441.1384   20390425.812  
                
  19982775.539   106631946.501                    82935956.757    19982778.418  
  19982773.406  
 21  8 15 17 54 10.0000000  0 12G16R 1G 4R 8R12G20G 7G 2G 6G30G 9R 2
  22909424.633   120389876.234    22909430.285    93810330.9574                 
                
  19938335.992   106581860.426                    82897020.088    19938341.473  
  19938335.344  
  22061707.086   115935101.514    22061714.852    90339101.3814   22061714.648  
                
  23487456.344   125774291.002                    97824454.519    23487460.066  
  23487455.648  
  19787610.898   105701897.991                    82212592.351    19787614.672  
  19787610.371  
  23049303.562   121124913.005    23049310.090    94383082.8934                 
                
  20767886.375   109136016.725    20767892.199    85041109.2734   20767892.223  
                
  24958216.141   131156312.512    24958221.941   102199739.2264                 
                
  24474897.195   128616416.090    24474908.789   100220633.2924   24474909.320  
                
  22746146.586   119531835.405    22746156.004    93141745.6304   22746156.340  
                
  20391256.031   107156816.290    20391264.066    83498872.5924   20391263.809  
                
  19978132.289   106607169.264                    82916685.569    19978135.172  
  19978130.172  
 21  8 15 17 54 20.0000000  0 12G16R 1G 4R 8R12G20G 7G 2G 6G30G 9R 2
  22913847.156   120413116.829    22913852.891    93828440.5054                 
                
  19942129.227   106602137.358                    82912791.012    19942134.707  
  19942128.586  
  22066057.742   115957964.316    22066065.512    90356916.5394   22066065.301  
                
  23494561.961   125812341.591                    97854049.422    23494565.789  
  23494561.367  
  19783311.703   105678932.474                    82194730.289    19783315.465  
  19783311.176  
  23044290.664   121098570.066    23044297.211    94362555.9334                 
                
  20766211.781   109127216.661    20766217.633    85034252.0834   20766217.641  
                
  24960539.703   131168522.873    24960545.582   102209253.7784                 
                
  24480183.820   128644197.179    24480195.406   100242280.8824   24480195.902  
                
  22741065.562   119505134.496    22741074.984    93120939.7424   22741075.316  
                
  20392101.867   107161261.146    20392109.898    83502336.1094   20392109.645  
                
  19973497.336   106582436.210                    82897448.753    19973500.219  
  19973495.227  
 21  8 15 17 54 30.0000000  0 12G16R 1G 4R 8R12G20G 7G 2G 6G30G 9R 2
  22918280.695   120436415.229    22918286.504    93846595.0984                 
                
  19945933.867   106622475.303                    82928609.419    19945939.363  
  19945933.242  
  22070413.609   115980854.559    22070421.391    90374753.1004   22070421.164  
                
  23501671.891   125850415.310                    97883662.301    23501675.812  
  23501671.402  
  19779025.477   105656036.228                    82176922.113    19779029.250  
  19779024.941  
  23039286.234   121072271.680    23039292.789    94342063.6974                 
                
  20764544.188   109118453.366    20764550.070    85027423.5384   20764550.066  
                
  24962871.039   131180774.128    24962876.984   102218800.2034                 
                
  24485474.023   128671996.924    24485485.559   100263943.0064   24485486.027  
                
  22735989.453   119478459.418    22735998.883    93100153.9724   22735999.207  
                
  20392955.523   107165747.181    20392963.551    83505831.7134   20392963.309  
                
  19968870.672   106557747.485                    82878246.406    19968873.559  
  19968868.578  
 21  8 15 17 54 40.0000000  0 12G16R 1G 4R 8R12G20G 7G 2G 6G30G 9R 2
  22922725.242   120459771.510    22922731.086    93864794.7944                 
                
  19949749.922   106642874.364                    82944475.355    19949755.422  
  19949749.289  
  22074774.711   116003772.323    22074782.504    90392611.1104   22074782.281  
                
  23508786.133   125888512.100                    97913293.139    23508790.152  
  23508785.738  
  19774752.258   105633209.498                    82159167.997    19774756.043  
  19774751.723  
  23034290.312   121046017.987    23034296.836    94321606.2724                 
                
  20762883.609   109109727.004    20762889.531    85020623.7804   20762889.508  
                
  24965210.156   131193066.251    24965216.137   102228378.4834                 
                
  24490767.695   128699815.335    24490779.254   100285619.6614   24490779.707  
                
  22730918.258   119451810.273    22730927.684    93079388.4214   22730928.020  
                
  20393817.031   107170274.475    20393825.047    83509359.4694   20393824.812  
                
  19964252.336   106533103.169                    82859078.623    19964255.219  
  19964250.223  
 21  8 15 17 54 50.0000000  0 12G16R 1G 4R 8R12G20G 7G 2G 6G30G 9R 2
  22927180.766   120483185.443    22927186.629    93883039.4094                 
                
  19953577.406   106663334.447                    82960388.737    19953582.906  
  19953576.773  
  22079141.031   116026717.544    22079148.836    90410490.4914   22079148.602  
                
  23515904.781   125926632.220                    97942942.120    23515908.824  
  23515904.391  
  19770492.016   105610452.124                    82141467.827    19770495.805  
  19770491.488  
  23029302.883   121019808.972    23029309.402    94301183.6814                 
                
  20761230.031   109101037.406    20761235.984    85013852.6714   20761235.949  
                
  24967557.031   131205399.089    24967562.984   102237988.4894                 
                
  24496064.836   128727652.173    24496076.453   100307310.6874   24496076.875  
                
  22725852.000   119425186.996    22725861.387    93058643.0274   22725861.727  
                
  20394686.383   107174842.959    20394694.383    83512919.3244   20394694.160  
                
  19959642.289   106508503.127                    82839945.266    19959645.176  
  19959640.164  
 21  8 15 17 55  0.0000000  0 12G16R 1G 4R 8R12G20G 7G 2G 6G30G 9R 2
  22931647.344   120506657.430    22931653.223    93901329.2614                 
                
  19957416.398   106683856.044                    82976349.968    19957421.906  
  19957415.773  
  22083512.656   116049690.592    22083520.469    90428391.5824   22083520.246  
                
  23523027.898   125964775.596                    97972609.179    23523031.863  
  23523027.391  
  19766244.914   105587764.899                    82123822.217    19766248.699  
  19766244.383  
  23024324.062   120993645.209    23024330.598    94280796.3494                 
                
  20759583.531   109092384.978    20759589.512    85007110.5204   20759589.457  
                
  24969911.727   131217773.081    24969917.719   102247630.5494                 
                
  24501365.555   128755507.794    24501377.203   100329016.3574   24501377.660  
                
  22720790.789   119398590.154    22720800.148    93037918.2204   22720800.504  
                
  20395563.672   107179453.145    20395571.660    83516511.6684   20395571.449  
                
  19955040.727   106483948.335                    82820847.106    19955043.609  
  19955038.633  
 21  8 15 17 55 10.0000000  0 12G16R 1G 4R 8R12G20G 7G 2G 6G30G 9R 2
  22936124.891   120530187.103    22936130.766    93919664.0634                 
                
  19961266.828   106704438.776                    82992358.758    19961272.316  
  19961266.215  
  22087889.516   116072691.164    22087897.348    90446314.1034   22087897.121  
                
  23530155.445   126002942.099                    98002294.239    23530159.207  
  23530154.750  
  19762010.852   105565147.326                    82106230.781    19762014.629  
  19762010.312  
  23019353.812   120967526.457    23019360.348    94260444.0794                 
                
  20757944.047   109083769.459    20757950.062    85000397.1354   20757949.996  
                
  24972274.180   131230187.761    24972280.219   102257304.2784                 
                
  24506669.836   128783381.739    24506681.438   100350736.3014   24506681.891  
                
  22715734.523   119372019.327    22715743.895    93017213.6904   22715744.246  
                
  20396448.828   107184104.689    20396456.805    83520136.2414   20396456.602  
                
  19950447.555   106459438.308                    82801783.746    19950450.410  
  19950445.465  
 21  8 15 17 55 20.0000000  0 12G16R 1G 4R 8R12G20G 7G 2G 6G30G 9R 2
  22940613.383   120553774.290    22940619.273    93938043.6654                 
                
  19965128.641   106725082.308                    83008414.816    19965134.113  
  19965128.043  
  22092271.586   116095719.100    22092279.457    90464257.9394   22092279.215  
                
  23537287.258   126041131.611                    98031997.201    23537290.828  
  23537286.414  
  19757789.828   105542599.446                    82088693.555    19757793.598  
  19757789.285  
  23014392.133   120941452.678    23014398.676    94240126.8584                 
                
  20756311.555   109075190.657    20756317.613    84993712.3674   20756317.523  
                
  24974644.359   131242642.997    24974650.418   102267009.6554                 
                
  24511977.539   128811273.758    24511989.137   100372470.3254   24511989.562  
                
  22710683.203   119345474.474    22710692.598    92996529.4064   22710692.934  
                
  20397341.820   107188797.450    20397349.785    83523792.9284   20397349.586  
                
  19945862.758   106434972.954                    82782755.144    19945865.609  
  19945860.660  
 21  8 15 17 55 30.0000000  0 12G16R 1G 4R 8R12G20G 7G 2G 6G30G 9R 2
  22945112.805   120577418.840    22945118.703    93956467.9924                 
                
  19969001.852   106745786.825                    83024518.334    19969007.320  
  19969001.270  
  22096658.859   116118774.384    22096666.762    90482223.0944   22096666.488  
                
  23544422.969   126079343.745                    98061717.730    23544426.637  
  23544422.195  
  19753581.867   105520121.329                    82071210.586    19753585.637  
  19753581.332  
  23009439.023   120915423.985    23009445.562    94219844.7854                 
                
  20754686.047   109066648.552    20754692.145    84987056.1854   20754692.031  
                
  24977022.250   131255138.633    24977028.285   102276746.5664                 
                
  24517288.602   128839183.750    24517300.250   100394218.3494   24517300.672  
                
  22705636.836   119318955.622    22705646.250    92975865.3824   22705646.559  
                
  20398242.672   107193531.483    20398250.625    83527481.7834   20398250.430  
                
  19941286.391   106410552.614                    82763761.563    19941289.246  
  19941284.309  
 21  8 15 17 55 40.0000000  0 12G16R 1G 4R 8R12G20G 7G 2G 6G30G 9R 2
  22949623.109   120601120.636    22949628.969    93974936.9254                 
                
  19972886.469   106766552.309                    83040669.260    19972891.938  
  19972885.891  
  22101051.344   116141857.036    22101059.258    90500209.5824   22101058.988  
                
  23551562.969   126117578.740                    98091456.026    23551566.727  
  23551562.250  
  19749386.961   105497712.924                    82053781.838    19749390.730  
  19749386.434  
  23004494.516   120889440.417    23004501.090    94199597.8714                 
                
  20753067.531   109058143.223    20753073.672    84980428.6544   20753073.520  
                
  24979407.828   131267674.658    24979413.793   102286514.9334                 
                
  24522603.031   128867111.609    24522614.789   100415980.3004   24522615.203  
                
  22700595.422   119292462.792    22700604.840    92955221.6324   22700605.137  
                
  20399151.383   107198306.797    20399159.316    83531202.8074   20399159.141  
                
  19936718.445   106386177.168                    82744802.881    19936721.281  
  19936716.367  
 21  8 15 17 55 50.0000000  0 12G16R 1G 4R 8R12G20G 7G 2G 6G30G 9R 2
  22954144.312   120624879.672    22954150.117    93993450.4614                 
                
  19976782.484   106787378.644                    83056867.510    19976787.953  
  19976781.941  
  22105449.047   116164967.125    22105456.973    90518217.4304   22105456.707  
                
  23558707.297   126155836.373                    98121211.943    23558711.113  
  23558706.637  
  19745205.141   105475374.464                    82036407.490    19745208.914  
  19745204.613  
  22999558.625   120863502.237    22999565.270    94179386.3224                 
                
  20751456.047   109049674.827    20751462.223    84973829.9084   20751462.051  
                
  24981801.062   131280251.115    24981807.055   102296314.7494                 
                
  24527920.992   128895057.320    24527932.715   100437756.1504   24527933.113  
                
  22695558.984   119265996.107    22695568.395    92934598.2474   22695568.688  
                
  20400067.969   107203123.506    20400075.883    83534956.0764   20400075.715  
                
  19932159.000   106361847.139                    82725879.516    19932161.805  
  19932156.930  
 21  8 15 17 56  0.0000000  0 12G16R 1G 4R 8R12G20G 7G 2G 6G30G 9R 2
  22958676.391   120648695.857    22958682.156    94012008.5254                 
                
  19980689.883   106808265.883                    83073113.133    19980695.359  
  19980689.355  
  22109851.953   116188104.538    22109859.895    90536246.5864   22109859.625  
                
  23565855.938   126194116.688                    98150985.522    23565859.711  
  23565855.246  
  19741036.406   105453105.856                    82019087.473    19741040.184  
  19741035.859  
  22994631.391   120837609.475    22994638.070    94159210.1554                 
                
  20749851.523   109041243.037    20749857.734    84967259.6804   20749857.551  
                
  24984201.938   131292867.907    24984208.035   102306145.9704                 
                
  24533242.289   128923020.668    24533253.961   100459545.7624   24533254.355  
                
  22690527.508   119239555.529    22690536.926    92913995.2044   22690537.211  
                
  20400992.422   107207981.550    20401000.316    83538741.5644   20401000.152  
                
  19927608.023   106337562.252                    82706991.305    19927610.820  
  19927605.953  
 21  8 15 17 56 10.0000000  0 12G16R 1G 4R 8R12G20G 7G 2G 6G30G 9R 2
  22963219.352   120672569.144    22963225.098    94030611.0874                 
                
  19984608.672   106829214.004                    83089406.101    19984614.152  
  19984608.156  
  22114260.086   116211269.399    22114268.039    90554297.1214   22114267.754  
                
  23573008.805   126232419.562                    98180776.656    23573012.535  
  23573008.039  
  19736880.789   105430907.352                    82001821.991    19736884.566  
  19736880.230  
  22989712.828   120811762.303    22989719.520    94139069.5174                 
                
  20748254.000   109032847.998    20748260.254    84960718.0974   20748260.059  
                
  24986610.523   131305524.943    24986616.691   102316008.5714                 
                
  24538566.984   128951001.655    24538578.555   100481349.1264   24538578.926  
                
  22685501.023   119213141.203    22685510.461    92893412.6264   22685510.738  
                
  20401924.766   107212881.050    20401932.641    83542559.3524   20401932.492  
                
  19923065.633   106313323.170                    82688138.672    19923068.430  
  19923063.574  
 21  8 15 17 56 20.0000000  0 12G16R 1G 4R 8R12G20G 7G 2G 6G30G 9R 2
  22967773.109   120696499.232    22967778.836    94049257.9014                 
                
  19988538.805   106850222.753                    83105746.233    19988544.301  
  19988538.312  
  22118673.398   116234461.497    22118681.359    90572368.8824   22118681.086  
                
  23580165.898   126270744.713                    98210585.097    23580169.492  
  23580164.957  
  19732738.289   105408778.906                    81984610.977    19732742.062  
  19732737.738  
  22984802.914   120785960.636    22984809.629    94118964.3464                 
                
  20746663.445   109024489.574    20746669.738    84954205.0424   20746669.523  
                
  24989026.727   131318221.962    24989032.980   102325902.3804                 
                
  24543894.969   128978999.966    24543906.445   100503165.9774   24543906.805  
                
  22680479.492   119186752.962    22680488.930    92872850.3734   22680489.207  
                
  20402864.961   107217821.838    20402872.820    83546409.3114   20402872.676  
                
  19918531.734   106289129.431                    82669321.326    19918534.512  
  19918529.668  
 21  8 15 17 56 30.0000000  0 12G16R 1G 4R 8R12G20G 7G 2G 6G30G 9R 2
  22972337.727   120720486.368    22972343.441    94067949.1694                 
                
  19992480.367   106871292.564                    83122133.855    19992485.859  
  19992479.875  
  22123091.953   116257681.102    22123099.949    90590462.0794   22123099.668  
                
  23587326.945   126309092.707                    98240411.328    23587330.742  
  23587326.074  
  19728608.945   105386720.720                    81967454.615    19728612.703  
  19728608.391  
  22979901.758   120760204.865    22979908.465    94098894.9134                 
                
  20745079.914   109016168.069    20745086.246    84947720.7504   20745086.008  
                
  24991450.578   131330959.245    24991456.879   102335827.5764                 
                
  24549226.227   129007015.803    24549237.688   100524996.4804   24549238.055  
                
  22675462.977   119160391.095    22675472.406    92852308.6844   22675472.711  
                
  20403813.078   107222804.209    20403820.926    83550291.6784   20403820.785  
                
  19914006.453   106264981.654                    82650539.734    19914009.230  
  19914004.387  
 21  8 15 17 56 40.0000000  0 12G16R 1G 4R 8R12G20G 7G 2G 6G30G 9R 2
  22976913.086   120744529.940    22976918.805    94086684.4154                 
                
  19996433.250   106892422.930                    83138568.559    19996438.746  
  19996432.770  
  22127515.648   116280927.722    22127523.711    90608576.3244   22127523.387  
                
  23594492.094   126347462.859                    98270254.744    23594496.086  
  23594491.371  
  19724492.680   105364732.421                    81950352.601    19724496.426  
  19724492.121  
  22975009.234   120734494.559    22975015.918    94078860.9144                 
                
  20743503.312   109007882.972    20743509.676    84941264.8364   20743509.410  
                
  24993881.969   131343736.306    24993888.316   102345783.7004                 
                
  24554560.734   129035048.535    24554572.152   100546840.1544   24554572.516  
                
  22670451.422   119134055.206    22670460.844    92831787.2274   22670461.160  
                
  20404769.016   107227827.722    20404776.848    83554206.1024   20404776.711  
                
  19909489.672   106240879.269                    82631793.440    19909492.461  
  19909487.617  
 21  8 15 17 56 50.0000000  0 12G16R 1G 4R 8R12G20G 7G 2G 6G30G 9R 2
  22981499.227   120768630.258    22981504.926    94105463.8694                 
                
  20000397.531   106913614.254                    83155050.701    20000403.043  
  20000397.055  
  22131944.594   116304201.910    22131952.684    90626712.0514   22131952.332  
                
  23601661.625   126385855.561                    98300115.702    23601665.645  
  23601660.926  
  19720389.617   105342814.612                    81933305.414    19720393.348  
  19720389.070  
  22970125.500   120708830.419    22970132.172    94058862.9144                 
                
  20741933.750   108999634.914    20741940.145    84934837.7814   20741939.867  
                
  24996320.977   131356553.529    24996327.375   102355771.1254                 
                
  24559898.375   129063098.668    24559909.914   100568697.3664   24559910.266  
                
  22665444.914   119107745.849    22665454.359    92811286.4444   22665454.656  
                
  20405732.891   107232892.937    20405740.699    83558153.0194   20405740.578  
                
  19904981.547   106216823.054                    82613083.050    19904984.332  
  19904979.504  
 21  8 15 17 57  0.0000000  0 12G16R 1G 4R 8R12G20G 7G 2G 6G30G 9R 2
  22986096.141   120792787.212    22986101.793    94124287.4734                 
                
  20004373.188   106934866.302                    83171580.073    20004378.703  
  20004372.699  
  22136378.742   116327503.417    22136386.820    90644869.0714   22136386.469  
                
  23608835.383   126424270.375                    98329993.895    23608839.336  
  23608834.648  
  19716299.734   105320967.192                    81916312.999    19716303.461  
  19716299.215  
  22965250.523   120683212.267    22965257.188    94038900.7494                 
                
  20740371.203   108991423.659    20740377.625    84928439.4094   20740377.332  
                
  24998767.625   131369410.623    24998774.066   102365789.6334                 
                
  24565239.406   129091165.799    24565250.930   100590567.8354   24565251.273  
                
  22660443.422   119081462.839    22660452.895    92790806.1904   22660453.156  
                
  20406704.672   107237999.674    20406712.457    83562132.2844   20406712.332  
                
  19900482.039   106192812.806                    82594408.434    19900484.812  
  19900479.992  
 21  8 15 17 57 10.0000000  0 12G16R 1G 4R 8R12G20G 7G 2G 6G30G 9R 2
  22990703.867   120817001.030    22990709.461    94143155.3764                 
                
  20008360.250   106956179.365                    83188156.877    20008365.730  
  20008359.754  
  22140818.133   116350832.542    22140826.203    90663047.6074   22140825.848  
                
  23616013.422   126462707.640                    98359889.518    23616017.223  
  23616012.645  
  19712223.070   105299190.422                    81899375.506    19712226.781  
  19712222.566  
  22960384.383   120657640.534    22960391.051    94018974.7284                 
                
  20738815.680   108983249.382    20738822.125    84922069.8514   20738821.816  
                
  25001221.922   131382307.894    25001228.363   102375839.4544                 
                
  24570583.633   129119250.135    24570595.227   100612451.7074   24570595.547  
                
  22655446.992   119055206.486    22655456.465    92770346.7014   22655456.719  
                
  20407684.406   107243148.188    20407692.160    83566144.1114   20407692.062  
                
  19895991.250   106168849.119                    82575770.025    19895994.027  
  19895989.207  
 21  8 15 17 57 20.0000000  0 12G16R 1G 4R 8R12G20G 7G 2G 6G30G 9R 2
  22995322.305   120841271.135    22995327.875    94162067.1434                 
                
  20012358.680   106977553.231                    83204780.983    20012364.148  
  20012358.180  
  22145262.734   116374189.028    22145270.797    90681247.4614   22145270.438  
                
  23623195.680   126501167.099                    98389802.444    23623199.285  
  23623194.754  
  19708159.586   105277484.096                    81882492.818    19708163.301  
  19708159.098  
  22955527.023   120632115.029    22955533.699    93999084.7464                 
                
  20737267.172   108975111.948    20737273.633    84915729.0074   20737273.328  
                
  25003683.766   131395244.949    25003690.191   102385920.2864                 
                
  24575931.102   129147351.297    24575942.703   100634348.7094   24575943.020  
                
  22650455.602   119028976.579    22650465.078    92749907.8264   22650465.328  
                
  20408672.047   107248338.303    20408679.773    83570188.3554   20408679.688  
                
  19891509.148   106144931.814                    82557167.680    19891511.938  
  19891507.117  
 21  8 15 17 57 30.0000000  0 11G16R 1G 4R12G20G 7G 2G 6G30G 9R 2
  22999951.469   120865597.566    22999957.039    94181022.8114                 
                
  20016368.438   106998987.590                    83221452.143    20016373.914  
  20016367.926  
  22149712.508   116397572.677    22149720.570    90699468.4814   22149720.195  
                
  19704109.305   105255848.201                    81865664.903    19704112.996  
  19704108.824  
  22950678.461   120606635.664    22950685.121    93979230.7114                 
                
  20735725.641   108967011.141    20735732.109    84909416.6984   20735731.801  
                
  25006153.164   131408221.638    25006159.555   102396031.9984                 
                
  24581281.797   129175469.036    24581293.320   100656258.6204   24581293.656  
                
  22645469.227   119002772.986    22645478.734    92729489.4584   22645478.961  
                
  20409667.594   107253569.846    20409675.289    83574264.8774   20409675.230  
                
  19887035.703   106121060.623                    82538601.199    19887038.488  
  19887033.680  
 21  8 15 17 57 40.0000000  0 11G16R 1G 4R12G20G 7G 2G 6G30G 9R 2
  23004591.250   120889979.854    23004596.832    94200021.9914                 
                
  20020389.477   107020482.350                    83238170.276    20020394.941  
  20020388.957  
  22154167.391   116420983.293    22154175.402    90717710.5084   22154175.055  
                
  19700072.148   105234282.455                    81848891.561    19700075.836  
  19700071.695  
  22945838.672   120581202.354    22945845.293    93959412.5734                 
                
  20734191.023   108958946.700    20734197.488    84903132.7294   20734197.191  
                
  25008630.008   131421237.598    25008636.340   102406174.2894                 
                
  24586635.562   129203603.005    24586646.973   100678181.1884   24586647.375  
                
  22640487.812   118976595.525    22640497.363    92709091.4614   22640497.566  
                
  20410670.961   107258842.617    20410678.637    83578373.5284   20410678.582  
                
  19882570.961   106097235.910                    82520070.887    19882573.754  
  19882568.930  
 21  8 15 17 57 50.0000000  0 11G16R 1G 4R12G20G 7G 2G 6G30G 9R 2
  23009241.734   120914418.319    23009247.293    94219064.9284                 
                
  20024421.852   107042037.659                    83254935.513    20024427.301  
  20024421.332  
  22158627.484   116444421.228    22158635.438    90735973.8304   22158635.129  
                
  19696048.242   105212787.493                    81832173.261    19696051.930  
  19696047.793  
  22941007.758   120555815.657    22941014.316    93939630.7414                 
                
  20732663.414   108950919.059    20732669.875    84896877.4354   20732669.586  
                
  25011114.367   131434293.178    25011120.707   102416347.4324                 
                
  24591992.453   129231753.511    24592003.785   100700116.6324   24592004.230  
                
  22635511.461   118950444.615    22635521.012    92688714.1364   22635521.219  
                
  20411682.273   107264157.050    20411689.934    83582514.6364   20411689.887  
                
  19878115.016   106073458.193                    82501577.116    19878117.809  
  19878112.984  
 21  8 15 17 58  0.0000000  0 11G16R 1G 4R12G20G 7G 2G 6G30G 9R 2
  23013902.844   120938912.688    23013908.375    94238151.4544                 
                
  20028465.531   107063653.422                    83271747.770    20028470.973  
  20028465.004  
  22163092.727   116467886.238    22163100.648    90754258.2544   22163100.352  
                
  19692037.516   105191362.984                    81815509.768    19692041.211  
  19692037.066  
  22936185.656   120530475.354    22936192.195    93919885.0624                 
                
  20731142.742   108942927.933    20731149.195    84890650.5894   20731148.914  
                
  25013606.211   131447387.956    25013612.555   102426551.1534                 
                
  24597352.469   129259920.176    24597363.723   100722064.6664   24597364.176  
                
  22630540.125   118924320.074    22630549.652    92668357.3614   22630549.871  
                
  20412701.461   107269512.918    20412709.102    83586688.0384   20412709.059  
                
  19873667.742   106049726.705                    82483119.295    19873670.543  
  19873665.715  
 21  8 15 17 58 10.0000000  0 11G16R 1G 4R12G20G 7G 2G 6G30G 9R 2
  23018574.617   120963463.084    23018580.109    94257281.6314                 
                
  20032520.539   107085329.786                    83288607.149    20032525.965  
  20032519.996  
  22167563.164   116491378.560    22167571.051    90772563.9454   22167570.770  
                
  19688040.055   105170009.289                    81798901.342    19688043.742  
  19688039.598  
  22931372.469   120505181.834    22931378.973    93900175.8404                 
                
  20729629.062   108934973.501    20729635.504    84884452.3454   20729635.230  
                
  25016105.570   131460522.182    25016111.910   102436785.6314                 
                
  24602715.531   129288103.122    24602726.773   100744025.3944   24602727.191  
                
  22625573.844   118898222.115    22625583.367    92648021.2964   22625583.582  
                
  20413728.586   107274910.462    20413736.211    83590893.9184   20413736.168  
                
  19869229.281   106026042.244                    82464698.054    19869232.086  
  19869227.242  
 21  8 15 17 58 20.0000000  0 11G16R 1G 4R12G20G 7G 2G 6G30G 9R 2
  23023257.242   120988070.475    23023262.711    94276456.2394                 
                
  20036587.094   107107067.855                    83305514.523    20036592.516  
  20036586.539  
  22172039.000   116514899.229    22172046.848    90790891.7394   22172046.598  
                
  19684056.055   105148727.530                    81782348.871    19684059.742  
  19684055.582  
  22926568.375   120479936.178    22926574.828    93880503.9154                 
                
  20728122.570   108927056.884    20728128.988    84878283.5514   20728128.723  
                
  25018612.656   131473696.995    25018619.020   102447051.7194                 
                
  24608081.836   129316303.344    24608093.094   100765999.5894   24608093.496  
                
  22620612.828   118872151.876    22620622.363    92627706.8494   22620622.586  
                
  20414763.844   107280350.788    20414771.445    83595133.1254   20414771.422  
                
  19864799.859   106002406.021                    82446314.326    19864802.668  
  19864797.809  
 21  8 15 17 58 30.0000000  0 11G16R 1G 4R12G20G 7G 2G 6G30G 9R 2
  23027950.023   121012731.273    23027955.500    94295672.4494                 
                
  20040664.547   107128864.099                    83322467.147    20040669.949  
  20040663.988  
  22176519.570   116538444.783    22176527.387    90809238.9064   22176527.152  
                
  19680084.891   105127514.354                    81765849.743    19680088.582  
  19680084.414  
  22921772.766   120454735.060    22921779.145    93860866.6914                 
                
  20726622.609   108919174.586    20726629.004    84872141.5124   20726628.754  
                
  25021126.805   131486908.767    25021133.191   102457346.5914                 
                
  24613450.797   129344517.255    24613462.078   100787984.4364   24613462.461  
                
  22615656.438   118846105.887    22615665.973    92607411.2904   22615666.188  
                
  20415806.594   107285830.435    20415814.168    83599402.9844   20415814.152  
                
  19860378.789   105978814.364                    82427965.280    19860381.609  
  19860376.742  
 21  8 15 17 58 40.0000000  0 11G16R 1G 4R12G20G 7G 2G 6G30G 9R 2
  23032653.539   121037448.482    23032659.070    94314932.6104                 
                
  20044753.445   107150721.603                    83339467.412    20044758.848  
  20044752.867  
  22181005.461   116562018.301    22181013.254    90827607.8884   22181013.023  
                
  19676127.141   105106372.775                    81749406.302    19676130.832  
  19676126.676  
  22916986.227   120429581.684    22916992.570    93841266.6694                 
                
  20725129.781   108911329.730    20725136.152    84866028.6404   20725135.934  
                
  25023648.547   131500160.554    25023654.992   102467672.6604                 
                
  24618822.930   129372747.802    24618834.250   100809982.2354   24618834.602  
                
  22610705.289   118820087.358    22610714.797    92587137.1114   22610714.992  
                
  20416857.414   107291352.515    20416864.969    83603705.9044   20416864.961  
                
  19855966.820   105955271.272                    82409653.996    19855969.652  
  19855964.766  
 21  8 15 17 58 50.0000000  0 11G16R 1G 4R12G20G 7G 2G 6G30G 9R 2
  23037367.656   121062221.334    23037373.242    94334236.1234                 
                
  20048853.648   107172639.543                    83356514.701    20048859.047  
  20048853.078  
  22185496.555   116585619.126    22185504.324    90845998.1384   22185504.105  
                
  19672182.688   105085302.222                    81733018.097    19672186.367  
  19672182.223  
  22912208.688   120404475.481    22912215.000    93821703.4084                 
                
  20723643.945   108903521.683    20723650.293    84859944.4554   20723650.098  
                
  25026177.758   131513451.548    25026184.230   102478029.2674                 
                
  24624198.055   129400994.228    24624209.414   100831992.4314   24624209.746  
                
  22605759.203   118794095.571    22605768.703    92566883.7804   22605768.898  
                
  20417916.195   107296916.405    20417923.719    83608041.3984   20417923.715  
                
  19851563.688   105931775.339                    82391379.393    19851566.516  
  19851561.633  
 21  8 15 17 59  0.0000000  0 11G16R 1G 4R12G20G 7G 2G 6G30G 9R 2
  23042092.328   121087049.630    23042097.977    94353582.8284                 
                
  20052965.156   107194617.899                    83373608.957    20052970.570  
  20052964.559  
  22189992.805   116609247.125    22190000.582    90864409.5494   22190000.355  
                
  19668251.531   105064302.752                    81716685.201    19668255.219  
  19668251.055  
  22907440.125   120379416.430    22907446.406    93802176.8874                 
                
  20722165.086   108895750.242    20722171.410    84853888.7944   20722171.223  
                
  25028714.375   131526781.489    25028720.848   102488416.2234                 
                
  24629576.117   129429256.290    24629587.539   100854014.8074   24629587.848  
                
  22600818.195   118768130.463    22600827.688    92546651.2514   22600827.891  
                
  20418982.906   107302521.982    20418990.402    83612409.3864   20418990.414  
                
  19847169.461   105908326.906                    82373141.733    19847172.277  
  19847167.410  
 21  8 15 17 59 10.0000000  0 11G16R 1G 4R12G20G 7G 2G 6G30G 9R 2
  23046827.547   121111933.371    23046833.230    94372972.7564                 
                
  20057087.992   107216656.778                    83390750.284    20057093.422  
  20057087.371  
  22194494.250   116632902.342    22194502.047    90882842.1864   22194501.789  
                
  19664333.703   105043374.428                    81700407.619    19664337.406  
  19664333.219  
  22902680.555   120354404.690    22902686.805    93782687.2254                 
                
  20720693.211   108888015.464    20720699.508    84847861.6964   20720699.328  
                
  25031258.406   131540150.434    25031264.840   102498833.5674                 
                
  24634957.102   129457533.982    24634968.613   100876049.3374   24634968.930  
                
  22595882.289   118742192.144    22595891.746    92526439.5924   22595891.973  
                
  20420057.578   107308169.376    20420065.043    83616809.9494   20420065.070  
                
  19842784.195   105884926.321                    82354941.288    19842787.012  
  19842782.152  
 21  8 15 17 59 20.0000000  0 11G16R 1G 4R12G20G 7G 2G 6G30G 9R 2
  23051573.242   121136872.240    23051578.953    94392405.6334                 
                
  20061222.070   107238755.775                    83407938.399    20061227.523  
  20061221.457  
  22199000.828   116656584.594    22199008.617    90901295.8794   22199008.375  
                
  19660429.164   105022517.143                    81684185.306    19660432.852  
  19660428.656  
  22897929.953   120329440.146    22897936.172    93763234.3524                 
                
  20719228.266   108880317.202    20719234.523    84841863.0294   20719234.359  
                
  25033809.859   131553558.217    25033816.211   102509281.1944                 
                
  24640341.062   129485827.010    24640352.621   100898095.8384   24640352.941  
                
  22590951.445   118716280.478    22590960.863    92506248.6884   22590961.109  
                
  20421140.164   107313858.394    20421147.598    83621242.9514   20421147.637  
                
  19838407.844   105861573.310                    82336777.835    19838410.645  
  19838405.812  
 21  8 15 17 59 30.0000000  0 11G16R 1G 4R12G20G 7G 2G 6G30G 9R 2
  23056329.430   121161866.151    23056335.176    94411881.4004                 
                
  20065367.414   107260915.002                    83425173.345    20065372.902  
  20065366.773  
  22203512.547   116680293.860    22203520.309    90919770.6104   22203520.094  
                
  19656537.922   105001730.898                    81668018.230    19656541.602  
  19656537.406  
  22893188.375   120304522.959    22893194.586    93743818.3754                 
                
  20717770.328   108872655.683    20717776.562    84835893.0364   20717776.406  
                
  25036368.703   131567004.764    25036374.949   102519759.0234                 
                
  24645727.906   129514135.224    24645739.551   100920154.1734   24645739.863  
                
  22586025.688   118690395.463    22586035.078    92486078.5584   22586035.328  
                
  20422230.672   107319589.017    20422238.062    83625708.3704   20422238.113  
                
  19834040.500   105838268.329                    82318651.748    19834043.285  
  19834038.469  
 21  8 15 17 59 40.0000000  0 11G16R 1G 4R12G20G 7G 2G 6G30G 9R 2
  23061096.094   121186915.137    23061101.887    94431400.0864                 
                
  20069524.023   107283134.502                    83442455.151    20069529.547  
  20069523.379  
  22208029.414   116704030.188    22208037.133    90938266.4434   22208036.949  
                
  19652660.000   104981015.760                    81651906.463    19652663.664  
  19652659.473  
  22888455.820   120279653.273    22888462.035    93724439.4134                 
                
  20716319.336   108865030.698    20716325.539    84829951.4894   20716325.398  
                
  25038934.891   131580489.980    25038941.051   102530266.9784                 
                
  24651117.664   129542458.625    24651129.340   100942224.3304   24651129.641  
                
  22581105.023   118664537.216    22581114.418    92465929.2854   22581114.672  
                
  20423329.125   107325361.381    20423336.465    83630206.3154   20423336.543  
                
  19829682.094   105815011.069                    82300562.778    19829684.871  
  19829680.055  
 21  8 15 17 59 50.0000000  0 11G16R 1G 4R12G20G 7G 2G 6G30G 9R 2
  23065873.211   121212018.951    23065879.027    94450961.5084                 
                
  20073691.867   107305413.960                    83459783.607    20073697.422  
  20073691.238  
  22212551.422   116727793.478    22212559.121    90956783.2824   22212558.973  
                
  19648795.383   104960371.718                    81635850.002    19648799.047  
  19648794.859  
  22883732.305   120254831.067    22883738.496    93705097.4414                 
                
  20714875.273   108857442.127    20714881.449    84824038.3274   20714881.332  
                
  25041508.406   131594013.753    25041514.539   102540804.9694                 
                
  24656510.359   129570796.967    24656521.953   100964306.1404   24656522.227  
                
  22576189.430   118638705.645    22576198.824    92445800.7994   22576199.082  
                
  20424435.500   107331175.383    20424442.789    83634736.7044   20424442.898  
                
  19825332.703   105791801.908                    82282511.211    19825335.477  
  19825330.656  
 21  8 15 18  0  0.0000000  0 11G16R 1G 4R12G20G 7G 2G 6G30G 9R 2
  23070660.734   121237177.521    23070666.566    94470565.5814                 
                
  20077870.930   107327753.449                    83477158.750    20077876.492  
  20077870.289  
  22217078.539   116751583.667    22217086.254    90975321.0784   22217086.105  
                
  19644944.094   104939798.886                    81619848.913    19644947.758  
  19644943.574  
  22879017.828   120230056.370    22879023.977    93685792.4844                 
                
  20713438.125   108849889.880    20713444.285    84818153.4634   20713444.176  
                
  25044089.234   131607576.035    25044095.363   102551372.9694                 
                
  24661905.805   129599150.095    24661917.332   100986399.4694   24661917.617  
                
  22571278.906   118612900.727    22571288.297    92425693.0794   22571288.551  
                
  20425549.789   107337030.994    20425557.027    83639299.5094   20425557.168  
                
  19820992.305   105768640.726                    82264496.974    19820995.086  
  19820990.262  
 21  8 15 18  0 10.0000000  0 11G16R 1G 4R12G20G 7G 2G 6G30G 9R 2
  23075458.711   121262390.942    23075464.590    94490212.4194                 
                
  20082061.273   107350153.186                    83494580.755    20082066.832  
  20082060.648  
  22221610.828   116775401.044    22221618.547    90993880.0684   22221618.402  
                
  19641106.188   104919297.479                    81603903.387    19641109.844  
  19641105.664  
  22874312.477   120205329.617    22874318.602    93666524.8954                 
                
  20712007.977   108842374.402    20712014.133    84812297.2664   20712014.027  
                
  25046677.406   131621176.864    25046683.520   102561971.0444                 
                
  24667304.102   129627518.126    24667315.527   101008504.4164   24667315.859  
                
  22566373.508   118587122.788    22566382.918    92405606.3934   22566383.145  
                
  20426672.055   107342928.504    20426679.250    83643894.9774   20426679.426  
                
  19816660.969   105745527.901                    82246520.341    19816663.730  
  19816658.902  
 21  8 15 18  0 20.0000000  0 11G16R 1G 4R12G20G 7G 2G 6G30G 9R 2
  23080267.070   121287659.006    23080273.000    94509901.8194                 
                
  20086262.859   107372613.089                    83512049.568    20086268.418  
  20086262.242  
  22226148.258   116799245.409    22226155.953    91012460.0924   22226155.848  
                
  19637281.641   104898867.479                    81588013.402    19637285.289  
  19637281.121  
  22869616.219   120180650.669    22869622.336    93647294.5644                 
                
  20710584.773   108834895.460    20710590.926    84806469.5414   20710590.820  
                
  25049272.883   131634816.055    25049278.957   102572598.9644                 
                
  24672705.156   129655900.853    24672716.527   101030620.8094   24672716.914  
                
  22561473.234   118561371.711    22561482.656    92385540.6304   22561482.855  
                
  20427802.266   107348867.791    20427809.426    83648522.9854   20427809.621  
                
  19812338.688   105722463.448                    82228581.345    19812341.449  
  19812336.602  
 21  8 15 18  0 30.0000000  0 11G16R 1G 4R12G20G 7G 2G 6G30G 9R 2
  23085085.875   121312981.879    23085091.840    94529633.9034                 
                
  20090475.742   107395133.304                    83529565.278    20090481.297  
  20090475.133  
  22230690.867   116823116.984    22230698.582    91031061.3264   22230698.477  
                
  19633470.516   104878509.181                    81572179.171    19633474.152  
  19633469.992  
  22864929.141   120156019.841    22864935.258    93628101.7124                 
                
  20709168.562   108827453.222    20709174.707    84800670.4014   20709174.594  
                
  25051875.680   131648493.862    25051881.789   102583256.9744                 
                
  24678109.070   129684298.374    24678120.379   101052748.7314   24678120.781  
                
  22556578.125   118535647.730    22556587.551    92365495.9784   22556587.730  
                
  20428940.484   107354849.076    20428947.621    83653183.7224   20428947.832  
                
  19808025.570   105699447.878                    82210680.337    19808028.316  
  19808023.480  
 21  8 15 18  0 40.0000000  0 11G16R 1G 4R12G20G 7G 2G 6G30G 9R 2
  23089915.016   121338359.157    23089920.965    94549408.4034                 
                
  20094699.836   107417713.456                    83547127.615    20094705.371  
  20094699.230  
  22235238.602   116847015.491    22235246.379    91049683.5254   22235246.234  
                
  19629672.758   104858222.262                    81556400.470    19629676.402  
  19629672.238  
  22860251.188   120131436.970    22860257.332    93608946.2544                 
                
  20707759.273   108820047.379    20707765.406    84794899.6044   20707765.285  
                
  25054485.727   131662209.794    25054491.887   102593944.6864                 
                
  24683515.641   129712710.299    24683526.980   101074887.8884   24683527.398  
                
  22551688.125   118509950.618    22551697.520    92345472.2624   22551697.723  
                
  20430086.633   107360872.106    20430093.758    83657876.9924   20430093.973  
                
  19803721.602   105676481.057                    82192817.275    19803724.328  
  19803719.508  
 21  8 15 18  0 50.0000000  0 11G16R 1G 4R12G20G 7G 2G 6G30G 9R 2
  23094754.500   121363790.717    23094760.434    94569225.1924                 
                
  20098935.141   107440353.514                    83564736.552    20098940.652  
  20098934.535  
  22239791.461   116870940.914    22239799.277    91068326.7064   22239799.102  
                
  19625888.383   104838006.812                    81540677.354    19625892.023  
  19625887.871  
  22855582.375   120106902.205    22855588.527    93589828.2544                 
                
  20706356.930   108812678.040    20706363.043    84789157.2674   20706362.926  
                
  25057103.055   131675963.830    25057109.145   102604662.1164                 
                
  24688924.969   129741136.575    24688936.301   101097038.2214   24688936.742  
                
  22546803.234   118484280.422    22546812.578    92325469.5124   22546812.809  
                
  20431240.734   107366936.924    20431247.855    83662602.8254   20431248.070  
                
  19799426.711   105653562.762                    82174991.934    19799429.430  
  19799424.613  
 21  8 15 18  1  0.0000000  0 11G16R 1G 4R12G20G 7G 2G 6G30G 9R 2
  23099604.250   121389276.331    23099610.172    94589084.1184                 
                
  20103181.609   107463053.274                    83582391.915    20103187.105  
  20103181.000  
  22244349.406   116894893.091    22244357.246    91086990.7384   22244357.062  
                
  19622117.367   104817862.732                    81525009.731    19622120.992  
  19622116.867  
  22850922.695   120082415.432    22850928.824    93570747.6644                 
                
  20704961.500   108805345.031    20704967.594    84783443.2474   20704967.488  
                
  25059727.648   131689755.822    25059733.586   102615409.1314                 
                
  24694336.922   129769576.856    24694348.273   101119199.4724   24694348.734  
                
  22541923.430   118458636.979    22541932.758    92305487.6264   22541933.004  
                
  20432402.773   107373043.400    20432409.895    83667361.1184   20432410.090  
                
  19795140.977   105630693.245                    82157204.539    19795143.668  
  19795138.871  
 21  8 15 18  1 10.0000000  0 11G16R 1G 4R12G20G 7G 2G 6G30G 9R 2
  23104464.320   121414816.080    23104470.148    94608985.2134                 
                
  20107439.297   107485812.989                    83600093.897    20107444.781  
  20107438.688  
  22248912.492   116918872.206    22248920.363    91105675.7634   22248920.145  
                
  19618359.773   104797790.344                    81509397.887    19618363.406  
  19618359.277  
  22846272.195   120057976.951    22846278.324    93551704.7114                 
                
  20703573.000   108798048.397    20703579.082    84777757.5714   20703578.977  
                
  25062359.469   131703585.797    25062365.324   102626185.7244                 
                
  24699751.484   129798031.275    24699762.930   101141371.7274   24699763.441  
                
  22537048.773   118433020.528    22537058.117    92285526.7834   22537058.336  
                
  20433572.766   107379191.724    20433579.895    83672152.0224   20433580.082  
                
  19790864.406   105607872.697                    82139455.237    19790867.074  
  19790862.293  
 21  8 15 18  1 20.0000000  0 11G16R 1G 4R12G20G 7G 2G 6G30G 9R 2
  23109334.641   121440409.708    23109340.414    94628928.2854                 
                
  20111708.141   107508632.384                    83617842.325    20111713.613  
  20111707.535  
  22253480.664   116942878.039    22253488.547    91124381.6094   22253488.316  
                
  19614615.547   104777789.387                    81493841.586    19614619.180  
  19614615.059  
  22841630.867   120033586.702    22841637.008    93532699.3324                 
                
  20702191.391   108790788.033    20702197.469    84772100.1814   20702197.355  
                
  25064998.453   131717453.653    25065004.328   102636991.7864                 
                
  24705168.750   129826499.474    24705180.172   101163554.7244   24705180.742  
                
  22532179.234   118407430.901    22532188.598    92265586.8174   22532188.797  
                
  20434750.695   107385381.704    20434757.828    83676975.3794   20434758.008  
                
  19786597.000   105585100.995                    82121743.917    19786599.660  
  19786594.906  
 21  8 15 18  1 30.0000000  0 11G16R 1G 4R12G20G 7G 2G 6G30G 9R 2
  23114215.219   121466057.257    23114220.961    94648913.3924                 
                
  20115988.180   107531511.623                    83635637.283    20115993.637  
  20115987.562  
  22258053.938   116966910.770    22258061.832    91143108.4024   22258061.598  
                
  19610884.742   104757860.112                    81478341.052    19610888.387  
  19610884.254  
  22836998.758   120009244.881    22837004.867    93513731.6714                 
                
  20700816.711   108783564.072    20700822.781    84766471.1264   20700822.668  
                
  25067644.688   131731359.374    25067650.523   102647827.4044                 
                
  24710588.625   129854981.567    24710600.109   101185748.5424   24710600.645  
                
  22527314.820   118381868.319    22527324.195    92245667.9314   22527324.391  
                
  20435936.586   107391613.558    20435943.723    83681831.3704   20435943.891  
                
  19782338.898   105562378.971                    82104071.235    19782341.531  
  19782336.809  
 21  8 15 18  1 40.0000000  0 11G16R 1G 4R12G20G 7G 2G 6G30G 9R 2
  23119106.039   121491758.650    23119111.734    94668940.4514                 
                
  20120279.375   107554450.498                    83653478.617    20120284.801  
  20120278.750  
  22262632.305   116990970.269    22262640.195    91161856.0614   22262639.953  
                
  19607167.359   104738002.534                    81462896.273    19607170.996  
  19607166.875  
  22832375.875   119984951.537    22832381.945    93494801.8004                 
                
  20699448.945   108776376.414    20699455.004    84760870.3574   20699454.895  
                
  25070298.102   131745302.800    25070303.871   102658692.4314                 
                
  24716011.195   129883477.341    24716022.664   101207953.0334   24716023.180  
                
  22522455.531   118356332.699    22522464.895    92225770.0534   22522465.102  
                
  20437130.438   107397887.206    20437137.578    83686719.9244   20437137.742  
                
  19778089.938   105539705.702                    82086436.472    19778092.543  
  19778087.855  
 21  8 15 18  1 50.0000000  0 10G16R 1G 4R12G20G 7G 2G30G 9R 2
  23124006.883   121517512.855    23124012.535    94689008.6824                 
                
  20124581.547   107577448.084                    83671365.625    20124586.941  
  20124580.918  
  22267215.609   117015055.681    22267223.488    91180623.9164   22267223.258  
                
  19603463.211   104718215.684                    81447506.512    19603466.852  
  19603462.719  
  22827762.070   119960705.909    22827768.082    93475909.1094                 
                
  20698087.922   108769224.241    20698093.965    84755297.2454   20698093.855  
                
  25072958.461   131759283.056    25072964.227   102669586.0914                 
                
  22517601.219   118330823.210    22517610.566    92205892.5444   22517610.805  
                
  20438332.062   107404201.777    20438339.207    83691640.3694   20438339.375  
                
  19773850.125   105517081.290                    82068839.714    19773852.715  
  19773848.055  
 21  8 15 18  2  0.0000000  0 10G16R 1G 4R12G20G 7G 2G30G 9R 2
  23128918.047   121543321.150    23128923.641    94709119.0414                 
                
  20128895.016   107600506.001                    83689299.551    20128900.398  
  20128894.387  
  22271804.109   117039168.438    22271811.996    91199413.0654   22271811.777  
                
  19599772.633   104698501.298                    81432173.122    19599776.277  
  19599772.148  
  22823157.641   119936509.514    22823163.621    93457054.7784                 
                
  20696733.938   108762109.028    20696739.961    84749752.9274   20696739.852  
                
  25075626.039   131773301.325    25075631.852   102680509.4094                 
                
  22512752.180   118305341.358    22512761.523    92186036.5624   22512761.762  
                
  20439541.766   107410558.769    20439548.922    83696593.8714   20439549.074  
                
  19769619.680   105494506.812                    82051281.791    19769622.246  
  19769617.598  
 21  8 15 18  2 10.0000000  0 10G16R 1G 4R12G20G 7G 2G30G 9R 2
  23133839.461   121569183.368    23133845.004    94729271.4064                 
                
  20133219.727   107623623.958                    83707280.159    20133225.113  
  20133219.105  
  22276397.797   117063308.378    22276405.711    91218223.4164   22276405.496  
                
  19596095.570   104678859.098                    81416895.866    19596099.223  
  19596095.078  
  22818562.586   119912362.310    22818568.582    93438238.7924                 
                
  20695386.953   108755030.592    20695392.949    84744237.2674   20695392.852  
                
  25078300.820   131787357.500    25078306.695   102691462.3144                 
                
  22507908.375   118279886.987    22507917.730    92166201.9984   22507917.953  
                
  20440759.531   107416958.049    20440766.703    83701580.3264   20440766.848  
                
  19765398.609   105471982.343                    82033762.762    19765401.172  
  19765396.527  
 21  8 15 18  2 20.0000000  0 10G16R 1G 4R12G20G 7G 2G30G 9R 2
  23138771.086   121595099.164    23138776.598    94749465.5394                 
                
  20137555.609   107646801.667                    83725307.260    20137561.016  
  20137555.012  
  22280996.609   117087475.282    22281004.555    91237054.7524   22281004.309  
                
  19592432.008   104659289.027                    81401674.694    19592435.660  
  19592431.516  
  22813976.859   119888264.190    22813982.891    93419461.0424                 
                
  20694046.930   108747988.682    20694052.914    84738750.0724   20694052.820  
                
  25080982.656   131801451.384    25080988.699   102702444.5114                 
                
  22503069.758   118254459.931    22503079.137    92146388.7214   22503079.340  
                
  20441985.289   107423399.406    20441992.492    83706599.5594   20441992.637  
                
  19761186.922   105449507.989                    82016282.698    19761189.469  
  19761184.848  
 21  8 15 18  2 30.0000000  0 10G16R 1G 4R12G20G 7G 2G30G 9R 2
  23143712.859   121621068.361    23143718.371    94769701.2524                 
                
  20141902.633   107670038.994                    83743380.723    20141908.043  
  20141902.035  
  22285600.523   117111669.023    22285608.496    91255907.0134   22285608.242  
                
  19588781.914   104639790.946                    81386509.528    19588785.574  
  19588781.422  
  22809400.453   119864215.097    22809406.488    93400721.4914                 
                
  20692713.820   108740983.211    20692719.801    84733291.2714   20692719.703  
                
  25083671.641   131815582.680    25083677.855   102713455.8754                 
                
  22498236.328   118229060.130    22498245.711    92126596.6724   22498245.902  
                
  20443219.039   107429882.751    20443226.285    83711651.5174   20443226.414  
                
  19756984.570   105427083.448                    81998841.396    19756987.117  
  19756982.500  
 21  8 15 18  2 40.0000000  0 10G16R 1G 4R12G20G 7G 2G30G 9R 2
  23148664.766   121647090.784    23148670.254    94789978.4714                 
                
  20146260.852   107693336.041                    83761500.641    20146266.266  
  20146260.281  
  22290209.523   117135889.493    22290217.484    91274780.1094   22290217.254  
                
  19585145.312   104620364.893                    81371400.397    19585148.980  
  19585144.824  
  22804833.398   119840215.059    22804839.434    93382020.1684                 
                
  20691387.625   108734014.007    20691393.605    84727860.7324   20691393.504  
                
  25086367.781   131829751.192    25086374.094   102724496.2714                 
                
  22493408.070   118203687.474    22493417.449    92106825.7854   22493417.633  
                
  20444460.766   107436408.024    20444468.066    83716736.1424   20444468.172  
                
  19752791.602   105404708.953                    81981439.021    19752794.148  
  19752789.539  
 21  8 15 18  2 50.0000000  0 10G16R 1G 4R12G20G 7G 2G30G 9R 2
  23153626.766   121673166.220    23153632.199    94810296.9964                 
                
  20150630.125   107716692.230                    83779666.567    20150635.523  
  20150629.555  
  22294823.602   117160136.650    22294831.555    91293673.9794   22294831.344  
                
  19581522.172   104601010.758                    81356347.190    19581525.816  
  19581521.688  
  22800275.641   119816264.031    22800281.695    93363357.0324                 
                
  20690068.320   108727081.019    20690074.301    84722458.4064   20690074.191  
                
  25089070.977   131843956.945    25089077.387   102735565.7074                 
                
  22488584.977   118178341.962    22488594.348    92087076.0504   22488594.535  
                
  20445710.461   107442975.157    20445717.824    83721853.3864   20445717.891  
                
  19748608.062   105382384.798                    81964075.788    19748610.594  
  19748606.004  
 21  8 15 18  3  0.0000000  0 10G16R 1G 4R12G20G 7G 2G30G 9R 2
  23158598.867   121699294.739    23158604.223    94830656.8864                 
                
  20155010.539   107740107.955                    83797878.790    20155015.930  
  20155009.996  
  22299442.773   117184410.558    22299450.711    91312588.7124   22299450.504  
                
  19577912.547   104581728.796                    81341350.112    19577916.184  
  19577912.059  
  22795727.281   119792362.356    22795733.340    93344732.3554                 
                
  20688755.953   108720184.463    20688761.926    84717084.4514   20688761.812  
                
  25091781.250   131858199.896    25091787.707   102746664.0994                 
                
  22483767.070   118153023.727    22483776.441    92067347.5694   22483776.621  
                
  20446968.148   107449584.296    20446975.578    83727003.3694   20446975.605  
                
  19744433.953   105360110.928                    81946751.675    19744436.488  
  19744431.898  
 21  8 15 18  3 10.0000000  0 10G16R 1G 4R12G20G 7G 2G30G 9R 2
  23163580.992   121725475.982    23163586.324    94851057.8684                 
                
  20159402.039   107763583.011                    83816137.157    20159407.434  
  20159401.535  
  22304066.992   117208711.003    22304074.902    91331524.1424   22304074.707  
                
  19574316.391   104562518.827                    81326409.046    19574320.016  
  19574315.895  
  22791188.281   119768509.851    22791194.363    93326145.9974                 
                
  20687450.453   108713324.048    20687456.422    84711738.6744   20687456.316  
                
  25094498.609   131872479.704    25094505.059   102757791.2124                 
                
  22478954.320   118127732.617    22478963.695    92047640.2264   22478963.863  
                
  20448233.789   107456235.241    20448241.289    83732185.9224   20448241.293  
                
  19740269.227   105337887.208                    81929466.574    19740271.770  
  19740267.188  
 21  8 15 18  3 20.0000000  0 10G16R 1G 4R12G20G 7G 2G30G 9R 2
  23168573.156   121751710.009    23168578.465    94871499.9664                 
                
  20163804.656   107787117.422                    83834441.696    20163810.070  
  20163804.160  
  22308696.289   117233038.116    22308704.168    91350480.3084   22308703.992  
                
  19570733.719   104543380.909                    81311524.003    19570737.332  
  19570733.215  
  22786658.664   119744706.708    22786664.766    93307598.1034                 
                
  20686151.836   108706499.814    20686157.797    84706421.0954   20686157.691  
                
  25097223.039   131886796.472    25097229.465   102768947.1114                 
                
  22474146.750   118102468.719    22474156.117    92027954.0874   22474156.273  
                
  20449507.406   107462928.114    20449514.977    83737401.1444   20449514.953  
                
  19736113.953   105315713.896                    81912220.667    19736116.520  
  19736111.906  
 21  8 15 18  3 30.0000000  0 10G16R 1G 4R12G20G 7G 2G30G 9R 2
  23173575.367   121777996.733    23173580.641    94891983.1334                 
                
  20168218.336   107810711.018                    83852792.267    20168223.754  
  20168217.836  
  22313330.648   117257391.844    22313338.539    91369457.2204   22313338.352  
                
  19567164.562   104524315.130                    81296695.062    19567168.168  
  19567164.062  
  22782138.477   119720953.040    22782144.602    93289088.7594                 
                
  20684860.141   108699711.888    20684866.094    84701131.8124   20684865.992  
                
  25099954.500   131901150.210    25099960.902   102780131.8034                 
                
  22469344.391   118077232.102    22469353.738    92008289.2004   22469353.910  
                
  20450789.008   107469662.942    20450796.648    83742649.0614   20450796.590  
                
  19731968.172   105293591.220                    81895014.138    19731970.758  
  19731966.133  
 21  8 15 18  3 40.0000000  0 10G16R 1G 4R12G20G 7G 2G30G 9R 2
  23178587.547   121804335.979    23178592.773    94912507.2344                 
                
  20172643.094   107834363.804                    83871188.873    20172648.504  
  20172642.613  
  22317970.078   117281772.167    22317977.969    91388454.8874   22317977.758  
                
  19563608.938   104505321.656                    81281922.372    19563612.531  
  19563608.438  
  22777627.719   119697248.954    22777633.867    93270618.0494                 
                
  20683575.328   108692960.165    20683581.266    84695870.7384   20683581.160  
                
  25102692.953   131915540.783    25102699.340   102791345.2284                 
                
  22464547.188   118052022.767    22464556.539    91988645.5844   22464556.711  
                
  20452078.594   107476439.747    20452086.297    83747929.6834   20452086.203  
                
  19727831.930   105271519.485                    81877847.233    19727834.527  
  19727829.891  
 21  8 15 18  3 50.0000000  0 10G16R 1G 4R12G20G 7G 2G30G 9R 2
  23183609.750   121830727.788    23183614.961    94933072.2734                 
                
  20177078.961   107858075.975                    83889631.667    20177084.363  
  20177078.477  
  22322614.586   117306179.211    22322622.438    91407473.3714   22322622.258  
                
  19560066.883   104486400.686                    81267206.079    19560070.461  
  19560066.383  
  22773126.445   119673594.713    22773132.586    93252186.1694                 
                
  20682297.445   108686244.870    20682303.371    84690638.0454   20682303.266  
                
  25105438.398   131929968.153    25105444.742   102802587.3314                 
                
  22459755.227   118026840.884    22459764.559    91969023.3454   22459764.754  
                
  20453376.195   107483258.654    20453383.961    83753243.1144   20453383.840  
                
  19723705.203   105249498.493                    81860719.808    19723707.809  
  19723703.172  
 21  8 15 18  4  0.0000000  0 10G16R 1G 4R12G20G 7G 2G30G 9R 2
  23188641.875   121857171.822    23188647.109    94953678.0004                 
                
  20181525.867   107881847.258                    83908120.451    20181531.301  
  20181525.383  
  22327264.117   117330612.691    22327271.945    91426512.4394   22327271.777  
                
  19556538.328   104467551.786                    81252545.826    19556541.898  
  19556537.836  
  22768634.609   119649990.029    22768640.727    93233792.9184                 
                
  20681026.406   108679565.552    20681032.320    84685433.3804   20681032.215  
                
  25108190.852   131944432.006    25108197.113   102813857.8594                 
                
  22454968.430   118001686.187    22454977.746    91949422.2904   22454977.949  
                
  20454681.750   107490119.380    20454689.578    83758589.1304   20454689.445  
                
  19719587.984   105227528.243                    81843631.833    19719590.586  
  19719585.957  
 21  8 15 18  4 10.0000000  0 10G16R 1G 4R12G20G 7G 2G30G 9R 2
  23193683.992   121883668.332    23193689.285    94974324.6304                 
                
  20185983.836   107905677.662                    83926655.204    20185989.297  
  20185983.344  
  22331918.727   117355072.840    22331926.586    91445572.2974   22331926.398  
                
  19553023.336   104448775.373                    81237941.970    19553026.898  
  19553022.844  
  22764152.258   119626435.154    22764158.363    93215438.4754                 
                
  20679762.273   108672922.496    20679768.188    84680256.9794   20679768.082  
                
  25110950.234   131958932.550    25110956.500   102825156.9634                 
                
  22450186.875   117976558.982    22450196.168    91929842.6614   22450196.391  
                
  20455995.320   107497022.250    20456003.207    83763967.9824   20456003.047  
                
  19715480.383   105205609.316                    81826583.785    19715482.988  
  19715478.355  
 21  8 15 18  4 20.0000000  0 10G16R 1G 4R12G20G 7G 2G30G 9R 2
  23198736.047   121910217.106    23198741.391    94995012.0114                 
                
  20190452.883   107929567.258                    83945235.993    20190458.352  
  20190452.355  
  22336578.391   117379559.548    22336586.277    91464652.8524   22336586.090  
                
  19549521.898   104430071.344                    81223394.393    19549525.441  
  19549521.395  
  22759679.414   119602930.216    22759685.469    93197122.9274                 
                
  20678505.023   108666315.636    20678510.938    84675108.7844   20678510.828  
                
  25113716.539   131973469.590    25113722.863   102836484.5114                 
                
  22445410.523   117951459.189    22445419.805    91910284.3844   22445420.039  
                
  20457316.891   107503967.154    20457324.840    83769379.5984   20457324.664  
                
  19711382.344   105183741.407                    81809575.413    19711384.949  
  19711380.301  
 21  8 15 18  4 30.0000000  0 11G16R 1G 4R12G20G 7G 2G30G 9R13R 2
  23203798.031   121936817.960    23203803.395    95015739.9684                 
                
  20194933.008   107953516.094                    83963862.855    20194938.492  
  20194932.453  
  22341243.148   117404073.003    22341251.062    91483754.2284   22341250.883  
                
  19546034.039   104411439.871                    81208903.255    19546037.574  
  19546033.535  
  22755216.125   119579475.539    22755222.145    93178846.5694                 
                
  20677254.695   108659745.134    20677260.609    84669988.9204   20677260.496  
                
  25116489.852   131988043.154    25116496.188   102847840.5194                 
                
  22440639.469   117926387.118    22440648.754    91890747.7214   22440648.992  
                
  20458646.500   107510954.292    20458654.516    83774824.1144   20458654.324  
                
  23350902.602   124692448.350                    96983080.471    23350906.316  
                
  19707293.984   105161925.164                    81792607.234    19707296.590  
  19707291.930  
 21  8 15 18  4 40.0000000  0 11G16R 1G 4R12G20G 7G 2G30G 9R13R 2
  23208869.969   121963471.086    23208875.309    95036508.6324                 
                
  20199424.203   107977524.155                    83982535.794    20199429.699  
  20199423.598  
  22345912.984   117428613.167    22345920.934    91502876.4224   22345920.754  
                
  19542559.797   104392881.138                    81194468.696    19542563.320  
  19542559.289  
  22750762.406   119556071.168    22750768.410    93160609.3994                 
                
  20676011.289   108653211.015    20676017.199    84664897.4114   20676017.086  
                
  25119270.070   132002653.296    25119276.480   102859225.0294                 
                
  22435873.633   117901342.559    22435882.918    91871232.4934   22435883.160  
                
  20459984.148   107517983.676    20459992.219    83780301.5474   20459992.000  
                
  23343117.281   124650873.925                    96950744.874    23343120.707  
                
  19703215.289   105140160.482                    81775679.152    19703217.887  
  19703213.234  
 21  8 15 18  4 50.0000000  0 11G16R 1G 4R12G20G 7G 2G30G 9R13R 2
  23213951.719   121990175.915    23213957.070    95057317.6004                 
                
  20203926.391   108001590.921                    84001254.384    20203931.883  
  20203925.750  
  22350587.820   117453179.582    22350595.793    91522019.0734   22350595.617  
                
  19539099.078   104374394.592                    81180090.277    19539102.602  
  19539098.578  
  22746318.195   119532716.743    22746324.211    93142411.1474                 
                
  20674774.719   108646712.817    20674780.621    84659833.8914   20674780.512  
                
  25122057.141   132017299.408    25122063.637   102870637.5704                 
                
  22431112.992   117876325.273    22431122.281    91851738.5144   22431122.512  
                
  20461329.742   107525054.843    20461337.871    83785811.5444   20461337.641  
                
  23335335.562   124609320.788                    96918425.810    23335338.977  
                
  19699146.188   105118446.972                    81758790.871    19699148.770  
  19699144.125  
 21  8 15 18  5  0.0000000  0 11G16R 1G 4R12G20G 7G 2G30G 9R13R 2
  23219043.320   122016932.477    23219048.707    95078166.8434                 
                
  20208439.586   108025716.516                    84020018.723    20208445.105  
  20208438.918  
  22355267.680   117477772.416    22355275.703    91541182.3054   22355275.531  
                
  19535651.938   104355980.622                    81165768.294    19535655.449  
  19535651.438  
  22741883.539   119509412.502    22741889.555    93124252.0044                 
                
  20673545.000   108640250.629    20673550.906    84654798.4284   20673550.789  
                
  25124851.086   132031981.574    25124857.602   102882078.2334                 
                
  22426357.570   117851335.402    22426366.883    91832265.8924   22426367.105  
                
  20462683.344   107532168.041    20462691.527    83791354.2904   20462691.285  
                
  23327557.867   124567789.352                    96886123.645    23327561.387  
                
  19695086.789   105096785.272                    81741942.880    19695089.375  
  19695084.719  
 21  8 15 18  5 10.0000000  0 11G16R 1G 4R12G20G 7G 2G30G 9R13R 2
  23224144.750   122043740.773    23224150.168    95099056.4164                 
                
  20212963.797   108049901.077                    84038828.922    20212969.348  
  20212963.102  
  22359952.594   117502391.809    22359960.684    91560366.2414   22359960.469  
                
  19532218.398   104337639.314                    81151502.837    19532221.918  
  19532217.898  
  22737458.484   119486158.756    22737464.496    93106132.2084                 
                
  20672322.172   108633824.656    20672328.090    84649791.1814   20672327.961  
                
  25127651.875   132046700.040    25127658.473   102893547.1394                 
                
  22421607.398   117826373.126    22421616.738    91812814.7794   22421616.953  
                
  20464044.953   107539323.409    20464053.188    83796929.8944   20464052.930  
                
  23319784.336   124526279.622                    96853838.320    23319787.816  
                
  19691037.047   105075175.122                    81725134.983    19691039.633  
  19691034.953  
 21  8 15 18  5 20.0000000  0 11G16R 1G 4R12G20G 7G 2G30G 9R13R 2
  23229256.023   122070600.695    23229261.426    95119986.2224                 
                
  20217499.047   108074144.587                    84057684.992    20217504.605  
  20217498.359  
  22364642.555   117527037.702    22364650.668    91579570.8324   22364650.445  
                
  19528798.477   104319370.707                    81137293.927    19528801.988  
  19528797.980  
  22733043.055   119462955.526    22733049.066    93088051.7844                 
                
  20671106.227   108627434.859    20671112.160    84644812.1324   20671112.027  
                
  25130459.609   132061454.558    25130466.219   102905044.1724                 
                
  22416862.484   117801438.473    22416871.852    91793385.1844   22416872.039  
                
  20465414.586   107546520.912    20465422.867    83802538.3314   20465422.602  
                
  23312015.094   124484791.599                    96821569.889    23312018.402  
                
  19686997.047   105053616.989                    81708367.557    19686999.645  
  19686994.945  
 21  8 15 18  5 30.0000000  0 11G16R 1G 4R12G20G 7G 2G30G 9R13R 2
  23234377.055   122097511.863    23234382.438    95140955.9964                 
                
  20222045.250   108098446.634                    84076586.572    20222050.797  
  20222044.543  
  22369337.500   117551709.826    22369345.590    91598795.8524   22369345.383  
                
  19525392.102   104301174.513                    81123141.353    19525395.617  
  19525391.609  
  22728637.195   119439802.623    22728643.207    93070010.5644                 
                
  20669897.109   108621080.923    20669903.059    84639861.0284   20669902.918  
                
  25133274.156   132076244.831    25133280.781   102916569.0814                 
                
  22412122.773   117776531.170    22412132.156    91773976.9104   22412132.336  
                
  20466792.195   107553760.314    20466800.523    83808179.4164   20466800.250  
                
  23304249.844   124443325.611                    96789318.618    23304253.117  
                
  19682966.805   105032110.873                    81691640.576    19682969.422  
  19682964.703  
 21  8 15 18  5 40.0000000  0 11G16R 1G 4R12G20G 7G 2G30G 9R13R 2
  23239507.828   122124474.383    23239513.211    95161965.7574                 
                
  20226602.430   108122807.410                    84095533.842    20226607.961  
  20226601.742  
  22374037.500   117576408.414    22374045.605    91618041.5094   22374045.379  
                
  19521999.336   104283051.040                    81109045.332    19522002.852  
  19521998.836  
  22724240.961   119416700.305    22724246.988    93052008.7654                 
                
  20668694.859   108614763.113    20668700.816    84634938.0684   20668700.668  
                
  25136095.477   132091070.958    25136102.160   102928121.8904                 
                
  22407388.328   117751651.501    22407397.695    91754590.1654   22407397.895  
                
  20468177.828   107561041.897    20468186.199    83813853.3614   20468185.914  
                
  23296488.406   124401881.879                    96757084.690    23296492.035  
                
  19678946.281   105010656.661                    81674953.964    19678948.902  
  19678944.164  
 21  8 15 18  5 50.0000000  0 11G16R 1G 4R12G20G 7G 2G30G 9R13R 2
  23244648.461   122151488.524    23244653.871    95183015.7214                 
                
  20231170.648   108147227.109                    84114526.938    20231176.176  
  20231169.965  
  22378742.578   117601133.650    22378750.688    91637307.9214   22378750.445  
                
  19518620.289   104265000.730                    81095006.201    19518623.816  
  19518619.773  
  22719854.438   119393648.973    22719860.473    93034046.6854                 
                
  20667499.531   108608481.628    20667505.492    84630043.4124   20667505.336  
                
  25138923.648   132105933.108    25138930.367   102939702.7744                 
                
  22402659.195   117726799.723    22402668.539    91735225.1514   22402668.750  
                
  20469571.531   107568365.869    20469579.945    83819560.3464   20469579.656  
                
  23288731.297   124360460.478                    96724868.075    23288735.145  
                
  19674935.656   104989255.195                    81658308.388    19674938.277  
  19674933.535  
 21  8 15 18  6  0.0000000  0 11G16R 1G 4R12G20G 7G 2G30G 9R13R 2
  23249798.758   122178553.497    23249804.227    95204105.3094                 
                
  20235749.820   108171705.371                    84133565.562    20235755.355  
  20235749.133  
  22383452.609   117625885.006    22383460.695    91656594.6814   22383460.469  
                
  19515254.750   104247022.688                    81081023.304    19515258.281  
  19515254.234  
  22715477.516   119370648.198    22715483.551    93016124.0114                 
                
  20666310.992   108602235.870    20666316.957    84625176.5934   20666316.793  
                
  25141758.609   132120830.642    25141765.227   102951311.2464                 
                
  22397935.250   117701975.331    22397944.582    91715881.4754   22397944.809  
                
  20470973.188   107575731.699    20470981.645    83825299.9444   20470981.340  
                
  23280978.258   124319061.088                    96692668.567    23280982.305  
                
  19670934.711   104967905.447                    81641703.026    19670937.336  
  19670932.570  
 21  8 15 18  6 10.0000000  0 11G16R 1G 4R12G20G 7G 2G30G 9R13R 2
  23254958.781   122205669.565    23254964.289    95225234.7104                 
                
  20240339.953   108196242.240                    84152649.796    20240345.488  
  20240339.273  
  22388167.664   117650662.734    22388175.734    91675901.9944   22388175.520  
                
  19511902.883   104229117.621                    81067097.156    19511906.402  
  19511902.367  
  22711110.297   119347698.311    22711116.312    92998240.9844                 
                
  20665129.344   108596026.248    20665135.312    84620337.9344   20665135.152  
                
  25144600.375   132135763.778    25144606.832   102962947.4694                 
                
  22393216.594   117677178.620    22393225.926    91696559.3704   22393226.164  
                
  20472382.883   107583139.716    20472391.379    83831072.4184   20472391.066  
                
  23273229.617   124277684.121                    96660486.524    23273233.738  
                
  19666943.656   104946608.430                    81625138.679    19666946.301  
  19666941.520  
 21  8 15 18  6 20.0000000  0 11G16R 1G 4R12G20G 7G 2G30G 9R13R 2
  23260128.516   122232836.669    23260134.023    95246403.8734                 
                
  20244941.062   108220837.753                    84171779.642    20244946.578  
  20244940.395  
  22392887.742   117675466.855    22392895.805    91695229.8784   22392895.602  
                
  19508564.672   104211285.543                    81053227.787    19508568.191  
  19508564.160  
  22706752.781   119324799.451    22706758.812    92980397.7184                 
                
  20663954.547   108589852.721    20663960.523    84615527.4064   20663960.363  
                
  25147448.867   132150732.511    25147455.207   102974611.3914                 
                
  22388503.203   117652409.637    22388512.551    91677258.8794   22388512.777  
                
  20473800.594   107590589.937    20473809.121    83836877.7744   20473808.797  
                
  23265485.234   124236329.665                    96628321.974    23265489.332  
                
  19662962.492   104925364.237                    81608615.421    19662965.160  
  19662960.352  
 21  8 15 18  6 30.0000000  0 11G16R 1G 4R12G20G 7G 2G30G 9R13R 2
  23265307.898   122260054.522    23265313.406    95267612.5874                 
                
  20249553.078   108245491.645                    84190954.881    20249558.582  
  20249552.414  
  22397612.797   117700297.188    22397620.887    91714578.1684   22397620.672  
                
  19505240.070   104193526.195                    81039414.974    19505243.605  
  19505239.535  
  22702404.961   119301951.546    22702411.012    92962594.1574                 
                
  20662786.570   108583715.011    20662792.562    84610744.7854   20662792.402  
                
  25150304.047   132165736.594    25150310.320   102986302.8514                 
                
  22383795.070   117627668.250    22383804.438    91657979.8884   22383804.664  
                
  20475226.312   107598082.206    20475234.871    83842715.9024   20475234.535  
                
  23257745.023   124194997.504                    96596174.771    23257749.133  
                
  19658991.156   104904172.455                    81592132.926    19658993.820  
  19658989.027  
 21  8 15 18  6 40.0000000  0 11G16R 1G 4R12G20G 7G 2G30G 9R13R 2
  23270496.969   122287323.267    23270502.414    95288860.9574                 
                
  20254176.078   108270204.168                    84210175.718    20254181.586  
  20254175.406  
  22402342.883   117725153.958    22402351.016    91733947.0614   22402350.797  
                
  19501929.133   104175839.836                    81025658.939    19501932.664  
  19501928.590  
  22698066.898   119279154.871    22698072.969    92944830.5234                 
                
  20661625.469   108577613.407    20661631.480    84605990.2944   20661631.312  
                
  25153165.969   132180776.219    25153172.234   102998022.0304                 
                
  22379092.227   117602954.717    22379101.594    91638722.6094   22379101.832  
                
  20476660.094   107605616.808    20476668.688    83848587.0124   20476668.348  
                
  23250008.867   124153688.038                    96564045.227    23250013.160  
                
  19655029.781   104883033.777                    81575691.730    19655032.461  
  19655027.660  
 21  8 15 18  6 50.0000000  0 10G16R 1G 4R12G20G 7G 2G30G 9R 2
  23275695.680   122314642.738    23275701.074    95310148.8634                 
                
  20258810.016   108294975.216                    84229442.083    20258815.527  
  20258809.375  
  22407078.000   117750037.124    22407086.156    91753336.5304   22407085.926  
                
  19498631.875   104158226.514                    81011959.704    19498635.402  
  19498631.332  
  22693738.602   119256409.534    22693744.660    92927106.8794                 
                
  20660471.227   108571547.860    20660477.262    84601263.9064   20660477.086  
                
  25156034.602   132195851.243    25156040.871   103009768.8004                 
                
  22374394.695   117578269.077    22374404.027    91619487.0544   22374404.285  
                
  20478101.922   107613193.722    20478110.547    83854491.1024   20478110.199  
                
  19651078.383   104861948.389                    81559291.985    19651081.070  
  19651076.277  
 21  8 15 18  7  0.0000000  0 11G16R 1G 4R12G20G 7G 2G30G 9R13R 2
  23280904.000   122342012.656    23280909.355    95331476.0574                 
                
  20263454.875   108319804.531                    84248753.763    20263460.402  
  20263454.242  
  22411818.102   117774946.471    22411826.297    91772746.4264   22411826.035  
                
  19495348.297   104140686.288                    80998317.339    19495351.840  
  19495347.758  
  22689420.047   119233715.377    22689426.094    92909423.1254                 
                
  20659323.820   108565518.211    20659329.883    84596565.4834   20659329.691  
                
  25158909.930   132210961.412    25158916.223   103021542.9774                 
                
  22369702.438   117553611.144    22369711.734    91600273.0904   22369712.012  
                
  20479551.773   107620812.776    20479560.430    83860428.0224   20479560.070  
                
  23234549.641   124071137.361                    96499839.194    23234554.035  
                
  19647136.852   104840915.606                    81542933.155    19647139.527  
  19647134.754  
 21  8 15 18  7 10.0000000  0 10G16R 1G 4R12G20G 7G 2G30G 9R 2
  23286121.930   122369432.967    23286127.246    95352842.5254                 
                
  20268110.648   108344692.219                    84268110.837    20268116.164  
  20268110.039  
  22416563.195   117799882.126    22416571.414    91792176.7834   22416571.141  
                
  19492078.398   104123219.061                    80984731.738    19492081.930  
  19492077.836  
  22685111.281   119211072.606    22685117.312    92891779.4144                 
                
  20658183.258   108559524.549    20658189.340    84591895.1034   20658189.152  
                
  25161791.969   132226106.711    25161798.270   103033344.5354                 
                
  22365015.477   117528981.020    22365024.758    91581080.7944   22365025.035  
                
  20481009.648   107628474.013    20481018.336    83866397.8124   20481017.953  
                
  19643205.273   104819935.913                    81526615.607    19643207.938  
  19643203.188  
 21  8 15 18  7 20.0000000  0 11G16R 1G 4R12G20G 7G 2G30G 9R13R 2
  23291349.430   122396903.551    23291354.738    95374248.1784                 
                
  20272777.328   108369638.205                    84287513.259    20272782.848  
  20272776.734  
  22421313.281   117824843.966    22421321.504    91811627.5584   22421321.207  
                
  19488822.133   104105824.781                    80971202.867    19488825.676  
  19488821.555  
  22680812.305   119188481.371    22680818.348    92874175.8624                 
                
  20657049.523   108553566.801    20657055.629    84587252.7104   20657055.434  
                
  25164680.656   132241287.051    25164686.957   103045173.3684                 
                
  22360333.797   117504378.682    22360343.070    91561910.1484   22360343.359  
                
  20482475.555   107636177.450    20482484.270    83872400.4774   20482483.867  
                
  23219107.477   123988678.799                    96435704.863    23219112.566  
                
  19639283.703   104799009.657                    81510339.635    19639286.363  
  19639281.598  
 21  8 15 18  7 30.0000000  0 11G16R 1G 4R12G20G 7G 2G30G 9R13R 2
  23296586.516   122424424.595    23296591.824    95395693.1394                 
                
  20277454.906   108394642.548                    84306961.079    20277460.461  
  20277454.316  
  22426068.375   117849832.193    22426076.570    91831098.8884   22426076.289  
                
  19485579.609   104088503.855                    80957731.059    19485583.160  
  19485579.023  
  22676523.172   119165941.870    22676529.238    92856612.6364                 
                
  20655922.672   108547645.186    20655928.797    84582638.4724   20655928.586  
                
  25167576.008   132256502.508    25167582.352   103057029.5594                 
                
  22355657.438   117479804.365    22355666.715    91542761.3364   22355667.012  
                
  20483949.523   107643923.294    20483958.273    83878436.1914   20483957.844  
                
  23211392.930   123947484.064                    96403664.555    23211397.520  
                
  19635372.125   104778136.752                    81494105.148    19635374.785  
  19635370.023  
 21  8 15 18  7 40.0000000  0 11G16R 1G 4R12G20G 7G 2G30G 9R13R 2
  23301833.141   122451995.794    23301838.469    95417177.2134                 
                
  20282143.430   108419705.301                    84326454.320    20282148.996  
  20282142.840  
  22430828.461   117874846.657    22430836.652    91850590.6634   22430836.371  
                
  19482350.766   104071255.994                    80944316.084    19482354.332  
  19482350.176  
  22672243.883   119143454.002    22672249.949    92839089.6204                 
                
  20654802.656   108541759.501    20654808.805    84578052.2314   20654808.594  
                
  25170478.008   132271752.924    25170484.387   103068912.9674                 
                
  22350986.398   117455257.955    22350995.688    91523634.2764   22350995.977  
                
  20485431.555   107651711.417    20485440.332    83884504.8544   20485439.891  
                
  23203683.039   123906312.800                    96371642.479    23203687.156  
                
  19631470.578   104757317.357                    81477912.295    19631473.254  
  19631468.469  
 21  8 15 18  7 50.0000000  0 11G16R 1G 4R12G20G 7G 2G30G 9R13R 2
  23307089.242   122479616.743    23307094.578    95438700.0064                 
                
  20286842.750   108444825.854                    84345992.515    20286848.340  
  20286842.184  
  22435593.484   117899887.041    22435601.680    91870102.6344   22435601.383  
                
  19479135.570   104054081.038                    80930957.797    19479139.137  
  19479134.980  
  22667974.391   119121017.631    22667980.480    92821606.7414                 
                
  20653689.438   108535909.513    20653695.613    84573493.8044   20653695.383  
                
  25173386.633   132287037.868    25173393.004   103080823.3114                 
                
  22346320.609   117430739.191    22346329.918    91504528.7554   22346330.207  
                
  20486921.570   107659541.533    20486930.371    83890606.2284   20486929.918  
                
  23195977.570   123865164.427                    96339638.207    23195981.266  
                
  19627579.070   104736551.547                    81461761.105    19627581.746  
  19627576.957  
 21  8 15 18  8  0.0000000  0 10G16R 1G 4R12G20G 7G30G 9R13R 2
  23312354.914   122507288.010    23312360.297    95460262.0294                 
                
  20291553.023   108470004.880                    84365576.201    20291558.613  
  20291552.453  
  22440363.578   117924954.012    22440371.762    91889635.3264   22440371.465  
                
  19475934.164   104036979.756                    80917656.815    19475937.727  
  19475933.559  
  22663714.820   119098633.508    22663720.949    92804164.5764                 
                
  20652583.156   108530095.960    20652589.355    84568963.7664   20652589.109  
                
  22341660.219   117406248.752    22341669.562    91485445.3064   22341669.844  
                
  20488419.711   107667414.330    20488428.531    83896740.8654   20488428.082  
                
  23188276.219   123824039.649                    96307652.299    23188279.816  
                
  19623697.711   104715839.879                    81445652.030    19623700.391  
  19623695.617  
 21  8 15 18  8 10.0000000  0 10G16R 1G 4R12G20G 7G30G 9R13R 2
  23317630.234   122535010.040    23317635.668    95481863.6014                 
                
  20296274.336   108495242.940                    84385205.779    20296279.938  
  20296273.781  
  22445138.820   117950048.104    22445146.969    91909189.1484   22445146.707  
                
  19472746.656   104019952.692                    80904413.567    19472750.207  
  19472746.047  
  22659465.328   119076302.266    22659471.473    92786763.6254                 
                
  20651483.867   108524319.233    20651490.082    84564462.4224   20651489.832  
                
  22337005.328   117381787.240    22337014.727    91466384.4054   22337014.984  
                
  20489926.078   107675330.388    20489934.910    83902909.2144   20489934.441  
                
  23180579.430   123782939.517                    96275685.555    23180583.070  
                
  19619826.656   104695183.174                    81429585.703    19619829.336  
  19619824.574  
 21  8 15 18  8 20.0000000  0 10G16R 1G 4R12G20G 7G30G 9R13R 2
  23322914.875   122562781.029    23322920.340    95503503.3364                 
                
  20301006.352   108520538.221                    84404879.877    20301011.934  
  20301005.801  
  22449918.891   117975167.490    22449927.012    91928762.6904   22449926.766  
                
  19469572.711   104002998.104                    80891226.683    19469576.254  
  19469572.117  
  22655225.594   119054022.252    22655231.707    92769402.5684                 
                
  20650391.250   108518577.518    20650397.473    84559988.3664   20650397.207  
                
  22332355.602   117357352.865    22332365.059    91447344.6464   22332365.312  
                
  20491440.336   107683287.879    20491449.172    83909109.8484   20491448.707  
                
  23172886.805   123741862.156                    96243736.542    23172890.586  
                
  19615965.562   104674579.647                    81413560.738    19615968.246  
  19615963.477  
 21  8 15 18  8 30.0000000  0 10G16R 1G 4R12G20G 7G30G 9R13R 2
  23328208.938   122590601.462    23328214.398    95525181.5884                 
                
  20305749.188   108545891.329                    84424598.967    20305754.797  
  20305748.641  
  22454703.891   118000312.785    22454712.016    91948356.4234   22454711.770  
                
  19466412.445   103986116.524                    80878096.590    19466415.973  
  19466411.859  
  22650995.719   119031794.108    22651001.809    92752081.9394                 
                
  20649305.414   108512871.407    20649311.637    84555542.0534   20649311.367  
                
  22327711.164   117332946.275    22327720.656    91428326.5434   22327720.930  
                
  20492962.609   107691287.487    20492971.445    83915343.3014   20492970.977  
                
  23165198.438   123700808.215                    96211805.707    23165202.527  
  23165196.277  
  19612114.508   104654029.675                    81397577.431    19612117.191  
  19612112.414  
