     2.11           OBSERVATION DATA    M (MIXED)           RINEX VERSION / TYPE
EFT-CORS.RU                             20210817 144811 UTC PGM / RUN BY / DATE 
MDNG                                                        MARKER NAME         
                                                            MARKER NUMBER       
MDNG                EFT-CORS.RU                             OBSERVER / AGENCY   
0                   TRIMBLE BD970       2.0                 REC # / TYPE / VERS 
0                   UNKNOWN EXT NONE                        ANT # / TYPE        
  3463911.2830  3030468.2400  4402179.3760                  APPROX POSITION XYZ 
        0.0000        0.0000        0.0000                  ANTENNA: DELTA H/E/N
     1     1                                                WAVELENGTH FACT L1/2
     6    C1    L1    P2    L2    C2    P1                  # / TYPES OF OBSERV 
    10.000                                                  INTERVAL            
  2021     8    16     4    30    0.0000000     GPS         TIME OF FIRST OBS   
  2021     8    16     5    30    0.0000000     GPS         TIME OF LAST OBS    
     0                                                      RCV CLOCK OFFS APPL 
                                                            END OF HEADER       
 21  8 16  4 30  0.0000000  0 17G26R 3R 2G20R16R19G29G12R10R18G18R 9
                                R20G 5G31G 2G25
  24302899.500   127712601.059    24302909.273    99516348.5864   24302909.074  
                
  23014984.039   123201021.853                    95823017.017    23014988.820  
  23014982.910  
  23335729.547   124523933.520                    96851937.399    23335733.008  
  23335727.648  
  22131525.586   116301940.737    22131531.438    90624934.4564                 
                
  21415484.742   114397670.164                    88975949.334    21415487.062  
  21415484.328  
  19543439.836   104544265.557                    81312193.482    19543442.496  
  19543437.559  
  20611920.789   108316389.010    20611926.934    84402410.0134   20611927.023  
                
  22420827.453   117822239.444    22420834.395    91809562.3794   22420834.551  
                
  21706844.938   115709698.862                                                  
  21706843.984  
  21541448.484   114989718.371                    89436443.981    21541451.969  
  21541446.875  
  22796567.039   119796795.010    22796574.391    93348167.8534   22796574.461  
                
  19580865.641   104560722.717                    81325009.270    19580868.500  
  19580864.980  
  21883728.891   117022143.182                    91017244.665    21883735.301  
  21883727.637  
  22021839.383   115725558.559    22021846.652    90175800.4234   22021846.680  
                
  22970288.055   120709675.048    22970293.984    94059502.8184   22970294.266  
                
  23867549.297   125424819.242    23867553.980    97733643.5944                 
                
  20505362.844   107756429.290    20505371.852    83966077.7624   20505372.395  
                
 21  8 16  4 30 10.0000000  0 17G26R 3R 2G20R16R19G29G12R10R18G18R 9
                                R20G 5G31G 2G25
  24296475.703   127678844.061    24296485.590    99490044.4654   24296485.375  
                
  23010663.070   123177891.246                    95805026.557    23010667.801  
  23010661.953  
  23337046.680   124530961.933                    96857403.911    23337050.137  
  23337044.781  
  22132235.344   116305670.492    22132241.148    90627840.7724                 
                
  21422771.680   114436595.555                    89006224.631    21422774.023  
  21422771.246  
  19544597.469   104550458.109                    81317009.920    19544600.141  
  19544595.199  
  20610530.430   108309082.607    20610536.578    84396716.7174   20610536.672  
                
  22426889.859   117854097.461    22426896.770    91834386.8024   22426896.945  
                
  21700929.953   115678168.697                                                  
  21700929.008  
  21547133.969   115020067.824                    89460049.082    21547137.426  
  21547132.359  
  22790473.242   119764771.638    22790480.520    93323214.5764   22790480.613  
                
  19581607.242   104564682.827                    81328089.362    19581610.098  
  19581606.598  
  21878512.906   116994251.140                    90995550.858    21878519.336  
  21878511.676  
  22017999.859   115705381.794    22018007.121    90160078.2914   22018007.148  
                
  22971049.922   120713678.717    22971055.828    94062622.5564   22971056.133  
                
  23873062.094   125453789.160    23873066.766    97756217.5484                 
                
  20508552.375   107773190.363    20508561.387    83979138.3334   20508561.941  
                
 21  8 16  4 30 20.0000000  0 17G26R 3R 2G20R16R19G29G12R10R18G18R 9
                                R20G 5G31G 2G25
  24290054.836   127645102.242    24290064.793    99463752.1794   24290064.547  
                
  23006353.398   123154821.203                    95787083.169    23006358.098  
  23006352.262  
  23338379.102   124538071.913                    96862933.893    23338382.555  
  23338377.215  
  22132957.242   116309464.071    22132962.996    90630796.8094                 
                
  21430066.547   114475563.474                    89036533.021    21430068.902  
  21430066.098  
  19545763.852   104556697.457                    81321862.752    19545766.512  
  19545761.574  
  20609146.195   108301808.418    20609152.340    84391048.5194   20609152.441  
                
  22432958.312   117885987.259    22432965.207    91859236.0014   22432965.387  
                
  21695025.711   115646695.746                                                  
  21695024.770  
  21552821.875   115050430.342                    89483664.369    21552825.332  
  21552820.246  
  22784384.711   119732775.937    22784391.848    93298282.8544   22784391.992  
                
  19582365.867   104568733.867                    81331240.161    19582368.730  
  19582365.215  
  21873303.234   116966392.552                    90973883.083    21873309.641  
  21873302.000  
  22014170.789   115685259.896    22014178.031    90144398.9034   22014178.062  
                
  22971823.602   120717744.405    22971829.473    94065790.6284   22971829.785  
                
  23878576.844   125482769.281    23878581.496    97778799.4544                 
                
  20511752.383   107790006.439    20511761.414    83992241.7604   20511761.961  
                
 21  8 16  4 30 30.0000000  0 17G26R 3R 2G20R16R19G29G12R10R18G18R 9
                                R20G 5G31G 2G25
  24283636.938   127611375.837    24283646.895    99437471.8654   24283646.648  
                
  23002055.023   123131811.605                    95769186.823    23002059.699  
  23002053.902  
  23339726.773   124545263.366                    96868527.254    23339730.242  
  23339724.895  
  22133691.312   116313321.633    22133697.008    90633802.7034                 
                
  21437369.367   114514573.953                    89066874.483    21437371.723  
  21437368.914  
  19546939.039   104562983.917                    81326752.215    19546941.684  
  19546936.762  
  20607768.109   108294566.532    20607774.254    84385405.4874   20607774.352  
                
  22439032.812   117917908.852    22439039.699    91884109.9444   22439039.875  
                
  21689132.156   115615279.859                                                  
  21689131.227  
  21558512.219   115080805.809                    89507289.714    21558515.672  
  21558510.578  
  22778301.453   119700808.091    22778308.469    93273372.8424   22778308.645  
                
  19583141.523   104572875.933                    81334461.765    19583144.391  
  19583140.832  
  21868099.867   116938567.676                    90952241.528    21868106.227  
  21868098.605  
  22010352.188   115665193.121    22010359.422    90128762.4734   22010359.438  
                
  22972609.102   120721872.275    22972614.953    94069007.1544   22972615.270  
                
  23884093.547   125511759.723    23884098.160    97801389.4104                 
                
  20514962.867   107806877.637    20514971.934    84005388.1474   20514972.461  
                
 21  8 16  4 30 40.0000000  0 17G26R 3R 2G20R16R19G29G12R10R18G18R 9
                                R20G 5G31G 2G25
  24277221.992   127577665.104    24277231.961    99411203.7794   24277231.711  
                
  22997768.070   123108863.070                    95751337.966    22997772.738  
  22997766.969  
  23341089.828   124552536.855                    96874184.413    23341093.316  
  23341087.973  
  22134437.586   116317243.280    22134443.238    90636858.5494                 
                
  21444680.164   114553626.935                    89097249.019    21444682.535  
  21444679.711  
  19548123.000   104569317.264                    81331678.155    19548125.637  
  19548120.719  
  20606396.211   108287357.166    20606402.355    84379787.8034   20606402.469  
                
  22445113.391   117949862.372    22445120.305    91909008.7804   22445120.465  
                
  21683249.461   115583921.812                                                  
  21683248.520  
  21564205.078   115111194.665                    89530925.491    21564208.492  
  21564203.410  
  22772223.562   119668868.325    22772230.445    93248484.7084   22772230.633  
                
  19583934.281   104577109.250                    81337754.320    19583937.156  
  19583933.543  
  21862902.828   116910776.747                    90930626.363    21862909.164  
  21862901.570  
  22006544.148   115645181.773    22006551.363    90113169.2294   22006551.387  
                
  22973406.461   120726062.444    22973412.324    94072272.2184   22973412.621  
                
  23889612.258   125540760.749    23889616.824    97823987.6084                 
                
  20518183.867   107823804.081    20518192.973    84018577.5864   20518193.473  
                
 21  8 16  4 30 50.0000000  0 17G26R 3R 2G20R16R19G29G12R10R18G18R 9
                                R20G 5G31G 2G25
  24270809.930   127543969.530    24270819.938    99384947.5094   24270819.648  
                
  22993492.406   123085975.137                    95733536.250    22993497.086  
  22993491.297  
  23342468.055   124559891.357                    96879904.539    23342471.559  
  23342466.180  
  22135195.961   116321228.599    22135201.613    90639963.9994                 
                
  21451998.766   114592721.803                    89127656.113    21452001.168  
  21451998.320  
  19549315.664   104575697.255                    81336640.383    19549318.309  
  19549313.387  
  20605030.391   108280179.796    20605036.539    84374195.0464   20605036.656  
                
  22451199.898   117981847.103    22451206.836    91933931.9394   22451206.984  
                
  21677377.516   115552621.132                                                  
  21677376.582  
  21569900.297   115141596.088                    89554571.050    21569903.688  
  21569898.633  
  22766150.930   119636956.181    22766157.680    93223618.0904   22766157.879  
                
  19584744.016   104581433.233                    81341117.414    19584746.883  
  19584743.273  
  21857712.070   116883019.344                    90909037.279    21857718.398  
  21857710.789  
  22002746.562   115625225.404    22002753.754    90097618.8294   22002753.793  
                
  22974215.547   120730314.293    22974221.438    94075585.3514   22974221.691  
                
  23895132.820   125569771.508    23895137.375    97846593.3794                 
                
  20521415.281   107840785.239    20521424.434    84031809.6534   20521424.902  
                
 21  8 16  4 31  0.0000000  0 17G26R 3R 2G20R16R19G29G12R10R18G18R 9
                                R20G 5G31G 2G25
  24264400.859   127510289.566    24264410.883    99358703.3894   24264410.562  
                
  22989228.148   123063148.278                    95715782.022    22989232.875  
  22989227.055  
  23343861.602   124567327.540                    96885688.251    23343865.125  
  23343859.734  
  22135966.492   116325277.770    22135972.160    90643119.2024                 
                
  21459325.266   114631858.601                    89158095.828    21459327.664  
  21459324.805  
  19550517.039   104582123.817                    81341638.814    19550519.695  
  19550514.762  
  20603670.727   108273034.728    20603676.887    84368627.4634   20603677.008  
                
  22457292.422   118013863.356    22457299.344    91958879.6634   22457299.512  
                
  21671516.359   115521377.939                                                  
  21671515.434  
  21575597.922   115172010.397                    89578226.623    21575601.316  
  21575596.238  
  22760083.602   119605071.980    22760090.297    93198773.2514   22760090.484  
                
  19585570.805   104585848.254                    81344551.316    19585573.660  
  19585570.066  
  21852527.602   116855295.724                    90887474.468    21852533.969  
  21852526.336  
  21998959.523   115605324.412    21998966.695    90082111.5804   21998966.727  
                
  22975036.445   120734628.150    22975042.359    94078946.7934   22975042.605  
                
  23900655.297   125598792.247    23900659.859    97869206.9234                 
                
  20524657.141   107857821.319    20524666.328    84045084.5104   20524666.777  
                
 21  8 16  4 31 10.0000000  0 17G26R 3R 2G20R16R19G29G12R10R18G18R 9
                                R20G 5G31G 2G25
  24257994.758   127476625.202    24258004.785    99332471.4114   24258004.441  
                
  22984975.273   123040382.461                    95698075.268    22984980.023  
  22984974.191  
  23345270.438   124574845.284                    96891535.381    23345273.965  
  23345268.621  
  22136749.133   116329390.568    22136754.812    90646323.9904                 
                
  21466659.570   114671037.165                    89188568.034    21466661.961  
  21466659.133  
  19551727.164   104588597.185                    81346673.653    19551729.812  
  19551724.887  
  20602317.203   108265921.948    20602323.371    84363085.0384   20602323.488  
                
  22463390.914   118045911.006    22463397.812    91983851.8414   22463397.980  
                
  21665666.086   115490192.633                                                  
  21665665.137  
  21581297.938   115202437.428                    89601892.072    21581301.312  
  21581296.270  
  22754021.555   119573215.726    22754028.246    93173950.2024   22754028.395  
                
  19586414.609   104590354.093                    81348055.865    19586417.445  
  19586413.895  
  21847349.406   116827605.667                    90865937.775    21847355.789  
  21847348.176  
  21995183.031   115585478.880    21995190.188    90066647.5384   21995190.227  
                
  22975869.133   120739003.960    22975875.062    94082356.5124   22975875.324  
                
  23906179.656   125627822.858    23906184.203    97891828.1734                 
                
  20527909.445   107874912.242    20527918.645    84058402.1134   20527919.090  
                
 21  8 16  4 31 20.0000000  0 17G26R 3R 2G20R16R19G29G12R10R18G18R 9
                                R20G 5G31G 2G25
  24251591.656   127442976.646    24251601.660    99306251.7624   24251601.324  
                
  22980733.875   123017678.024                    95680416.257    22980738.637  
  22980732.797  
  23346694.484   124582444.166                    96897445.585    23346698.012  
  23346692.680  
  22137543.953   116333567.385    22137549.641    90649578.6614                 
                
  21474001.719   114710257.521                    89219072.748    21474004.133  
  21474001.281  
  19552945.977   104595117.000                    81351744.622    19552948.613  
  19552943.688  
  20600969.852   108258841.546    20600976.035    84357567.8504   20600976.160  
                
  22469495.398   118077990.186    22469502.285    92008848.5964   22469502.445  
                
  21659826.656   115459065.295                                                  
  21659825.715  
  21587000.359   115232877.328                    89625567.539    21587003.746  
  21586998.723  
  22747964.852   119541387.624    22747971.539    93149149.0924   22747971.684  
                
  19587275.445   104594950.898                    81351631.170    19587278.262  
  19587274.742  
  21842177.547   116799949.489                    90844427.428    21842183.941  
  21842176.320  
  21991417.141   115565689.038    21991424.281    90051226.9004   21991424.316  
                
  22976713.609   120743441.728    22976719.535    94085814.5134   22976719.805  
                
  23911705.906   125656863.477    23911710.410    97914457.2324                 
                
  20531172.203   107892058.135    20531181.418    84071762.5454   20531181.863  
                
 21  8 16  4 31 30.0000000  0 17G26R 3R 2G20R16R19G29G12R10R18G18R 9
                                R20G 5G31G 2G25
  24245191.586   127409344.034    24245201.551    99280044.5434   24245201.227  
                
  22976503.984   122995035.163                    95662805.161    22976508.742  
  22976502.930  
  23348133.789   124590124.531                    96903419.216    23348137.305  
  23348131.996  
  22138350.961   116337808.231    22138356.660    90652883.2244                 
                
  21481351.625   114749519.530                    89249609.849    21481354.062  
  21481351.207  
  19554173.500   104601683.446                    81356851.862    19554176.137  
  19554171.219  
  20599628.664   108251793.590    20599634.855    84352075.9374   20599634.973  
                
  22475605.875   118110100.871    22475612.746    92033869.9024   22475612.906  
                
  21653998.164   115427996.241                                                  
  21653997.215  
  21592705.141   115263329.769                    89649252.761    21592708.512  
  21592703.520  
  22741913.508   119509587.753    22741920.223    93124369.9794   22741920.363  
                
  19588153.344   104599638.813                    81355277.323    19588156.145  
  19588152.629  
  21837012.023   116772327.210                    90822943.434    21837018.414  
  21837010.770  
  21987661.875   115545955.034    21987669.020    90035849.7804   21987669.055  
                
  22977569.875   120747941.439    22977575.809    94089320.7974   22977576.109  
                
  23917234.055   125685914.083    23917238.520    97937094.0544                 
                
  20534445.422   107909258.964    20534454.660    84085165.7844   20534455.098  
                
 21  8 16  4 31 40.0000000  0 17G26R 3R 2G20R16R19G29G12R10R18G18R 9
                                R20G 5G31G 2G25
  24238794.523   127375727.208    24238804.422    99253849.6094   24238804.125  
                
  22972285.586   122972453.739                    95645241.821    22972290.340  
  22972284.480  
  23349588.352   124597886.384                    96909456.188    23349591.875  
  23349586.590  
  22139170.094   116342112.828    22139175.809    90656237.4524                 
                
  21488709.320   114788823.144                    89280179.320    21488711.762  
  21488708.926  
  19555409.695   104608296.323                    81361995.210    19555412.336  
  19555407.391  
  20598293.602   108244777.838    20598299.801    84346609.1124   20598299.906  
                
  22481722.289   118142242.772    22481729.129    92058915.5324   22481729.289  
                
  21648180.586   115396985.358                                                  
  21648179.648  
  21598412.250   115293794.615                    89672947.634    21598415.605  
  21598410.672  
  22735867.477   119477815.931    22735874.270    93099612.7394   22735874.410  
                
  19589048.234   104604417.515                    81358994.098    19589051.023  
  19589047.504  
  21831852.859   116744738.772                    90801485.767    21831859.207  
  21831851.605  
  21983917.180   115526276.648    21983924.352    90020515.9904   21983924.379  
                
  22978437.891   120752502.955    22978443.848    94092875.2234   22978444.141  
                
  23922764.047   125714974.350    23922768.516    97959738.4174                 
                
  20537729.039   107926514.476    20537738.297    84098611.6374   20537738.727  
                
 21  8 16  4 31 50.0000000  0 17G26R 3R 2G20R16R19G29G12R10R18G18R 9
                                R20G 5G31G 2G25
  24232400.508   127342126.398    24232410.328    99227667.1584   24232410.070  
                
  22968078.672   122949933.917                    95627726.416    22968083.449  
  22968077.570  
  23351058.133   124605729.374                    96915556.271    23351061.680  
  23351056.312  
  22140001.383   116346481.269    22140007.125    90659641.4404                 
                
  21496074.688   114828167.762                    89310780.695    21496077.160  
  21496074.344  
  19556654.555   104614955.472                    81367174.547    19556657.180  
  19556652.227  
  20596964.711   108237794.437    20596970.926    84341167.5084   20596971.027  
                
  22487844.672   118174415.988    22487851.488    92083985.5524   22487851.648  
                
  21642373.953   115366032.752                                                  
  21642373.023  
  21604121.750   115324272.199                    89696652.432    21604125.086  
  21604120.207  
  22729826.852   119446072.393    22729833.738    93074877.5354   22729833.875  
                
  19589960.164   104609287.192                    81362781.595    19589962.938  
  19589959.430  
  21826700.039   116717184.080                    90780054.324    21826706.312  
  21826698.785  
  21980183.133   115506654.125    21980190.324    90005225.7434   21980190.336  
                
  22979317.688   120757126.343    22979323.691    94096477.8444   22979323.957  
                
  23928295.922   125744044.415    23928300.441    97982390.3974                 
                
  20541023.102   107943824.788    20541032.379    84112100.1904   20541032.809  
                
 21  8 16  4 32  0.0000000  0 17G26R 3R 2G20R16R19G29G12R10R18G18R 9
                                R20G 5G31G 2G25
  24226009.508   127308541.548    24226019.281    99201497.1584   24226019.047  
                
  22963883.344   122927475.968                    95610259.101    22963888.086  
  22963882.250  
  23352543.195   124613653.972                    96921719.821    23352546.727  
  23352541.406  
  22140844.781   116350913.398    22140850.527    90663095.0544                 
                
  21503447.820   114867553.759                    89341414.225    21503450.301  
  21503447.469  
  19557908.055   104621660.892                    81372389.875    19557910.707  
  19557905.703  
  20595641.938   108230843.287    20595648.176    84335751.0304   20595648.258  
                
  22493972.930   118206620.110    22493979.730    92109079.6774   22493979.879  
                
  21636578.273   115335138.552                                                  
  21636577.359  
  21609833.523   115354761.953                    89720366.681    21609836.840  
  21609832.004  
  22723791.586   119414357.063    22723798.586    93050164.2914   22723798.695  
                
  19590889.109   104614247.745                    81366639.795    19590891.852  
  19590888.387  
  21821553.500   116689663.290                    90758649.274    21821559.758  
  21821552.285  
  21976459.711   115487087.443    21976466.891    89989978.9894   21976466.895  
                
  22980209.211   120761811.373    22980215.281    94100128.5094   22980215.527  
                
  23933829.602   125773124.065    23933834.195    98005049.8554                 
                
  20544327.539   107961189.702    20544336.852    84125631.2914   20544337.262  
                
 21  8 16  4 32 10.0000000  0 17G26R 3R 2G20R16R19G29G12R10R18G18R 9
                                R20G 5G31G 2G25
  24219621.586   127274972.828    24219631.305    99175339.7084   24219631.105  
                
  22959699.562   122905079.838                    95592839.903    22959704.285  
  22959698.527  
  23354043.461   124621659.615                    96927946.423    23354047.004  
  23354041.703  
  22141700.305   116355409.249    22141706.031    90666598.3264                 
                
  21510828.648   114906980.697                    89372079.610    21510831.152  
  21510828.293  
  19559170.180   104628412.504                    81377641.133    19559172.828  
  19559167.824  
  20594325.328   108223924.479    20594331.586    84330359.7554   20594331.656  
                
  22500107.094   118238855.256    22500113.914    92134197.9644   22500114.031  
                
  21630793.633   115304303.185                                                  
  21630792.738  
  21615547.633   115385264.187                    89744090.637    21615550.949  
  21615546.137  
  22717761.711   119382670.028    22717768.812    93025473.1134   22717768.906  
                
  19591835.062   104619299.038                    81370568.570    19591837.777  
  19591834.379  
  21816413.273   116662176.141                    90737270.399    21816419.496  
  21816412.070  
  21972746.953   115467576.822    21972754.102    89974775.9194   21972754.129  
                
  22981112.477   120766558.096    22981118.605    94103827.2534   22981118.836  
                
  23939365.102   125802213.282    23939369.738    98027716.7534                 
                
  20547642.383   107978609.308    20547651.738    84139204.9974   20547652.125  
                
 21  8 16  4 32 20.0000000  0 17G26R 3R 2G20R16R19G29G12R10R18G18R 9
                                R20G 5G31G 2G25
  24213236.711   127241420.327    24213246.383    99149194.8974   24213246.207  
                
  22955527.406   122882745.862                    95575469.039    22955532.152  
  22955526.379  
  23355559.000   124629746.709                    96934236.357    23355562.586  
  23355557.285  
  22142567.984   116359968.930    22142573.668    90670151.3274                 
                
  21518217.125   114946448.605                    89402776.859    21518219.637  
  21518216.750  
  19560441.000   104635210.510                    81382928.476    19560443.648  
  19560438.633  
  20593014.898   108217038.099    20593021.172    84324993.7484   20593021.234  
                
  22506247.172   118271121.461    22506254.004    92159340.4514   22506254.105  
                
  21625020.031   115273526.676                                                  
  21625019.160  
  21621264.023   115415778.569                    89767824.029    21621267.336  
  21621262.520  
  22711737.289   119351011.443    22711744.441    93000804.0924   22711744.508  
                
  19592798.062   104624441.317                    81374568.132    19592800.746  
  19592797.406  
  21811279.414   116634722.964                    90715917.929    21811285.621  
  21811278.188  
  21969044.875   115448122.340    21969051.980    89959616.6124   21969052.035  
                
  22982027.508   120771366.559    22982033.707    94107574.1094   22982033.906  
                
  23944902.438   125831312.090    23944907.090    98050391.1564                 
                
  20550967.633   107996083.566    20550977.031    84152821.2964   20550977.391  
                
 21  8 16  4 32 30.0000000  0 17G26R 3R 2G20R16R19G29G12R10R18G18R 9
                                R20G 5G31G 2G25
  24206854.836   127207884.212    24206864.598    99123062.9214   24206864.449  
                
  22951366.898   122860474.256                    95558146.687    22951371.656  
  22951365.906  
  23357089.742   124637914.990                    96940589.468    23357093.383  
  23357088.047  
  22143447.820   116364592.511    22143453.453    90673754.1204                 
                
  21525613.211   114985957.165                    89433505.741    21525615.758  
  21525612.836  
  19561720.438   104642054.649                    81388251.693    19561723.098  
  19561718.059  
  20591710.633   108210184.139    20591716.918    84319652.9994   20591716.988  
                
  22512393.141   118303418.653    22512399.965    92184507.0794   22512400.090  
                
  21619257.477   115242809.056                                                  
  21619256.605  
  21626982.734   115446305.315                    89791567.052    21626986.066  
  21626981.246  
  22705718.297   119319381.410    22705725.473    92976157.3294   22705725.539  
                
  19593778.062   104629674.430                    81378638.338    19593780.730  
  19593777.430  
  21806151.883   116607303.842                    90694591.972    21806158.121  
  21806150.672  
  21965353.508   115428724.150    21965360.609    89944501.1514   21965360.672  
                
  22982954.289   120776236.809    22982960.559    94111369.1004   22982960.723  
                
  23950441.602   125860420.556    23950446.273    98073073.0644                 
                
  20554303.297   108013612.551    20554312.727    84166480.2434   20554313.059  
                
 21  8 16  4 32 40.0000000  0 17G26R 3R 2G20R16R19G29G12R10R18G18R 9
                                R20G 5G31G 2G25
  24200476.141   127174364.427    24200485.879    99096943.6214   24200485.773  
                
  22947218.023   122838264.911                    95540872.752    22947222.805  
  22947217.062  
  23358635.672   124646164.391                    96947005.671    23358639.352  
  23358633.953  
  22144339.758   116369279.777    22144345.375    90677406.5394                 
                
  21533016.906   115025506.412                    89464266.247    21533019.422  
  21533016.520  
  19563008.492   104648944.929                    81393610.799    19563011.152  
  19563006.117  
  20590412.508   108203362.484    20590418.797    84314337.4254   20590418.863  
                
  22518544.969   118335746.660    22518551.793    92209697.7294   22518551.938  
                
  21613506.008   115212150.506                                                  
  21613505.105  
  21632703.695   115476844.174                    89815319.487    21632707.023  
  21632702.238  
  22699704.719   119287779.816    22699711.930    92951532.7194   22699711.992  
                
  19594775.078   104634998.468                    81382779.264    19594777.727  
  19594774.465  
  21801030.672   116579918.565                    90673292.326    21801036.945  
  21801029.441  
  21961672.844   115409382.197    21961679.934    89929429.5224   21961679.984  
                
  22983892.766   120781168.552    22983899.082    94115212.0134   22983899.219  
                
  23955982.547   125889538.426    23955987.234    98095762.2974                 
                
  20557649.320   108031196.022    20557658.746    84180181.6424   20557659.074  
                
 21  8 16  4 32 50.0000000  0 17G26R 3R 2G20R16R19G29G12R10R18G18R 9
                                R20G 5G31G 2G25
  24194100.641   127140861.139    24194110.305    99070837.1704   24194110.234  
                
  22943080.805   122816118.085                    95523647.481    22943085.633  
  22943079.828  
  23360196.766   124654494.758                    96953484.824    23360200.453  
  23360195.012  
  22145243.828   116374030.729    22145249.484    90681108.5884                 
                
  21540428.180   115065096.121                    89495058.232    21540430.680  
  21540427.809  
  19564305.125   104655881.122                    81399005.605    19564307.793  
  19564302.773  
  20589120.555   108196573.240    20589126.836    84309047.1054   20589126.914  
                
  22524702.680   118368105.576    22524709.508    92234912.4584   22524709.633  
                
  21607765.648   115181551.182                                                  
  21607764.723  
  21638426.938   115507395.142                    89839081.351    21638430.258  
  21638425.480  
  22693696.602   119256206.806    22693703.836    92926930.3894   22693703.895  
                
  19595789.141   104640413.506                    81386990.956    19595791.773  
  19595788.539  
  21795915.836   116552567.261                    90652019.109    21795922.117  
  21795914.613  
  21958002.930   115390096.731    21958009.969    89914401.8964   21958010.043  
                
  22984842.969   120786161.874    22984849.301    94119102.9204   22984849.449  
                
  23961525.289   125918665.661    23961529.980    98118458.8454                 
                
  20561005.734   108048834.047    20561015.141    84193925.5534   20561015.477  
                
 21  8 16  4 33  0.0000000  0 17G26R 3R 2G20R16R19G29G12R10R18G18R 9
                                R20G 5G31G 2G25
  24187728.305   127107374.254    24187737.879    99044743.5104   24187737.840  
                
  22938955.289   122794033.720                    95506470.750    22938960.129  
  22938954.285  
  23361773.062   124662906.186                    96960027.017    23361776.766  
  23361771.324  
  22146160.000   116378845.260    22146165.695    90684860.1734                 
                
  21547846.969   115104725.772                    89525881.286    21547849.395  
  21547846.605  
  19565610.344   104662863.159                    81404436.075    19565613.012  
  19565608.004  
  20587834.734   108189816.253    20587840.996    84303781.9244   20587841.094  
                
  22530866.211   118400495.094    22530873.004    92260151.0354   22530873.129  
                
  21602036.398   115151011.059                                                  
  21602035.473  
  21644152.406   115537957.967                    89862852.427    21644155.727  
  21644150.945  
  22687693.875   119224662.243    22687701.105    92902350.2124   22687701.168  
                
  19596820.164   104645919.104                    81391273.093    19596822.773  
  19596819.559  
  21790807.352   116525249.739                    90630772.151    21790813.605  
  21790806.051  
  21954343.734   115370867.561    21954350.738    89899418.1444   21954350.824  
                
  22985804.867   120791216.665    22985811.215    94123041.7164   22985811.383  
                
  23967069.766   125947801.979    23967074.465    98141162.4614                 
                
  20564372.492   108066526.402    20564381.867    84207711.7984   20564382.215  
                
 21  8 16  4 33 10.0000000  0 17G26R 3R 2G20R16R19G29G12R10R18G18R 9
                                R20G 5G31G 2G25
  24181359.156   127073903.845    24181368.613    99018662.6454   24181368.594  
                
  22934841.461   122772011.988                    95489342.746    22934846.285  
  22934840.449  
  23363364.617   124671398.960                    96966632.476    23363368.301  
  23363362.879  
  22147088.266   116383723.371    22147093.992    90688661.2964                 
                
  21555273.266   115144395.620                    89556735.595    21555275.691  
  21555272.895  
  19566924.062   104669890.697                    81409901.936    19566926.730  
  19566921.758  
  20586555.039   108183091.431    20586561.281    84298541.8014   20586561.395  
                
  22537035.547   118432915.111    22537042.293    92285413.3754   22537042.438  
                
  21596318.281   115120530.326                                                  
  21596317.316  
  21649880.094   115568532.624                    89886632.702    21649883.414  
  21649878.637  
  22681696.562   119193146.157    22681703.754    92877792.2204   22681703.832  
                
  19597868.164   104651515.353                    81395625.715    19597870.746  
  19597867.582  
  21785705.156   116497965.941                    90609551.417    21785711.402  
  21785703.809  
  21950695.258   115351694.754    21950702.273    89884478.3034   21950702.348  
                
  22986778.430   120796332.791    22986784.801    94127028.3024   22986784.961  
                
  23972615.953   125976947.342    23972620.625    98163873.1194                 
                
  20567749.562   108084273.012    20567758.898    84221540.3164   20567759.266  
                
 21  8 16  4 33 20.0000000  0 17G26R 3R 2G20R16R19G29G12R10R18G18R 9
                                R20G 5G31G 2G25
  24174993.180   127040450.278    24175002.602    98992594.9294   24175002.586  
                
  22930739.359   122750053.333                    95472263.813    22930744.242  
  22930738.348  
  23364971.281   124679972.449                    96973300.713    23364974.988  
  23364969.531  
  22148028.680   116388665.343    22148034.434    90692512.1944                 
                
  21562707.070   115184105.571                    89587621.091    21562709.477  
  21562706.672  
  19568246.391   104676964.282                    81415403.626    19568249.062  
  19568244.086  
  20585281.555   108176399.204    20585287.789    84293327.0844   20585287.898  
                
  22543210.727   118465365.811    22543217.461    92310699.6344   22543217.621  
                
  21590611.383   115090109.453                                                  
  21590610.414  
  21655610.008   115599119.297                    89910422.317    21655613.359  
  21655608.543  
  22675704.742   119161658.947    22675711.883    92853256.7334   22675711.969  
                
  19598933.188   104657202.466                    81400049.019    19598935.750  
  19598932.621  
  21780609.344   116470716.296                    90588357.255    21780615.586  
  21780608.027  
  21947057.602   115332578.818    21947064.641    89869582.8014   21947064.707  
                
  22987763.734   120801510.544    22987770.133    94131062.9074   22987770.277  
                
  23978163.938   126006102.089    23978168.555    98186591.0994                 
                
  20571137.023   108102074.192    20571146.320    84235411.3734   20571146.699  
                
 21  8 16  4 33 30.0000000  0 17G26R 3R 2G20R16R19G29G12R10R18G18R 9
                                R20G 5G31G 2G25
  24168630.414   127007013.546    24168639.848    98966540.3354   24168639.840  
                
  22926649.055   122728157.741                    95455233.887    22926653.949  
  22926648.035  
  23366593.180   124688627.140                    96980032.118    23366596.895  
  23366591.402  
  22148981.234   116393671.054    22148986.988    90696412.7494                 
                
  21570148.312   115223855.260                    89618537.516    21570150.699  
  21570147.922  
  19569577.289   104684083.674                    81420940.926    19569579.973  
  19569574.984  
  20584014.250   108169739.452    20584020.477    84288137.6634   20584020.586  
                
  22549391.727   118497847.089    22549398.469    92336009.7104   22549398.609  
                
  21584915.742   115059748.478                                                  
  21584914.746  
  21661342.133   115629717.689                    89934221.052    21661345.492  
  21661340.664  
  22669718.398   119130200.542    22669725.484    92828743.6944   22669725.582  
                
  19600015.227   104662980.381                    81404542.952    19600017.754  
  19600014.691  
  21775519.906   116443500.791                    90567189.659    21775526.156  
  21775518.617  
  21943430.734   115313519.587    21943437.762    89854731.4714   21943437.820  
                
  22988760.727   120806749.750    22988767.148    94135145.4074   22988767.293  
                
  23983713.664   126035266.048    23983718.242    98209316.2584                 
                
  20574534.836   108119929.772    20574544.098    84249324.8014   20574544.492  
                
 21  8 16  4 33 40.0000000  0 17G26R 3R 2G20R16R19G29G12R10R18G18R 9
                                R20G 5G31G 2G25
  24162270.836   126973593.596    24162280.273    98940498.8124   24162280.270  
                
  22922570.539   122706325.187                    95438253.026    22922575.430  
  22922569.465  
  23368230.211   124697362.607                    96986826.380    23368233.914  
  23368228.391  
  22149945.891   116398740.447    22149951.637    90700362.9304                 
                
  21577597.047   115263644.848                    89649484.962    21577599.359  
  21577596.648  
  19570916.688   104691248.574                    81426513.630    19570919.375  
  19570914.387  
  20582753.102   108163112.084    20582759.328    84282973.4834   20582759.438  
                
  22555578.484   118530358.751    22555585.219    92361343.4604   22555585.363  
                
  21579231.336   115029447.370                                                  
  21579230.340  
  21667076.445   115660327.831                    89958028.929    21667079.824  
  21667074.973  
  22663737.516   119098770.910    22663744.551    92804253.0764   22663744.652  
                
  19601114.234   104668848.986                    81409107.415    19601116.730  
  19601113.734  
  21770436.781   116416319.180                    90546048.428    21770443.051  
  21770435.484  
  21939814.672   115294517.117    21939821.660    89839924.3744   21939821.742  
                
  22989769.383   120812050.283    22989775.797    94139275.6874   22989775.949  
                
  23989265.086   126064438.970    23989269.684    98232048.4004                 
                
  20577942.977   108137839.615    20577952.215    84263280.5174   20577952.605  
                
 21  8 16  4 33 50.0000000  0 17G26R 3R 2G20R16R19G29G12R10R18G18R 9
                                R20G 5G31G 2G25
  24155914.492   126940190.700    24155923.949    98914470.5864   24155923.957  
                
  22918503.898   122684556.114                    95421321.517    22918508.750  
  22918502.758  
  23369882.422   124706179.043                    96993683.588    23369886.109  
  23369880.590  
  22150922.688   116403873.558    22150928.410    90704362.7544                 
                
  21585053.188   115303473.992                    89680463.187    21585055.465  
  21585052.793  
  19572264.641   104698459.184                    81432121.882    19572267.328  
  19572262.344  
  20581498.141   108156517.228    20581504.371    84277834.6364   20581504.473  
                
  22561771.078   118562900.966    22561777.773    92386701.0254   22561777.922  
                
  21573558.211   114999206.472                                                  
  21573557.230  
  21672812.961   115690949.732                    89981845.962    21672816.355  
  21672811.488  
  22657762.156   119067370.257    22657769.156    92779785.0424   22657769.270  
                
  19602230.258   104674808.461                    81413742.570    19602232.730  
  19602229.773  
  21765360.078   116389171.725                    90524933.736    21765366.336  
  21765358.750  
  21936209.492   115275571.797    21936216.453    89825161.7884   21936216.539  
                
  22990789.742   120817412.251    22990796.121    94143453.8474   22990796.281  
                
  23994818.227   126093620.942    23994822.891    98254787.5824                 
                
  20581361.461   108155803.839    20581370.672    84277278.6084   20581371.062  
                
 21  8 16  4 34  0.0000000  0 17G26R 3R 2G20R16R19G29G12R10R18G18R 9
                                R20G 5G31G 2G25
  24149561.406   126906804.953    24149570.910    98888455.7454   24149570.922  
                
  22914449.094   122662850.591                    95404439.454    22914453.941  
  22914447.926  
  23371549.797   124715076.446                    97000603.764    23371553.492  
  23371547.930  
  22151911.609   116409070.418    22151917.336    90708412.2604                 
                
  21592516.766   115343342.810                    89711472.275    21592518.977  
  21592516.371  
  19573621.109   104705715.350                    81437765.561    19573623.801  
  19573618.824  
  20580249.383   108149954.916    20580255.617    84272721.1484   20580255.711  
                
  22567969.461   118595473.704    22567976.105    92412082.3714   22567976.270  
                
  21567896.398   114969025.828                                                  
  21567895.484  
  21678551.695   115721583.387                    90005672.149    21678555.121  
  21678550.223  
  22651792.320   119035998.655    22651799.312    92755339.6514   22651799.418  
                
  19603363.312   104680858.841                    81418448.425    19603365.777  
  19603362.848  
  21760289.727   116362058.324                    90503845.522    21760295.965  
  21760288.426  
  21932615.156   115256683.533    21932622.137    89810443.6814   21932622.199  
                
  22991821.797   120822835.647    22991828.148    94147679.8934   22991828.309  
                
  24000373.109   126122811.990    24000377.816    98277533.8294                 
                
  20584790.289   108173822.432    20584799.480    84291319.0644   20584799.875  
                
 21  8 16  4 34 10.0000000  0 17G26R 3R 2G20R16R19G29G12R10R18G18R 9
                                R20G 5G31G 2G25
  24143211.586   126873436.253    24143221.070    98862454.1614   24143221.082  
                
  22910406.156   122641208.493                    95387606.736    22910411.016  
  22910404.973  
  23373232.281   124724054.531                    97007586.708    23373235.961  
  23373230.375  
  22152912.609   116414330.767    22152918.371    90712511.2394                 
                
  21599987.594   115383250.722                    89742511.751    21599989.867  
  21599987.215  
  19574986.055   104713016.921                    81443444.561    19574988.762  
  19574983.766  
  20579006.766   108143424.935    20579013.004    84267632.8504   20579013.094  
                
  22574173.594   118628076.635    22574180.207    92437487.2444   22574180.375  
                
  21562245.891   114938905.419                                                  
  21562244.984  
  21684292.570   115752228.521                    90029507.225    21684295.992  
  21684291.086  
  22645827.984   119004655.972    22645834.977    92730916.7874   22645835.066  
                
  19604513.320   104686999.815                    81423224.725    19604515.762  
  19604512.863  
  21755225.742   116334979.016                    90482783.843    21755231.969  
  21755224.461  
  21929031.672   115237852.279    21929038.699    89795770.0154   21929038.719  
                
  22992865.484   120828320.284    22992871.816    94151953.6224   22992871.984  
                
  24005929.664   126152011.838    24005934.387    98300286.9564                 
                
  20588229.422   108191895.160    20588238.598    84305401.7004   20588238.992  
                
 21  8 16  4 34 20.0000000  0 17G26R 3R 2G20R16R19G29G12R10R18G18R 9
                                R20G 5G31G 2G25
  24136865.039   126840084.697    24136874.520    98836465.9464   24136874.520  
                
  22906375.109   122619630.085                    95370823.544    22906379.996  
  22906373.906  
  23374929.969   124733113.772                    97014632.756    23374933.680  
  23374928.023  
  22153925.703   116419654.662    22153931.512    90716659.7374                 
                
  21607465.805   115423198.097                    89773581.918    21607468.141  
  21607465.414  
  19576359.484   104720363.840                    81449158.825    19576362.199  
  19576357.207  
  20577770.305   108136927.322    20577776.535    84262569.7774   20577776.633  
                
  22580383.461   118660709.737    22580390.094    92462915.6274   22580390.238  
                
  21556606.727   114908845.511                                                  
  21556605.812  
  21690035.578   115782885.033                    90053351.169    21690038.980  
  21690034.094  
  22639869.156   118973342.272    22639876.184    92706516.5184   22639876.262  
                
  19605680.305   104693231.432                    81428071.545    19605682.734  
  19605679.859  
  21750168.070   116307933.614                    90461748.531    21750174.328  
  21750166.762  
  21925459.070   115219078.243    21925466.113    89781140.9144   21925466.125  
                
  22993920.805   120833866.037    22993927.125    94156274.9884   22993927.293  
                
  24011487.859   126181220.401    24011492.547    98323046.8594                 
                
  20591678.844   108210022.005    20591688.004    84319526.5114   20591688.391  
                
 21  8 16  4 34 30.0000000  0 17G26R 3R 2G20R16R19G29G12R10R18G18R 9
                                R20G 5G31G 2G25
  24130521.797   126806750.492    24130531.242    98810491.2334   24130531.227  
                
  22902356.000   122598115.608                    95354090.078    22902360.902  
  22902354.797  
  23376642.758   124742253.516                    97021741.425    23376646.449  
  23376640.785  
  22154950.914   116425042.205    22154956.781    90720857.8274                 
                
  21614951.281   115463184.439                    89804682.379    21614953.715  
  21614950.867  
  19577741.391   104727756.088                    81454908.367    19577744.113  
  19577739.094  
  20576540.039   108130462.197    20576546.266    84257532.0264   20576546.375  
                
  22586599.109   118693373.154    22586605.773    92488367.6244   22586605.887  
                
  21550978.992   114878846.454                                                  
  21550978.082  
  21695780.773   115813553.089                    90077204.114    21695784.141  
  21695779.285  
  22633915.906   118942057.722    22633922.961    92682138.9664   22633923.020  
                
  19606864.281   104699553.774                    81432988.927    19606866.695  
  19606863.848  
  21745116.789   116280922.404                    90440739.825    21745123.109  
  21745115.473  
  21921897.383   115200361.475    21921904.422    89766556.4424   21921904.418  
                
  22994987.773   120839473.008    22994994.082    94160644.0414   22994994.246  
                
  24017047.742   126210437.725    24017052.391    98345813.5974                 
                
  20595138.578   108228202.993    20595147.711    84333693.5104   20595148.105  
                
 21  8 16  4 34 40.0000000  0 17G26R 3R 2G20R16R19G29G12R10R18G18R 9
                                R20G 5G31G 2G25
  24124181.805   126773433.601    24124191.285    98784530.0344   24124191.238  
                
  22898348.867   122576665.055                    95337406.311    22898353.734  
  22898347.652  
  23378370.703   124751474.159                    97028913.010    23378374.387  
  23378368.734  
  22155988.211   116430493.298    22155994.129    90725105.4284                 
                
  21622444.039   115503209.727                    89835813.110    21622446.547  
  21622443.641  
  19579131.750   104735193.615                    81460693.105    19579134.484  
  19579129.465  
  20575315.930   108124029.521    20575322.156    84252519.5444   20575322.277  
                
  22592820.461   118726066.635    22592827.156    92513843.0574   22592827.258  
                
  21545362.617   114848908.013                                                  
  21545361.738  
  21701528.070   115844232.529                    90101065.876    21701531.422  
  21701526.559  
  22627968.195   118910802.313    22627975.223    92657784.0984   22627975.297  
                
  19608065.211   104705966.613                    81437976.679    19608067.613  
  19608064.797  
  21740071.922   116253945.307                    90419757.651    21740078.277  
  21740070.586  
  21918346.586   115181702.020    21918353.602    89752016.6144   21918353.617  
                
  22996066.367   120845141.079    22996072.629    94165060.7114   22996072.852  
                
  24022609.258   126239663.696    24022613.910    98368587.0674                 
                
  20598608.602   108246438.072    20598617.703    84347902.6604   20598618.117  
                
 21  8 16  4 34 50.0000000  0 17G26R 3R 2G20R16R19G29G12R10R18G18R 9
                                R20G 5G31G 2G25
  24117845.125   126740134.410    24117854.676    98758582.6294   24117854.602  
                
  22894353.742   122555278.742                    95320772.520    22894358.586  
  22894352.527  
  23380113.773   124760775.431                    97036147.340    23380117.430  
  23380111.832  
  22157037.664   116436008.210    22157043.633    90729402.7584                 
                
  21629944.133   115543273.768                    89866974.023    21629946.672  
  21629943.770  
  19580530.633   104742676.670                    81466513.266    19580533.363  
  19580528.352  
  20574098.070   108117629.620    20574104.301    84247532.6114   20574104.422  
                
  22599047.602   118758790.439    22599054.301    92539342.1154   22599054.410  
                
  21539757.758   114819030.918                                                  
  21539756.914  
  21707277.508   115874923.346                    90124936.510    21707280.828  
  21707276.016  
  22622026.133   118879576.389    22622033.094    92633452.2204   22622033.191  
                
  19609283.188   104712470.471                    81443035.244    19609285.578  
  19609282.793  
  21735033.492   116227002.662                    90398802.263    21735039.887  
  21735032.148  
  21914806.781   115163100.270    21914813.758    89737521.7594   21914813.809  
                
  22997156.641   120850870.500    22997162.855    94169525.2054   22997163.133  
                
  24028172.469   126268898.545    24028177.129    98391367.4634                 
                
  20602088.969   108264727.452    20602098.039    84362154.1204   20602098.461  
                
 21  8 16  4 35  0.0000000  0 17G26R 3R 2G20R16R19G29G12R10R18G18R 9
                                R20G 5G31G 2G25
  24111511.727   126706852.546    24111521.371    98732648.7364   24111521.281  
                
  22890370.586   122533956.614                    95304188.637    22890375.441  
  22890369.395  
  23381871.992   124770157.628                    97043444.614    23381875.617  
  23381870.078  
  22158099.164   116441586.425    22158105.125    90733749.4174                 
                
  21637451.469   115583376.342                    89898164.907    21637453.992  
  21637451.105  
  19581937.906   104750204.649                    81472368.350    19581940.652  
  19581935.621  
  20572886.352   108111261.996    20572892.602    84242570.8264   20572892.707  
                
  22605280.391   118791543.969    22605287.066    92564864.3374   22605287.176  
                
  21534164.266   114789214.428                                                  
  21534163.426  
  21713029.031   115905625.284                    90148815.790    21713032.352  
  21713027.551  
  22616089.594   118848379.540    22616096.512    92609142.9874   22616096.625  
                
  19610518.086   104719064.730                    81448164.111    19610520.461  
  19610517.715  
  21730001.391   116200093.873                    90377873.234    21730007.832  
  21730000.031  
  21911277.875   115144555.862    21911284.805    89723071.5964   21911284.879  
                
  22998258.516   120856660.862    22998264.715    94174037.1694   22998265.008  
                
  24033737.273   126298141.816    24033741.930    98414154.3984                 
                
  20605579.555   108283070.626    20605588.598    84376447.4974   20605589.027  
                
 21  8 16  4 35 10.0000000  0 17G26R 3R 2G20R16R19G29G12R10R18G18R 9
                                R20G 5G31G 2G25
  24105181.727   126673588.523    24105191.465    98706728.7644   24105191.375  
                
  22886399.500   122512699.035                    95287654.973    22886404.340  
  22886398.324  
  23383645.312   124779620.359                    97050804.494    23383648.910  
  23383643.355  
  22159172.797   116447228.447    22159178.754    90738145.8124                 
                
  21644966.062   115623517.651                    89929385.922    21644968.574  
  21644965.688  
  19583353.664   104757777.986                    81478258.722    19583356.414  
  19583351.391  
  20571680.867   108104927.128    20571687.145    84237634.5674   20571687.242  
                
  22611518.922   118824327.602    22611525.570    92590410.0214   22611525.680  
                
  21528582.328   114759459.581                                                  
  21528581.512  
  21718782.672   115936338.488                    90172703.832    21718785.965  
  21718781.211  
  22610158.656   118817212.218    22610165.598    92584856.7714   22610165.699  
                
  19611769.992   104725749.798                    81453363.595    19611772.355  
  19611769.629  
  21724975.703   116173219.549                    90356971.001    21724982.207  
  21724974.414  
  21907760.000   115126069.354    21907766.883    89708666.5364   21907766.977  
                
  22999372.039   120862512.483    22999378.238    94178596.8664   22999378.531  
                
  24039303.750   126327393.845    24039308.430    98436948.1664                 
                
  20609080.461   108301468.005    20609089.496    84390783.1164   20609089.938  
                
 21  8 16  4 35 20.0000000  0 17G26R 3R 2G20R16R19G29G12R10R18G18R 9
                                R20G 5G31G 2G25
  24098855.109   126640342.041    24098864.855    98680822.4154   24098864.773  
                
  22882440.414   122491505.725                    95271171.305    22882445.258  
  22882439.297  
  23385433.750   124789163.808                    97058227.151    23385437.355  
  23385431.785  
  22160258.477   116452933.764    22160264.422    90742591.5134                 
                
  21652487.812   115663697.121                    89960636.623    21652490.250  
  21652487.410  
  19584777.781   104765396.100                    81484183.908    19584780.551  
  19584775.516  
  20570481.531   108098624.608    20570487.840    84232723.5154   20570487.922  
                
  22617763.102   118857140.906    22617769.719    92615978.8284   22617769.828  
                
  21523011.867   114729765.905                                                  
  21523011.082  
  21724538.367   115967062.699                    90196600.428    21724541.645  
  21724536.922  
  22604233.258   118786074.069    22604240.238    92560593.3014   22604240.305  
                
  19613038.820   104732525.250                    81458633.389    19613041.184  
  19613038.441  
  21719956.391   116146379.232                    90336095.172    21719962.906  
  21719955.109  
  21904253.070   115107640.375    21904259.934    89694306.3044   21904260.035  
                
  23000497.133   120868424.866    23000503.324    94183203.9074   23000503.625  
                
  24044871.789   126356654.150    24044876.480    98459748.3984                 
                
  20612591.594   108319919.122    20612600.633    84405160.5994   20612601.070  
                
 21  8 16  4 35 30.0000000  0 17G26R 3R 2G20R16R19G29G12R10R18G18R 9
                                R20G 5G31G 2G25
  24092531.930   126607113.476    24092541.656    98654930.0304   24092541.586  
                
  22878493.422   122470377.186                    95254738.037    22878498.320  
  22878492.316  
  23387237.258   124798787.633                    97065712.345    23387240.855  
  23387235.289  
  22161356.273   116458702.715    22161362.219    90747086.8134                 
                
  21660016.734   115703914.970                    89991917.170    21660019.082  
  21660016.320  
  19586210.312   104773059.226                    81490144.119    19586213.090  
  19586208.047  
  20569288.414   108092354.730    20569294.746    84227837.8974   20569294.820  
                
  22624012.969   118889984.137    22624019.559    92641570.9474   22624019.664  
                
  21517452.977   114700133.890                                                  
  21517452.191  
  21730296.133   115997797.917                    90220505.604    21730299.426  
  21730294.684  
  22598313.492   118754965.500    22598320.488    92536352.8714   22598320.551  
                
  19614324.664   104739391.528                    81463973.822    19614327.020  
  19614324.297  
  21714943.523   116119573.165                    90315246.018    21714950.027  
  21714942.273  
  21900757.164   115089269.351    21900764.051    89679991.2434   21900764.148  
                
  23001633.844   120874398.310    23001640.016    94187858.5434   23001640.352  
                
  24050441.477   126385923.048    24050446.152    98482555.3294                 
                
  20616113.008   108338424.279    20616122.043    84419580.1964   20616122.469  
                
 21  8 16  4 35 40.0000000  0 17G26R 3R 2G20R16R19G29G12R10R18G18R 9
                                R20G 5G31G 2G25
  24086212.148   126573902.706    24086221.840    98629051.5134   24086221.766  
                
  22874558.508   122449313.303                    95238355.041    22874563.430  
  22874557.426  
  23389055.812   124808491.818                    97073260.036    23389059.367  
  23389053.840  
  22162466.133   116464535.100    22162472.051    90751631.5284                 
                
  21667552.664   115744170.511                    90023227.017    21667554.949  
  21667552.246  
  19587651.234   104780767.199                    81496139.206    19587654.016  
  19587648.973  
  20568101.461   108086117.302    20568107.809    84222977.5674   20568107.875  
                
  22630268.469   118922856.992    22630275.055    92667186.1444   22630275.141  
                
  21511905.625   114670563.415                                                  
  21511904.832  
  21736055.930   116028544.068                    90244419.267    21736059.238  
  21736054.477  
  22592399.312   118723886.338    22592406.305    92512135.3464   22592406.363  
                
  19615627.406   104746348.069                    81469384.478    19615629.762  
  19615627.039  
  21709937.023   116092801.259                    90294423.463    21709943.520  
  21709935.797  
  21897272.266   115070956.187    21897279.195    89665721.2674   21897279.277  
                
  23002782.125   120880432.588    23002788.277    94192560.5734   23002788.645  
                
  24056012.734   126415200.168    24056017.375    98505368.6654                 
                
  20619644.641   108356983.168    20619653.672    84434041.6644   20619654.109  
                
 21  8 16  4 35 50.0000000  0 17G26R 3R 2G20R16R19G29G12R10R18G18R 9
                                R20G 5G31G 2G25
  24079895.789   126540709.904    24079905.453    98603186.9834   24079905.355  
                
  22870635.719   122428314.350                    95222022.524    22870640.645  
  22870634.637  
  23390889.500   124818276.758                    97080870.530    23390893.035  
  23390887.488  
  22163588.078   116470430.991    22163593.965    90756225.7304                 
                
  21675095.688   115784464.037                    90054566.418    21675097.977  
  21675095.297  
  19589100.547   104788520.060                    81502169.216    19589103.340  
  19589098.293  
  20566920.711   108079912.393    20566927.066    84218142.5774   20566927.121  
                
  22636529.617   118955759.489    22636536.199    92692824.4464   22636536.277  
                
  21506369.883   114641054.822                                                  
  21506369.070  
  21741817.766   116059301.161                    90268341.422    21741821.098  
  21741816.320  
  22586490.781   118692836.744    22586497.742    92487940.8604   22586497.809  
                
  19616947.109   104753395.171                    81474865.557    19616949.465  
  19616946.742  
  21704937.000   116066063.697                    90273627.566    21704943.422  
  21704935.773  
  21893798.406   115052700.969    21893805.359    89651496.4364   21893805.402  
                
  23003942.008   120886527.794    23003948.160    94197310.0744   23003948.539  
                
  24061585.570   126444485.567    24061590.223    98528188.4444                 
                
  20623186.539   108375595.910    20623195.570    84448545.0944   20623196.012  
                
 21  8 16  4 36  0.0000000  0 17G26R 3R 2G20R16R19G29G12R10R18G18R 9
                                R20G 5G31G 2G25
  24073582.797   126507535.081    24073592.441    98577336.4864   24073592.332  
                
  22866725.047   122407380.344                    95205740.514    22866729.957  
  22866723.949  
  23392738.258   124828142.016                    97088543.473    23392741.758  
  23392736.242  
  22164722.086   116476390.228    22164727.977    90760869.2944                 
                
  21682645.836   115824795.404                    90085935.241    21682648.098  
  21682645.414  
  19590558.195   104796317.521                    81508233.903    19590560.988  
  19590555.957  
  20565746.148   108073740.027    20565752.504    84213332.9464   20565752.551  
                
  22642796.352   118988691.381    22642802.910    92718485.6624   22642803.004  
                
  21500845.719   114611607.991                                                  
  21500844.863  
  21747581.633   116090068.998                    90292271.978    21747584.984  
  21747580.215  
  22580587.844   118661816.677    22580594.762    92463769.3824   22580594.848  
                
  19618283.758   104760532.760                    81480417.022    19618286.117  
  19618283.398  
  21699943.352   116039360.283                    90252858.262    21699949.746  
  21699942.121  
  21890335.594   115034503.802    21890342.555    89637316.8364   21890342.582  
                
  23005113.484   120892683.818    23005119.652    94202106.9714   23005120.020  
                
  24067159.953   126473779.125    24067164.648    98551014.5734                 
                
  20626738.641   108394262.352    20626747.668    84463090.3644   20626748.113  
                
 21  8 16  4 36 10.0000000  0 17G26R 3R 2G20R16R19G29G12R10R18G18R 9
                                R20G 5G31G 2G25
  24067273.320   126474378.551    24067282.898    98551500.2164   24067282.762  
                
  22862826.555   122386511.696                    95189509.349    22862831.492  
  22862825.430  
  23394602.062   124838087.616                    97096278.957    23394605.516  
  23394600.012  
  22165868.188   116482413.043    22165874.098    90765562.3944                 
                
  21690202.953   115865164.429                    90117333.354    21690205.266  
  21690202.559  
  19592024.266   104804160.026                    81514333.633    19592027.066  
  19592022.035  
  20564577.828   108067600.464    20564584.188    84208548.8704   20564584.234  
                
  22649068.734   119021653.008    22649075.258    92744170.0494   22649075.363  
                
  21495333.227   114582223.366                                                  
  21495332.316  
  21753347.570   116120847.875                    90316211.086    21753350.938  
  21753346.125  
  22574690.602   118630826.455    22574697.473    92439621.1664   22574697.574  
                
  19619637.375   104767760.993                    81486038.977    19619639.738  
  19619637.016  
  21694956.109   116012691.293                    90232115.710    21694962.480  
  21694954.902  
  21886883.875   115016364.947    21886890.832    89623182.6814   21886890.852  
                
  23006296.555   120898900.812    23006302.734    94206951.3894   23006303.082  
                
  24072735.930   126503081.067    24072740.664    98573847.2444                 
                
  20630301.000   108412982.711    20630310.039    84477677.6574   20630310.492  
                
 21  8 16  4 36 20.0000000  0 17G26R 3R 2G20R16R19G29G12R10R18G18R 9
                                R20G 5G31G 2G25
  24060967.289   126441240.118    24060976.797    98525678.0614   24060976.648  
                
  22858940.266   122365708.262                    95173328.892    22858945.270  
  22858939.094  
  23396480.930   124848113.600                    97104076.943    23396484.348  
  23396478.875  
  22167026.320   116488499.094    22167032.250    90770304.7814                 
                
  21697767.148   115905570.749                    90148760.476    21697769.410  
  21697766.691  
  19593498.609   104812046.755                    81520467.755    19593501.414  
  19593496.371  
  20563415.672   108061493.302    20563422.043    84203790.0434   20563422.078  
                
  22655346.711   119054644.059    22655353.215    92769877.3594   22655353.340  
                
  21489832.383   114552900.849                                                  
  21489831.441  
  21759115.477   116151637.302                    90340158.400    21759118.859  
  21759114.035  
  22568798.977   118599865.804    22568805.836    92415495.9874   22568805.934  
                
  19621007.906   104775079.528                    81491731.164    19621010.289  
  19621007.539  
  21689975.234   115986056.446                    90211399.722    21689981.582  
  21689974.051  
  21883443.227   114998284.229    21883450.180    89609093.8234   21883450.191  
                
  23007491.156   120905178.392    23007497.336    94211843.0084   23007497.672  
                
  24078313.406   126532390.955    24078318.109    98596686.0954                 
                
  20633873.555   108431756.619    20633882.598    84492306.6634   20633883.047  
                
 21  8 16  4 36 30.0000000  0 17G26R 3R 2G20R16R19G29G12R10R18G18R 9
                                R20G 5G31G 2G25
  24054664.773   126408119.974    24054674.145    98499870.1494   24054674.012  
                
  22855066.211   122344970.172                    95157199.285    22855071.266  
  22855065.027  
  23398374.875   124858219.968                    97111937.411    23398378.293  
  23398372.816  
  22168196.539   116494648.589    22168202.477    90775096.6054                 
                
  21705338.281   115946014.482                    90180216.698    21705340.613  
  21705337.836  
  19594981.297   104819978.199                    81526636.651    19594984.113  
  19594979.090  
  20562259.719   108055418.712    20562266.105    84199056.5974   20562266.129  
                
  22661630.281   119087664.462    22661636.777    92795607.5264   22661636.926  
                
  21484343.273   114523640.820                                                  
  21484342.348  
  21764885.359   116182437.325                    90364113.979    21764888.758  
  21764883.922  
  22562913.031   118568934.904    22562919.891    92391394.0004   22562919.988  
                
  19622395.359   104782488.428                    81497493.632    19622397.754  
  19622394.992  
  21685000.781   115959455.914                    90190710.441    21685007.125  
  21684999.570  
  21880013.688   114980261.846    21880020.660    89595050.4144   21880020.648  
                
  23008697.289   120911516.614    23008703.473    94216781.8854   23008703.809  
                
  24083892.438   126561708.892    24083897.105    98619531.2154                 
                
  20637456.320   108450584.139    20637465.379    84506977.4574   20637465.828  
                
 21  8 16  4 36 40.0000000  0 17G26R 3R 2G20R16R19G29G12R10R18G18R 9
                                R20G 5G31G 2G25
  24048365.742   126375018.222    24048374.996    98474076.5664   24048374.887  
                
  22851204.391   122324297.693                    95141120.700    22851209.480  
  22851203.238  
  23400283.844   124868406.609                    97119860.352    23400287.254  
  23400281.770  
  22169378.828   116500861.529    22169384.773    90779937.8594                 
                
  21712916.367   115986495.280                    90211701.738    21712918.734  
  21712915.930  
  19596472.320   104827954.147                    81532840.163    19596475.145  
  19596470.109  
  20561109.961   108049376.724    20561116.371    84194348.5554   20561116.375  
                
  22667919.430   119120714.270    22667925.949    92821360.6164   22667926.121  
                
  21478865.859   114494443.170                                                  
  21478864.910  
  21770657.234   116213247.976                    90388077.829    21770660.676  
  21770655.777  
  22557032.742   118538033.839    22557039.570    92367315.2674   22557039.691  
                
  19623799.758   104789987.836                    81503326.506    19623802.168  
  19623799.371  
  21680032.781   115932889.779                    90170047.905    21680039.082  
  21680031.566  
  21876595.242   114962297.869    21876602.234    89581052.5214   21876602.207  
                
  23009914.969   120917915.550    23009921.148    94221768.0674   23009921.469  
                
  24089472.992   126591034.932    24089477.688    98642382.6624                 
                
  20641049.289   108469465.303    20641058.367    84521690.0474   20641058.812  
                
 21  8 16  4 36 50.0000000  0 17G26R 3R 2G20R16R19G29G12R10R18G18R 9
                                R20G 5G31G 2G25
  24042070.281   126341935.090    24042079.473    98448297.5044   24042079.352  
                
  22847354.859   122303690.915                    95125093.200    22847359.973  
  22847353.734  
  23402207.891   124878673.628                    97127845.792    23402211.281  
  23402205.855  
  22170573.203   116507137.960    22170579.148    90784828.5844                 
                
  21720501.516   116027013.396                    90243215.814    21720503.852  
  21720501.039  
  19597971.664   104835974.595                    81539078.293    19597974.504  
  19597969.449  
  20559966.453   108043367.543    20559972.879    84189666.0734   20559972.867  
                
  22674214.219   119153793.557    22674220.762    92847136.6784   22674220.922  
                
  21473400.219   114465308.265                                                  
  21473399.250  
  21776431.109   116244069.316                    90412049.965    21776434.527  
  21776429.664  
  22551158.195   118507162.798    22551164.996    92343259.9124   22551165.125  
                
  19625221.102   104797577.738                    81509229.762    19625223.539  
  19625220.703  
  21675071.234   115906358.144                    90149412.192    21675077.516  
  21675069.980  
  21873187.984   114944392.634    21873194.984    89567100.4024   21873194.949  
                
  23011144.211   120924375.218    23011150.406    94226801.5874   23011150.734  
                
  24095055.086   126620368.956    24095059.766    98665240.3394                 
                
  20644652.477   108488400.172    20644661.570    84536444.4834   20644662.031  
                
 21  8 16  4 37  0.0000000  0 17G26R 3R 2G20R16R19G29G12R10R18G18R 9
                                R20G 5G31G 2G25
  24035778.273   126308870.244    24035787.410    98422532.6754   24035787.289  
                
  22843517.617   122283149.775                    95109116.764    22843522.707  
  22843516.504  
  23404146.930   124889020.697                    97135893.480    23404150.289  
  23404144.934  
  22171779.586   116513477.501    22171785.520    90789768.4904                 
                
  21728093.516   116067568.167                    90274758.403    21728095.809  
  21728093.020  
  19599479.242   104844039.169                    81545350.738    19599482.086  
  19599477.059  
  20558829.102   108037390.722    20558835.527    84185008.8124   20558835.500  
                
  22680514.500   119186901.848    22680521.090    92872935.3304   22680521.238  
                
  21467946.312   114436235.918                                                  
  21467945.352  
  21782206.875   116274900.811                    90436030.022    21782210.320  
  21782205.422  
  22545289.273   118476321.421    22545296.070    92319227.6814   22545296.188  
                
  19626659.336   104805257.828                    81515203.157    19626661.773  
  19626658.918  
  21670116.070   115879860.611                    90128803.017    21670122.309  
  21670114.805  
  21869791.836   114926545.800    21869798.820    89553193.7934   21869798.801  
                
  23012384.930   120930895.292    23012391.152    94231882.1584   23012391.465  
                
  24100638.617   126649710.583    24100643.207    98688103.9564                 
                
  20648265.797   108507388.309    20648274.902    84551240.4264   20648275.355  
                
 21  8 16  4 37 10.0000000  0 17G26R 3R 2G20R16R19G29G12R10R18G18R 9
                                R20G 5G31G 2G25
  24029489.781   126275824.162    24029498.934    98396782.4984   24029498.844  
                
  22839692.656   122262674.649                    95093191.675    22839697.793  
  22839691.523  
  23406100.969   124899447.770                    97144003.463    23406104.363  
  23406099.023  
  22172998.031   116519880.482    22173003.949    90794757.8224                 
                
  21735692.359   116108159.841                    90306329.707    21735694.641  
  21735691.887  
  19600995.125   104852148.116                    81551657.690    19600997.977  
  19600992.961  
  20557697.984   108031446.676    20557704.406    84180377.0864   20557704.375  
                
  22686820.328   119220039.356    22686826.984    92898756.7474   22686827.121  
                
  21462504.188   114407226.415                                                  
  21462503.230  
  21787984.625   116305742.845                    90460018.217    21787988.074  
  21787983.145  
  22539426.086   118445510.152    22539432.887    92295218.9034   22539432.980  
                
  19628114.500   104813028.316                    81521246.874    19628116.953  
  19628114.078  
  21665167.328   115853397.345                    90108220.478    21665173.520  
  21665166.059  
  21866406.875   114908757.771    21866413.820    89539332.9954   21866413.809  
                
  23013637.203   120937476.067    23013643.441    94237010.0064   23013643.734  
                
  24106223.680   126679060.215    24106228.141    98710973.7924                 
                
  20651889.320   108526430.073    20651898.445    84566078.1524   20651898.895  
                
 21  8 16  4 37 20.0000000  0 17G26R 3R 2G20R16R19G29G12R10R18G18R 9
                                R20G 5G31G 2G25
  24023204.883   126242796.973    24023214.098    98371047.0514   24023214.004  
                
  22835880.109   122242265.805                    95077318.138    22835885.242  
  22835878.938  
  23408070.102   124909955.354                    97152175.995    23408073.504  
  23408068.148  
  22174228.562   116526346.898    22174234.457    90799796.5874                 
                
  21743298.133   116148788.462                    90337929.750    21743300.422  
  21743297.684  
  19602519.336   104860301.556                    81557999.252    19602522.191  
  19602517.168  
  20556573.117   108025535.445    20556579.527    84175770.9294   20556579.520  
                
  22693131.734   119253206.119    22693138.402    92924600.9574   22693138.547  
                
  21457073.961   114378280.300                                                  
  21457073.008  
  21793764.367   116336595.427                    90484014.663    21793767.824  
  21793762.895  
  22533568.648   118414729.099    22533575.457    92271233.6764   22533575.531  
                
  19629586.594   104820889.221                    81527360.908    19629589.059  
  19629586.168  
  21660225.070   115826968.757                    90087664.913    21660231.234  
  21660223.801  
  21863033.117   114891028.637    21863040.020    89525518.0874   21863040.012  
                
  23014901.016   120944117.398    23014907.242    94242185.0714   23014907.543  
                
  24111810.258   126708417.798    24111814.652    98733849.8264                 
                
  20655523.055   108545525.416    20655532.199    84580957.6424   20655532.645  
                
 21  8 16  4 37 30.0000000  0 17G26R 3R 2G20R16R19G29G12R10R18G18R 9
                                R20G 5G31G 2G25
  24016923.516   126209788.529    24016932.812    98345326.1944   24016932.746  
                
  22832079.859   122221923.053                    95061495.985    22832084.992  
  22832078.707  
  23410054.148   124920542.461                    97160410.424    23410057.551  
  23410052.223  
  22175471.117   116532876.530    22175476.980    90804884.6184                 
                
  21750910.688   116189453.436                    90369558.049    21750912.984  
  21750910.277  
  19604051.828   104868499.303                    81564375.287    19604054.699  
  19604049.652  
  20555454.445   108019656.796    20555460.844    84171190.1714   20555460.836  
                
  22699448.664   119286401.842    22699455.289    92950467.7574   22699455.477  
                
  21451655.602   114349397.383                                                  
  21451654.641  
  21799546.023   116367458.235                    90508019.065    21799549.445  
  21799544.562  
  22527716.922   118383978.062    22527723.750    92247271.8414   22527723.812  
                
  19631075.586   104828840.384                    81533545.136    19631078.059  
  19631075.133  
  21655289.266   115800574.599                    90067136.129    21655295.395  
  21655287.961  
  21859670.562   114873358.339    21859677.441    89511749.0384   21859677.441  
                
  23016176.312   120950819.097    23016182.508    94247407.1834   23016182.832  
                
  24117398.281   126737782.976    24117402.645    98756731.7904                 
                
  20659166.938   108564674.115    20659176.086    84595878.6994   20659176.535  
                
 21  8 16  4 37 40.0000000  0 17G26R 3R 2G20R16R19G29G12R10R18G18R 9
                                R20G 5G31G 2G25
  24010645.789   126176799.027    24010655.148    98319620.1044   24010655.078  
                
  22828292.055   122201646.654                    95045725.458    22828297.195  
  22828290.902  
  23412053.242   124931209.962                    97168707.327    23412056.680  
  23412051.312  
  22176725.719   116539469.487    22176731.535    90810021.9854                 
                
  21758530.062   116230154.760                    90401214.627    21758532.367  
  21758529.664  
  19605592.516   104876740.927                    81570785.429    19605595.398  
  19605590.320  
  20554341.992   108013810.795    20554348.379    84166634.8514   20554348.387  
                
  22705771.102   119319626.494    22705777.707    92976357.0924   22705777.906  
                
  21446249.039   114320577.397                                                  
  21446248.070  
  21805329.609   116398331.350                    90532031.492    21805333.016  
  21805328.137  
  22521870.945   118353257.220    22521877.809    92223333.5304   22521877.863  
                
  19632581.484   104836881.781                    81539799.556    19632583.980  
  19632581.012  
  21650359.852   115774214.776                    90046634.056    21650365.988  
  21650358.566  
  21856319.227   114855747.026    21856326.129    89498025.9644   21856326.125  
                
  23017463.117   120957581.305    23017469.297    94252676.4314   23017469.629  
                
  24122987.781   126767155.889    24122992.098    98779619.7654                 
                
  20662820.977   108583876.199    20662830.133    84610841.3624   20662830.590  
                
 21  8 16  4 37 50.0000000  0 17G26R 3R 2G20R16R19G29G12R10R18G18R 9
                                R20G 5G31G 2G25
  24004371.664   126143828.349    24004381.043    98293928.6794   24004380.984  
                
  22824516.617   122181436.568                    95030006.510    22824521.789  
  22824515.461  
  23414067.398   124941957.448                    97177066.469    23414070.789  
  23414065.395  
  22177992.328   116546125.568    22177998.121    90815208.5344                 
                
  21766156.148   116270892.134                    90432899.234    21766158.520  
  21766155.766  
  19607141.398   104885026.438                    81577229.716    19607144.273  
  19607139.191  
  20553235.719   108007997.297    20553242.090    84162104.8504   20553242.105  
                
  22712098.992   119352879.827    22712105.613    93002268.7654   22712105.805  
                
  21440854.438   114291821.205                                                  
  21440853.484  
  21811115.055   116429214.420                    90556051.643    21811118.449  
  21811113.551  
  22516030.672   118322566.420    22516037.602    92199418.6304   22516037.629  
                
  19634104.266   104845013.371                    81546124.121    19634106.770  
  19634103.785  
  21645436.805   115747889.224                    90026158.639    21645442.980  
  21645435.559  
  21852979.141   114838194.772    21852986.059    89484348.8954   21852986.027  
                
  23018761.383   120964403.752    23018767.547    94257992.6094   23018767.879  
                
  24128578.688   126796536.228    24128582.961    98802513.5184                 
                
  20666485.125   108603131.447    20666494.301    84625845.4394   20666494.754  
                
 21  8 16  4 38  0.0000000  0 17G26R 3R 2G20R16R19G29G12R10R18G18R 9
                                R20G 5G31G 2G25
  23998101.195   126110876.823    23998110.617    98268252.1744   23998110.520  
                
  22820753.609   122161293.048                    95014339.312    22820758.797  
  22820752.457  
  23416096.398   124952784.854                    97185487.737    23416099.840  
  23416094.445  
  22179270.969   116552844.875    22179276.758    90820444.3654                 
                
  21773789.055   116311665.697                    90464611.988    21773791.453  
  21773788.645  
  19608698.531   104893356.051                    81583708.307    19608701.410  
  19608696.312  
  20552135.672   108002216.540    20552142.020    84157600.3654   20552142.043  
                
  22718432.383   119386162.104    22718439.000    93028202.9964   22718439.195  
                
  21435471.758   114263128.538                                                  
  21435470.820  
  21816902.398   116460107.664                    90580079.709    21816905.793  
  21816900.867  
  22510196.172   118291905.958    22510203.148    92175527.3774   22510203.129  
                
  19635643.922   104853235.074                    81552518.777    19635646.445  
  19635643.410  
  21640520.266   115721598.295                    90005710.147    21640526.438  
  21640519.004  
  21849650.289   114820701.636    21849657.203    89470717.8954   21849657.168  
                
  23020071.125   120971286.519    23020077.281    94263355.8024   23020077.609  
                
  24134171.039   126825924.177    24134175.293    98825413.2194                 
                
  20670159.438   108622440.048    20670168.641    84640891.0964   20670169.082  
                
 21  8 16  4 38 10.0000000  0 17G26R 3R 2G20R16R19G29G12R10R18G18R 9
                                R20G 5G31G 2G25
  23991834.344   126077944.384    23991843.738    98242590.5444   23991843.648  
                
  22817003.078   122141216.313                    94998724.092    22817008.316  
  22817001.926  
  23418140.477   124963692.014                    97193971.102    23418143.867  
  23418138.496  
  22180561.617   116559627.268    22180567.391    90825729.3454                 
                
  21781428.672   116352474.970                    90496352.508    21781431.082  
  21781428.250  
  19610263.867   104901729.543                    81590221.018    19610266.746  
  19610261.648  
  20551041.852   107996468.438    20551048.168    84153121.3274   20551048.203  
                
  22724771.250   119419473.099    22724777.820    93054159.6104   22724778.062  
                
  21430101.078   114234499.794                                                  
  21430100.152  
  21822691.594   116491010.802                    90604115.476    21822694.992  
  21822690.012  
  22504367.430   118261275.751    22504374.383    92151659.6854   22504374.367  
                
  19637200.453   104861546.886                    81558983.513    19637203.000  
  19637199.902  
  21635610.109   115695341.675                    89985288.331    21635616.312  
  21635608.848  
  21846332.703   114803267.607    21846339.582    89457132.9454   21846339.562  
                
  23021392.344   120978229.560    23021398.496    94268765.9514   23021398.820  
                
  24139764.812   126855319.545    24139769.070    98848318.6894                 
                
  20673843.859   108641801.780    20673853.102    84655978.1564   20673853.516  
                
 21  8 16  4 38 20.0000000  0 17G26R 3R 2G20R16R19G29G12R10R18G18R 9
                                R20G 5G31G 2G25
  23985571.180   126045031.168    23985580.543    98216943.8664   23985580.477  
                
  22813265.055   122121206.383                    94983160.816    22813270.301  
  22813263.863  
  23420199.461   124974678.810                    97202516.377    23420202.793  
  23420197.430  
  22181864.297   116566472.876    22181870.023    90831063.5814                 
                
  21789075.062   116393320.163                    90528120.988    21789077.422  
  21789074.594  
  19611837.391   104910146.827                    81596767.801    19611840.273  
  19611835.164  
  20549954.250   107990753.069    20549960.527    84148667.7924   20549960.586  
                
  22731115.578   119452812.792    22731122.109    93080138.5924   22731122.387  
                
  21424742.344   114205934.762                                                  
  21424741.430  
  21828482.656   116521923.857                    90628158.936    21828486.062  
  21828481.047  
  22498544.477   118230675.870    22498551.375    92127815.6264   22498551.391  
                
  19638773.875   104869948.857                    81565518.370    19638776.441  
  19638773.301  
  21630706.430   115669119.629                    89964893.434    21630712.668  
  21630705.141  
  21843026.383   114785892.764    21843033.207    89443594.0994   21843033.207  
                
  23022725.023   120985232.807    23022731.168    94274223.0174   23022731.492  
                
  24145360.008   126884722.320    24145364.258    98871229.9374                 
                
  20677538.398   108661216.699    20677547.680    84671106.6604   20677548.070  
                
 21  8 16  4 38 30.0000000  0 17G26R 3R 2G20R16R19G29G12R10R18G18R 9
                                R20G 5G31G 2G25
  23979311.664   126012137.223    23979321.000    98191312.2144   23979320.930  
                
  22809539.523   122101263.374                    94967649.595    22809544.773  
  22809538.355  
  23422273.344   124985745.372                    97211123.681    23422276.664  
  23422271.340  
  22183179.000   116573381.663    22183184.684    90836447.0664                 
                
  21796728.086   116434200.997                    90559917.180    21796730.414  
  21796727.637  
  19613419.102   104918607.941                    81603348.665    19613422.000  
  19613416.867  
  20548872.867   107985070.347    20548879.109    84144239.6924   20548879.184  
                
  22737465.352   119486181.071    22737471.879    93106139.8404   22737472.152  
                
  21419395.633   114177433.740                                                  
  21419394.738  
  21834275.602   116552846.941                    90652210.231    21834279.000  
  21834273.980  
  22492727.305   118200106.381    22492734.188    92103995.2404   22492734.215  
                
  19640364.164   104878440.987                    81572123.354    19640366.750  
  19640363.578  
  21625809.180   115642932.026                    89944525.315    21625815.457  
  21625807.867  
  21839731.328   114768577.183    21839738.105    89430101.4464   21839738.133  
                
  23024069.148   120992296.169    23024075.281    94279726.9424   23024075.590  
                
  24150956.594   126914132.443    24150960.816    98894146.9164                 
                
  20681243.047   108680684.712    20681252.348    84686276.5304   20681252.719  
                
 21  8 16  4 38 40.0000000  0 17G26R 3R 2G20R16R19G29G12R10R18G18R 9
                                R20G 5G31G 2G25
  23973055.828   125979262.627    23973065.156    98165695.6674   23973065.074  
                
  22805826.508   122081387.287                    94952190.405    22805831.730  
  22805825.352  
  23424362.203   124996891.604                    97219792.971    23424365.484  
  23424360.199  
  22184505.695   116580353.523    22184511.363    90841879.6814                 
                
  21804387.773   116475117.112                    90591740.811    21804390.035  
  21804387.254  
  19615008.969   104927112.712                    81609963.488    19615011.863  
  19615006.734  
  20547797.695   107979420.282    20547803.914    84139837.0484   20547804.008  
                
  22743820.523   119519577.816    22743827.082    93132163.2814   22743827.336  
                
  21414060.953   114148996.927                                                  
  21414060.090  
  21840070.375   116583779.757                    90676269.089    21840073.789  
  21840068.762  
  22486915.906   118169567.308    22486922.824    92080198.5694   22486922.824  
                
  19641971.305   104887023.046                    81578798.287    19641973.898  
  19641970.703  
  21620918.391   115616778.914                    89924184.015    21620924.703  
  21620917.043  
  21836447.578   114751320.982    21836454.336    89416655.0684   21836454.363  
                
  23025424.711   120999419.665    23025430.816    94285277.7194   23025431.117  
                
  24156554.555   126943549.818    24156558.777    98917069.5444                 
                
  20684957.789   108700205.771    20684967.098    84701487.7484   20684967.461  
                
 21  8 16  4 38 50.0000000  0 17G26R 3R 2G20R16R19G29G12R10R18G18R 9
                                R20G 5G31G 2G25
  23966803.734   125946407.632    23966813.027    98140094.3634   23966812.977  
                
  22802126.102   122061578.654                    94936783.710    22802131.316  
  22802124.906  
  23426465.953   125008117.455                    97228524.181    23426469.227  
  23426463.930  
  22185844.430   116587388.608    22185850.094    90847361.5564                 
                
  21812054.039   116516068.739                    90623592.060    21812056.309  
  21812053.504  
  19616607.016   104935661.197                    81616612.309    19616609.902  
  19616604.793  
  20546728.773   107973803.060    20546734.973    84135459.9994   20546735.082  
                
  22750181.148   119553003.179    22750187.734    93158208.9984   22750187.977  
                
  21408738.328   114120624.325                                                  
  21408737.469  
  21845867.016   116614722.518                    90700335.643    21845870.422  
  21845865.410  
  22481110.328   118139058.836    22481117.266    92056425.7374   22481117.242  
                
  19643595.320   104895695.216                    81585543.298    19643597.930  
  19643594.711  
  21616034.062   115590660.338                    89903869.578    21616040.395  
  21616032.750  
  21833175.180   114734124.390    21833181.922    89403255.1374   21833181.930  
                
  23026791.742   121006603.432    23026797.816    94290875.4604   23026798.129  
                
  24162153.906   126972974.552    24162158.152    98939997.8934                 
                
  20688682.641   108719779.989    20688691.949    84716740.3754   20688692.316  
                
 21  8 16  4 39  0.0000000  0 17G26R 3R 2G20R16R19G29G12R10R18G18R 9
                                R20G 5G31G 2G25
  23960555.367   125913572.203    23960564.637    98114508.3364   23960564.578  
                
  22798438.227   122041837.265                    94921429.312    22798443.469  
  22798437.027  
  23428584.656   125019423.080                    97237317.454    23428587.898  
  23428582.594  
  22187195.164   116594486.769    22187200.852    90852892.5874                 
                
  21819726.742   116557055.519                    90655470.654    21819729.145  
  21819726.320  
  19618213.227   104944253.350                    81623295.101    19618216.117  
  19618210.996  
  20545666.102   107968218.653    20545672.285    84131108.5184   20545672.402  
                
  22756547.172   119586456.937    22756553.789    93184276.8604   22756554.043  
                
  21403427.828   114092316.382                                                  
  21403426.980  
  21851665.484   116645674.988                    90724409.803    21851668.910  
  21851663.906  
  22475310.570   118108580.949    22475317.496    92032676.7374   22475317.469  
                
  19645236.211   104904457.460                    81592358.372    19645238.836  
  19645235.609  
  21611156.234   115564576.345                    89883582.034    21611162.547  
  21611154.938  
  21829914.141   114716987.478    21829920.875    89389901.7004   21829920.887  
                
  23028170.195   121013847.187    23028176.227    94296519.9434   23028176.551  
                
  24167754.648   127002406.509    24167758.910    98962931.8704                 
                
  20692417.586   108739407.204    20692426.895    84732034.3034   20692427.262  
                
 21  8 16  4 39 10.0000000  0 17G26R 3R 2G20R16R19G29G12R10R18G18R 9
                                R20G 5G31G 2G25
  23954310.766   125880756.544    23954320.000    98088937.6974   23954319.953  
                
  22794762.984   122022163.506                    94906127.499    22794768.215  
  22794761.773  
  23430718.297   125030808.307                    97246172.610    23430721.543  
  23430716.234  
  22188557.930   116601648.130    22188563.660    90858472.8704                 
                
  21827406.039   116598077.495                    90687376.619    21827408.531  
  21827405.699  
  19619827.570   104952888.989                    81630011.705    19619830.453  
  19619825.328  
  20544609.680   107962667.132    20544615.855    84126782.6534   20544615.973  
                
  22762918.602   119619939.091    22762925.273    93210366.8344   22762925.531  
                
  21398129.438   114064073.028                                                  
  21398128.605  
  21857465.766   116676637.177                    90748491.489    21857469.188  
  21857464.203  
  22469516.648   118078133.762    22469523.570    92008951.6694   22469523.543  
                
  19646893.953   104913309.699                    81599243.454    19646896.598  
  19646893.348  
  21606284.922   115538526.985                    89863321.434    21606291.160  
  21606283.656  
  21826664.461   114699910.331    21826671.207    89376594.8464   21826671.211  
                
  23029560.070   121021150.956    23029566.082    94302211.2034   23029566.395  
                
  24173356.758   127031845.720    24173361.008    98985871.5154                 
                
  20696162.617   108759087.458    20696171.918    84747369.5664   20696172.277  
                
 21  8 16  4 39 20.0000000  0 17G26R 3R 2G20R16R19G29G12R10R18G18R 9
                                R20G 5G31G 2G25
  23948069.891   125847960.510    23948079.117    98063382.3434   23948079.086  
                
  22791100.328   122002557.132                    94890878.106    22791105.578  
  22791099.133  
  23432866.797   125042272.884                    97255089.505    23432870.008  
  23432864.762  
  22189932.656   116608872.380    22189938.441    90864102.1554                 
                
  21835092.008   116639134.248                    90719309.633    21835094.449  
  21835091.625  
  19621450.031   104961568.080                    81636762.100    19621452.914  
  19621447.805  
  20543559.453   107957148.178    20543565.613    84122482.1714   20543565.727  
                
  22769295.398   119653449.426    22769302.125    93236478.7674   22769302.375  
                
  21392843.172   114035894.293                                                  
  21392842.328  
  21863267.797   116707608.780                    90772580.499    21863271.238  
  21863266.234  
  22463728.547   118047717.152    22463735.484    91985250.4194   22463735.438  
                
  19648568.500   104922251.693                    81606198.334    19648571.156  
  19648567.883  
  21601420.031   115512512.190                    89843087.685    21601426.219  
  21601418.801  
  21823426.133   114682892.847    21823432.879    89363334.4784   21823432.883  
                
  23030961.320   121028514.526    23030967.328    94307949.0484   23030967.629  
                
  24178960.195   127061291.891    24178964.480    99008816.5634                 
                
  20699917.695   108778820.538    20699926.988    84762745.9744   20699927.352  
                
 21  8 16  4 39 30.0000000  0 17G26R 3R 2G20R16R19G29G12R10R18G18R 9
                                R20G 5G31G 2G25
  23941832.828   125815184.382    23941841.992    98037842.4994   23941841.980  
                
  22787450.328   121983018.570                    94875681.450    22787455.598  
  22787449.125  
  23435030.203   125053817.031                    97264068.265    23435033.402  
  23435028.141  
  22191319.383   116616159.701    22191325.219    90869780.5954                 
                
  21842784.414   116680225.785                    90751269.699    21842786.887  
  21842784.059  
  19623080.648   104970290.683                    81643546.351    19623083.516  
  19623078.418  
  20542515.484   107951662.074    20542521.633    84118207.2814   20542521.746  
                
  22775677.586   119686988.055    22775684.355    93262612.7464   22775684.586  
                
  21387569.055   114007780.277                                                  
  21387568.180  
  21869071.641   116738590.121                    90796677.083    21869075.117  
  21869070.047  
  22457946.312   118017331.344    22457953.262    91961573.1644   22457953.199  
                
  19650259.914   104931283.769                    81613223.278    19650262.578  
  19650259.289  
  21596561.594   115486531.850                    89822880.747    21596567.727  
  21596560.371  
  21820199.203   114665935.282    21820205.969    89350120.7954   21820205.957  
                
  23032373.984   121035938.082    23032379.973    94313733.6274   23032380.289  
                
  24184564.977   127090745.175    24184569.309    99031767.1654                 
                
  20703682.844   108798606.502    20703692.117    84778163.6064   20703692.488  
                
 21  8 16  4 39 40.0000000  0 17G26R 3R 2G20R16R19G29G12R10R18G18R 9
                                R20G 5G31G 2G25
  23935599.523   125782428.039    23935608.672    98012318.0754   23935608.637  
                
  22783812.984   121963547.777                    94860537.514    22783818.285  
  22783811.711  
  23437208.500   125065440.643                    97273108.846    23437211.672  
  23437206.422  
  22192718.078   116623509.885    22192723.941    90875508.0064                 
                
  21850483.359   116721351.824                    90783256.630    21850485.781  
  21850482.965  
  19624719.312   104979056.394                    81650364.134    19624722.160  
  19624717.090  
  20541477.719   107946208.614    20541483.867    84113957.8394   20541483.965  
                
  22782065.094   119720554.676    22782071.879    93288768.5414   22782072.105  
                
  21382307.109   113979731.199                                                  
  21382306.219  
  21874877.227   116769580.770                    90820780.922    21874880.707  
  21874875.633  
  22452169.906   117986976.186    22452176.863    91937919.8084   22452176.801  
                
  19651968.117   104940405.514                    81620317.947    19651970.789  
  19651967.488  
  21591709.562   115460585.988                    89802700.637    21591715.691  
  21591708.328  
  21816983.656   114649037.535    21816990.449    89336953.7274   21816990.438  
                
  23033798.000   121043421.350    23033803.973    94319564.7424   23033804.289  
                
  24190171.062   127120205.333    24190175.434    99054723.1194                 
                
  20707458.016   108818445.181    20707467.266    84793622.3164   20707467.656  
                
 21  8 16  4 39 50.0000000  0 17G26R 3R 2G20R16R19G29G12R10R18G18R 9
                                R20G 5G31G 2G25
  23929370.039   125749691.729    23929379.176    97986809.2644   23929379.137  
                
  22780188.328   121944144.926                    94845446.451    22780193.637  
  22780187.027  
  23439401.648   125077143.635                    97282211.159    23439404.828  
  23439399.555  
  22194128.742   116630923.011    22194134.629    90881284.4744                 
                
  21858188.812   116762512.683                    90815270.625    21858191.234  
  21858188.418  
  19626366.039   104987865.318                    81657215.517    19626368.910  
  19626363.820  
  20540446.195   107940787.945    20540452.344    84109733.9414   20540452.438  
                
  22788457.945   119754149.418    22788464.707    93314946.2504   22788464.965  
                
  21377057.406   113951747.327                                                  
  21377056.527  
  21880684.609   116800580.878                    90844892.115    21880688.082  
  21880683.012  
  22446399.375   117956651.877    22446406.332    91914290.4854   22446406.277  
                
  19653693.164   104949617.111                    81627482.534    19653695.824  
  19653692.547  
  21586864.094   115434674.899                    89782547.583    21586870.195  
  21586862.816  
  21813779.555   114632199.911    21813786.355    89323833.5144   21813786.340  
                
  23035233.422   121050964.459    23035239.383    94325442.4834   23035239.707  
                
  24195778.477   127149672.380    24195782.879    99077684.4544                 
                
  20711243.234   108838336.651    20711252.480    84809122.1554   20711252.871  
                
 21  8 16  4 40  0.0000000  0 17G26R 3R 2G20R16R19G29G12R10R18G18R 9
                                R20G 5G31G 2G25
  23923144.297   125716975.514    23923153.488    97961316.1074   23923153.438  
                
  22776576.422   121924810.172                    94830408.340    22776581.719  
  22776575.090  
  23441609.602   125088925.760                    97291375.040    23441612.793  
  23441607.527  
  22195551.383   116638399.103    22195557.266    90887110.0004                 
                
  21865900.594   116803707.748                    90847311.205    21865903.070  
  21865900.215  
  19628020.867   104996717.578                    81664100.600    19628023.715  
  19628018.672  
  20539420.922   107935400.111    20539427.066    84105535.6274   20539427.152  
                
  22794856.164   119787772.245    22794862.871    93341145.8664   22794863.160  
                
  21371819.953   113923828.725                                                  
  21371819.098  
  21886493.734   116831590.290                    90869010.544    21886497.207  
  21886492.137  
  22440634.711   117926358.477    22440641.664    91890685.2464   22440641.625  
                
  19655435.039   104958918.601                    81634717.021    19655437.695  
  19655434.434  
  21582025.016   115408798.380                    89762421.408    21582031.129  
  21582023.738  
  21810586.922   114615422.530    21810593.719    89310760.2354   21810593.695  
                
  23036680.211   121058567.345    23036686.152    94331366.8104   23036686.492  
                
  24201387.195   127179146.339    24201391.625    99100651.1714                 
                
  20715038.500   108858280.896    20715047.754    84824663.1174   20715048.137  
                
 21  8 16  4 40 10.0000000  0 17G26R 3R 2G20R16R19G29G12R10R18G18R 9
                                R20G 5G31G 2G25
  23916922.414   125684279.611    23916931.676    97935838.8114   23916931.629  
                
  22772977.266   121905543.811                    94815423.392    22772982.582  
  22772975.906  
  23443832.555   125100787.736                    97300600.987    23443835.723  
  23443830.453  
  22196986.039   116645938.235    22196991.918    90892984.6564                 
                
  21873618.758   116844937.296                    90879378.626    21873621.383  
  21873618.453  
  19629683.836   105005613.273                    81671019.467    19629686.680  
  19629681.652  
  20538401.930   107930045.293    20538408.070    84101363.0444   20538408.164  
                
  22801259.719   119821423.111    22801266.402    93367367.3254   22801266.684  
                
  21366594.789   113895975.694                                                  
  21366593.965  
  21892304.641   116862609.176                    90893136.318    21892308.102  
  21892303.070  
  22434875.992   117896096.176    22434882.949    91867104.2484   22434882.895  
                
  19657193.742   104968309.931                    81642021.399    19657196.398  
  19657193.176  
  21577192.484   115382956.635                    89742322.308    21577198.602  
  21577191.191  
  21807405.742   114598705.365    21807412.539    89297733.8784   21807412.535  
                
  23038138.398   121066230.126    23038144.312    94337337.8034   23038144.699  
                
  24206997.219   127208627.214    24207001.684    99123623.2734                 
                
  20718843.820   108878277.984    20718853.070    84840245.2514   20718853.457  
                
 21  8 16  4 40 20.0000000  0 17G26R 3R 2G20R16R19G29G12R10R18G18R 9
                                R20G 5G31G 2G25
  23910704.352   125651603.871    23910713.703    97910377.2084   23910713.676  
                
  22769390.852   121886345.649                    94800491.510    22769396.191  
  22769389.539  
  23446070.250   125112728.622                    97309888.343    23446073.484  
  23446068.148  
  22198432.633   116653540.184    22198438.535    90898908.2504                 
                
  21881343.242   116886200.640                    90911472.320    21881346.023  
  21881342.996  
  19631354.797   105014551.800                    81677971.653    19631357.637  
  19631352.586  
  20537389.172   107924723.206    20537395.301    84097215.9604   20537395.406  
                
  22807668.555   119855101.746    22807675.273    93393610.4124   22807675.523  
                
  21361381.898   113868188.083                                                  
  21361381.129  
  21898117.273   116893637.361                    90917269.349    21898120.734  
  21898115.703  
  22429123.133   117865864.759    22429130.062    91843547.3024   22429130.012  
                
  19658969.234   104977790.946                    81649395.516    19658971.883  
  19658968.691  
  21572366.398   115357149.495                    89722250.094    21572372.551  
  21572365.066  
  21804236.016   114582048.379    21804242.816    89284754.4134   21804242.824  
                
  23039607.898   121073952.459    23039613.801    94343355.2044   23039614.211  
                
  24212608.516   127238114.721    24212613.004    99146600.5434                 
                
  20722659.133   108898327.587    20722668.379    84855868.3144   20722668.766  
                
 21  8 16  4 40 30.0000000  0 17G26R 3R 2G20R16R19G29G12R10R18G18R 9
                                R20G 5G31G 2G25
  23904490.094   125618947.894    23904499.551    97884931.0124   23904499.516  
                
  22765817.203   121867215.487                    94785612.523    22765822.555  
  22765815.891  
  23448322.734   125124748.238                    97319236.906    23448326.000  
  23448320.660  
  22199891.102   116661204.506    22199897.031    90904880.4474                 
                
  21889073.953   116927497.416                    90943592.002    21889076.902  
  21889073.758  
  19633033.664   105023532.634                    81684956.753    19633036.496  
  19633031.461  
  20536382.555   107919433.392    20536388.672    84093094.0274   20536388.789  
                
  22814082.570   119888807.658    22814089.379    93419874.7364   22814089.605  
                
  21356181.242   113840465.577                                                  
  21356180.484  
  21903931.523   116924674.078                    90941409.015    21903934.969  
  21903929.980  
  22423376.094   117835663.801    22423382.980    91820014.0904   22423382.953  
                
  19660761.422   104987361.039                    81656838.916    19660764.055  
  19660760.883  
  21567546.688   115331376.329                    89702204.305    21567552.844  
  21567545.355  
  21801077.648   114565451.033    21801084.434    89271821.4214   21801084.438  
                
  23041088.656   121081733.852    23041094.570    94349418.6294   23041094.977  
                
  24218220.992   127267608.417    24218225.477    99169582.6374                 
                
  20726484.359   108918429.203    20726493.594    84871531.9074   20726493.973  
                
 21  8 16  4 40 40.0000000  0 17G26R 3R 2G20R16R19G29G12R10R18G18R 9
                                R20G 5G31G 2G25
  23898279.734   125586312.304    23898289.234    97859500.6914   23898289.191  
                
  22762256.297   121848153.710                    94770786.705    22762261.676  
  22762255.031  
  23450589.969   125136846.679                    97328646.795    23450593.270  
  23450587.902  
  22201361.508   116668931.615    22201367.469    90910901.5644                 
                
  21896810.930   116968827.760                    90975737.803    21896814.012  
  21896810.816  
  19634720.578   105032556.491                    81691975.305    19634723.414  
  19634718.363  
  20535382.172   107914176.374    20535388.293    84088997.6544   20535388.410  
                
  22820501.836   119922541.249    22820508.711    93446160.6294   22820508.930  
                
  21350992.906   113812808.834                                                  
  21350992.141  
  21909747.438   116955719.802                    90965555.682    21909750.859  
  21909745.898  
  22417634.945   117805493.863    22417641.801    91796505.0444   22417641.777  
                
  19662570.359   104997020.661                    81664351.949    19662572.992  
  19662569.836  
  21562733.484   115305637.928                    89682185.564    21562739.648  
  21562732.109  
  21797930.766   114548914.092    21797937.551    89258935.4924   21797937.551  
                
  23042580.711   121089574.735    23042586.656    94355528.4014   23042587.039  
                
  24223834.703   127297108.661    24223839.176    99192569.8374                 
                
  20730319.547   108938583.290    20730328.762    84887236.3864   20730329.172  
                
 21  8 16  4 40 50.0000000  0 17G26R 3R 2G20R16R19G29G12R10R18G18R 9
                                R20G 5G31G 2G25
  23892073.359   125553697.687    23892082.961    97834086.7424   23892082.922  
                
  22758708.312   121829161.068                    94756014.694    22758713.703  
  22758707.102  
  23452872.125   125149024.655                    97338118.547    23452875.477  
  23452870.023  
  22202843.969   116676722.050    22202849.953    90916972.0354                 
                
  21904554.445   117010192.228                    91007910.161    21904557.488  
  21904554.316  
  19636415.594   105041623.666                    81699027.550    19636418.406  
  19636413.379  
  20534388.125   107908952.632    20534394.254    84084927.2034   20534394.371  
                
  22826926.477   119956303.027    22826933.359    93472468.4934   22826933.605  
                
  21345817.031   113785218.505                                                  
  21345816.293  
  21915565.141   116986775.191                    90989709.855    21915568.566  
  21915563.609  
  22411899.812   117775355.540    22411906.648    91773020.6454   22411906.625  
                
  19664396.188   105006770.480                    81671935.132    19664398.809  
  19664395.676  
  21557926.836   115279934.563                    89662194.056    21557933.012  
  21557925.473  
  21794795.484   114532438.106    21794802.285    89246097.0684   21794802.277  
                
  23044084.180   121097475.582    23044090.168    94361684.8934   23044090.543  
                
  24229449.766   127326616.014    24229454.211    99215562.5664                 
                
  20734164.828   108958790.361    20734174.031    84902982.1524   20734174.453  
                
 21  8 16  4 41  0.0000000  0 17G26R 3R 2G20R16R19G29G12R10R18G18R 9
                                R20G 5G31G 2G25
  23885871.211   125521105.081    23885880.832    97808689.8894   23885880.797  
                
  22755173.477   121810238.770                    94741297.376    22755178.855  
  22755172.301  
  23455169.336   125161283.002                    97347652.827    23455172.715  
  23455167.234  
  22204338.648   116684576.653    22204344.633    90923092.4964                 
                
  21912304.609   117051591.651                    91040109.705    21912307.508  
  21912304.422  
  19638118.859   105050734.943                    81706114.108    19638121.668  
  19638116.641  
  20533400.594   107903763.126    20533406.738    84080883.4334   20533406.848  
                
  22833356.633   119990093.774    22833363.527    93498798.9424   22833363.773  
                
  21340653.805   113757695.544                                                  
  21340653.070  
  21921384.828   117017840.944                    91013872.111    21921388.227  
  21921383.285  
  22406170.883   117745249.815    22406177.688    91749561.6494   22406177.668  
                
  19666239.062   105016611.250                    81679589.047    19666241.664  
  19666238.551  
  21553126.969   115254267.417                    89642230.714    21553133.121  
  21553125.637  
  21791672.000   114516024.100    21791678.824    89233306.9384   21791678.793  
                
  23045599.242   121105437.330    23045605.270    94367888.8554   23045605.629  
                
  24235066.344   127356131.254    24235070.770    99238561.4534                 
                
  20738020.359   108979051.286    20738029.551    84918769.8744   20738029.988  
                
 21  8 16  4 41 10.0000000  0 17G26R 3R 2G20R16R19G29G12R10R18G18R 9
                                R20G 5G31G 2G25
  23879672.555   125488531.023    23879682.215    97783307.5294   23879682.191  
                
  22751651.094   121791383.211                    94726631.998    22751656.488  
  22751649.961  
  23457480.914   125173618.090                    97357246.792    23457484.324  
  23457478.812  
  22205844.852   116692491.845    22205850.824    90929260.1954                 
                
  21920060.672   117093022.309                    91072333.565    21920063.340  
  21920060.367  
  19639829.719   105059886.980                    81713232.355    19639832.535  
  19639827.488  
  20532418.914   107898604.389    20532425.078    84076863.6374   20532425.180  
                
  22839791.625   120023909.943    22839798.551    93525149.1884   22839798.781  
                
  21335502.602   113730236.728                                                  
  21335501.844  
  21927205.766   117048913.500                    91038039.642    21927209.152  
  21927204.230  
  22400447.500   117715173.223    22400454.227    91726125.3524   22400454.266  
                
  19668098.273   105026539.355                    81687310.913    19668100.867  
  19668097.785  
  21548333.148   115228632.734                    89622292.635    21548339.270  
  21548331.832  
  21788559.656   114499668.661    21788566.520    89220562.4504   21788566.469  
                
  23047125.211   121113456.361    23047131.254    94374137.4464   23047131.617  
                
  24240683.734   127385650.811    24240688.195    99261563.6874                 
                
  20741885.453   108999362.487    20741894.645    84934596.7794   20741895.098  
                
 21  8 16  4 41 20.0000000  0 17G26R 3R 2G20R16R19G29G12R10R18G18R 9
                                R20G 5G31G 2G25
  23873478.016   125455978.425    23873487.645    97757941.8894   23873487.637  
                
  22748141.742   121772597.395                    94712020.805    22748147.117  
  22748140.648  
  23459807.438   125186032.737                    97366902.608    23459810.844  
  23459805.301  
  22207363.133   116700470.454    22207369.066    90935477.2944                 
                
  21927822.977   117134486.762                    91104583.708    21927825.496  
  21927822.672  
  19641548.656   105069082.134                    81720384.137    19641551.473  
  19641546.430  
  20531443.625   107893479.204    20531449.793    84072869.9884   20531449.883  
                
  22846231.984   120057754.308    22846238.930    93551521.4034   22846239.160  
                
  21330363.961   113702844.860                                                  
  21330363.211  
  21933028.477   117079995.524                    91062214.543    21933031.887  
  21933026.941  
  22394730.211   117685128.623    22394736.848    91702713.9684   22394736.941  
                
  19669974.414   105036557.760                    81695103.008    19669977.012  
  19669973.953  
  21543545.953   115203033.430                    89602382.058    21543552.047  
  21543544.652  
  21785459.070   114483375.005    21785465.977    89207866.1004   21785465.906  
                
  23048662.594   121121535.360    23048668.645    94380432.7774   23048669.016  
                
  24246302.469   127415177.392    24246306.965    99284571.3984                 
                
  20745760.641   109019726.717    20745769.832    84950465.0014   20745770.309  
                
 21  8 16  4 41 30.0000000  0 17G26R 3R 2G20R16R19G29G12R10R18G18R 9
                                R20G 5G31G 2G25
  23867287.492   125423446.893    23867297.098    97732592.6374   23867297.105  
                
  22744645.352   121753880.920                    94697463.586    22744650.711  
  22744644.219  
  23462148.836   125198526.877                    97376620.255    23462152.234  
  23462146.703  
  22208893.375   116708511.952    22208899.289    90941743.3944                 
                
  21935591.625   117175984.621                    91136859.831    21935593.922  
  21935591.230  
  19643275.641   105078320.329                    81727569.397    19643278.445  
  19643273.414  
  20530474.625   107888387.109    20530480.801    84068902.1224   20530480.895  
                
  22852677.609   120091626.257    22852684.566    93577915.1284   22852684.812  
                
  21325237.836   113675519.717                                                  
  21325237.094  
  21938852.906   117111086.709                    91086396.557    21938856.332  
  21938851.363  
  22389018.914   117655115.559    22389025.508    91679327.1554   22389025.617  
                
  19671867.336   105046665.849                    81702964.844    19671869.914  
  19671866.895  
  21538765.289   115177469.051                    89582498.667    21538771.371  
  21538763.973  
  21782370.078   114467142.315    21782377.016    89195217.2594   21782376.949  
                
  23050211.289   121129673.876    23050217.352    94386774.4624   23050217.727  
                
  24251922.438   127444710.519    24251926.926    99307584.2094                 
                
  20749645.812   109040143.432    20749655.023    84966374.1244   20749655.500  
                
 21  8 16  4 41 40.0000000  0 17G26R 3R 2G20R16R19G29G12R10R18G18R 9
                                R20G 5G31G 2G25
  23861100.977   125390936.442    23861110.539    97707259.8284   23861110.539  
                
  22741161.891   121735233.869                    94682960.393    22741167.285  
  22741160.734  
  23464504.992   125211099.692                    97386399.096    23464508.406  
  23464502.879  
  22210435.609   116716616.502    22210441.539    90948058.6264                 
                
  21943366.328   117217515.502                    91169161.624    21943368.590  
  21943365.949  
  19645010.625   105087601.292                    81734787.923    19645013.406  
  19645008.398  
  20529511.922   107883328.076    20529518.090    84064960.0194   20529518.180  
                
  22859128.484   120125525.756    22859135.488    93604330.3034   22859135.707  
                
  21320124.250   113648261.439                                                  
  21320123.508  
  21944678.969   117142186.679                    91110585.427    21944682.395  
  21944677.418  
  22383313.602   117625134.033    22383320.199    91655964.9394   22383320.305  
                
  19673777.039   105056863.498                    81710896.352    19673779.602  
  19673776.598  
  21533991.125   115151939.607                    89562642.452    21533997.215  
  21533989.816  
  21779292.703   114450970.605    21779299.656    89182615.9304   21779299.605  
                
  23051771.289   121137871.760    23051777.363    94393162.4254   23051777.715  
                
  24257543.641   127474250.116    24257548.117    99330602.0704                 
                
  20753540.969   109060612.569    20753550.211    84982324.0974   20753550.664  
                
 21  8 16  4 41 50.0000000  0 17G26R 3R 2G20R16R19G29G12R10R18G18R 9
                                R20G 5G31G 2G25
  23854918.469   125358447.050    23854927.988    97681943.4304   23854927.973  
                
  22737691.422   121716656.320                    94668511.212    22737696.805  
  22737690.289  
  23466875.844   125223751.105                    97396239.063    23466879.297  
  23466873.750  
  22211989.766   116724783.673    22211995.734    90954422.6604                 
                
  21951147.141   117259079.183                    91201488.914    21951149.406  
  21951146.797  
  19646753.523   105096924.648                    81742039.422    19646756.297  
  19646751.297  
  20528555.484   107878301.973    20528561.652    84061043.5754   20528561.758  
                
  22865584.562   120159452.586    22865591.621    93630766.7864   22865591.809  
                
  21315023.188   113621069.954                                                  
  21315022.449  
  21950506.688   117173295.458                    91134781.139    21950510.117  
  21950505.129  
  22377614.281   117595183.981    22377620.852    91632627.2494   22377620.965  
                
  19675703.477   105067150.567                    81718897.407    19675706.035  
  19675703.023  
  21529223.492   115126445.006                    89542813.332    21529229.582  
  21529222.168  
  21776226.906   114434859.777    21776233.875    89170062.0464   21776233.820  
                
  23053342.570   121146128.850    23053348.621    94399596.5254   23053348.996  
                
  24263166.062   127503796.029    24263170.512    99353624.8544                 
                
  20757446.062   109081133.953    20757455.332    84998314.7814   20757455.773  
                
 21  8 16  4 42  0.0000000  0 17G26R 3R 2G20R16R19G29G12R10R18G18R 9
                                R20G 5G31G 2G25
  23848739.992   125325978.904    23848749.383    97656643.5814   23848749.398  
                
  22734233.984   121698148.426                    94654116.204    22734239.383  
  22734232.852  
  23469261.477   125236481.297                    97406140.343    23469264.934  
  23469259.398  
  22213555.867   116733013.606    22213561.867    90960835.5934                 
                
  21958934.086   117300675.467                    91233841.546    21958936.348  
  21958933.707  
  19648504.359   105106290.433                    81749323.914    19648507.141  
  19648502.145  
  20527605.344   107873308.980    20527611.516    84057152.9334   20527611.641  
                
  22872045.836   120193406.714    22872052.938    93657224.5454   22872053.129  
                
  21309934.688   113593945.365                                                  
  21309933.945  
  21956336.055   117204412.960                    91158983.623    21956339.465  
  21956334.473  
  22371920.992   117565265.567    22371927.512    91609314.2014   22371927.645  
                
  19677646.664   105077527.095                    81726968.032    19677649.227  
  19677646.203  
  21524462.406   115100985.308                    89523011.344    21524468.488  
  21524461.078  
  21773172.758   114418810.127    21773179.758    89157555.8304   21773179.715  
                
  23054925.141   121154445.236    23054931.152    94406076.8164   23054931.547  
                
  24268789.672   127533348.232    24268794.078    99376652.5374                 
                
  20761361.109   109101707.623    20761370.395    85014346.2044   20761370.824  
                
 21  8 16  4 42 10.0000000  0 17G26R 3R 2G20R16R19G29G12R10R18G18R 9
                                R20G 5G31G 2G25
  23842565.461   125293531.370    23842574.699    97631359.7764   23842574.723  
                
  22730789.422   121679709.624                    94639774.956    22730794.891  
  22730788.277  
  23471661.766   125249289.623                    97416102.387    23471665.234  
  23471659.676  
  22215133.773   116741305.559    22215139.777    90967296.8464                 
                
  21966726.883   117342303.924                    91266219.208    21966729.352  
  21966726.605  
  19650263.023   105115698.110                    81756641.000    19650265.793  
  19650260.812  
  20526661.367   107868348.333    20526667.543    84053287.4904   20526667.676  
                
  22878512.164   120227387.412    22878519.273    93683703.0044   22878519.465  
                
  21304858.617   113566887.119                                                  
  21304857.848  
  21962166.945   117235538.603                    91183192.443    21962170.348  
  21962165.332  
  22366233.594   117535378.101    22366240.109    91586025.2624   22366240.254  
                
  19679606.445   105087992.166                    81735107.523    19679608.996  
  19679605.980  
  21519707.703   115075559.782                    89503235.947    21519713.797  
  21519706.398  
  21770130.117   114402820.979    21770137.160    89145096.7624   21770137.117  
                
  23056518.844   121162820.159    23056524.828    94412602.7334   23056525.215  
                
  24274414.320   127562905.939    24274418.730    99399684.5084                 
                
  20765285.961   109122332.814    20765295.266    85030417.7774   20765295.680  
                
 21  8 16  4 42 20.0000000  0 17G26R 3R 2G20R16R19G29G12R10R18G18R 9
                                R20G 5G31G 2G25
  23836394.945   125261105.105    23836404.047    97606092.5394   23836404.113  
                
  22727357.875   121661340.558                    94625487.959    22727363.406  
  22727356.746  
  23474076.750   125262176.441                    97426125.409    23474080.195  
  23474074.633  
  22216723.562   116749659.969    22216729.543    90973806.7904                 
                
  21974525.805   117383964.617                    91298621.931    21974528.395  
  21974525.477  
  19652029.578   105125148.056                    81763990.953    19652032.367  
  19652027.379  
  20525723.648   107863420.620    20525729.836    84049447.7204   20525729.973  
                
  22884983.617   120261395.245    22884990.719    93710202.5924   22884990.930  
                
  21299795.203   113539896.278                                                  
  21299794.418  
  21967999.383   117266672.628                    91207407.792    21968002.801  
  21967997.766  
  22360552.195   117505522.233    22360558.750    91562760.9584   22360558.871  
                
  19681582.938   105098546.522                    81743316.460    19681585.480  
  19681582.465  
  21514959.469   115050168.901                    89483487.494    21514965.602  
  21514958.145  
  21767099.141   114386893.099    21767106.211    89132685.4284   21767106.160  
                
  23058123.773   121171254.110    23058129.746    94419174.6474   23058130.137  
                
  24280040.109   127592469.665    24280044.570    99422721.1634                 
                
  20769220.727   109143010.136    20769230.051    85046529.9684   20769230.445  
                
 21  8 16  4 42 30.0000000  0 17G26R 3R 2G20R16R19G29G12R10R18G18R 9
                                R20G 5G31G 2G25
  23830228.523   125228700.398    23830237.566    97580842.1134   23830237.633  
                
  22723939.461   121643041.493                    94611255.406    22723944.973  
  22723938.328  
  23476506.469   125275142.011                    97436209.746    23476509.934  
  23476504.395  
  22218325.305   116758077.183    22218331.227    90980365.6554                 
                
  21982330.711   117425657.628                    91331049.784    21982333.484  
  21982330.410  
  19653804.078   105134640.377                    81771373.872    19653806.867  
  19653801.887  
  20524792.234   107858526.029    20524798.430    84045633.7594   20524798.562  
                
  22891460.250   120295430.177    22891467.320    93736723.3004   22891467.551  
                
  21294744.391   113512972.613                                                  
  21294743.594  
  21973833.461   117297815.334                    91231629.860    21973836.906  
  21973831.805  
  22354876.859   117475698.204    22354883.449    91539521.4694   22354883.559  
                
  19683576.164   105109190.224                    81751594.901    19683578.711  
  19683575.715  
  21510217.836   115024813.238                    89463766.426    21510223.977  
  21510216.520  
  21764079.867   114371026.721    21764086.945    89120322.0224   21764086.879  
                
  23059739.969   121179747.251    23059745.938    94425792.6774   23059746.340  
                
  24285667.102   127622039.607    24285671.570    99445762.6674                 
                
  20773165.414   109163739.567    20773174.746    85062682.7634   20773175.141  
                
 21  8 16  4 42 40.0000000  0 17G26R 3R 2G20R16R19G29G12R10R18G18R 9
                                R20G 5G31G 2G25
  23824066.203   125196317.260    23824075.203    97555608.4924   23824075.316  
                
  22720534.117   121624812.523                    94597077.360    22720539.648  
  22720532.969  
  23478950.922   125288186.051                    97446355.115    23478954.375  
  23478948.891  
  22219938.992   116766557.198    22219944.848    90986973.4454                 
                
  21990141.719   117467382.768                    91363502.653    21990144.625  
  21990141.418  
  19655586.445   105144174.869                    81778789.598    19655589.230  
  19655584.258  
  20523867.117   107853664.505    20523873.316    84041845.5574   20523873.457  
                
  22897942.039   120329492.141    22897949.070    93763265.0844   22897949.324  
                
  21289706.273   113486116.589                                                  
  21289705.469  
  21979669.125   117328966.491                    91255858.537    21979672.578  
  21979667.445  
  22349207.578   117445905.985    22349214.199    91516306.7614   22349214.312  
                
  19685586.117   105119923.218                    81759942.773    19685588.652  
  19685585.656  
  21505482.727   114999492.384                    89444072.444    21505488.891  
  21505481.434  
  21761072.273   114355221.725    21761079.348    89108006.4394   21761079.281  
                
  23061367.398   121188299.418    23061373.395    94432456.7044   23061373.773  
                
  24291295.242   127651615.620    24291299.699    99468808.9064                 
                
  20777120.008   109184521.085    20777129.355    85078876.1514   20777129.746  
                
 21  8 16  4 42 50.0000000  0 17G26R 3R 2G20R16R19G29G12R10R18G18R 9
                                R20G 5G31G 2G25
  23817907.984   125163955.669    23817917.000    97530391.6864   23817917.109  
                
  22717141.859   121606653.778                    94582953.940    22717147.453  
  22717140.688  
  23481410.047   125301308.372                    97456561.348    23481413.508  
  23481407.973  
  22221564.562   116775099.641    22221570.352    90993629.8904                 
                
  21997958.773   117509139.771                    91395980.316    21997961.676  
  21997958.434  
  19657376.727   105153751.623                    81786238.181    19657379.480  
  19657374.543  
  20522948.273   107848835.945    20522954.484    84038083.0434   20522954.613  
                
  22904428.984   120363580.979    22904435.938    93789827.8154   22904436.223  
                
  21284680.828   113459328.127                                                  
  21284680.027  
  21985506.359   117360126.020                    91280093.706    21985509.801  
  21985504.676  
  22343544.344   117416145.531    22343550.984    91493116.8064   22343551.098  
                
  19687612.773   105130745.427                    81768360.044    19687615.301  
  19687612.305  
  21500754.164   114974206.493                    89424405.651    21500760.312  
  21500752.855  
  21758076.367   114339478.195    21758083.441    89095738.7574   21758083.383  
                
  23063006.031   121196910.497    23063012.039    94439166.6314   23063012.391  
                
  24296924.492   127681197.535    24296928.938    99491859.7284                 
                
  20781084.492   109205354.512    20781093.859    85095109.9864   20781094.234  
                
 21  8 16  4 43  0.0000000  0 17G26R 3R 2G20R16R19G29G12R10R18G18R 9
                                R20G 5G31G 2G25
  23811753.875   125131615.702    23811762.906    97505191.7084   23811763.020  
                
  22713762.789   121588565.301                    94568885.149    22713768.367  
  22713761.605  
  23483883.867   125314509.093                    97466828.542    23483887.316  
  23483881.738  
  22223201.992   116783704.430    22223207.734    91000334.9294                 
                
  22005781.875   117550928.567                    91428482.693    22005784.598  
  22005781.434  
  19659174.836   105163370.298                    81793719.365    19659177.562  
  19659172.660  
  20522035.711   107844040.398    20522041.934    84034346.2494   20522042.051  
                
  22910921.023   120397696.606    22910927.906    93816411.4194   22910928.230  
                
  21279668.055   113432607.269                                                  
  21279667.254  
  21991345.133   117391293.815                    91304335.320    21991348.566  
  21991343.469  
  22337887.164   117386416.866    22337893.812    91469951.6244   22337893.922  
                
  19689656.070   105141656.555                    81776846.479    19689658.602  
  19689655.582  
  21496032.055   114948955.334                    89404765.880    21496038.211  
  21496030.746  
  21755092.164   114323796.128    21755099.246    89083518.9744   21755099.188  
                
  23064655.852   121205580.399    23064661.836    94445922.4064   23064662.184  
                
  24302554.867   127710785.265    24302559.254    99514915.0964                 
                
  20785058.828   109226239.814    20785068.207    85111384.2414   20785068.574  
                
 21  8 16  4 43 10.0000000  0 17G26R 3R 2G20R16R19G29G12R10R18G18R 9
                                R20G 5G31G 2G25
  23805603.945   125099297.582    23805613.000    97480008.7624   23805613.102  
                
  22710396.852   121570547.210                    94554871.108    22710402.402  
  22710395.656  
  23486372.391   125327788.288                    97477156.803    23486375.805  
  23486370.309  
  22224851.336   116792371.818    22224857.031    91007088.7244                 
                
  22013610.977   117592749.288                    91461009.925    22013613.492  
  22013610.449  
  19660980.820   105173031.039                    81801233.278    19660983.527  
  19660978.637  
  20521129.445   107839277.950    20521135.688    84030635.2554   20521135.789  
                
  22917418.172   120431839.133    22917425.035    93843015.9854   22917425.371  
                
  21274668.039   113405954.373                                                  
  21274667.215  
  21997185.484   117422470.020                    91328583.469    21997188.918  
  21997183.836  
  22332236.070   117356720.186    22332242.727    91446811.3514   22332242.852  
                
  19691716.086   105152656.872                    81785402.284    19691718.621  
  19691715.598  
  21491316.523   114923739.298                    89385153.422    21491322.652  
  21491315.230  
  21752119.711   114308175.843    21752126.789    89071347.3334   21752126.734  
                
  23066316.883   121214309.198    23066322.844    94452724.0664   23066323.207  
                
  24308186.375   127740378.930    24308190.734    99537975.1034                 
                
  20789043.062   109247177.036    20789052.438    85127698.9534   20789052.801  
                
 21  8 16  4 43 20.0000000  0 17G26R 3R 2G20R16R19G29G12R10R18G18R 9
                                R20G 5G31G 2G25
  23799458.195   125067001.601    23799467.312    97454843.0864   23799467.406  
                
  22707044.180   121552600.062                    94540912.212    22707049.691  
  22707042.938  
  23488875.594   125341145.744                    97487545.951    23488879.012  
  23488873.551  
  22226512.602   116801101.843    22226518.254    91013891.3544                 
                
  22021445.984   117634601.650                    91493561.795    22021448.312  
  22021445.414  
  19662794.672   105182733.856                    81808779.912    19662797.375  
  19662792.469  
  20520229.523   107834548.794    20520235.781    84026950.1924   20520235.859  
                
  22923920.430   120466008.611    22923927.309    93869641.5374   22923927.629  
                
  21269680.852   113379369.888                                                  
  21269679.992  
  22003027.469   117453654.879                    91352838.354    22003030.914  
  22003025.820  
  22326591.109   117327055.745    22326597.805    91423696.2074   22326597.922  
                
  19693792.812   105163746.456                    81794027.504    19693795.344  
  19693792.324  
  21486607.555   114898558.266                    89365568.159    21486613.621  
  21486606.273  
  21749159.070   114292617.588    21749166.125    89059224.0214   21749166.066  
                
  23067989.164   121223097.139    23067995.137    94459571.8154   23067995.496  
                
  24313819.023   127769978.617    24313823.402    99561039.7854                 
                
  20793037.211   109268166.387    20793046.582    85144054.2874   20793046.941  
                
 21  8 16  4 43 30.0000000  0 17G26R 3R 2G20R16R19G29G12R10R18G18R 9
                                R20G 5G31G 2G25
  23793316.594   125034727.457    23793325.805    97429694.4254   23793325.848  
                
  22703704.664   121534723.400                    94527008.197    22703710.160  
  22703703.387  
  23491393.461   125354581.443                    97497995.906    23491396.875  
  23491391.430  
  22228185.727   116809894.172    22228191.344    91020742.5054                 
                
  22029286.688   117676485.485                    91526138.131    22029288.961  
  22029286.191  
  19664616.336   105192478.515                    81816359.099    19664619.039  
  19664614.109  
  20519335.875   107829852.641    20519342.152    84023290.8534   20519342.215  
                
  22930427.742   120500204.646    22930434.633    93896287.7834   22930434.922  
                
  21264706.422   113352853.408                                                  
  21264705.547  
  22008870.938   117484847.765                    91377099.477    22008874.398  
  22008869.293  
  22320952.211   117297423.192    22320958.945    91400605.9314   22320959.051  
                
  19695886.195   105174925.010                    81802721.931    19695888.727  
  19695885.688  
  21481905.070   114873412.020                    89346009.987    21481911.094  
  21481903.809  
  21746210.164   114277121.051    21746217.195    89047148.8004   21746217.152  
                
  23069672.594   121231943.677    23069678.609    94466465.2054   23069678.945  
                
  24319452.742   127799584.007    24319457.164    99584108.8894                 
                
  20797041.180   109289207.388    20797050.562    85160449.8684   20797050.918  
                
 21  8 16  4 43 40.0000000  0 17G26R 3R 2G20R16R19G29G12R10R18G18R 9
                                R20G 5G31G 2G25
  23787179.117   125002474.864    23787188.418    97404562.5444   23787188.391  
                
  22700378.242   121516917.000                    94513158.822    22700383.773  
  22700376.914  
  23493925.867   125368094.825                    97508506.283    23493929.281  
  23493923.852  
  22229870.625   116818748.369    22229876.254    91027641.8894                 
                
  22037133.133   117718399.926                    91558738.243    22037135.340  
  22037132.645  
  19666445.766   105202264.724                    81823970.594    19666448.449  
  19666443.523  
  20518448.422   107825189.049    20518454.703    84019656.8864   20518454.777  
                
  22936940.000   120534426.789    22936946.910    93922954.3844   22936947.191  
                
  21259744.688   113326404.631                                                  
  21259743.828  
  22014715.836   117516048.189                    91401366.448    22014719.309  
  22014714.211  
  22315319.328   117267822.234    22315326.086    91377540.2474   22315326.176  
                
  19697996.141   105186191.994                    81811485.130    19697998.672  
  19697995.633  
  21477209.062   114848300.378                    89326478.709    21477215.031  
  21477207.770  
  21743272.945   114261685.882    21743279.938    89035121.4024   21743279.918  
                
  23071367.102   121240848.390    23071373.160    94473403.9424   23071373.484  
                
  24325087.461   127829194.675    24325091.895    99607182.1424                 
                
  20801054.914   109310299.626    20801064.281    85176885.3714   20801064.648  
                
 21  8 16  4 43 50.0000000  0 17G26R 3R 2G20R16R19G29G12R10R18G18R 9
                                R20G 5G31G 2G25
  23781045.844   124970244.165    23781055.121    97379447.7074   23781055.066  
                
  22697065.016   121499181.178                    94499364.331    22697070.531  
  22697063.660  
  23496472.781   125381685.652                    97519076.900    23496476.168  
  23496470.742  
  22231567.344   116827664.722    22231572.996    91034589.6924                 
                
  22044985.289   117760345.396                    91591362.457    22044987.605  
  22044984.871  
  19668282.961   105212092.511                    81831614.432    19668285.652  
  19668280.703  
  20517567.219   107820558.306    20517573.504    84016048.5204   20517573.562  
                
  22943457.242   120568675.185    22943464.148    93949641.4394   22943464.449  
                
  21254795.758   113300024.086                                                  
  21254794.918  
  22020562.211   117547256.501                    91425639.589    22020565.688  
  22020560.625  
  22309692.492   117238253.112    22309699.246    91354499.3864   22309699.324  
                
  19700122.680   105197547.649                    81820317.311    19700125.227  
  19700122.176  
  21472519.508   114823223.325                    89306974.341    21472525.457  
  21472518.188  
  21740347.477   114246312.524    21740354.414    89023142.1604   21740354.410  
                
  23073072.695   121249811.413    23073078.773    94480388.1104   23073079.090  
                
  24330723.195   127858810.652    24330727.656    99630259.5144                 
                
  20805078.414   109331443.293    20805087.758    85193360.9634   20805088.145  
                
 21  8 16  4 44  0.0000000  0 17G26R 3R 2G20R16R19G29G12R10R18G18R 9
                                R20G 5G31G 2G25
  23774916.766   124938035.561    23774925.996    97354350.0764   23774925.945  
                
  22693765.023   121481516.217                    94485624.961    22693770.543  
  22693763.672  
  23499034.305   125395354.455                    97529708.217    23499037.676  
  23499032.191  
  22233275.906   116836643.304    22233281.586    91041585.9754                 
                
  22052843.258   117802321.730                    91624010.667    22052845.684  
  22052842.898  
  19670127.875   105221961.592                    81839290.379    19670130.574  
  19670125.617  
  20516692.289   107815960.534    20516698.574    84012465.8394   20516698.621  
                
  22949979.492   120602950.010    22949986.434    93976349.0684   22949986.734  
                
  21249859.688   113273712.076                                                  
  21249858.855  
  22026410.070   117578472.748                    91449918.873    22026413.551  
  22026408.500  
  22304071.773   117208716.076    22304078.512    91331483.5054   22304078.582  
                
  19702265.844   105208992.024                    81829218.494    19702268.402  
  19702265.320  
  21467836.516   114798181.187                    89287497.131    21467842.402  
  21467835.152  
  21737433.789   114231000.987    21737440.691    89011211.0914   21737440.695  
                
  23074789.438   121258832.905    23074795.547    94487417.8434   23074795.863  
                
  24336359.961   127888432.111    24336364.445    99653341.1584                 
                
  20809111.727   109352638.463    20809121.062    85209876.6744   20809121.457  
                
 21  8 16  4 44 10.0000000  0 17G26R 3R 2G20R16R19G29G12R10R18G18R 9
                                R20G 5G31G 2G25
  23768791.992   124905849.594    23768801.188    97329270.1074   23768801.145  
                
  22690478.453   121463922.879                    94471941.283    22690483.934  
  22690477.129  
  23501610.578   125409101.938                    97540400.678    23501613.965  
  23501608.469  
  22234996.422   116845684.574    22235002.105    91048631.1344                 
                
  22060707.289   117844329.136                    91656683.078    22060709.645  
  22060706.820  
  19671980.648   105231872.647                    81846998.989    19671983.352  
  19671978.391  
  20515823.742   107811396.238    20515830.035    84008909.2454   20515830.074  
                
  22956506.859   120637251.571    22956513.828    94003077.5494   22956514.102  
                
  21244936.555   113247468.996                                                  
  21244935.703  
  22032259.469   117609697.217                    91474204.568    22032262.945  
  22032257.918  
  22298457.266   117179211.616    22298463.977    91308493.0194   22298464.043  
                
  19704425.703   105220525.597                    81838189.039    19704428.277  
  19704425.168  
  21463160.141   114773174.424                    89268047.440    21463166.000  
  21463158.773  
  21734531.984   114215751.958    21734538.895    88999328.7514   21734538.887  
                
  23076517.375   121267913.244    23076523.543    94494493.4264   23076523.863  
                
  24341997.844   127918059.455    24342002.371    99676427.3844                 
                
  20813154.930   109373885.595    20813164.273    85226432.8744   20813164.656  
                
 21  8 16  4 44 20.0000000  0 17G26R 3R 2G20R16R19G29G12R10R18G18R 9
                                R20G 5G31G 2G25
  23762671.492   124873686.152    23762680.621    97304207.6674   23762680.613  
                
  22687205.234   121446400.888                    94458313.084    22687210.609  
  22687203.949  
  23504201.438   125422927.278                    97551153.683    23504204.801  
  23504199.332  
  22236728.812   116854788.305    22236734.484    91055724.9584                 
                
  22068577.078   117886367.396                    91689379.500    22068579.371  
  22068576.527  
  19673841.203   105241825.393                    81854740.005    19673843.918  
  19673838.953  
  20514961.516   107806865.212    20514967.820    84005378.5714   20514967.848  
                
  22963039.281   120671579.555    22963046.266    94029826.6134   22963046.496  
                
  21240026.328   113221294.728                                                  
  21240025.457  
  22038110.406   117640929.768                    91498496.538    22038113.844  
  22038108.863  
  22292848.906   117149739.543    22292855.613    91285527.7794   22292855.676  
                
  19706602.211   105232148.014                    81847228.696    19706604.797  
  19706601.676  
  21458490.320   114748202.760                    89248625.046    21458496.188  
  21458488.977  
  21731642.047   114200565.257    21731648.980    88987494.9634   21731648.957  
                
  23078256.453   121277052.193    23078262.668    94501614.6784   23078262.965  
                
  24347636.789   127947692.448    24347641.398    99699518.0234                 
                
  20817207.961   109395184.374    20817217.289    85243029.3264   20817217.688  
                
 21  8 16  4 44 30.0000000  0 17G26R 3R 2G20R16R19G29G12R10R18G18R 9
                                R20G 5G31G 2G25
  23756555.352   124841545.745    23756564.523    97279163.2234   23756564.520  
                
  22683945.422   121428950.771                    94444740.790    22683950.715  
  22683944.176  
  23506806.984   125436830.968                    97561967.643    23506810.348  
  23506804.875  
  22238473.148   116863954.846    22238478.809    91062867.7074                 
                
  22076452.594   117928436.584                    91722099.976    22076454.883  
  22076452.039  
  19675709.641   105251820.257                    81862513.791    19675712.348  
  19675707.383  
  20514105.711   107802367.945    20514112.043    84001874.2144   20514112.047  
                
  22969576.844   120705934.383    22969583.789    94056596.6024   22969584.004  
                
  21235129.156   113195190.068                                                  
  21235128.270  
  22043962.898   117672170.744                    91522795.071    22043966.344  
  22043961.367  
  22287246.812   117120300.354    22287253.531    91262588.1554   22287253.578  
                
  19708795.445   105243859.755                    81856337.815    19708798.039  
  19708794.914  
  21453827.164   114723266.675                    89229230.308    21453833.012  
  21453825.816  
  21728764.070   114185441.415    21728771.008    88975710.1514   21728770.992  
                
  23080006.766   121286250.174    23080012.992    94508781.9314   23080013.316  
                
  24353276.883   127977331.463    24353281.555    99722613.3334                 
                
  20821270.891   109416535.196    20821280.207    85259666.3274   20821280.629  
                
 21  8 16  4 44 40.0000000  0 17G26R 3R 2G20R16R19G29G12R10R18G18R 9
                                R20G 5G31G 2G25
  23750443.445   124809427.440    23750452.676    97254135.9824   23750452.633  
                
  22680698.891   121411571.677                    94431223.756    22680704.117  
  22680697.633  
  23509427.008   125450811.877                    97572841.683    23509430.402  
  23509424.922  
  22240229.242   116873183.102    22240234.914    91070058.5604                 
                
  22084333.805   117970535.634                    91754843.671    22084336.016  
  22084333.156  
  19677585.742   105261856.094                    81870319.435    19677588.441  
  19677583.488  
  20513256.125   107797903.298    20513262.477    83998395.2644   20513262.465  
                
  22976119.344   120740314.937    22976126.215    94083386.6384   22976126.438  
                
  21230244.867   113169154.051                                                  
  21230243.992  
  22049816.781   117703419.018                    91547099.273    22049820.242  
  22049815.270  
  22281650.789   117090893.052    22281657.523    91239673.3724   22281657.555  
                
  19711005.195   105255659.644                    81865515.508    19711007.789  
  19711004.668  
  21449170.484   114698365.202                    89209862.497    21449176.328  
  21449169.160  
  21725897.867   114170379.417    21725904.785    88963973.5394   21725904.770  
                
  23081768.109   121295506.027    23081774.340    94515994.2854   23081774.660  
                
  24358917.922   128006975.370    24358922.621    99745712.4834                 
                
  20825343.523   109437936.967    20825352.852    85276343.0274   20825353.258  
                
 21  8 16  4 44 50.0000000  0 17G26R 3R 2G20R16R19G29G12R10R18G18R 9
                                R20G 5G31G 2G25
  23744335.719   124777331.272    23744345.031    97229126.0094   23744344.941  
                
  22677465.633   121394263.737                    94417762.034    22677470.801  
  22677464.383  
  23512061.469   125464869.833                    97583775.653    23512064.855  
  23512059.391  
  22241997.086   116882473.200    22242002.773    91077297.5814                 
                
  22092220.453   118012664.603                    91787610.618    22092222.727  
  22092219.809  
  19679469.469   105271932.752                    81878156.840    19679472.168  
  19679467.219  
  20512412.742   107793471.336    20512419.102    83994941.7884   20512419.078  
                
  22982666.656   120774721.095    22982673.500    94110196.6264   22982673.730  
                
  21225373.453   113143186.705                                                  
  21225372.582  
  22055672.039   117734674.751                    91571409.266    22055675.516  
  22055670.500  
  22276060.820   117061517.691    22276067.574    91216783.4924   22276067.602  
                
  19713231.422   105267547.582                    81874761.678    19713234.035  
  19713230.910  
  21444520.211   114673498.176                    89190521.498    21444526.066  
  21444518.902  
  21723043.453   114155379.386    21723050.320    88952285.2074   21723050.340  
                
  23083540.445   121304819.698    23083546.711    94523251.6884   23083547.023  
                
  24364559.875   128036624.120    24364564.617    99768815.3984                 
                
  20829425.836   109459389.633    20829435.180    85293059.3874   20829435.555  
                
 21  8 16  4 45  0.0000000  0 17G26R 3R 2G20R16R19G29G12R10R18G18R 9
                                R20G 5G31G 2G25
  23738232.281   124745257.735    23738241.668    97204133.6814   23738241.551  
                
  22674245.703   121377027.229                    94404355.897    22674250.832  
  22674244.484  
  23514710.492   125479005.557                    97594770.087    23514713.832  
  23514708.441  
  22243776.734   116891825.273    22243782.449    91084584.9054                 
                
  22100112.711   118054823.521                    91820400.872    22100115.016  
  22100112.066  
  19681360.898   105282050.614                    81886026.282    19681363.574  
  19681358.656  
  20511575.664   107789072.449    20511582.023    83991514.0824   20511581.996  
                
  22989218.906   120809153.213    22989225.738    94137026.8424   22989225.965  
                
  21220515.023   113117288.567                                                  
  21220514.133  
  22061528.711   117765937.987                    91595725.107    22061532.203  
  22061527.160  
  22270477.008   117032174.673    22270483.809    91193918.8154   22270483.824  
                
  19715474.234   105279524.055                    81884076.710    19715476.871  
  19715473.723  
  21439876.492   114648666.050                    89171207.635    21439882.320  
  21439875.145  
  21720200.898   114140441.689    21720207.738    88940645.4394   21720207.773  
                
  23085323.836   121314191.450    23085330.168    94530554.3364   23085330.453  
                
  24370202.828   128066278.019    24370207.586    99791922.3134                 
                
  20833517.883   109480893.521    20833527.230    85309815.6524   20833527.605  
                
 21  8 16  4 45 10.0000000  0 17G26R 3R 2G20R16R19G29G12R10R18G18R 9
                                R20G 5G31G 2G25
  23732133.234   124713207.109    23732142.594    97179159.1564   23732142.473  
                
  22671039.211   121359862.585                    94391005.658    22671044.270  
  22671038.027  
  23517373.992   125493218.467                    97605824.578    23517377.285  
  23517371.965  
  22245568.195   116901239.471    22245573.957    91091920.6484                 
                
  22108010.461   118097012.649                    91853214.642    22108012.914  
  22108009.953  
  19683260.039   105292209.715                    81893927.818    19683262.703  
  19683257.805  
  20510744.891   107784706.733    20510751.242    83988112.2294   20510751.203  
                
  22995776.094   120843611.362    22995782.910    94163877.3344   22995783.141  
                
  21215669.617   113091459.837                                                  
  21215668.723  
  22067386.820   117797208.799                    91620046.854    22067390.320  
  22067385.297  
  22264899.398   117002864.238    22264906.270    91171079.5224   22264906.258  
                
  19717733.609   105291589.016                    81893460.565    19717736.254  
  19717733.113  
  21435239.367   114623869.202                    89151921.187    21435245.160  
  21435238.039  
  21717370.266   114125566.601    21717377.094    88929054.4634   21717377.117  
                
  23087118.312   121323621.452    23087124.684    94537902.3944   23087124.922  
                
  24375846.781   128095937.134    24375851.539    99815033.3144                 
                
  20837619.711   109502448.730    20837629.059    85326611.9154   20837629.434  
                
 21  8 16  4 45 20.0000000  0 17G26R 3R 2G20R16R19G29G12R10R18G18R 9
                                R20G 5G31G 2G25
  23726038.367   124681178.495    23726047.746    97154201.7944   23726047.609  
                
  22667845.984   121342768.979                    94377710.667    22667850.980  
  22667844.836  
  23520051.875   125507508.199                    97616938.794    23520055.156  
  23520049.852  
  22247371.305   116910714.849    22247377.078    91099304.0594                 
                
  22115913.617   118139230.466                    91886050.731    22115916.102  
  22115913.215  
  19685166.727   105302409.192                    81901860.745    19685169.387  
  19685164.504  
  20509920.266   107780373.293    20509926.602    83984735.5194   20509926.570  
                
  23002338.062   120878094.502    23002344.840    94190747.2994   23002345.090  
                
  21210837.125   113065700.018                                                  
  21210836.246  
  22073246.156   117828486.246                    91644373.725    22073249.660  
  22073244.641  
  22259327.820   116973585.463    22259334.754    91148264.8984   22259334.734  
                
  19720009.391   105303741.565                    81902912.540    19720012.039  
  19720008.906  
  21430608.594   114599106.330                    89132661.196    21430614.363  
  21430607.281  
  21714551.398   114110753.399    21714558.234    88917511.7284   21714558.258  
                
  23088923.695   121333108.725    23088930.035    94545295.0784   23088930.285  
                
  24381491.523   128125600.511    24381496.320    99838147.6154                 
                
  20841731.109   109524054.240    20841740.453    85343447.3804   20841740.836  
                
 21  8 16  4 45 30.0000000  0 17G26R 3R 2G20R16R19G29G12R10R18G18R 9
                                R20G 5G31G 2G25
  23719947.867   124649172.898    23719957.270    97129262.3744   23719957.113  
                
  22664666.219   121325747.457                    94364471.737    22664671.121  
  22664665.094  
  23522744.312   125521875.511                    97628113.343    23522747.574  
  23522742.270  
  22249186.219   116920252.269    22249191.961    91106735.8154                 
                
  22123822.375   118181478.104                    91918909.991    22123824.902  
  22123822.023  
  19687081.117   105312649.838                    81909825.677    19687083.773  
  19687078.910  
  20509101.969   107776073.126    20509108.285    83981384.7354   20509108.270  
                
  23008904.922   120912603.496    23008911.695    94217637.4134   23008911.957  
                
  21206017.703   113040009.734                                                  
  21206016.852  
  22079106.898   117859771.234                    91668706.487    22079110.391  
  22079105.375  
  22253762.453   116944339.325    22253769.426    91125475.7124   22253769.398  
                
  19722301.734   105315982.511                    81912433.278    19722304.383  
  19722301.234  
  21425984.391   114574378.727                    89113428.620    21425990.168  
  21425983.094  
  21711744.461   114096002.869    21711751.293    88906017.8224   21711751.309  
                
  23090740.117   121342654.046    23090746.391    94552732.9934   23090746.668  
                
  24387137.250   128155268.995    24387142.121    99861265.9024                 
                
  20845852.250   109545710.978    20845861.586    85360322.7504   20845861.973  
                
 21  8 16  4 45 40.0000000  0 17G26R 3R 2G20R16R19G29G12R10R18G18R 9
                                R20G 5G31G 2G25
  23713861.820   124617190.596    23713871.207    97104341.1094   23713871.070  
                
  22661499.961   121308798.193                    94351289.003    22661504.781  
  22661498.844  
  23525451.266   125536320.257                    97639348.145    23525454.547  
  23525449.168  
  22251012.984   116929851.923    22251018.676    91114216.0504                 
                
  22131736.594   118223755.340                    91951792.260    22131739.258  
  22131736.387  
  19689003.234   105322931.766                    81917822.740    19689005.887  
  19689001.051  
  20508290.031   107771806.343    20508296.332    83978059.9694   20508296.328  
                
  23015476.695   120947138.442    23015483.500    94244547.7584   23015483.754  
                
  21201211.422   113014389.521                                                  
  21201210.535  
  22084969.102   117891064.147                    91693045.417    22084972.625  
  22084967.555  
  22248203.328   116915126.055    22248210.305    91102712.1404   22248210.289  
                
  19724610.664   105328312.082                    81922022.935    19724613.324  
  19724610.152  
  21421366.781   114549686.265                    89094223.386    21421372.543  
  21421365.438  
  21708949.516   114081315.331    21708956.305    88894572.9864   21708956.324  
                
  23092567.617   121352257.545    23092573.832    94560216.2394   23092574.129  
                
  24392784.016   128184942.756    24392788.934    99884388.2924                 
                
  20849983.164   109567419.018    20849992.480    85377238.0984   20849992.879  
                
 21  8 16  4 45 50.0000000  0 17G26R 3R 2G20R16R19G29G12R10R18G18R 9
                                R20G 5G31G 2G25
  23707780.203   124585231.687    23707789.602    97079438.0724   23707789.465  
                
  22658347.250   121291921.485                    94338162.701    22658352.023  
  22658346.164  
  23528172.719   125550842.556                    97650643.270    23528176.023  
  23528170.621  
  22252851.602   116939513.899    22252857.254    91121744.8514                 
                
  22139656.539   118266062.402                    91984697.729    22139659.238  
  22139656.332  
  19690933.008   105333254.757                    81925851.732    19690935.637  
  19690930.848  
  20507484.469   107767573.084    20507490.762    83974761.3184   20507490.770  
                
  23022053.383   120981699.365    23022060.254    94271478.3224   23022060.508  
                
  21196418.281   112988839.402                                                  
  21196417.375  
  22090832.703   117922364.558                    91717390.153    22090836.246  
  22090831.121  
  22242650.469   116885945.712    22242657.480    91079974.2244   22242657.461  
                
  19726936.164   105340730.131                    81931681.407    19726938.828  
  19726935.660  
  21416755.773   114525029.191                    89075045.676    21416761.527  
  21416754.414  
  21706166.555   114066690.839    21706173.285    88883177.2704   21706173.348  
                
  23094406.195   121361919.273    23094412.348    94567744.8424   23094412.633  
                
  24398431.773   128214621.787    24398436.707    99907514.8034                 
                
  20854123.836   109589178.373    20854133.141    85394193.4374   20854133.562  
                
 21  8 16  4 46  0.0000000  0 17G26R 3R 2G20R16R19G29G12R10R18G18R 9
                                R20G 5G31G 2G25
  23701703.086   124553296.140    23701712.469    97054553.2404   23701712.316  
                
  22655208.078   121275117.202                    94325092.734    22655212.781  
  22655206.980  
  23530908.648   125565442.070                    97661998.469    23530911.984  
  23530906.555  
  22254702.008   116949237.832    22254707.617    91129321.9564                 
                
  22147582.055   118308398.557                    92017625.841    22147584.656  
  22147581.762  
  19692870.453   105343618.781                    81933912.648    19692873.074  
  19692868.312  
  20506685.242   107763373.121    20506691.543    83971488.6254   20506691.551  
                
  23028634.930   121016285.997    23028641.879    94298428.9204   23028642.141  
                
  21191638.352   112963359.689                                                  
  21191637.438  
  22096697.727   117953672.469                    91741740.743    22096701.289  
  22096696.129  
  22237103.883   116856798.231    22237110.922    91057261.9044   22237110.883  
                
  19729278.211   105353236.491                    81941408.575    19729280.887  
  19729277.719  
  21412151.352   114500407.240                    89055895.276    21412157.117  
  21412149.977  
  21703395.594   114052129.354    21703402.262    88871830.6714   21703402.355  
                
  23096255.812   121371638.995    23096261.895    94575318.6524   23096262.188  
                
  24404080.484   128244305.858    24404085.426    99930645.2304                 
                
  20858274.227   109610988.820    20858283.543    85411188.5794   20858283.973  
                
 21  8 16  4 46 10.0000000  0 16G26R 3G20R16R19G29G12R10R18G18R 9R20
                                G 5G31G 2G25
  23695630.414   124521384.032    23695639.781    97029686.6664   23695639.648  
                
  22652082.445   121258385.592                    94312079.283    22652087.109  
  22652081.332  
  22256564.211   116959023.721    22256569.812    91136947.3274                 
                
  22155513.062   118350763.946                    92050576.692    22155515.598  
  22155512.703  
  19694815.555   105354023.751                    81942005.400    19694818.168  
  19694813.434  
  20505892.352   107759206.466    20505898.652    83968241.8814   20505898.668  
                
  23035221.406   121050898.250    23035228.352    94325399.5044   23035228.629  
                
  21186871.578   112937950.125                                                  
  21186870.684  
  22102564.141   117984987.752                    91766097.062    22102567.715  
  22102562.551  
  22231563.555   116827683.653    22231570.602    91034575.2164   22231570.566  
                
  19731636.797   105365831.200                    81951204.452    19731639.480  
  19731636.312  
  21407553.523   114475820.502                    89036772.263    21407559.258  
  21407552.129  
  21700636.648   114037630.972    21700643.258    88860533.2324   21700643.371  
                
  23098116.438   121381416.628    23098122.449    94582937.5854   23098122.770  
                
  24409730.141   128273994.888    24409735.117    99953779.5274                 
                
  20862434.359   109632850.427    20862443.699    85428223.5914   20862444.121  
                
 21  8 16  4 46 20.0000000  0 16G26R 3G20R16R19G29G12R10R18G18R 9R20
                                G 5G31G 2G25
  23689562.219   124489495.340    23689571.586    97004838.3494   23689571.457  
                
  22648970.367   121241726.499                    94299122.217    22648975.023  
  22648969.223  
  22258438.164   116968871.413    22258443.777    91144620.8414                 
                
  22163449.484   118393158.278                    92083550.041    22163451.965  
  22163449.039  
  19696768.273   105364469.465                    81950129.849    19696770.883  
  19696766.137  
  20505105.781   107755073.053    20505112.082    83965021.0434   20505112.105  
                
  23041812.836   121085536.039    23041819.684    94352389.9834   23041819.992  
                
  21182118.070   112912611.122                                                  
  21182117.176  
  22108431.898   118016310.213                    91790458.973    22108435.500  
  22108430.309  
  22226029.484   116798601.907    22226036.523    91011914.1164   22226036.496  
                
  19734011.867   105378513.958                    81961068.813    19734014.566  
  19734011.383  
  21402962.250   114451268.875                    89017676.551    21402967.973  
  21402960.828  
  21697889.703   114023195.678    21697896.312    88849284.9584   21697896.422  
                
  23099988.047   121391252.018    23099993.992    94590601.5194   23099994.332  
                
  24415380.680   128303688.677    24415385.715    99976917.5364                 
                
  20866604.156   109654762.814    20866613.527    85445298.1744   20866613.930  
                
 21  8 16  4 46 30.0000000  0 16G26R 3G20R16R19G29G12R10R18G18R 9R20
                                G 5G31G 2G25
  23683498.445   124457629.941    23683507.855    96980008.1814   23683507.715  
                
  22645871.836   121225139.864                    94286221.514    22645876.492  
  22645870.691  
  22260323.844   116978780.720    22260329.469    91152342.3714                 
                
  22171391.188   118435581.262                    92116545.682    22171393.637  
  22171390.691  
  19698728.539   105374955.495                    81958285.644    19698731.145  
  19698726.406  
  20504325.539   107750972.795    20504331.836    83961826.0404   20504331.871  
                
  23048408.977   121120199.051    23048415.836    94379400.1054   23048416.156  
                
  21177377.719   112887342.340                                                  
  21177376.836  
  22114300.961   118047639.656                    91814826.305    22114304.621  
  22114299.375  
  22220501.625   116769552.827    22220508.672    90989278.4764   22220508.648  
                
  19736403.383   105391284.457                    81971001.410    19736406.090  
  19736402.895  
  21398377.484   114426752.027                    88998607.888    21398383.180  
  21398376.062  
  21695154.711   114008823.182    21695161.316    88838085.6164   21695161.410  
                
  23101870.617   121401144.921    23101876.520    94598310.2744   23101876.879  
                
  24421032.094   128333387.056    24421037.168   100000059.1174                 
                
  20870783.578   109676725.808    20870792.992    85462412.1874   20870793.371  
                
 21  8 16  4 46 40.0000000  0 16G26R 3G20R16R19G29G12R10R18G18R 9R20
                                G 5G31G 2G25
  23677439.172   124425788.225    23677448.598    96955196.4524   23677448.465  
                
  22642786.930   121208626.118                    94273377.519    22642791.559  
  22642785.777  
  22262221.297   116988751.897    22262226.938    91160112.1164                 
                
  22179338.281   118478033.020                    92149563.701    22179340.738  
  22179337.738  
  19700696.453   105385482.449                    81966473.267    19700699.051  
  19700694.305  
  20503551.633   107746905.914    20503557.930    83958657.0414   20503557.973  
                
  23055009.906   121154887.511    23055016.832    94406430.0414   23055017.148  
                
  21172650.602   112862144.150                                                  
  21172649.738  
  22120171.367   118078976.375                    91839199.283    22120175.086  
  22120169.785  
  22214980.047   116740536.759    22214987.094    90966668.5594   22214987.070  
                
  19738811.406   105404143.188                    81981002.646    19738814.113  
  19738810.918  
  21393799.297   114402270.445                    88979566.673    21393804.984  
  21393797.902  
  21692431.758   113994513.941    21692438.340    88826935.5534   21692438.418  
                
  23103764.172   121411095.559    23103770.051    94606064.0184   23103770.391  
                
  24426684.430   128363090.239    24426689.543   100023204.4304                 
                
  20874972.688   109698739.686    20874982.121    85479565.8424   20874982.473  
                
 21  8 16  4 46 50.0000000  0 16G26R 3G20R16R19G29G12R10R18G18R 9R20
                                G 5G31G 2G25
  23671384.383   124393970.152    23671393.867    96930403.1584   23671393.703  
                
  22639715.617   121192185.159                    94260590.156    22639720.195  
  22639714.461  
  22264130.492   116998784.782    22264136.168    91167929.9554                 
                
  22187290.547   118520513.035                    92182603.693    22187293.129  
  22187290.078  
  19702671.898   105396049.784                    81974692.307    19702674.484  
  19702669.730  
  20502784.055   107742872.248    20502790.352    83955513.9294   20502790.398  
                
  23061615.680   121189601.138    23061622.586    94433479.6154   23061622.914  
                
  21167936.750   112837016.690                                                  
  21167935.914  
  22126043.109   118110320.095                    91863577.715    22126046.855  
  22126041.508  
  22209464.734   116711553.672    22209471.770    90944084.3374   22209471.746  
                
  19741235.906   105417089.864                    81991072.265    19741238.625  
  19741235.414  
  21389227.688   114377824.053                    88960552.828    21389233.371  
  21389226.293  
  21689720.836   113980267.946    21689727.402    88815834.7694   21689727.488  
                
  23105668.672   121421103.749    23105674.551    94613862.6064   23105674.879  
                
  24432337.664   128392798.097    24432342.824   100046353.3994                 
                
  20879171.438   109720804.254    20879180.875    85496759.0154   20879181.223  
                
 21  8 16  4 47  0.0000000  0 16G26R 3G20R16R19G29G12R10R18G18R 9R20
                                G 5G31G 2G25
  23665334.070   124362175.537    23665343.570    96905628.1384   23665343.379  
                
  22636657.867   121175816.988                    94247859.389    22636662.398  
  22636656.691  
  22266051.398   117008879.244    22266057.086    91175795.7574                 
                
  22195248.055   118563021.277                    92215665.625    22195250.816  
  22195247.691  
  19704654.891   105406657.474                    81982942.736    19704657.488  
  19704652.727  
  20502022.719   107738871.409    20502029.016    83952396.3884   20502029.070  
                
  23068226.305   121224339.616    23068233.066    94460548.5644   23068233.406  
                
  21163236.148   112811959.796                                                  
  21163235.332  
  22131916.109   118141670.574                    91887961.416    22131919.887  
  22131914.508  
  22203955.641   116682603.284    22203962.684    90921525.6024   22203962.668  
                
  19743676.781   105430123.989                    82001209.913    19743679.504  
  19743676.297  
  21384662.586   114353412.486                    88941566.060    21384668.293  
  21384661.160  
  21687021.891   113966084.885    21687028.438    88804783.0454   21687028.520  
                
  23107584.055   121431169.156    23107589.930    94621705.7774   23107590.250  
                
  24437991.719   128422510.252    24437996.926   100069505.7224                 
                
  20883379.773   109742919.161    20883389.219    85513991.3994   20883389.559  
                
 21  8 16  4 47 10.0000000  0 16G26R 3G20R16R19G29G12R10R18G18R 9R20
                                G 5G31G 2G25
  23659288.266   124330404.815    23659297.773    96880871.7464   23659297.590  
                
  22633613.766   121159521.858                    94235185.437    22633618.262  
  22633612.551  
  22267984.055   117019035.396    22267989.746    91183709.6484                 
                
  22203210.961   118605557.742                    92248749.528    22203213.773  
  22203210.605  
  19706645.422   105417305.534                    81991224.562    19706648.027  
  19706643.238  
  20501267.719   107734903.864    20501274.016    83949304.7974   20501274.082  
                
  23074841.734   121259103.301    23074848.320    94487637.1474   23074848.680  
                
  21158548.859   112786973.912                                                  
  21158548.055  
  22137790.430   118173028.031                    91912350.543    22137794.207  
  22137788.844  
  22198452.852   116653686.022    22198459.902    90898992.6784   22198459.910  
                
  19746134.109   105443245.962                    82011415.895    19746136.836  
  19746133.625  
  21380104.070   114329036.242                    88922606.766    21380109.820  
  21380102.656  
  21684335.023   113951965.264    21684341.520    88793780.7404   21684341.629  
                
  23109510.391   121441292.078    23109516.238    94629593.7554   23109516.562  
                
  24443646.625   128452227.014    24443651.863   100092661.6274                 
                
  20887597.758   109765084.776    20887607.199    85531263.3034   20887607.523  
                
 21  8 16  4 47 20.0000000  0 16G26R 3G20R16R19G29G12R10R18G18R 9R20
                                G 5G31G 2G25
  23653247.039   124298658.125    23653256.559    96856134.0744   23653256.375  
                
  22630583.352   121143300.091                    94222568.530    22630587.812  
  22630582.121  
  22269928.445   117029253.239    22269934.141    91191671.6074                 
                
  22211179.242   118648122.523                    92281855.458    22211181.992  
  22211178.863  
  19708643.531   105427994.117                    81999537.899    19708646.125  
  19708641.324  
  20500519.086   107730969.761    20500525.379    83946239.2604   20500525.449  
                
  23081461.805   121293892.117    23081468.355    94514745.3164   23081468.758  
                
  21153874.914   112762059.141                                                  
  21153874.109  
  22143666.039   118204392.485                    91936745.113    22143669.859  
  22143664.473  
  22192956.391   116624801.972    22192963.445    90876485.6344   22192963.461  
                
  19748607.914   105456455.884                    82021690.270    19748610.633  
  19748607.418  
  21375552.133   114304695.108                    88903674.774    21375557.938  
  21375550.738  
  21681660.258   113937909.270    21681666.707    88782828.0174   21681666.855  
                
  23111447.664   121451472.459    23111453.500    94637526.5274   23111453.805  
                
  24449302.406   128481948.356    24449307.660   100115821.0964                 
                
  20891825.375   109787301.013    20891834.789    85548574.6514   20891835.117  
                
 21  8 16  4 47 30.0000000  0 16G26R 3G20R16R19G29G12R10R18G18R 9R20
                                G 5G31G 2G25
  23647210.391   124266935.426    23647219.887    96831415.0944   23647219.727  
                
  22627566.656   121127151.690                    94210008.681    22627571.086  
  22627565.406  
  22271884.562   117039532.722    22271890.262    91199681.5864                 
                
  22219152.766   118690715.164                    92314983.059    22219155.457  
  22219152.312  
  19710649.156   105438722.860                    82007882.477    19710651.742  
  19710646.945  
  20499776.781   107727068.933    20499783.066    83943199.6554   20499783.129  
                
  23088086.477   121328705.916    23088093.148    94541872.9324   23088093.590  
                
  21149214.320   112737215.557                                                  
  21149213.523  
  22149542.930   118235763.761                    91961144.973    22149546.801  
  22149541.371  
  22187466.227   116595951.075    22187473.273    90854004.4174   22187473.312  
                
  19751098.125   105469753.444                    82032032.810    19751100.836  
  19751097.637  
  21371006.773   114280389.149                    88884770.143    21371012.605  
  21371005.375  
  21678997.578   113923916.754    21679004.016    88771924.7664   21679004.180  
                
  23113395.844   121461710.160    23113401.676    94645503.9574   23113401.984  
                
  24454959.070   128511674.168    24454964.297   100138984.0564                 
                
  20896062.602   109809567.744    20896072.000    85565925.3504   20896072.348  
                
 21  8 16  4 47 40.0000000  0 16G26R 3G20R16R19G29G12R10R18G18R 9R20
                                G 5G31G 2G25
  23641178.328   124235236.832    23641187.816    96806714.9104   23641187.672  
                
  22624563.719   121111076.772                    94197505.984    22624568.117  
  22624562.492  
  22273852.383   117049873.684    22273858.086    91207739.4854                 
                
  22227131.398   118733335.390                    92348132.121    22227134.039  
  22227130.918  
  19712662.312   105449491.919                    82016258.399    19712664.883  
  19712660.117  
  20499040.805   107723201.352    20499047.074    83940185.9544   20499047.145  
                
  23094716.008   121363544.696    23094722.742    94569020.0104   23094723.180  
                
  21144567.102   112712443.272                                                  
  21144566.320  
  22155421.078   118267141.659                    91985549.981    22155424.953  
  22155419.492  
  22181982.391   116567133.371    22181989.438    90831549.0734   22181989.484  
                
  19753604.750   105483138.667                    82042443.545    19753607.457  
  19753604.262  
  21366467.984   114256118.223                    88865892.777    21366473.844  
  21366466.582  
  21676346.992   113909987.864    21676353.441    88761071.0824   21676353.602  
                
  23115354.922   121472005.122    23115360.734    94653526.0244   23115361.035  
                
  24460616.562   128541404.362    24460621.734   100162150.4424                 
                
  20900309.422   109831884.914    20900318.820    85583315.3454   20900319.164  
                
 21  8 16  4 47 50.0000000  0 16G26R 3G20R16R19G29G12R10R18G18R 9R20
                                G 5G31G 2G25
  23635150.836   124203562.221    23635160.305    96782033.4204   23635160.195  
                
  22621574.461   121095075.008                    94185060.204    22621578.859  
  22621573.270  
  22275831.883   117060276.022    22275837.613    91215845.1924                 
                
  22235115.219   118775983.192                    92381302.624    22235117.789  
  22235114.719  
  19714682.938   105460300.883                    82024665.375    19714685.508  
  19714680.758  
  20498311.125   107719366.865    20498317.383    83937198.0434   20498317.457  
                
  23101350.266   121398408.156    23101357.059    94596186.3274   23101357.484  
                
  21139933.273   112687742.363                                                  
  21139932.488  
  22161300.453   118298526.138                    92009960.134    22161304.379  
  22161298.895  
  22176504.828   116538348.728    22176511.875    90809119.4884   22176511.918  
                
  19756127.742   105496611.293                    82052922.236    19756130.434  
  19756127.254  
  21361935.727   114231882.302                    88847042.605    21361941.605  
  21361934.332  
  21673708.492   113896122.452    21673714.949    88750266.8684   21673715.113  
                
  23117324.852   121482357.121    23117330.645    94661592.5034   23117330.953  
                
  24466274.852   128571138.664    24466279.957   100185320.0174                 
                
  20904565.789   109854252.277    20904575.180    85600744.4484   20904575.508  
                
 21  8 16  4 48  0.0000000  0 16G26R 3G20R16R19G29G12R10R18G18R 9R20
                                G 5G31G 2G25
  23629127.984   124171911.897    23629137.434    96757370.8104   23629137.328  
                
  22618598.945   121079146.919                    94172671.714    22618603.332  
  22618597.758  
  22277823.070   117070739.799    22277828.840    91223998.7734                 
                
  22243104.180   118818658.446                    92414494.477    22243106.668  
  22243103.637  
  19716711.016   105471149.755                    82033103.384    19716713.605  
  19716708.848  
  20497587.789   107715565.729    20497594.031    83934236.1204   20497594.117  
                
  23107989.273   121433296.356    23107996.125    94623371.9334   23107996.520  
                
  21135312.906   112663113.177                                                  
  21135312.109  
  22167181.086   118329917.353                    92034375.487    22167185.031  
  22167179.535  
  22171033.617   116509597.343    22171040.637    90786715.8204   22171040.707  
                
  19758667.109   105510171.347                    82063468.944    19758669.797  
  19758666.617  
  21357410.055   114207681.434                    88828219.721    21357415.938  
  21357408.680  
  21671082.141   113882320.911    21671088.602    88739512.4284   21671088.770  
                
  23119305.656   121492766.303    23119311.465    94669703.5494   23119311.758  
                
  24471933.930   128600877.199    24471939.016   100208492.9084                 
                
  20908831.734   109876669.943    20908841.102    85618212.7564   20908841.438  
                
 21  8 16  4 48 10.0000000  0 16G26R 3G20R16R19G29G12R10R18G18R 9R20
                                G 5G31G 2G25
  23623109.773   124140285.967    23623119.234    96732727.2324   23623119.109  
                
  22615637.203   121063292.654                    94160340.640    22615641.574  
  22615635.988  
  22279825.961   117081265.011    22279831.754    91232200.2314                 
                
  22251098.250   118861361.012                    92447707.565    22251100.656  
  22251097.699  
  19718746.633   105482038.916                    82041572.732    19718749.234  
  19718744.477  
  20496870.805   107711797.951    20496877.043    83931300.1894   20496877.137  
                
  23114632.969   121468209.264    23114639.930    94650576.7744   23114640.293  
                
  21130705.969   112638555.610                                                  
  21130705.168  
  22173062.969   118361315.124                    92058795.990    22173066.926  
  22173061.441  
  22165568.758   116480879.350    22165575.773    90764338.1724   22165575.855  
                
  19761222.867   105523818.905                    82074083.722    19761225.551  
  19761222.371  
  21352890.945   114183515.868                    88809424.290    21352896.863  
  21352889.629  
  21668467.938   113868583.158    21668474.402    88728807.6984   21668474.559  
                
  23121297.328   121503232.559    23121303.148    94677859.0824   23121303.434  
                
  24477593.812   128630619.969    24477598.887   100231669.0784                 
                
  20913107.250   109899137.919    20913116.586    85635720.2674   20913116.930  
                
 21  8 16  4 48 20.0000000  0 16G26R 3G20R16R19G29G12R10R18G18R 9R20
                                G 5G31G 2G25
  23617096.219   124108684.446    23617105.684    96708102.6654   23617105.551  
                
  22612689.242   121047512.172                    94148066.970    22612693.621  
  22612687.953  
  22281840.500   117091851.539    22281846.324    91240449.4834                 
                
  22259097.406   118904090.649                    92480941.718    22259099.750  
  22259096.809  
  19720789.680   105492967.858                    82050073.014    19720792.289  
  19720787.539  
  20496160.148   107708063.423    20496166.383    83928390.1644   20496166.484  
                
  23121281.352   121503146.771    23121288.398    94677800.7814   23121288.730  
                
  21126112.477   112614069.781                                                  
  21126111.688  
  22178946.086   118392719.558                    92083221.671    22178950.082  
  22178944.551  
  22160110.258   116452194.694    22160117.262    90741986.5044   22160117.336  
                
  19763794.977   105537553.851                    82084766.439    19763797.660  
  19763794.488  
  21348378.453   114159385.514                    88790656.229    21348384.340  
  21348377.148  
  21665865.859   113854909.145    21665872.320    88718152.6124   21665872.469  
                
  23123299.836   121513755.753    23123305.672    94686058.9594   23123305.953  
                
  24483254.453   128660366.863    24483259.547   100254848.4574                 
                
  20917392.320   109921656.067    20917401.621    85653266.8694   20917401.980  
                
 21  8 16  4 48 30.0000000  0 16G26R 3G20R16R19G29G12R10R18G18R 9R20
                                G 5G31G 2G25
  23611087.258   124077107.264    23611096.773    96683497.0744   23611096.617  
                
  22609755.039   121031805.456                    94135850.656    22609759.457  
  22609753.699  
  22283866.695   117102499.306    22283872.551    91248746.4414                 
                
  22267101.508   118946847.199                    92514196.787    22267103.887  
  22267100.930  
  19722840.188   105503936.628                    82058604.280    19722842.812  
  19722838.055  
  20495455.805   107704362.091    20495462.043    83925506.0024   20495462.148  
                
  23127934.422   121538108.638    23127941.469    94705043.7884   23127941.762  
                
  21121532.484   112589655.893                                                  
  21121531.699  
  22184830.391   118424130.409                    92107652.309    22184834.387  
  22184828.867  
  22154658.086   116423543.291    22154665.062    90719660.7324   22154665.125  
                
  19766383.414   105551375.945                    82095516.946    19766386.082  
  19766382.930  
  21343872.492   114135290.119                    88771915.368    21343878.391  
  21343871.207  
  21663275.906   113841298.891    21663282.367    88707547.2244   21663282.527  
                
  23125313.141   121524335.747    23125318.996    94694303.1094   23125319.266  
                
  24488915.875   128690117.768    24488920.973   100278030.9534                 
                
  20921686.891   109944224.190    20921696.152    85670852.4154   20921696.527  
                
 21  8 16  4 48 40.0000000  0 16G26R 3G20R16R19G29G12R10R18G18R 9R20
                                G 5G31G 2G25
  23605082.734   124045553.419    23605092.266    96658909.6854   23605092.133  
                
  22606834.461   121016171.544                    94123690.999    22606838.930  
  22606833.133  
  22285904.328   117113207.136    22285910.211    91257090.2054                 
                
  22275110.344   118989629.455                    92547471.854    22275112.867  
  22275109.844  
  19724897.867   105514943.724                    82067165.356    19724900.477  
  19724895.730  
  20494757.578   107700692.884    20494763.828    83922646.8794   20494763.926  
                
  23134591.922   121573093.738    23134598.910    94732304.8964   23134599.199  
                
  21116965.797   112565312.900                                                  
  21116965.004  
  22190715.672   118455546.316                    92132086.897    22190719.648  
  22190714.191  
  22149212.055   116394924.126    22149218.988    90697360.0814   22149219.059  
                
  19768987.945   105565283.940                    82106334.274    19768990.613  
  19768987.465  
  21339372.852   114111228.602                    88753200.860    21339378.750  
  21339371.559  
  21660697.898   113827751.349    21660704.359    88696990.7044   21660704.512  
                
  23127337.039   121534971.396    23127342.902    94702590.6194   23127343.184  
                
  24494577.812   128719871.455    24494582.930   100301215.6284                 
                
  20925990.766   109966841.166    20925999.984    85688476.0254   20926000.383  
                
 21  8 16  4 48 50.0000000  0 16G26R 3G20R16R19G29G12R10R18G18R 9R20
                                G 5G31G 2G25
  23599083.070   124014025.101    23599092.586    96634342.1734   23599092.492  
                
  22603927.875   121000612.562                    94111589.607    22603932.352  
  22603926.527  
  22287953.758   117123977.002    22287959.652    91265482.3024                 
                
  22283124.461   119032439.256                    92580768.345    22283126.996  
  22283123.926  
  19726963.141   105525991.576                    82075758.137    19726965.734  
  19726961.000  
  20494065.844   107697057.801    20494072.109    83919814.3474   20494072.191  
                
  23141254.078   121608103.969    23141261.102    94759585.5794   23141261.430  
                
  21112412.734   112541042.562                                                  
  21112411.922  
  22196602.305   118486969.448                    92156527.122    22196606.273  
  22196600.832  
  22143772.539   116366339.261    22143779.441    90675086.1724   22143779.516  
                
  19771608.938   105579279.929                    82117220.047    19771611.609  
  19771608.465  
  21334879.938   114087203.074                    88734514.347    21334885.867  
  21334878.652  
  21658132.188   113814268.548    21658138.648    88686484.6294   21658138.801  
                
  23129371.875   121545664.580    23129377.754    94710922.9694   23129378.066  
                
  24500240.641   128749629.984    24500245.793   100324404.0684                 
                
  20930304.297   109989508.969    20930313.484    85706139.2534   20930313.898  
                
 21  8 16  4 49  0.0000000  0 16G26R 3G20R16R19G29G12R10R18G18R 9R20
                                G 5G31G 2G25
  23593088.234   123982522.077    23593097.734    96609794.3684   23593097.645  
                
  22601035.273   120985128.361                    94099546.356    22601039.746  
  22601033.918  
  22290014.953   117134808.680    22290020.859    91273922.5624                 
                
  22291143.617   119075276.117                    92614085.901    22291146.176  
  22291143.129  
  19729035.922   105537079.553                    82084382.117    19729038.531  
  19729033.777  
  20493380.547   107693456.571    20493386.828    83917008.1954   20493386.906  
                
  23147921.039   121643139.014    23147928.016    94786885.5984   23147928.371  
                
  21107873.383   112516845.288                                                  
  21107872.535  
  22202490.203   118518399.381                    92180972.621    22202494.141  
  22202488.707  
  22138339.508   116337788.484    22138346.395    90652838.8194   22138346.465  
                
  19774246.375   105593363.669                    82128174.058    19774249.059  
  19774245.895  
  21330393.750   114063213.484                    88715855.776    21330399.695  
  21330392.441  
  21655578.789   113800850.395    21655585.234    88676028.9274   21655585.395  
                
  23131417.625   121556415.079    23131423.570    94719299.9744   23131423.844  
                
  24505904.336   128779392.973    24505909.520   100347595.9794                 
                
  20934627.445   110012227.262    20934636.625    85723841.8174   20934637.039  
                
 21  8 16  4 49 10.0000000  0 16G26R 3G20R16R19G29G12R10R18G18R 9R20
                                G 5G31G 2G25
  23587098.156   123951044.058    23587107.660    96585266.0454   23587107.582  
                
  22598156.586   120969718.648                    94087561.060    22598161.066  
  22598155.242  
  22292087.812   117145701.672    22292093.723    91282410.6064                 
                
  22299167.883   119118139.518                    92647424.086    22299170.352  
  22299167.320  
  19731116.117   105548207.272                    82093036.999    19731118.742  
  19731113.957  
  20492701.641   107689888.894    20492707.934    83914228.1924   20492707.996  
                
  23154592.680   121678198.443    23154599.551    94814204.6224   23154599.914  
                
  21103347.648   112492720.642                                                  
  21103346.777  
  22208379.305   118549835.836                    92205423.185    22208383.227  
  22208377.816  
  22132912.898   116309271.463    22132919.797    90630617.7674   22132919.859  
                
  19776900.133   105607534.575                    82139195.869    19776902.816  
  19776899.656  
  21325914.164   114039259.190                    88697224.672    21325920.137  
  21325912.832  
  21653037.625   113787496.514    21653044.055    88665623.3034   21653044.223  
                
  23133474.188   121567222.429    23133480.223    94727721.2864   23133480.449  
                
  24511568.812   128809159.974    24511573.980   100370791.0444                 
                
  20938960.125   110034995.640    20938969.312    85741583.4004   20938969.719  
                
 21  8 16  4 49 20.0000000  0 16G26R 3G20R16R19G29G12R10R18G18R 9R20
                                G 5G31G 2G25
  23581112.852   123919591.126    23581122.340    96560757.2624   23581122.273  
                
  22595291.844   120954383.433                    94075633.689    22595296.312  
  22595290.496  
  22294172.328   117156655.906    22294178.258    91290946.3714                 
                
  22307196.930   119161029.312                    92680782.820    22307199.414  
  22307196.438  
  19733203.727   105559374.545                    82101722.652    19733206.355  
  19733201.555  
  20492029.109   107686354.710    20492035.410    83911474.2784   20492035.469  
                
  23161268.953   121713282.151    23161275.742    94841542.5844   23161276.113  
                
  21098835.531   112468668.548                                                  
  21098834.645  
  22214269.633   118581278.744                    92229878.768    22214273.551  
  22214268.125  
  22127492.711   116280788.181    22127499.613    90608423.0164   22127499.688  
                
  19779570.195   105621792.542                    82150285.395    19779572.875  
  19779569.730  
  21321441.141   114015340.067                    88678620.913    21321447.156  
  21321439.812  
  21650508.703   113774206.947    21650515.113    88655267.7924   21650515.293  
                
  23135541.570   121578086.505    23135547.664    94736186.8054   23135547.859  
                
  24517234.031   128838930.928    24517239.152   100393989.1704                 
                
  20943302.320   110057813.976    20943311.516    85759363.9234   20943311.918  
                
 21  8 16  4 49 30.0000000  0 16G26R 3G20R16R19G29G12R10R18G18R 9R20
                                G 5G31G 2G25
  23575132.281   123888163.027    23575141.789    96536267.8384   23575141.695  
                
  22592440.977   120939122.615                    94063764.180    22592445.422  
  22592439.609  
  22296268.422   117167671.028    22296274.363    91299529.5804                 
                
  22315230.828   119203945.164                    92714161.802    22315233.371  
  22315230.391  
  19735298.695   105570581.233                    82110438.971    19735301.344  
  19735296.512  
  20491362.883   107682853.681    20491369.184    83908746.2104   20491369.238  
                
  23167949.750   121748389.802    23167956.539    94868899.1884   23167956.898  
                
  21094337.023   112444689.018                                                  
  21094336.109  
  22220161.070   118612727.619                    92254338.982    22220164.984  
  22220159.551  
  22122078.898   116252338.402    22122085.777    90586254.3624   22122085.863  
                
  19782256.484   105636137.148                    82161442.304    19782259.184  
  19782256.020  
  21316974.656   113991456.012                    88660044.439    21316980.711  
  21316973.352  
  21647991.992   113760981.602    21647998.398    88644962.3434   21647998.590  
                
  23137619.656   121589006.931    23137625.742    94744696.2234   23137625.957  
                
  24522899.938   128868705.447    24522905.020   100417190.0914                 
                
  20947653.945   110080681.910    20947663.152    85777183.0884   20947663.559  
                
 21  8 16  4 49 40.0000000  0 16G26R 3G20R16R19G29G12R10R18G18R 9R20
                                G 5G31G 2G25
  23569156.523   123856760.200    23569166.043    96511798.1194   23569165.938  
                
  22589604.086   120923936.624                    94051952.880    22589608.543  
  22589602.738  
  22298376.188   117178747.446    22298382.129    91308160.5474                 
                
  22323269.641   119246887.124                    92747561.085    22323272.203  
  22323269.215  
  19737401.039   105581827.371                    82119185.970    19737403.699  
  19737398.836  
  20490703.031   107679386.155    20490709.312    83906044.2394   20490709.379  
                
  23174635.086   121783521.617    23174641.984    94896274.6014   23174642.309  
                
  21089852.227   112420782.493                                                  
  21089851.309  
  22226053.664   118644182.621                    92278803.975    22226057.578  
  22226052.164  
  22116671.539   116223922.502    22116678.375    90564112.1094   22116678.496  
                
  19784959.109   105650568.988                    82172667.056    19784961.820  
  19784958.641  
  21312514.844   113967607.352                    88641495.501    21312520.910  
  21312513.492  
  21645487.586   113747820.869    21645493.996    88634707.2324   21645494.164  
                
  23139708.531   121599983.993    23139714.609    94753249.7754   23139714.840  
                
  24528566.594   128898483.853    24528571.641   100440394.0254                 
                
  20952015.078   110103599.740    20952024.312    85795041.1334   20952024.699  
                
 21  8 16  4 49 50.0000000  0 16G26R 3G20R16R19G29G12R10R18G18R 9R20
                                G 5G31G 2G25
  23563185.586   123825382.687    23563195.133    96487348.1074   23563195.016  
                
  22586781.164   120908825.446                    94040199.771    22586785.637  
  22586779.836  
  22300495.594   117189885.011    22300501.543    91316839.1574                 
                
  22331313.227   119289855.039                    92780980.544    22331315.875  
  22331312.863  
  19739510.750   105593112.929                    82127963.617    19739513.426  
  19739508.539  
  20490049.562   107675952.167    20490055.820    83903368.4034   20490055.910  
                
  23181324.953   121818677.522    23181332.027    94923668.7844   23181332.320  
                
  21085381.109   112396948.904                                                  
  21085380.191  
  22231947.414   118675643.835                    92303273.790    22231951.324  
  22231945.910  
  22111270.609   116195540.481    22111277.434    90541996.2564   22111277.562  
                
  19787677.992   105665087.631                    82183959.331    19787680.699  
  19787677.520  
  21308061.625   113943794.076                    88622974.055    21308067.672  
  21308060.254  
  21642995.461   113734724.673    21643001.879    88624502.4004   21643002.027  
                
  23141808.156   121611017.586    23141814.250    94761847.3614   23141814.496  
                
  24534233.945   128928265.989    24534238.988   100463600.8884                 
                
  20956385.672   110126567.337    20956394.930    85812937.9584   20956395.297  
                
 21  8 16  4 50  0.0000000  0 16G26R 3G20R16R19G29G12R10R18G18R 9R20
                                G 5G31G 2G25
  23557219.391   123794030.270    23557228.988    96462917.6764   23557228.867  
                
  22583972.203   120893788.949                    94028504.747    22583976.699  
  22583970.879  
  22302626.547   117201083.304    22302632.512    91325565.0994                 
                
  22339361.617   119332848.652                    92814419.991    22339364.355  
  22339361.305  
  19741627.789   105604437.687                    82136771.767    19741630.480  
  19741625.566  
  20489402.422   107672551.421    20489408.652    83900718.4644   20489408.762  
                
  23188019.352   121853857.151    23188026.559    94951081.4584   23188026.809  
                
  21080923.664   112373188.265                                                  
  21080922.762  
  22237842.273   118707110.942                    92327748.190    22237846.176  
  22237840.734  
  22105876.086   116167192.081    22105882.906    90519906.6124   22105883.031  
                
  19790413.055   105679692.725                    82195318.850    19790415.762  
  19790412.570  
  21303614.938   113920015.787                    88604479.834    21303621.008  
  21303613.578  
  21640515.547   113721692.677    21640521.988    88614347.6004   21640522.117  
                
  23143918.445   121622107.295    23143924.594    94770488.6964   23143924.820  
                
  24539901.961   128958051.568    24539907.012   100486810.4134                 
                
  20960765.672   110149584.392    20960774.934    85830873.3224   20960775.312  
                
 21  8 16  4 50 10.0000000  0 16G26R 3G20R16R19G29G12R10R18G18R 9R20
                                G 5G31G 2G25
  23551258.094   123762703.480    23551267.719    96438507.1904   23551267.582  
                
  22581177.273   120878827.565                    94016868.172    22581181.828  
  22581175.969  
  22304769.141   117212342.758    22304775.117    91334338.6954                 
                
  22347414.828   119375867.820                    92847879.334    22347417.641  
  22347414.543  
  19743752.211   105615801.879                    82145610.573    19743754.922  
  19743749.984  
  20488761.688   107669184.308    20488767.891    83898094.7404   20488768.016  
                
  23194718.352   121889060.797    23194725.645    94978512.8564   23194725.863  
                
  21076479.992   112349500.997                                                  
  21076479.086  
  22243738.320   118738584.288                    92352227.463    22243742.199  
  22243736.785  
  22100488.062   116138877.784    22100494.863    90497843.5314   22100494.988  
                
  19793164.414   105694384.799                    82206746.011    19793167.133  
  19793163.918  
  21299174.875   113896272.867                    88586013.128    21299180.938  
  21299173.551  
  21638047.938   113708725.326    21638054.383    88604243.1704   21638054.508  
                
  23146039.508   121633253.571    23146045.723    94779174.0984   23146045.910  
                
  24545570.695   128987840.978    24545575.766   100510022.9314                 
                
  20965155.156   110172651.230    20965164.441    85848847.4844   20965164.828  
                
 21  8 16  4 50 20.0000000  0 16G26R 3G20R16R19G29G12R10R18G18R 9R20
                                G 5G31G 2G25
  23545301.633   123731402.059    23545311.258    96414116.4784   23545311.102  
                
  22578396.391   120863941.303                    94005289.989    22578400.949  
  22578395.062  
  22306923.305   117223663.009    22306929.277    91343159.6644                 
                
  22355472.812   119418912.404                    92881358.434    22355475.621  
  22355472.543  
  19745883.875   105627204.919                    82154479.612    19745886.586  
  19745881.648  
  20488127.297   107665850.546    20488133.473    83895497.0014   20488133.621  
                
  23201421.867   121924288.096    23201429.188    95005962.6904   23201429.402  
                
  21072050.070   112325887.114                                                  
  21072049.141  
  22249635.414   118770063.369                    92376711.165    22249639.293  
  22249633.867  
  22095106.477   116110597.306    22095113.234    90475806.7984   22095113.363  
                
  19795931.938   105709163.232                    82218240.347    19795934.645  
  19795931.445  
  21294741.398   113872565.161                    88567573.796    21294747.438  
  21294740.055  
  21635592.602   113695822.479    21635599.008    88594189.0124   21635599.145  
                
  23148171.242   121644456.018    23148177.496    94787903.2664   23148177.668  
                
  24551240.062   129017633.794    24551245.148   100533238.0894                 
                
  20969554.039   110195767.474    20969563.363    85866860.1334   20969563.719  
                
 21  8 16  4 50 30.0000000  0 16G26R 3G20R16R19G29G12R10R18G18R 9R20
                                G 5G31G 2G25
  23539350.031   123700126.195    23539359.660    96389745.6904   23539359.480  
                
  22575629.531   120849130.145                    93993770.208    22575634.070  
  22575628.230  
  22309089.055   117235044.173    22309095.035    91352028.0984                 
                
  22363535.641   119461982.180                    92914857.144    22363538.367  
  22363535.285  
  19748022.867   105638647.119                    82163379.092    19748025.586  
  19748020.621  
  20487499.250   107662550.177    20487505.410    83892925.2804   20487505.566  
                
  23208129.969   121959539.081    23208137.203    95033430.9814   23208137.434  
                
  21067633.898   112302346.488                                                  
  21067632.957  
  22255533.602   118801548.345                    92401199.451    22255537.508  
  22255532.062  
  22089731.344   116082350.789    22089738.031    90453796.5264   22089738.203  
                
  19798715.688   105724028.295                    82229802.051    19798718.395  
  19798715.191  
  21290314.508   113848892.724                    88549161.912    21290320.574  
  21290313.188  
  21633149.609   113682984.501    21633155.969    88584185.3884   21633156.117  
                
  23150313.656   121655714.596    23150319.914    94796676.1844   23150320.098  
                
  24556910.078   129047430.114    24556915.211   100556455.9694                 
                
  20973962.328   110218933.174    20973971.676    85884911.3264   20973972.023  
                
 21  8 16  4 50 40.0000000  0 16G26R 3G20R16R19G29G12R10R18G18R 9R20
                                G 5G31G 2G25
  23533403.320   123668875.927    23533412.914    96365394.8254   23533412.730  
                
  22572876.703   120834394.095                    93982308.902    22572881.250  
  22572875.391  
  22311266.383   117246486.074    22311272.363    91360943.8604                 
                
  22371603.148   119505077.205                    92948375.486    22371605.832  
  22371602.785  
  19750169.141   105650128.214                    82172308.838    19750171.852  
  19750166.883  
  20486877.562   107659283.159    20486883.715    83890379.5554   20486883.879  
                
  23214842.508   121994813.580    23214849.684    95060917.5984   23214849.941  
                
  21063231.516   112278879.333                                                  
  21063230.562  
  22261432.883   118833039.036                    92425692.195    22261436.789  
  22261431.336  
  22084362.688   116054138.210    22084369.328    90431812.7064   22084369.504  
                
  19801515.617   105738979.758                    82241430.965    19801518.332  
  19801515.113  
  21285894.211   113825255.455                    88530777.385    21285900.316  
  21285892.875  
  21630718.930   113670211.159    21630725.262    88574232.1404   21630725.418  
                
  23152466.750   121667029.219    23152472.992    94805492.7584   23152473.180  
                
  24562580.773   129077229.787    24562585.926   100579676.4674                 
                
  20978380.000   110242148.191    20978389.359    85903000.9464   20978389.719  
                
 21  8 16  4 50 50.0000000  0 16G26R 3G20R16R19G29G12R10R18G18R 9R20
                                G 5G31G 2G25
  23527461.484   123637651.364    23527471.027    96341064.0024   23527470.867  
                
  22570137.969   120819733.451                    93970906.194    22570142.473  
  22570136.648  
  22313455.242   117257988.655    22313461.219    91369906.9024                 
                
  22379675.367   119548197.059                    92981913.148    22379677.938  
  22379674.934  
  19752322.719   105661648.380                    82181268.959    19752325.426  
  19752320.445  
  20486262.227   107656049.544    20486268.367    83887859.8514   20486268.535  
                
  23221559.492   122030111.537    23221566.645    95088422.4974   23221566.922  
                
  21058842.930   112255485.709                                                  
  21058841.973  
  22267333.250   118864535.452                    92450189.395    22267337.133  
  22267331.703  
  22079000.492   116025959.655    22079007.098    90409855.3974   22079007.254  
                
  19804331.703   105754017.511                    82253126.983    19804334.426  
  19804331.168  
  21281480.469   113801653.380                    88512420.224    21281486.609  
  21281479.121  
  21628300.555   113657502.571    21628306.855    88564329.3464   21628307.023  
                
  23154630.500   121678399.862    23154636.730    94814352.9914   23154636.930  
                
  24568252.109   129107032.727    24568257.219   100602899.5154                 
                
  20982807.062   110265412.543    20982816.457    85921129.0114   20982816.816  
                
 21  8 16  4 51  0.0000000  0 17G26R 3R 4G20R16R19G29G12R10R18G18R 9
                                R20G 5G31G 2G25
  23521524.602   123606452.782    23521534.121    96316753.4174   23521533.973  
                
  22567413.336   120805148.255                    93959562.169    22567417.816  
  22567412.012  
  23547470.109   126095638.432                    98074395.871    23547474.305  
  23547469.516  
  22315655.688   117269552.110    22315661.668    91378917.3874                 
                
  22387752.156   119591342.106                    93015470.398    22387754.805  
  22387751.805  
  19754483.547   105673207.350                    82190259.270    19754486.262  
  19754481.277  
  20485653.305   107652849.624    20485659.434    83885366.4074   20485659.605  
                
  23228280.961   122065433.147    23228288.109    95115945.8114   23228288.410  
                
  21054468.273   112232166.318                                                  
  21054467.328  
  22273234.719   118896037.816                    92474691.247    22273238.605  
  22273233.176  
  22073644.820   115997815.345    22073651.391    90387924.7684   22073651.551  
                
  19807163.992   105769141.722                    82264890.260    19807166.723  
  19807163.449  
  21277073.391   113778086.826                    88494090.690    21277079.539  
  21277072.031  
  21625894.562   113644858.998    21625900.816    88554477.2154   21625900.992  
                
  23156804.953   121689826.649    23156811.184    94823256.9854   23156811.363  
                
  24573924.133   129136839.175    24573929.191   100626125.3234                 
                
  20987243.531   110288726.314    20987252.977    85939295.5764   20987253.312  
                
 21  8 16  4 51 10.0000000  0 17G26R 3R 4G20R16R19G29G12R10R18G18R 9
                                R20G 5G31G 2G25
  23515592.664   123575280.120    23515602.184    96292463.0264   23515602.031  
                
  22564702.820   120790638.699                    93948277.001    22564707.336  
  22564701.426  
  23540482.773   126058220.297                    98045292.912    23540486.895  
  23540482.016  
  22317867.680   117281176.233    22317873.652    91387975.1394                 
                
  22395833.609   119634511.681                    93049046.717    22395836.254  
  22395833.258  
  19756651.664   105684805.336                    82199279.919    19756654.391  
  19756649.391  
  20485050.758   107649683.183    20485056.871    83882899.0494   20485057.055  
                
  23235006.836   122100778.131    23235014.020    95143487.3294   23235014.344  
                
  21050107.461   112208920.712                                                  
  21050106.520  
  22279137.234   118927545.762                    92499197.409    22279141.125  
  22279135.715  
  22068295.633   115969705.154    22068302.180    90366020.7204   22068302.332  
                
  19810012.422   105784352.136                    82276720.568    19810015.148  
  19810011.867  
  21272672.922   113754555.430                    88475788.500    21272679.012  
  21272671.582  
  21623500.930   113632280.348    21623507.129    88544675.6694   21623507.332  
                
  23158990.023   121701309.312    23158996.277    94832204.5114   23158996.434  
                
  24579596.758   129166648.868    24579601.777   100649353.6264                 
                
  20991689.359   110312089.272    20991698.852    85957500.4794   20991699.164  
                
 21  8 16  4 51 20.0000000  0 17G26R 3R 4G20R16R19G29G12R10R18G18R 9
                                R20G 5G31G 2G25
  23509665.641   123544133.401    23509675.164    96268192.8714   23509675.012  
                
  22562006.375   120776204.724                    93937050.610    22562010.941  
  22562004.973  
  23533498.539   126020820.811                    98016204.440    23533502.848  
  23533497.801  
  22320091.219   117292861.053    22320097.191    91397080.1784                 
                
  22403919.680   119677705.813                    93082642.130    22403922.320  
  22403919.297  
  19758826.992   105696441.892                    82208330.573    19758829.734  
  19758824.711  
  20484454.562   107646550.198    20484460.652    83880457.7564   20484460.855  
                
  23241737.188   122136146.403    23241744.391    95171046.9994   23241744.727  
                
  21045760.484   112185748.890                                                  
  21045759.559  
  22285040.789   118959059.385                    92523707.986    22285044.715  
  22285039.309  
  22062952.938   115941629.111    22062959.488    90344143.2914   22062959.613  
                
  19812876.977   105799648.738                    82288617.921    19812879.707  
  19812876.422  
  21268279.062   113731059.388                    88457513.788    21268285.098  
  21268277.734  
  21621119.656   113619766.687    21621125.816    88534924.7604   21621126.023  
                
  23161185.711   121712847.762    23161192.004    94841195.5054   23161192.160  
                
  24585270.016   129196461.748    24585274.992   100672584.4324                 
                
  20996144.531   110335501.378    20996154.078    85975743.6684   20996154.352  
                
 21  8 16  4 51 30.0000000  0 17G26R 3R 4G20R16R19G29G12R10R18G18R 9
                                R20G 5G31G 2G25
  23503743.594   123513012.785    23503753.098    96243943.0454   23503752.945  
                
  22559324.125   120761846.597                    93925883.209    22559328.719  
  22559322.664  
  23526517.953   125983440.274                    97987130.703    23526522.141  
  23526517.133  
  22322326.289   117304606.430    22322332.281    91406232.4314                 
                
  22412010.234   119720924.354                    93116256.539    22412012.918  
  22412009.922  
  19761009.570   105708117.215                    82217411.374    19761012.309  
  19761007.277  
  20483864.742   107643450.674    20483870.812    83878042.5464   20483871.031  
                
  23248472.031   122171537.928    23248479.227    95198624.8054   23248479.547  
                
  21041427.422   112162651.251                                                  
  21041426.523  
  22290945.391   118990578.623                    92548222.945    22290949.332  
  22290943.949  
  22057616.766   115913587.300    22057623.340    90322292.5444   22057623.434  
                
  19815757.672   105815031.419                    82300582.227    19815760.395  
  19815757.113  
  21263891.781   113707598.600                    88439266.523    21263897.785  
  21263890.453  
  21618750.766   113607318.106    21618756.898    88525224.5624   21618757.098  
                
  23163392.031   121724442.009    23163398.344    94850229.9884   23163398.508  
                
  24590943.883   129226277.865    24590948.773   100695817.7734                 
                
  21000609.062   110358962.592    21000618.656    85994025.1224   21000618.887  
                
 21  8 16  4 51 40.0000000  0 17G26R 3R 4G20R16R19G29G12R10R18G18R 9
                                R20G 5G31G 2G25
  23497826.523   123481918.365    23497835.961    96219713.6294   23497835.812  
                
  22556656.031   120747564.268                    93914774.762    22556660.613  
  22556654.531  
  23519540.984   125946078.823                    97958071.814    23519545.168  
  23519540.070  
  22324572.867   117316412.295    22324578.867    91415431.7964                 
                
  22420105.445   119764167.305                    93149889.942    22420108.129  
  22420105.113  
  19763199.383   105719831.234                    82226522.285    19763202.133  
  19763197.059  
  20483281.305   107640384.680    20483287.363    83875653.4554   20483287.586  
                
  23255211.289   122206952.746    23255218.516    95226220.7464   23255218.816  
                
  21037108.305   112139627.982                                                  
  21037107.406  
  22296851.023   119022103.308                    92572742.127    22296854.980  
  22296849.559  
  22052287.125   115885579.800    22052293.707    90300468.5264   22052293.773  
                
  19818654.484   105830500.215                    82312613.515    19818657.203  
  19818653.930  
  21259511.102   113684173.132                    88421046.718    21259517.094  
  21259509.719  
  21616394.250   113594934.580    21616400.363    88515575.0644   21616400.562  
                
  23165608.945   121736091.897    23165615.246    94859307.8224   23165615.398  
                
  24596618.336   129256097.145    24596623.133   100719053.5704                 
                
  21005082.922   110382472.859    21005092.520    86012344.8104   21005092.746  
                
 21  8 16  4 51 50.0000000  0 17G26R 3R 4G20R16R19G29G12R10R18G18R 9
                                R20G 5G31G 2G25
  23491914.461   123450850.267    23491923.824    96195504.7114   23491923.707  
                
  22554002.148   120733357.974                    93903725.454    22554006.715  
  22554000.609  
  23512567.570   125908736.567                    97929027.853    23512571.801  
  23512566.652  
  22326830.969   117328278.725    22326836.977    91424678.3574                 
                
  22428205.102   119807434.339                    93183542.054    22428207.844  
  22428204.789  
  19765396.375   105731583.681                    82235663.062    19765399.137  
  19765394.020  
  20482704.250   107637352.235    20482710.301    83873290.5104   20482710.527  
                
  23261954.875   122242390.716    23261962.172    95253834.7284   23261962.480  
                
  21032803.180   112116679.250                                                  
  21032802.277  
  22302757.703   119053633.513                    92597265.586    22302761.637  
  22302756.230  
  22046964.016   115857606.672    22046970.609    90278671.2884   22046970.691  
                
  19821567.391   105846054.953                    82324711.636    19821570.113  
  19821566.836  
  21255137.039   113660783.037                    88402854.432    21255143.012  
  21255135.637  
  21614050.141   113582616.225    21614056.230    88505976.3514   21614056.430  
                
  23167836.438   121747797.406    23167842.730    94868428.9864   23167842.887  
                
  24602293.391   129285919.515    24602298.129   100742291.7704                 
                
  21009566.117   110406032.165    21009575.691    86030702.7084   21009575.941  
                
 21  8 16  4 52  0.0000000  0 17G26R 3R 4G20R16R19G29G12R10R18G18R 9
                                R20G 5G31G 2G25
  23486007.430   123419808.618    23486016.809    96171316.4314   23486016.645  
                
  22551362.477   120719227.769                    93892735.345    22551367.031  
  22551360.906  
  23505597.750   125871413.850                    97899999.105    23505602.062  
  23505596.895  
  22329100.609   117340205.769    22329106.629    91433972.1444                 
                
  22436309.219   119850725.400                    93217212.848    22436312.031  
  22436308.930  
  19767600.586   105743374.713                    82244833.864    19767603.340  
  19767598.242  
  20482133.594   107634353.418    20482139.652    83870953.7724   20482139.859  
                
  23268702.891   122277851.813    23268710.191    95281466.7464   23268710.512  
                
  21028512.023   112093804.944                                                  
  21028511.121  
  22308665.414   119085169.237                    92621793.374    22308669.363  
  22308663.953  
  22041647.469   115829668.001    22041654.098    90256900.9094   22041654.156  
                
  19824496.398   105861695.697                    82336876.657    19824499.129  
  19824495.855  
  21250769.562   113637428.334                    88384689.668    21250775.523  
  21250768.172  
  21611718.469   113570363.264    21611724.543    88496428.5944   21611724.750  
                
  23170074.516   121759558.562    23170080.824    94877593.5344   23170080.984  
                
  24607969.047   129315744.980    24607973.781   100765532.3754                 
                
  21014058.633   110429640.466    21014068.191    86049098.7864   21014068.457  
                
 21  8 16  4 52 10.0000000  0 17G26R 3R 4G20R16R19G29G12R10R18G18R 9
                                R20G 5G31G 2G25
  23480105.422   123388793.386    23480114.820    96147148.7144   23480114.629  
                
  22548737.023   120705173.684                    93881804.404    22548741.555  
  22548735.418  
  23498631.609   125834110.584                    97870985.471    23498635.949  
  23498630.836  
  22331381.734   117352193.182    22331387.789    91443312.9794                 
                
  22444417.914   119894040.296                    93250902.179    22444420.746  
  22444417.590  
  19769811.977   105755204.174                    82254034.547    19769814.746  
  19769809.641  
  20481569.312   107631388.097    20481575.383    83868643.1334   20481575.582  
                
  23275455.312   122313335.770    23275462.582    95309116.5854   23275462.895  
                
  21024234.859   112071005.297                                                  
  21024233.953  
  22314574.133   119116710.308                    92646325.309    22314578.082  
  22314572.676  
  22036337.461   115801763.706    22036344.102    90235157.3074   22036344.145  
                
  19827441.477   105877422.201                    82349108.378    19827444.215  
  19827440.941  
  21246408.719   113614109.038                    88366552.442    21246414.672  
  21246407.324  
  21609399.227   113558175.564    21609405.277    88486931.6874   21609405.492  
                
  23172323.148   121771375.244    23172329.453    94886801.3244   23172329.609  
                
  24613645.250   129345573.385    24613650.000   100788775.2744                 
                
  21018560.445   110453297.620    21018570.008    86067532.9274   21018570.270  
                
 21  8 16  4 52 20.0000000  0 17G26R 3R 4G20R16R19G29G12R10R18G18R 9
                                R20G 5G31G 2G25
  23474208.461   123357804.668    23474217.844    96123001.6574   23474217.648  
                
  22546125.844   120691195.846                    93870932.762    22546130.285  
  22546124.250  
  23491669.070   125796827.001                    97841987.149    23491673.477  
  23491668.398  
  22333674.336   117364240.873    22333680.418    91452700.7854                 
                
  22452531.094   119937379.048                    93284610.081    22452533.926  
  22452530.723  
  19772030.500   105767071.803                    82263264.938    19772033.297  
  19772028.172  
  20481011.414   107628456.340    20481017.496    83866358.6414   20481017.680  
                
  23282212.047   122348842.597    23282219.301    95336784.2304   23282219.625  
                
  21019971.703   112048280.304                                                  
  21019970.824  
  22320483.844   119148256.650                    92670861.341    22320487.789  
  22320482.391  
  22031034.000   115773893.826    22031040.625    90213440.5274   22031040.680  
                
  19830402.594   105893234.429                    82361406.772    19830405.324  
  19830402.059  
  21242054.461   113590825.007                    88348442.641    21242060.418  
  21242053.035  
  21607092.414   113546053.230    21607098.441    88477485.7144   21607098.641  
                
  23174582.344   121783247.394    23174588.652    94896052.3444   23174588.824  
                
  24619321.984   129375404.698    24619326.691   100812020.4464                 
                
  21023071.539   110477003.543    21023081.105    86086005.0694   21023081.367  
                
 21  8 16  4 52 30.0000000  0 17G26R 3R 4G20R16R19G29G12R10R18G18R 9
                                R20G 5G31G 2G25
  23468316.570   123326842.577    23468325.906    96098875.3604   23468325.738  
                
  22543528.898   120677294.349                    93860120.552    22543533.305  
  22543527.320  
  23484710.406   125759563.247                    97813004.251    23484714.715  
  23484709.637  
  22335978.422   117376348.932    22335984.527    91462135.6374                 
                
  22460648.672   119980741.154                    93318336.162    22460651.430  
  22460648.211  
  19774256.242   105778977.994                    82272525.308    19774259.051  
  19774253.922  
  20480459.906   107625558.147    20480466.000    83864100.3064   20480466.168  
                
  23288973.148   122384372.256    23288980.375    95364469.6614   23288980.711  
                
  21015722.656   112025630.473                                                  
  21015721.785  
  22326394.508   119179808.242                    92695401.447    22326398.453  
  22326393.062  
  22025737.117   115746058.460    22025743.734    90191750.6434   22025743.793  
                
  19833379.773   105909132.346                    82373771.816    19833382.504  
  19833379.234  
  21237706.805   113567576.192                    88330360.233    21237712.758  
  21237705.418  
  21604798.102   113533996.532    21604804.094    88468090.8774   21604804.316  
                
  23176852.086   121795174.995    23176858.418    94905346.5644   23176858.582  
                
  24624999.281   129405238.906    24625003.898   100835267.8784                 
                
  21027591.930   110500758.237    21027601.512    86104515.2174   21027601.770  
                
 21  8 16  4 52 40.0000000  0 17G26R 3R 4G20R16R19G29G12R10R18G18R 9
                                R20G 5G31G 2G25
  23462429.750   123295907.251    23462439.066    96074769.9174   23462438.898  
                
  22540946.266   120663469.457                    93849367.844    22540950.637  
  22540944.684  
  23477755.375   125722319.681                    97784037.066    23477759.711  
  23477754.566  
  22338294.000   117388517.351    22338300.109    91471617.5184                 
                
  22468770.688   120024126.787                    93352080.539    22468773.312  
  22468770.109  
  19776489.086   105790922.203                    82281815.238    19776491.906  
  19776486.789  
  20479914.805   107622693.598    20479920.906    83861868.1874   20479921.062  
                
  23295738.609   122419924.695    23295745.805    95392172.8414   23295746.141  
                
  21011487.672   112003055.633                                                  
  21011486.812  
  22332306.188   119211365.157                    92719945.720    22332310.137  
  22332304.699  
  22020446.812   115718257.718    22020453.414    90170087.7294   22020453.461  
                
  19836372.977   105925115.895                    82386203.448    19836375.707  
  19836372.426  
  21233365.750   113544362.713                    88312305.301    21233371.699  
  21233364.359  
  21602516.234   113522005.270    21602522.191    88458747.0444   21602522.438  
                
  23179132.375   121807157.956    23179138.727    94914683.9174   23179138.875  
                
  24630677.125   129435075.974    24630681.691   100858517.5304                 
                
  21032121.578   110524561.679    21032131.188    86123063.3444   21032131.434  
                
 21  8 16  4 52 50.0000000  0 17G26R 3R 4G20R16R19G29G12R10R18G18R 9
                                R20G 5G31G 2G25
  23456548.031   123264998.735    23456557.352    96050685.3804   23456557.191  
                
  22538377.898   120649720.901                    93838674.543    22538382.199  
  22538376.312  
  23470804.078   125685096.302                    97755085.577    23470808.473  
  23470803.324  
  22340621.031   117400746.010    22340627.164    91481146.3374                 
                
  22476896.906   120067535.610                    93385842.957    22476899.543  
  22476896.348  
  19778729.102   105802904.758                    82291134.997    19778731.934  
  19778726.809  
  20479376.094   107619862.664    20479382.191    83859662.2594   20479382.344  
                
  23302508.336   122455499.830    23302515.566    95419893.7094   23302515.891  
                
  21007266.742   111980555.697                                                  
  21007265.875  
  22338218.812   119242927.275                    92744494.011    22338222.781  
  22338217.285  
  22015163.094   115690491.573    22015169.680    90148451.7744   22015169.719  
                
  19839382.188   105941184.927                    82398701.571    19839384.922  
  19839381.641  
  21229031.336   113521184.745                    88294278.016    21229037.309  
  21229029.961  
  21600246.852   113510079.617    21600252.789    88449454.3274   21600253.062  
                
  23181423.164   121819196.172    23181429.523    94924064.3474   23181429.672  
                
  24636355.477   129464915.796    24636360.035   100881769.3244                 
                
  21036660.492   110548413.748    21036670.129    86141649.3674   21036670.367  
                
 21  8 16  4 53  0.0000000  0 17G26R 3R 4G20R16R19G29G12R10R18G18R 9
                                R20G 5G31G 2G25
  23450671.461   123234117.130    23450680.793    96026621.7904   23450680.637  
                
  22535823.852   120636049.017                    93828040.897    22535828.129  
  22535822.250  
  23463856.633   125647893.295                    97726149.924    23463861.047  
  23463855.859  
  22342959.531   117413034.896    22342965.672    91490722.0904                 
                
  22485027.305   120110967.598                    93419623.366    22485030.109  
  22485026.871  
  19780976.250   105814925.436                    82300484.409    19780979.082  
  19780973.961  
  20478843.773   107617065.317    20478849.871    83857482.5134   20478850.020  
                
  23309282.352   122491097.579    23309289.664    95447632.2044   23309289.949  
                
  21003059.945   111958131.045                                                  
  21003059.086  
  22344132.445   119274494.633                    92769046.383    22344136.418  
  22344130.879  
  22009885.961   115662760.053    22009892.520    90126842.8064   22009892.574  
                
  19842407.430   105957339.528                    82411266.259    19842410.168  
  19842406.879  
  21224703.539   113498042.126                    88276278.209    21224709.516  
  21224702.168  
  21597989.930   113498219.402    21597995.887    88440212.6034   21597996.152  
                
  23183724.461   121831289.550    23183730.824    94933487.7514   23183730.984  
                
  24642034.383   129494758.371    24642038.906   100905023.2624                 
                
  21041208.648   110572314.418    21041218.309    86160273.2604   21041218.547  
                
 21  8 16  4 53 10.0000000  0 17G26R 3R 4G20R16R19G29G12R10R18G18R 9
                                R20G 5G31G 2G25
  23444800.023   123203262.583    23444809.406    96002579.3034   23444809.254  
                
  22533284.164   120622453.982                    93817467.009    22533288.418  
  22533282.543  
  23456913.109   125610710.929                    97697230.320    23456917.496  
  23456912.262  
  22345309.484   117425384.010    22345315.609    91500344.7704                 
                
  22493162.008   120154422.701                    93453421.761    22493165.008  
  22493161.730  
  19783230.469   105826984.060                    82309863.336    19783233.320  
  19783228.164  
  20478317.859   107614301.668    20478323.945    83855329.0144   20478324.109  
                
  23316060.641   122526717.924    23316068.051    95475388.2984   23316068.289  
                
  20998867.305   111935781.963                                                  
  20998866.480  
  22350047.008   119306066.996                    92793602.642    22350050.977  
  22350045.449  
  22004615.430   115635063.292    22004621.961    90105260.9174   22004622.043  
                
  19845448.641   105973579.432                    82423897.287    19845451.383  
  19845448.086  
  21220382.352   113474934.794                    88258305.825    21220388.332  
  21220380.980  
  21595745.492   113486424.827    21595751.457    88431022.0234   21595751.711  
                
  23186036.227   121843438.080    23186042.598    94942954.1234   23186042.758  
                
  24647713.758   129524603.697    24647718.277   100928279.3584                 
                
  21045766.039   110596263.635    21045775.703    86178934.9814   21045775.941  
                
 21  8 16  4 53 20.0000000  0 17G26R 3R 4G20R16R19G29G12R10R18G18R 9
                                R20G 5G31G 2G25
  23438933.766   123172435.301    23438943.199    95978558.0534   23438943.066  
                
  22530758.859   120608935.861                    93806952.943    22530763.078  
  22530757.262  
  23449973.438   125573549.401                    97668326.930    23449977.852  
  23449972.590  
  22347670.914   117437793.393    22347677.031    91510014.4184                 
                
  22501301.062   120197900.814                    93487238.043    22501304.211  
  22501300.926  
  19785491.852   105839080.917                    82319272.002    19785494.695  
  19785489.555  
  20477798.398   107611571.850    20477804.480    83853201.8814   20477804.648  
                
  23322843.281   122562360.911    23322850.742    95503162.0314   23322850.965  
                
  20994688.867   111913508.499                                                  
  20994688.051  
  22355962.555   119337644.539                    92818162.937    22355966.535  
  22355960.984  
  21999351.555   115607401.452    21999358.078    90083706.2484   21999358.168  
                
  19848505.875   105989904.941                    82436594.911    19848508.621  
  19848505.328  
  21216067.844   113451863.160                    88240361.242    21216073.852  
  21216066.500  
  21593513.625   113474696.246    21593519.594    88421882.8664   21593519.848  
                
  23188358.516   121855641.806    23188364.891    94952463.5194   23188365.062  
                
  24653393.672   129554451.797    24653398.195   100951537.6104                 
                
  21050332.703   110620261.528    21050342.355    86197634.6364   21050342.598  
                
 21  8 16  4 53 30.0000000  0 17G26R 3R 4G20R16R19G29G12R10R18G18R 9
                                R20G 5G31G 2G25
  23433072.688   123141635.162    23433082.133    95954557.9534   23433082.012  
                
  22528247.938   120595494.674                    93796498.698    22528252.113  
  22528246.367  
  23443037.523   125536408.791                    97639439.810    23443042.105  
  23443036.781  
  22350043.773   117450262.840    22350049.895    91519730.8604                 
                
  22509444.508   120241401.564                    93521071.929    22509447.652  
  22509444.324  
  19787760.344   105851215.819                    82328710.254    19787763.191  
  19787758.047  
  20477285.320   107608875.629    20477291.395    83851100.9314   20477291.562  
                
  23329630.234   122598026.291    23329637.688    95530953.2204   23329637.867  
                
  20990524.531   111891310.340                                                  
  20990523.707  
  22361879.023   119369227.069                    92842727.101    22361883.035  
  22361877.410  
  21994094.281   115579774.366    21994100.816    90062178.6504   21994100.902  
                
  19851579.062   106006315.562                    82449358.724    19851581.816  
  19851578.500  
  21211759.922   113428826.704                    88222444.001    21211765.906  
  21211758.590  
  21591294.266   113463033.452    21591300.273    88412794.9864   21591300.523  
                
  23190691.258   121867900.462    23190697.609    94962015.7064   23190697.812  
                
  24659074.062   129584302.453    24659078.574   100974797.8374                 
                
  21054908.562   110644307.781    21054918.180    86216371.9724   21054918.449  
                
 21  8 16  4 53 40.0000000  0 17G26R 3R 4G20R16R19G29G12R10R18G18R 9
                                R20G 5G31G 2G25
  23427216.828   123110862.275    23427226.250    95930579.0794   23427226.121  
                
  22525751.375   120582130.466                    93786104.332    22525755.531  
  22525749.844  
  23436105.664   125499289.300                    97610569.099    23436110.320  
  23436104.965  
  22352428.055   117462792.282    22352434.191    91529494.0654                 
                
  22517592.188   120284925.091                    93554923.539    22517595.359  
  22517591.984  
  19790035.922   105863388.625                    82338177.990    19790038.773  
  19790033.629  
  20476778.641   107606212.993    20476784.711    83849026.1484   20476784.875  
                
  23336421.336   122633714.034    23336428.812    95558761.8374   23336428.992  
                
  20986374.453   111869188.033                                                  
  20986373.602  
  22367796.430   119400814.580                    92867295.155    22367800.453  
  22367794.875  
  21988843.648   115552182.083    21988850.195    90040678.1844   21988850.266  
                
  19854668.195   106022811.371                    82462188.789    19854670.961  
  19854667.625  
  21207458.625   113405825.770                    88204554.376    21207464.590  
  21207457.348  
  21589087.453   113451436.535    21589093.520    88403758.4264   21589093.742  
                
  23193034.453   121880214.008    23193040.793    94971610.6754   23193041.000  
                
  24664754.969   129614155.600    24664759.422   100998060.0104                 
                
  21059493.625   110668402.372    21059503.227    86235146.9744   21059503.508  
                
 21  8 16  4 53 50.0000000  0 17G26R 3R 4G20R16R19G29G12R10R18G18R 9
                                R20G 5G31G 2G25
  23421366.156   123080116.827    23421375.574    95906621.5924   23421375.434  
                
  22523269.273   120568843.635                    93775770.150    22523273.422  
  22523267.777  
  23429177.797   125462191.163                    97581715.005    23429182.465  
  23429177.152  
  22354823.766   117475381.812    22354829.895    91539304.0824                 
                
  22525744.109   120328470.940                    93588792.514    22525747.242  
  22525743.855  
  19792318.547   105875599.108                    82347675.022    19792321.383  
  19792316.242  
  20476278.391   107603584.143    20476284.465    83846977.6954   20476284.633  
                
  23343216.703   122669424.155    23343224.188    95586587.8864   23343224.410  
                
  20982238.641   111847141.781                                                  
  20982237.785  
  22373714.781   119432407.095                    92891867.083    22373718.820  
  22373713.234  
  21983599.664   115524624.766    21983606.223    90019204.9534   21983606.289  
                
  19857773.289   106039392.373                    82475085.112    19857776.062  
  19857772.707  
  21203163.953   113382860.224                    88186692.304    21203169.914  
  21203162.676  
  21586893.188   113439905.583    21586899.297    88394773.2684   21586899.500  
                
  23195388.117   121892582.524    23195394.438    94981248.4664   23195394.637  
                
  24670436.352   129644011.340    24670440.758   101021324.2144                 
                
  21064087.883   110692545.347    21064097.480    86253959.6724   21064097.766  
                
 21  8 16  4 54  0.0000000  0 17G26R 3R 4G20R16R19G29G12R10R18G18R 9
                                R20G 5G31G 2G25
  23415520.680   123049398.661    23415530.090    95882685.3484   23415529.934  
                
  22520801.531   120555633.622                    93765495.705    22520805.645  
  22520800.062  
  23422253.922   125425114.170                    97552877.377    23422258.582  
  23422253.254  
  22357230.859   117488031.157    22357236.988    91549160.7134                 
                
  22533900.180   120372038.819                    93622678.616    22533903.266  
  22533899.879  
  19794608.164   105887847.059                    82357201.209    19794611.008  
  19794605.887  
  20475784.492   107600988.719    20475790.574    83844955.2844   20475790.727  
                
  23350016.312   122705156.281    23350023.754    95614431.0844   23350023.996  
                
  20978116.977   111825171.012                                                  
  20978116.121  
  22379634.047   119464004.417                    92916442.779    22379638.074  
  22379632.496  
  21978362.273   115497102.159    21978368.859    89997758.7784   21978368.926  
                
  19860894.227   106056058.034                    82488047.293    19860897.008  
  19860893.621  
  21198875.875   113359929.985                    88168857.670    21198881.832  
  21198874.598  
  21584711.453   113428440.474    21584717.590    88385839.4214   21584717.770  
                
  23197752.172   121905005.695    23197758.449    94990928.8644   23197758.641  
                
  24676118.172   129673869.368    24676122.520   101044590.2064                 
                
  21068691.281   110716736.351    21068700.863    86272809.7924   21068701.168  
                
 21  8 16  4 54 10.0000000  0 17G26R 3R 4G20R16R19G29G12R10R18G18R 9
                                R20G 5G31G 2G25
  23409680.422   123018708.034    23409689.863    95858770.5854   23409689.695  
                
  22518348.250   120542501.048                    93755281.498    22518352.352  
  22518346.797  
  23415334.047   125388058.824                    97524056.595    23415338.750  
  23415333.363  
  22359649.359   117500740.467    22359655.488    91559064.0624                 
                
  22542060.359   120415629.013                    93656582.073    22542063.449  
  22542060.082  
  19796904.852   105900132.810                    82366756.795    19796907.684  
  19796902.594  
  20475297.016   107598426.998    20475303.109    83842959.1434   20475303.266  
                
  23356820.195   122740910.523    23356827.531    95642291.5304   23356827.785  
                
  20974009.617   111803276.552                                                  
  20974008.766  
  22385554.195   119495606.357                    92941022.039    22385558.188  
  22385552.633  
  21973131.547   115469614.544    21973138.195    89976339.8634   21973138.250  
                
  19864031.102   106072808.793                    82501075.652    19864033.891  
  19864030.496  
  21194594.375   113337035.100                    88151050.552    21194600.375  
  21194593.129  
  21582542.273   113417041.407    21582548.457    88376957.0384   21582548.633  
                
  23200126.648   121917483.613    23200132.871    95000651.9214   23200133.066  
                
  24681800.422   129703729.831    24681804.727   101067858.0994                 
                
  21073303.844   110740975.562    21073313.406    86291697.4844   21073313.723  
                
 21  8 16  4 54 20.0000000  0 17G26R 3R 4G20R16R19G29G12R10R18G18R 9
                                R20G 5G31G 2G25
  23403845.438   122988045.138    23403854.961    95834877.4464   23403854.762  
                
  22515909.430   120529445.894                    93745127.540    22515913.520  
  22515907.973  
  23408418.258   125351025.386                    97495252.846    23408423.027  
  23408417.559  
  22362079.289   117513509.732    22362085.422    91569014.1464                 
                
  22550224.703   120459241.277                    93690502.710    22550227.793  
  22550224.445  
  19799208.602   105912456.286                    82376341.722    19799211.445  
  19799206.324  
  20474815.984   107595899.135    20474822.082    83840989.3754   20474822.230  
                
  23363628.320   122776686.975    23363635.594    95670169.2764   23363635.855  
                
  20969916.562   111781458.285                                                  
  20969915.707  
  22391475.234   119527213.135                    92965605.092    22391479.211  
  22391473.691  
  21967907.500   115442162.052    21967914.199    89954948.3264   21967914.254  
                
  19867183.891   106089644.480                    82514170.071    19867186.680  
  19867183.270  
  21190319.555   113314175.635                    88133270.994    21190325.562  
  21190318.309  
  21580385.703   113405708.530    21580391.957    88368126.2204   21580392.098  
                
  23202511.555   121930016.268    23202517.699    95010417.6254   23202517.906  
                
  24687483.156   129733592.809    24687487.418   101091127.9324                 
                
  21077925.594   110765262.996    21077935.137    86310622.7434   21077935.469  
                
 21  8 16  4 54 30.0000000  0 17G26R 3R 4G20R16R19G29G12R10R18G18R 9
                                R20G 5G31G 2G25
  23398015.695   122957409.777    23398025.254    95811005.7594   23398025.043  
                
  22513485.055   120516468.113                    93735033.712    22513489.125  
  22513483.629  
  23401506.633   125314013.569                    97466465.877    23401511.289  
  23401505.871  
  22364520.547   117526338.611    22364526.703    91579010.6674                 
                
  22558393.203   120502875.121                    93724440.115    22558396.180  
  22558392.855  
  19801519.344   105924817.167                    82385955.731    19801522.199  
  19801517.062  
  20474341.336   107593404.828    20474347.441    83839045.7634   20474347.582  
                
  23370440.562   122812485.266    23370447.844    95698064.0314   23370448.094  
                
  20965837.805   111759716.262                                                  
  20965836.957  
  22397397.148   119558824.657                    92990191.816    22397401.145  
  22397395.602  
  21962690.102   115414744.455    21962696.801    89933583.9604   21962696.891  
                
  19870352.531   106106564.842                    82527330.344    19870355.340  
  19870351.902  
  21186051.328   113291351.599                    88115518.956    21186057.336  
  21186050.109  
  21578241.695   113394441.685    21578248.004    88359346.8654   21578248.113  
                
  23204906.820   121942603.295    23204912.855    95020225.6994   23204913.078  
                
  24693166.242   129763457.914    24693170.547   101114399.4314                 
                
  21082556.438   110789598.275    21082565.969    86329585.2904   21082566.293  
                
 21  8 16  4 54 40.0000000  0 17G26R 3R 4G20R16R19G29G12R10R18G18R 9
                                R20G 5G31G 2G25
  23392191.305   122926802.448    23392200.863    95787155.9004   23392200.656  
                
  22511075.203   120503568.065                    93725000.361    22511079.246  
  22511073.758  
  23394599.203   125277024.122                    97437696.320    23394603.758  
  23394598.414  
  22366973.227   117539227.445    22366979.383    91589053.9104                 
                
  22566565.773   120546530.991                    93758394.670    22566568.719  
  22566565.395  
  19803837.109   105937215.672                    82395599.008    19803839.977  
  19803834.820  
  20473873.148   107590944.483    20473879.254    83837128.6074   20473879.395  
                
  23377256.984   122848305.679    23377264.309    95725976.0224   23377264.551  
                
  20961773.375   111738050.572                                                  
  20961772.527  
  22403319.961   119590440.953                    93014782.255    22403324.004  
  22403318.453  
  21957479.422   115387362.148    21957486.113    89912247.1064   21957486.227  
                
  19873537.070   106123570.114                    82540556.656    19873539.887  
  19873536.445  
  21181789.781   113268563.189                    88097794.649    21181795.820  
  21181788.555  
  21576110.336   113383241.296    21576116.672    88350619.2904   21576116.785  
                
  23207312.484   121955245.043    23207318.383    95030076.4104   23207318.688  
                
  24698849.789   129793325.472    24698854.152   101137672.8214                 
                
  21087196.469   110813981.783    21087205.969    86348585.4234   21087206.309  
                
 21  8 16  4 54 50.0000000  0 17G26R 3R 4G20R16R19G29G12R10R18G18R 9
                                R20G 5G31G 2G25
  23386372.203   122896222.952    23386381.754    95763327.7224   23386381.551  
                
  22508679.867   120490745.601                    93715027.341    22508683.859  
  22508678.473  
  23387695.891   125240056.853                    97408944.018    23387700.359  
  23387695.055  
  22369437.281   117552176.037    22369443.402    91599143.7214                 
                
  22574742.312   120590208.283                    93792365.885    22574745.258  
  22574741.926  
  19806161.867   105949651.531                    82405271.346    19806164.738  
  19806159.562  
  20473411.367   107588517.833    20473417.465    83835237.7124   20473417.605  
                
  23384077.508   122884147.846    23384084.918    95753904.9594   23384085.156  
                
  20957723.352   111716461.638                                                  
  20957722.535  
  22409243.633   119622061.770                    93039376.244    22409247.703  
  22409242.129  
  21952275.398   115360014.921    21952282.102    89890937.5774   21952282.195  
                
  19876737.453   106140659.964                    82553848.752    19876740.246  
  19876736.820  
  21177534.820   113245810.140                    88080097.844    21177540.871  
  21177533.582  
  21573991.578   113372107.153    21573997.930    88341943.3364   21573998.062  
                
  23209728.477   121967941.097    23209734.266    95039969.4474   23209734.609  
                
  24704533.750   129823195.205    24704538.211   101160947.9084                 
                
  21091845.602   110838413.140    21091855.055    86367622.8354   21091855.430  
                
 21  8 16  4 55  0.0000000  0 17G26R 3R 4G20R16R19G29G12R10R18G18R 9
                                R20G 5G31G 2G25
  23380558.430   122865671.442    23380568.008    95739521.3764   23380567.797  
                
  22506299.055   120478000.939                    93705114.829    22506303.012  
  22506297.691  
  23380796.617   125203111.986                    97380209.154    23380801.152  
  23380795.875  
  22371912.703   117565184.377    22371918.812    91609280.0894                 
                
  22582922.859   120633907.279                    93826353.973    22582925.824  
  22582922.449  
  19808493.594   105962124.728                    82414972.741    19808496.492  
  19808491.289  
  20472956.008   107586124.913    20472962.098    83833373.0944   20472962.250  
                
  23390902.180   122920011.762    23390909.656    95781850.8484   23390909.898  
                
  20953687.695   111694949.327                                                  
  20953686.895  
  22415168.141   119653687.260                    93063973.824    22415172.242  
  22415166.645  
  21947078.070   115332702.863    21947084.789    89869655.4734   21947084.887  
                
  19879953.680   106157834.381                    82567206.630    19879956.488  
  19879953.062  
  21173286.508   113223092.507                    88062428.589    21173292.547  
  21173285.227  
  21571885.438   113361039.302    21571891.805    88333319.0374   21571891.938  
                
  23212154.812   121980691.556    23212160.520    95049904.8524   23212160.879  
                
  24710218.102   129853067.033    24710222.672   101184224.6264                 
                
  21096503.844   110862892.387    21096513.250    86386697.5674   21096513.648  
                
 21  8 16  4 55 10.0000000  0 17G26R 3R 4G20R16R19G29G12R10R18G18R 9
                                R20G 5G31G 2G25
  23374750.008   122835147.984    23374759.617    95715736.8674   23374759.387  
                
  22503932.789   120465334.189                    93695262.916    22503936.711  
  22503931.414  
  23373901.500   125166189.728                    97351491.827    23373906.191  
  23373900.895  
  22374399.430   117578252.172    22374405.535    91619462.7764                 
                
  22591107.203   120677627.359                    93860358.444    22591110.348  
  22591106.906  
  19810832.281   105974635.133                    82424703.046    19810835.191  
  19810829.957  
  20472507.062   107583765.679    20472513.148    83831534.7294   20472513.316  
                
  23397730.969   122955897.362    23397738.473    95809813.6174   23397738.715  
                
  20949666.422   111673513.644                                                  
  20949665.605  
  22421093.523   119685317.297                    93088574.975    22421097.656  
  22421091.961  
  21941887.445   115305425.992    21941894.145    89848400.7764   21941894.246  
                
  19883185.695   106175093.112                    82580630.096    19883188.504  
  19883185.094  
  21169044.789   113200410.274                    88044786.847    21169050.812  
  21169043.500  
  21569791.906   113350037.701    21569798.301    88324746.3624   21569798.438  
                
  23214591.492   121993496.265    23214597.109    95059882.5694   23214597.508  
                
  24715902.875   129882940.951    24715907.590   101207502.9794                 
                
  21101171.172   110887419.386    21101180.531    86405809.5134   21101180.957  
                
 21  8 16  4 55 20.0000000  0 17G26R 3R 4G20R16R19G29G12R10R18G18R 9
                                R20G 5G31G 2G25
  23368946.945   122804652.631    23368956.551    95691974.2614   23368956.293  
                
  22501581.055   120452745.286                    93685471.577    22501584.969  
  22501579.691  
  23367010.711   125129290.240                    97322792.216    23367015.473  
  23367010.152  
  22376897.484   117591379.462    22376903.574    91629691.8314                 
                
  22599295.539   120721368.403                    93894379.228    22599298.824  
  22599295.320  
  19813177.906   105987182.637                    82434462.212    19813180.805  
  19813175.582  
  20472064.523   107581440.120    20472070.605    83829722.6094   20472070.777  
                
  23404563.891   122991804.490    23404571.340    95837793.1804   23404571.602  
                
  20945659.539   111652154.734                                                  
  20945658.727  
  22427019.680   119716951.684                    93113179.490    22427023.848  
  22427018.117  
  21936703.531   115278184.360    21936710.215    89827173.5304   21936710.320  
                
  19886433.508   106192436.236                    82594119.175    19886436.324  
  19886432.930  
  21164809.688   113177763.388                    88027172.603    21164815.699  
  21164808.398  
  21567711.000   113339102.479    21567717.410    88316225.4084   21567717.551  
                
  23217038.469   122006355.167    23217043.988    95069902.4824   23217044.445  
                
  24721588.070   129912816.921    24721592.863   101230782.9494                 
                
  21105847.578   110911994.066    21105856.898    86424958.6094   21105857.352  
                
 21  8 16  4 55 30.0000000  0 17G26R 3R 4G20R16R19G29G12R10R18G18R 9
                                R20G 5G31G 2G25
  23363149.242   122774185.487    23363158.836    95668233.6264   23363158.543  
                
  22499243.906   120440234.380                    93675740.891    22499247.840  
  22499242.578  
  23360124.266   125092413.570                    97294110.378    23360129.004  
  23360123.684  
  22379406.852   117604566.223    22379412.891    91639967.2204                 
                
  22607488.000   120765130.386                    93928416.291    22607491.191  
  22607487.672  
  19815530.516   105999767.471                    82444250.404    19815533.406  
  19815528.180  
  20471628.398   107579148.285    20471634.480    83827936.7614   20471634.648  
                
  23411400.930   123027733.125    23411408.301    95865789.5214   23411408.547  
                
  20941667.094   111630872.769                                                  
  20941666.273  
  22432946.648   119748590.367                    93137787.329    22432950.824  
  22432945.055  
  21931526.336   115250977.991    21931533.027    89805973.7684   21931533.121  
                
  19889697.109   106209863.650                    82607673.821    19889699.934  
  19889696.543  
  21160581.234   113155152.000                    88009585.990    21160587.246  
  21160579.910  
  21565642.750   113328233.728    21565649.172    88307756.2474   21565649.324  
                
  23219495.734   122019268.099    23219501.227    95079964.5144   23219501.715  
                
  24727273.688   129942694.862    24727278.488   101254064.4514                 
                
  21110533.062   110936616.404    21110542.359    86444144.8404   21110542.816  
                
 21  8 16  4 55 40.0000000  0 17G26R 3R 4G20R16R19G29G12R10R18G18R 9
                                R20G 5G31G 2G25
  23357356.922   122743746.645    23357366.508    95644515.0474   23357366.191  
                
  22496921.320   120427801.481                    93666070.852    22496925.242  
  22496919.977  
  23353242.117   125055560.029                    97265446.522    23353246.816  
  23353241.535  
  22381927.508   117617812.359    22381933.488    91650288.8814                 
                
  22615684.305   120808912.989                    93962469.410    22615687.410  
  22615683.895  
  19817890.047   106012389.388                    82454067.447    19817892.941  
  19817887.715  
  20471198.703   107576890.214    20471204.789    83826177.2224   20471204.953  
                
  23418242.102   123063683.200    23418249.316    95893802.5734   23418249.574  
                
  20937689.094   111609667.833                                                  
  20937688.277  
  22438874.422   119780233.448                    93162398.589    22438878.645  
  22438872.805  
  21926355.844   115223806.897    21926362.520    89784801.5014   21926362.613  
                
  19892976.461   106227375.196                    82621293.912    19892979.297  
  19892975.895  
  21156359.398   113132576.000                    87992026.859    21156365.410  
  21156358.047  
  21563587.125   113317431.379    21563593.594    88299338.8324   21563593.727  
                
  23221963.273   122032235.068    23221968.789    95090068.6474   23221969.270  
                
  24732959.656   129972574.681    24732964.477   101277347.4234                 
                
  21115227.578   110961286.267    21115236.867    86463368.1094   21115237.309  
                
 21  8 16  4 55 50.0000000  0 17G26R 3R 4G20R16R19G29G12R10R18G18R 9
                                R20G 5G31G 2G25
  23351570.016   122713336.277    23351579.637    95620818.6714   23351579.297  
                
  22494613.352   120415446.869                    93656461.742    22494617.270  
  22494611.992  
  23346364.281   125018729.745                    97236800.771    23346369.008  
  23346363.723  
  22384459.484   117631117.945    22384465.418    91660656.8794                 
                
  22623884.672   120852716.574                    93996538.861    22623887.535  
  22623884.074  
  19820256.500   106025048.359                    82463913.308    19820259.414  
  19820254.176  
  20470775.445   107574665.989    20470781.535    83824444.0594   20470781.695  
                
  23425087.297   123099654.713    23425094.465    95921832.3154   23425094.727  
                
  20933725.602   111588540.205                                                  
  20933724.773  
  22444803.070   119811881.048                    93187013.379    22444807.305  
  22444801.395  
  21921192.109   115196671.257    21921198.758    89763656.8364   21921198.859  
                
  19896271.570   106244970.863                    82634979.422    19896274.414  
  19896271.020  
  21152144.188   113110035.414                    87974495.312    21152150.227  
  21152142.855  
  21561544.203   113306695.737    21561550.750    88290973.4044   21561550.832  
                
  23224441.086   122045256.070    23224446.633    95100214.8714   23224447.125  
                
  24738645.984   130002456.511    24738650.902   101300631.9574                 
                
  21119931.156   110986003.761    21119940.426    86482628.4844   21119940.867  
                
 21  8 16  4 56  0.0000000  0 17G26R 3R 4G20R16R19G29G12R10R18G18R 9
                                R20G 5G31G 2G25
  23345788.570   122682954.585    23345798.242    95597144.6394   23345797.902  
                
  22492320.047   120403170.635                    93646913.570    22492323.961  
  22492318.691  
  23339490.875   124981923.009                    97208173.325    23339495.578  
  23339490.293  
  22387002.773   117644482.986    22387008.699    91671071.1884                 
                
  22632088.703   120896540.673                    94030624.246    22632091.500  
  22632088.082  
  19822629.883   106037744.318                    82473787.940    19822632.789  
  19822627.586  
  20470358.633   107572475.661    20470364.730    83822737.3114   20470364.887  
                
  23431936.453   123135647.659    23431943.727    95949878.7334   23431943.992  
                
  20929776.625   111567489.962                                                  
  20929775.793  
  22450732.500   119843533.013                    93211631.548    22450736.770  
  22450730.789  
  21916035.133   115169571.157    21916041.770    89742539.8664   21916041.855  
                
  19899582.438   106262650.721                    82648730.420    19899585.301  
  19899581.906  
  21147935.656   113087530.426                    87956991.431    21147941.699  
  21147934.379  
  21559513.977   113296026.855    21559520.570    88282659.9904   21559520.621  
                
  23226929.188   122058331.094    23226934.773    95110403.1844   23226935.270  
                
  24744332.688   130032340.367    24744337.742   101323918.0494                 
                
  21124643.797   111010768.823    21124653.031    86501925.9264   21124653.492  
                
 21  8 16  4 56 10.0000000  0 17G26R 3R 4G20R16R19G29G12R10R18G18R 9
                                R20G 5G31G 2G25
  23340012.570   122652601.462    23340022.277    95573492.8634   23340021.930  
                
  22490041.391   120390972.825                    93637426.396    22490045.324  
  22490040.051  
  23332621.953   124945139.941                    97179564.286    23332626.559  
  23332621.301  
  22389557.367   117657907.382    22389563.289    91681531.7544                 
                
  22640296.531   120940385.175                    94064725.527    22640299.312  
  22640295.922  
  19825010.164   106050477.247                    82483691.325    19825013.078  
  19825007.910  
  20469948.266   107570319.173    20469954.363    83821056.9284   20469954.512  
                
  23438789.742   123171661.880    23438797.059    95977941.7434   23438797.316  
                
  20925842.203   111546517.278                                                  
  20925841.379  
  22456662.773   119875189.297                    93236253.082    22456667.047  
  22456661.051  
  21910884.898   115142506.546    21910891.527    89721450.5694   21910891.625  
                
  19902909.023   106280414.496                    82662546.680    19902911.895  
  19902908.488  
  21143733.766   113065060.985                    87939515.215    21143739.820  
  21143732.500  
  21557496.461   113285424.743    21557503.059    88274398.6024   21557503.117  
                
  23229427.539   122071459.969    23229433.160    95120633.4744   23229433.660  
                
  24750019.742   130062226.017    24750024.938   101347205.5624                 
                
  21129365.461   111035581.340    21129374.676    86521260.3594   21129375.156  
                
 21  8 16  4 56 20.0000000  0 17G26R 3R 4G20R16R19G29G12R10R18G18R 9
                                R20G 5G31G 2G25
  23334242.000   122622276.910    23334251.680    95549863.3384   23334251.348  
                
  22487777.383   120378853.440                    93628000.192    22487781.289  
  22487776.078  
  23325757.586   124908380.556                    97150973.662    23325761.984  
  23325756.762  
  22392123.203   117671390.914    22392129.141    91692038.4004                 
                
  22648508.195   120984250.137                    94098842.714    22648510.918  
  22648507.578  
  19827397.273   106063246.651                    82493623.087    19827400.207  
  19827395.043  
  20469544.320   107568196.385    20469550.414    83819402.8054   20469550.562  
                
  23445647.070   123207697.181    23445654.391    96006021.1864   23445654.652  
                
  20921922.281   111525621.911                                                  
  20921921.430  
  22462593.805   119906849.632                    93260877.771    22462598.074  
  22462592.086  
  21905741.398   115115477.336    21905748.031    89700388.8524   21905748.129  
                
  19906251.312   106298262.067                    82676428.108    19906254.176  
  19906250.781  
  21139538.453   113042626.795                    87922066.397    21139544.508  
  21139537.145  
  21555491.641   113274889.325    21555498.215    88266189.1644   21555498.285  
                
  23231936.102   122084642.522    23231941.734    95130905.5774   23231942.250  
                
  24755707.102   130092113.296    24755712.379   101370494.3184                 
                
  21134096.125   111060441.118    21134105.328    86540631.6074   21134105.812  
                
 21  8 16  4 56 30.0000000  0 17G26R 3R 4G20R16R19G29G12R10R18G18R 9
                                R20G 5G31G 2G25
  23328476.930   122591981.272    23328486.566    95526256.3534   23328486.258  
                
  22485528.039   120366812.530                    93618635.058    22485531.945  
  22485526.711  
  23318897.656   124871645.193                    97122401.727    23318901.914  
  23318896.719  
  22394700.336   117684933.747    22394706.281    91702591.2574                 
                
  22656723.594   121028135.242                    94132975.556    22656726.293  
  22656722.961  
  19829791.305   106076053.079                    82503583.640    19829794.242  
  19829789.090  
  20469146.844   107566107.618    20469152.930    83817775.1934   20469153.090  
                
  23452508.422   123243753.854    23452515.805    96034117.2774   23452516.066  
                
  20918016.953   111504804.303                                                  
  20918016.086  
  22468525.656   119938514.184                    93285505.742    22468529.895  
  22468523.926  
  21900604.695   115088483.802    21900611.355    89679354.9424   21900611.445  
                
  19909609.305   106316193.538                    82690374.808    19909612.180  
  19909608.793  
  21135349.766   113020228.161                    87904645.241    21135355.844  
  21135348.488  
  21553499.539   113264420.796    21553506.105    88258031.8734   21553506.176  
                
  23234454.906   122097878.872    23234460.539    95141219.6144   23234461.082  
                
  24761394.812   130122002.437    24761400.156   101393784.5384                 
                
  21138835.805   111085348.299    21138844.996    86560039.7904   21138845.488  
                
 21  8 16  4 56 40.0000000  0 17G26R 3R 4G20R16R19G29G12R10R18G18R 9
                                R20G 5G31G 2G25
  23322717.500   122561715.301    23322727.164    95502672.4824   23322726.828  
                
  22483293.516   120354851.019                    93609331.675    22483297.477  
  22483292.152  
  23312042.258   124834934.808                    97093849.228    23312046.523  
  23312041.340  
  22397288.883   117698536.604    22397294.848    91713190.8754                 
                
  22664942.766   121072041.068                    94167124.506    22664945.609  
  22664942.211  
  19832192.359   106088897.080                    82513573.427    19832195.301  
  19832190.137  
  20468755.961   107564053.490    20468762.047    83816174.5764   20468762.215  
                
  23459373.961   123279832.388    23459381.379    96062230.4004   23459381.648  
                
  20914126.359   111484065.265                                                  
  20914125.496  
  22474458.398   119970183.747                    93310137.582    22474462.664  
  22474456.656  
  21895474.922   115061526.676    21895481.629    89658349.4004   21895481.684  
                
  19912983.141   106334209.549                    82704387.258    19912986.016  
  19912982.633  
  21131167.883   112997865.733                    87887252.233    21131173.938  
  21131166.637  
  21551520.320   113254019.882    21551526.895    88249927.2624   21551526.953  
                
  23236984.078   122111169.653    23236989.723    95151576.0764   23236990.258  
                
  24767083.055   130151894.104    24767088.434   101417076.7164                 
                
  21143584.625   111110303.515    21143593.816    86579485.4034   21143594.312  
                
 21  8 16  4 56 50.0000000  0 17G26R 3R 4G20R16R19G29G12R10R18G18R 9
                                R20G 5G31G 2G25
  23316963.273   122531476.767    23316972.953    95479109.9924   23316972.633  
                
  22481073.383   120342966.710                    93600088.340    22481077.418  
  22481072.023  
  23305191.141   124798247.178                    97065314.415    23305195.363  
  23305190.227  
  22399888.367   117712197.028    22399894.348    91723835.3584                 
                
  22673165.195   121115965.232                    94201287.704    22673168.332  
  22673164.840  
  19834599.945   106101776.087                    82523590.411    19834602.906  
  19834597.711  
  20468371.219   107562031.705    20468377.293    83814599.1594   20468377.465  
                
  23466243.133   123315930.334    23466250.617    96090358.6414   23466250.902  
                
  20910250.086   111463402.592                                                  
  20910249.219  
  22480391.602   120001855.776                    93334771.340    22480395.926  
  22480389.852  
  21890351.625   115034603.648    21890358.371    89637370.4224   21890358.426  
                
  19916372.320   106352307.586                    82718463.501    19916375.184  
  19916371.824  
  21126992.344   112975537.282                    87869885.680    21126998.402  
  21126991.102  
  21549553.500   113243684.235    21549560.066    88241873.5174   21549560.141  
                
  23239523.141   122124512.500    23239528.820    95161973.0804   23239529.312  
                
  24772771.289   130181785.855    24772776.719   101440368.9824                 
                
  21148342.125   111135304.377    21148351.328    86598966.5874   21148351.812  
                
 21  8 16  4 57  0.0000000  0 17G26R 3R 4G20R16R19G29G12R10R18G18R 9
                                R20G 5G31G 2G25
  23311214.680   122501267.771    23311224.387    95455570.5354   23311224.070  
                
  22478868.094   120331161.860                    93590906.823    22478872.203  
  22478866.680  
  23298344.570   124761584.398                    97036798.937    23298348.785  
  23298343.715  
  22402499.211   117725917.050    22402505.168    91734526.2824                 
                
  22681391.688   121159909.640                    94235466.630    22681394.852  
  22681391.285  
  19837014.500   106114692.291                    82533636.353    19837017.453  
  19837012.238  
  20467993.023   107560044.287    20467999.082    83813050.5194   20467999.262  
                
  23473116.359   123352049.657    23473123.887    96118503.5544   23473124.195  
                
  20906388.516   111442818.259                                                  
  20906387.633  
  22486325.727   120033532.509                    93359408.785    22486330.047  
  22486323.996  
  21885235.219   115007716.800    21885241.980    89616419.6434   21885242.055  
                
  19919777.242   106370489.616                    82732605.088    19919780.113  
  19919776.746  
  21122823.508   112953244.776                    87852547.076    21122829.590  
  21122822.242  
  21547599.547   113233416.127    21547606.078    88233872.3944   21547606.164  
                
  23242072.492   122137909.348    23242078.199    95172412.1814   23242078.676  
                
  24778459.922   130211679.656    24778465.379   101463662.8354                 
                
  21153108.688   111160352.816    21153117.898    86618484.8444   21153118.391  
                
 21  8 16  4 57 10.0000000  0 17G26R 3R 4G20R16R19G29G12R10R18G18R 9
                                R20G 5G31G 2G25
  23305471.680   122471088.075    23305481.367    95432053.8954   23305481.039  
                
  22476677.555   120319435.847                    93581786.591    22476681.703  
  22476676.117  
  23291502.625   124724946.487                    97008302.804    23291506.867  
  23291501.836  
  22405121.305   117739696.246    22405127.242    91745263.3034                 
                
  22689622.008   121203873.877                    94269661.008    22689625.117  
  22689621.484  
  19839435.875   106127645.011                    82543710.696    19839438.836  
  19839433.613  
  20467621.312   107558090.887    20467627.352    83811528.3924   20467627.555  
                
  23479993.672   123388189.908    23480001.152    96146664.7874   23480001.477  
                
  20902541.656   111422312.302                                                  
  20902540.738  
  22492260.625   120065213.306                    93384049.390    22492264.949  
  22492258.949  
  21880125.656   114980865.819    21880132.402    89595496.8104   21880132.496  
                
  19923197.828   106388755.288                    82746811.710    19923200.688  
  19923197.316  
  21118661.352   112930987.992                    87835236.249    21118667.484  
  21118660.066  
  21545658.383   113223215.203    21545664.883    88225923.6114   21545664.965  
                
  23244632.047   122151359.748    23244637.773    95182893.0084   23244638.230  
                
  24784148.898   130241575.206    24784154.363   101486958.0544                 
                
  21157884.234   111185448.471    21157893.469    86638039.8954   21157893.941  
                
 21  8 16  4 57 20.0000000  0 17G26R 3R 4G20R16R19G29G12R10R18G18R 9
                                R20G 5G31G 2G25
  23299734.234   122440937.622    23299743.832    95408560.0094   23299743.520  
                
  22474501.797   120307788.914                    93572727.858    22474505.934  
  22474500.305  
  23284665.352   124688333.417                    96979825.965    23284669.613  
  23284664.578  
  22407754.602   117753534.360    22407760.547    91756046.2564                 
                
  22697855.734   121247857.426                    94303870.413    22697858.977  
  22697855.273  
  19841864.070   106140634.177                    82553813.370    19841867.016  
  19841861.797  
  20467256.039   107556171.381    20467262.059    83810032.6724   20467262.281  
                
  23486874.961   123424350.972    23486882.398    96174842.2224   23486882.676  
                
  20898709.406   111401884.258                                                  
  20898708.461  
  22498196.242   120096897.977                    93408692.995    22498200.590  
  22498194.566  
  21875022.891   114954050.620    21875029.633    89574601.8404   21875029.727  
                
  19926634.008   106407104.272                    82761083.140    19926636.852  
  19926633.504  
  21114505.828   112908766.625                    87817952.971    21114511.996  
  21114504.496  
  21543729.938   113213081.222    21543736.438    88218027.0074   21543736.504  
                
  23247201.734   122164863.495    23247207.469    95193415.4114   23247207.930  
                
  24789838.125   130271472.187    24789843.605   101510254.3874                 
                
  21162668.711   111210591.092    21162677.984    86657631.5414   21162678.434  
                
 21  8 16  4 57 30.0000000  0 17G26R 3R 4G20R16R19G29G12R10R18G18R 9
                                R20G 5G31G 2G25
  23294002.383   122410816.566    23294011.910    95385089.0654   23294011.617  
                
  22472340.836   120296221.187                    93563730.773    22472344.980  
  22472339.293  
  23277832.773   124651745.361                    96951368.590    23277837.051  
  23277832.008  
  22410399.133   117767431.510    22410405.105    91766875.1954                 
                
  22706093.250   121291860.190                    94338094.762    22706096.414  
  22706092.738  
  19844299.109   106153659.968                    82563944.539    19844302.051  
  19844296.836  
  20466897.234   107554285.840    20466903.238    83808563.4184   20466903.473  
                
  23493760.180   123460532.748    23493767.598    96203035.7954   23493767.867  
                
  20894891.891   111381534.769                                                  
  20894890.949  
  22504132.602   120128586.610                    93433339.709    22504136.965  
  22504130.938  
  21869926.961   114927271.306    21869933.688    89553734.8484   21869933.789  
                
  19930085.797   106425536.627                    82775419.405    19930088.637  
  19930085.293  
  21110356.984   112886580.973                    87800697.446    21110363.168  
  21110355.664  
  21541814.289   113203014.403    21541820.762    88210182.7344   21541820.832  
                
  23249781.578   122178420.607    23249787.297    95203979.3914   23249787.773  
                
  24795527.648   130301370.688    24795533.129   101533551.9114                 
                
  21167462.141   111235780.737    21167471.441    86677259.8194   21167471.879  
                
 21  8 16  4 57 40.0000000  0 17G26R 3R 4G20R16R19G29G12R10R18G18R 9
                                R20G 5G31G 2G25
  23288276.133   122380724.871    23288285.590    95361640.9824   23288285.340  
                
  22470194.617   120284732.440                    93554795.094    22470198.781  
  22470193.051  
  23271004.883   124615182.406                    96922930.758    23271009.195  
  23271004.168  
  22413054.875   117781387.506    22413060.902    91777749.9904                 
                
  22714334.383   121335882.242                    94372334.117    22714337.445  
  22714333.832  
  19846740.914   106166722.003                    82574103.898    19846743.875  
  19846738.641  
  20466544.875   107552434.134    20466550.863    83807120.5314   20466551.102  
                
  23500649.219   123496735.077    23500656.727    96231245.3844   23500656.980  
                
  20891089.094   111361263.736                                                  
  20891088.160  
  22510069.672   120160278.925                    93457989.254    22510074.031  
  22510067.996  
  21864837.844   114900527.781    21864844.574    89532895.7394   21864844.688  
                
  19933553.172   106444052.145                    82789820.355    19933556.008  
  19933552.641  
  21106214.750   112864430.701                    87783469.480    21106220.961  
  21106213.445  
  21539911.414   113193014.725    21539917.820    88202390.7634   21539917.914  
                
  23252371.523   122192030.850    23252377.227    95214584.7794   23252377.738  
                
  24801217.445   130331270.520    24801222.875   101556850.4684                 
                
  21172264.477   111261017.168    21172273.781    86696924.5614   21172274.230  
                
 21  8 16  4 57 50.0000000  0 17G26R 3R 4G20R16R19G29G12R10R18G18R 9
                                R20G 5G31G 2G25
  23282555.477   122350662.607    23282564.902    95338215.8564   23282564.684  
                
  22468063.227   120273322.975                    93545921.075    22468067.418  
  22468061.621  
  23264181.789   124578644.636                    96894512.500    23264186.043  
  23264181.031  
  22415721.781   117795402.227    22415727.895    91788670.5374                 
                
  22722578.969   121379923.034                    94406588.050    22722581.953  
  22722578.414  
  19849189.430   106179820.027                    82584291.233    19849192.395  
  19849187.148  
  20466198.961   107550616.310    20466204.945    83805704.0364   20466205.176  
                
  23507542.203   123532957.893    23507549.758    96259470.9364   23507549.984  
                
  20887300.992   111341071.045                                                  
  20887300.066  
  22516007.500   120191975.219                    93482641.946    22516011.848  
  22516005.852  
  21859755.539   114873820.095    21859762.297    89512084.5684   21859762.379  
                
  19937036.094   106462650.740                    82804285.920    19937038.930  
  19937035.559  
  21102079.117   112842315.741                    87766268.957    21102085.344  
  21102077.820  
  21538021.320   113183082.237    21538027.676    88194651.1664   21538027.785  
                
  23254971.578   122205694.130    23254977.281    95225231.4894   23254977.785  
                
  24806907.492   130361171.684    24806912.891   101580150.0704                 
                
  21177075.703   111286300.304    21177085.023    86716625.7044   21177085.477  
                
 21  8 16  4 58  0.0000000  0 17G26R 3R 4G20R16R19G29G12R10R18G18R 9
                                R20G 5G31G 2G25
  23276840.438   122320629.975    23276849.871    95314813.8114   23276849.656  
                
  22465946.609   120261992.778                    93537108.732    22465950.875  
  22465945.008  
  23257363.391   124542132.382                    96866114.084    23257367.621  
  23257362.613  
  22418399.875   117809475.795    22418406.078    91799636.9524                 
                
  22730827.078   121423982.851                    94440856.785    22730830.039  
  22730826.566  
  19851644.773   106192954.554                    82594506.984    19851647.738  
  19851642.496  
  20465859.492   107548832.441    20465865.480    83804314.0064   20465865.707  
                
  23514439.008   123569201.235    23514446.676    96287712.4834   23514446.875  
                
  20883527.688   111320957.251                                                  
  20883526.758  
  22521946.000   120223675.159                    93507297.443    22521950.336  
  22521944.355  
  21854680.070   114847148.365    21854686.805    89491301.3944   21854686.879  
                
  19940534.562   106481332.356                    82818816.058    19940537.395  
  19940534.031  
  21097950.148   112820236.368                    87749096.123    21097956.375  
  21097948.789  
  21536144.039   113173217.075    21536150.371    88186964.0314   21536150.496  
                
  23257581.711   122219410.420    23257587.473    95235919.5014   23257587.953  
                
  24812597.773   130391074.199    24812603.152   101603450.7304                 
                
  21181895.828   111311630.217    21181905.160    86736363.2964   21181905.598  
                
