     2.11           OBSERVATION DATA    M (MIXED)           RINEX VERSION / TYPE
EFT-CORS.RU                             20210817 145333 UTC PGM / RUN BY / DATE 
MDNG                                                        MARKER NAME         
                                                            MARKER NUMBER       
MDNG                EFT-CORS.RU                             OBSERVER / AGENCY   
0                   TRIMBLE BD970       2.0                 REC # / TYPE / VERS 
0                   UNKNOWN EXT NONE                        ANT # / TYPE        
  3463911.2830  3030468.2400  4402179.3760                  APPROX POSITION XYZ 
        0.0000        0.0000        0.0000                  ANTENNA: DELTA H/E/N
     1     1                                                WAVELENGTH FACT L1/2
     6    C1    L1    P2    L2    C2    P1                  # / TYPES OF OBSERV 
    10.000                                                  INTERVAL            
  2021     8    15    16    30    0.0000000     GPS         TIME OF FIRST OBS   
  2021     8    15    17    30    0.0000000     GPS         TIME OF LAST OBS    
     0                                                      RCV CLOCK OFFS APPL 
                                                            END OF HEADER       
 21  8 15 16 30  0.0000000  0 15G16R 1G 4R17R 8R12G22G 7R10G 2G 6G26
                                G 9G 3R 2
  22332087.789   117355941.997    22332094.156    91446223.9354                 
                
  19465884.453   104056339.046                    80932726.450    19465889.957  
  19465883.789  
  20580384.602   108150707.966    20580392.215    84273341.7904   20580392.078  
                
  22723611.008   121598647.362                    94576719.965    22723616.094  
  22723609.402  
  20669836.617   110686085.158                    86089187.521    20669839.805  
  20669836.008  
  23246286.969   124177487.466                    96582486.167    23246292.504  
  23246286.141  
  23949372.125   125854826.311    23949377.957    98068670.9724                 
                
  22503787.492   118258221.250    22503795.637    92149315.7384   22503795.430  
                
  20595662.945   109786502.665                                                  
  20595661.949  
  24967781.836   131206590.177    24967787.422   102238919.0204                 
                
  22711431.039   119349368.792    22711440.867    92999564.3874   22711441.426  
                
  23132700.828   121563211.517    23132710.547    94724617.1774   23132710.449  
                
  20882686.250   109739295.447    20882694.734    85511192.7504   20882694.496  
                
  22167792.727   116492586.656    22167802.223    90773493.1744   22167802.621  
                
  22950799.547   122469869.654                    95254335.913    22950803.996  
  22950797.430  
 21  8 15 16 30 10.0000000  0 15G16R 1G 4R17R 8R12G22G 7R10G 2G 6G26
                                G 9G 3R 2
  22329813.102   117343988.520    22329819.520    91436909.5354                 
                
  19464229.305   104047491.339                    80925844.895    19464234.816  
  19464228.656  
  20581834.703   108158328.282    20581842.316    84279279.6934   20581842.184  
                
  22725843.656   121610594.635                    94586012.280    22725848.738  
  22725842.027  
  20673603.281   110706255.455                    86104875.519    20673606.461  
  20673602.652  
  23237807.984   124132194.880                    96547258.640    23237813.629  
  23237807.250  
  23955880.227   125889026.071    23955885.988    98095320.1154                 
                
  22498707.359   118231525.000    22498715.531    92128513.4844   22498715.301  
                
  20600030.586   109809784.679                                                  
  20600029.582  
  24965290.461   131193498.008    24965296.086   102228717.3214                 
                
  22712381.328   119354362.553    22712391.090    93003455.6294   22712391.648  
                
  23135311.352   121576929.979    23135321.113    94735306.8894   23135320.996  
                
  20880087.688   109725639.925    20880096.172    85500552.0884   20880095.926  
                
  22173492.648   116522539.998    22173502.137    90796833.4274   22173502.551  
                
  22944377.656   122435601.242                    95227682.738    22944382.117  
  22944375.559  
 21  8 15 16 30 20.0000000  0 15G16R 1G 4R17R 8R12G22G 7R10G 2G 6G26
                                G 9G 3R 2
  22327551.133   117332101.817    22327557.594    91427647.1734                 
                
  19462582.742   104038689.518                    80918999.039    19462588.250  
  19462582.086  
  20583290.906   108165980.703    20583298.527    84285242.6214   20583298.383  
                
  22728091.180   121622621.539                    94595366.560    22728096.289  
  22728089.566  
  20677377.750   110726467.529                    86120596.007    20677380.914  
  20677377.125  
  23229331.508   124086915.519                    96512041.388    23229337.199  
  23229330.824  
  23962391.633   125923243.324    23962397.320    98121982.8984                 
                
  22493632.852   118204858.335    22493641.035    92107734.2794   22493640.785  
                
  20604411.938   109833139.749                                                  
  20604410.922  
  24962808.508   131180455.322    24962814.121   102218554.1784                 
                
  22713343.875   119359420.726    22713353.562    93007397.0574   22713354.156  
                
  23137933.570   121590709.921    23137943.371    94746044.5094   23137943.262  
                
  20877494.805   109712014.266    20877503.289    85489934.6974   20877503.039  
                
  22179199.359   116552528.992    22179208.875    90820201.4654   22179209.297  
                
  22937955.695   122401332.531                    95201029.297    22937960.117  
  22937953.602  
 21  8 15 16 30 30.0000000  0 15G16R 1G 4R17R 8R12G22G 7R10G 2G 6G26
                                G 9G 3R 2
  22325301.945   117320282.309    22325308.461    91418437.1874                 
                
  19460944.859   104029934.121                    80912189.288    19460950.359  
  19460944.211  
  20584753.305   108173665.616    20584760.938    84291230.8684   20584760.793  
                
  22730353.617   121634728.324                    94604782.921    22730358.797  
  22730351.918  
  20681160.086   110746721.704                    86136349.252    20681163.234  
  20681159.461  
  23220857.695   124041649.807                    96476834.761    23220863.344  
  23220856.938  
  23968906.391   125957478.435    23968912.023    98148659.6054                 
                
  22488564.047   118178221.652    22488572.211    92086978.4364   22488571.961  
                
  20608807.047   109856568.107                                                  
  20608806.039  
  24960336.039   131167462.451    24960341.676   102208429.8584                 
                
  22714318.750   119364543.622    22714328.371    93011388.9254   22714328.996  
                
  23140567.570   121604551.665    23140577.391    94756830.2904   23140577.289  
                
  20874907.680   109698418.846    20874916.168    85479340.8724   20874915.910  
                
  22184912.922   116582553.945    22184922.484    90843597.5244   22184922.891  
                
  22931533.711   122367063.606                    95174375.698    22931538.113  
  22931531.629  
 21  8 15 16 30 40.0000000  0 15G16R 1G 4R17R 8R12G22G 7R10G 2G 6G26
                                G 9G 3R 2
  22323065.523   117308529.898    22323072.090    91409279.4524                 
                
  19459315.609   104021224.824                    80905415.395    19459321.102  
  19459314.957  
  20586221.820   108181382.733    20586229.469    84297244.2044   20586229.316  
                
  22732630.938   121646914.801                    94614261.240    22732636.199  
  22732629.164  
  20684950.227   110767017.633                    86152134.971    20684953.363  
  20684949.617  
  23212386.320   123996397.569                    96441638.613    23212392.004  
  23212385.602  
  23975424.445   125991731.106    23975430.074    98175349.9734                 
                
  22483500.914   118151614.736    22483509.031    92066245.7844   22483508.805  
                
  20613215.844   109880069.465                                                  
  20613214.836  
  24957873.016   131154519.246    24957878.688   102198344.2264                 
                
  22715305.883   119369730.985    22715315.453    93015431.0154   22715316.102  
                
  23143213.258   121618454.918    23143223.102    94767663.9854   23143223.012  
                
  20872326.273   109684853.427    20872334.754    85468770.4134   20872334.484  
                
  22190633.266   116612614.589    22190642.891    90867021.3934   22190643.266  
                
  22925111.688   122332794.376                    95147721.846    22925116.020  
  22925109.598  
 21  8 15 16 30 50.0000000  0 15G16R 1G 4R17R 8R12G22G 7R10G 2G 6G26
                                G 9G 3R 2
  22320841.812   117296844.344    22320848.414    91400173.8434                 
                
  19457694.984   104012561.660                    80898677.376    19457700.473  
  19457694.340  
  20587696.461   108189132.027    20587704.117    84303282.6044   20587703.957  
                
  22734923.133   121659180.682                    94623801.361    22734928.414  
  22734921.422  
  20688748.164   110787355.400                    86167953.234    20688751.305  
  20688747.535  
  23203917.539   123951159.010                    96406453.089    23203923.172  
  23203916.824  
  23981945.750   126026001.159    23981951.438    98202053.8864                 
                
  22478443.445   118125037.585    22478451.531    92045536.3324   22478451.301  
                
  20617638.266   109903643.511                                                  
  20617637.281  
  24955419.430   131141625.632    24955425.156   102188297.2694                 
                
  22716305.258   119374982.673    22716314.824    93019523.2414   22716315.480  
                
  23145870.633   121632419.558    23145880.504    94778545.5234   23145880.418  
                
  20869750.555   109671317.992    20869759.039    85458223.3264   20869758.773  
                
  22196360.375   116642710.767    22196370.020    90890472.9414   22196370.391  
                
  22918689.594   122298524.884                    95121067.818    22918693.914  
  22918687.480  
 21  8 15 16 31  0.0000000  0 15G16R 1G 4R17R 8R12G22G 7R10G 2G 6G26
                                G 9G 3R 2
  22318630.898   117285225.968    22318637.543    91391120.5774                 
                
  19456083.023   104003944.835                    80891975.401    19456088.496  
  19456082.395  
  20589177.219   108196913.481    20589184.891    84309346.0714   20589184.719  
                
  22737230.164   121671525.946                    94633403.267    22737235.395  
  22737228.484  
  20692553.914   110807735.017                    86183804.035    20692557.062  
  20692553.254  
  23195451.312   123905934.138                    96371278.215    23195456.949  
  23195450.641  
  23988470.453   126060288.575    23988476.152    98228771.3454                 
                
  22473391.672   118098490.302    22473399.719    92024850.1424   22473399.473  
                
  20622074.344   109927290.298                                                  
  20622073.379  
  24952975.297   131128781.752    24952981.031   102178289.0404                 
                
  22717316.875   119380298.743    22717326.480    93023665.6174   22717327.113  
                
  23148539.688   121646445.561    23148549.590    94789474.8894   23148549.508  
                
  20867180.562   109657812.600    20867189.043    85447699.6464   20867188.785  
                
  22202094.250   116672842.448    22202103.867    90913952.1754   22202104.262  
                
  22912267.406   122264255.039                    95094413.507    22912271.754  
  22912265.254  
 21  8 15 16 31 10.0000000  0 15G16R 1G 4R17R 8R12G22G 7R10G 2G 6G26
                                G 9G 3R 2
  22316432.805   117273674.926    22316439.500    91382119.7664                 
                
  19454479.742   103995374.368                    80885309.483    19454485.211  
  19454479.117  
  20590664.109   108204727.155    20590671.789    84315434.6494   20590671.621  
                
  22739552.016   121683950.587                    94643066.859    22739557.188  
  22739550.355  
  20696367.445   110828156.285                    86199687.231    20696370.602  
  20696366.797  
  23186987.711   123860723.213                    96336114.198    23186993.355  
  23186987.055  
  23994998.477   126094593.348    23995004.148    98255502.3294                 
                
  22468345.586   118071972.909    22468353.594    92004187.2484   22468353.340  
                
  20626524.055   109951009.672                                                  
  20626523.098  
  24950540.648   131115987.644    24950546.379   102168319.6304                 
                
  22718340.734   119385679.164    22718350.410    93027858.1414   22718351.023  
                
  23151220.422   121660532.929    23151230.352    94800452.0764   23151230.281  
                
  20864616.305   109644337.313    20864624.781    85437199.4234   20864624.523  
                
  22207834.891   116703009.624    22207844.457    90937459.0644   22207844.891  
                
  22905845.211   122229985.014                    95067759.099    22905849.570  
  22905843.023  
 21  8 15 16 31 20.0000000  0 15G16R 1G 4R17R 8R12G22G 7R10G 2G 6G26
                                G 9G 3R 2
  22314247.484   117262191.085    22314254.207    91373171.3244                 
                
  19452885.141   103986850.302                    80878679.653    19452890.574  
  19452884.520  
  20592157.102   108212572.910    20592164.789    84321548.2274   20592164.625  
                
  22741888.648   121696454.454                    94652792.102    22741893.766  
  22741886.965  
  20700188.789   110848619.434                    86215603.016    20700191.969  
  20700188.109  
  23178526.656   123815526.273                    96300961.051    23178532.375  
  23178526.090  
  24001529.773   126128915.324    24001535.379    98282246.7104                 
                
  22463305.172   118045485.370    22463313.137    91983547.6064   22463312.883  
                
  20630987.336   109974801.442                                                  
  20630986.383  
  24948115.469   131103243.277    24948121.160   102158388.9664                 
                
  22719376.805   119391123.765    22719386.539    93032100.6844   22719387.125  
                
  23153912.820   121674681.507    23153922.809    94811476.9474   23153922.715  
                
  20862057.734   109630892.003    20862066.215    85426722.5674   20862065.949  
                
  22213582.234   116733212.112    22213591.789    90960993.4674   22213592.223  
                
  22899422.984   122195714.869                    95041104.548    22899427.332  
  22899420.785  
 21  8 15 16 31 30.0000000  0 15G16R 1G 4R17R 8R12G22G 7R10G 2G 6G26
                                G 9G 3R 2
  22312075.000   117250774.662    22312081.734    91364275.4184                 
                
  19451299.242   103978372.723                    80872085.978    19451304.660  
  19451298.625  
  20593656.242   108220450.917    20593663.934    84327686.9364   20593663.770  
                
  22744240.109   121709037.530                    94662578.896    22744245.203  
  22744238.418  
  20704017.953   110869124.422                    86231551.317    20704021.152  
  20704017.266  
  23170068.359   123770343.573                    96265818.976    23170074.066  
  23170067.793  
  24008064.336   126163254.502    24008069.879    98309004.5094                 
                
  22458270.500   118019027.930    22458278.430    91962931.4294   22458278.184  
                
  20635464.148   109998665.359                                                  
  20635463.211  
  24945699.797   131090548.845    24945705.434   102148497.2144                 
                
  22720425.125   119396632.709    22720434.875    93036393.3474   22720435.445  
                
  23156616.898   121688891.426    23156626.926    94822549.6024   23156626.820  
                
  20859504.930   109617476.907    20859513.422    85416269.2534   20859513.156  
                
  22219336.328   116763450.023    22219345.887    90984555.4654   22219346.324  
                
  22893000.773   122161444.818                    95014450.070    22893005.121  
  22892998.602  
 21  8 15 16 31 40.0000000  0 15G16R 1G 4R17R 8R12G22G 7R10G 2G 6G26
                                G 9G 3R 2
  22309915.344   117239425.634    22309922.066    91355432.0214                 
                
  19449722.055   103969941.730                    80865528.546    19449727.453  
  19449721.426  
  20595161.484   108228361.030    20595169.191    84333850.6574   20595169.027  
                
  22746606.344   121721699.598                    94672427.175    22746611.422  
  22746604.711  
  20707854.891   110889671.046                    86247532.027    20707858.078  
  20707854.180  
  23161612.734   123725175.297                    96230688.119    23161618.465  
  23161612.207  
  24014602.086   126197610.742    24014607.637    98335775.6034                 
                
  22453241.492   117992600.328    22453249.418    91942338.5084   22453249.184  
                
  20639954.484   110022601.372                                                  
  20639953.566  
  24943293.609   131077904.212    24943299.199   102138644.2714                 
                
  22721485.633   119402205.791    22721495.402    93040735.9954   22721495.980  
                
  23159332.602   121703162.460    23159342.645    94833669.8854   23159342.551  
                
  20856957.836   109604091.873    20856966.348    85405839.3594   20856966.051  
                
  22225097.109   116793723.145    22225106.691    91008144.8934   22225107.133  
                
  22886578.492   122127174.427                    94987795.360    22886582.840  
  22886576.305  
 21  8 15 16 31 50.0000000  0 15G16R 1G 4R17R 8R12G22G 7R10G 2G 6G26
                                G 9G 3R 2
  22307768.539   117228144.157    22307775.270    91346641.2684                 
                
  19448153.578   103961557.347                    80859007.355    19448158.953  
  19448152.965  
  20596672.859   108236303.337    20596680.582    84340039.4714   20596680.422  
                
  22748987.352   121734440.669                    94682336.888    22748992.395  
  22748985.750  
  20711699.656   110910259.666                    86263545.382    20711702.863  
  20711698.926  
  23153159.875   123680021.432                    96195568.467    23153165.555  
  23153159.320  
  24021143.117   126231984.078    24021148.664    98362560.0034                 
                
  22448218.203   117966202.791    22448226.133    91921769.0064   22448225.902  
                
  20644458.375   110046609.609                                                  
  20644457.473  
  24940896.906   131065309.427    24940902.504   102128830.1744                 
                
  22722558.367   119407843.089    22722568.180    93045128.6794   22722568.750  
                
  23162059.945   121717494.700    23162069.980    94844837.8634   23162069.895  
                
  20854416.492   109590737.044    20854425.023    85395433.0004   20854424.719  
                
  22230864.594   116824031.510    22230874.211    91031761.8064   22230874.641  
                
  22880156.266   122092904.328                    94961140.876    22880160.633  
  22880154.094  
 21  8 15 16 32  0.0000000  0 15G16R 1G 4R17R 8R12G22G 7R10G 2G 6G26
                                G 9G 3R 2
  22305634.586   117216930.214    22305641.328    91337903.1364                 
                
  19446593.828   103953219.573                    80852522.422    19446599.191  
  19446593.219  
  20598190.344   108244277.782    20598198.090    84346253.3164   20598197.926  
                
  22751383.062   121747260.451                    94692307.829    22751388.078  
  22751381.449  
  20715552.273   110930890.211                    86279591.355    20715555.480  
  20715551.547  
  23144709.734   123634882.056                    96160460.103    23144715.328  
  23144709.121  
  24027687.344   126266374.390    24027692.941    98389357.6414                 
                
  22443200.633   117939835.340    22443208.566    91901222.9614   22443208.344  
                
  20648975.727   110070689.605                                                  
  20648974.828  
  24938509.719   131052764.587    24938515.340   102119054.9644                 
                
  22723643.312   119413544.485    22723653.180    93049571.3304   22723653.715  
                
  23164798.914   121731888.004    23164808.941    94856053.4234   23164808.859  
                
  20851880.898   109577412.382    20851889.457    85385050.1534   20851889.137  
                
  22236638.773   116854375.013    22236648.422    91055406.0804   22236648.855  
                
  22873734.070   122058634.224                    94934486.369    22873738.406  
  22873731.922  
 21  8 15 16 32 10.0000000  0 15G16R 1G 4R17R 8R12G22G 7R10G 2G 6G26
                                G 9G 3R 2
  22303513.531   117205784.031    22303520.285    91329217.8024                 
                
  19445042.852   103944928.697                    80846073.964    19445048.195  
  19445042.246  
  20599713.961   108252284.449    20599721.734    84352492.2804   20599721.562  
                
  22753793.500   121760159.186                    94702340.162    22753798.469  
  22753791.871  
  20719412.641   110951562.300                    86295669.628    20719415.844  
  20719411.898  
  23136262.250   123589757.574                    96125363.309    23136267.887  
  23136261.695  
  24034234.820   126300781.746    24034240.480    98416168.5594                 
                
  22438188.820   117913498.112    22438196.750    91880700.4564   22438196.543  
                
  20653506.539   110094841.358                                                  
  20653505.637  
  24936132.047   131040269.798    24936137.668   102109318.7574                 
                
  22724740.477   119419310.088    22724750.375    93054063.9924   22724750.875  
                
  23167549.523   121746342.444    23167559.516    94867316.6214   23167559.465  
                
  20849351.055   109564118.006    20849359.637    85374690.9004   20849359.305  
                
  22242419.656   116884753.707    22242429.332    91079077.7694   22242429.758  
                
  22867311.930   122024364.285                    94907831.972    22867316.234  
  22867309.824  
 21  8 15 16 32 20.0000000  0 15G16R 1G 4R17R 8R12G22G 7R10G 2G 6G26
                                G 9G 3R 2
  22301405.352   117194705.508    22301412.129    91320585.1954                 
                
  19443500.656   103936684.813                    80839662.053    19443505.980  
  19443500.051  
  20601243.703   108260323.270    20601251.520    84358756.2954   20601251.320  
                
  22756218.648   121773136.578                    94712433.714    22756223.566  
  22756217.023  
  20723280.859   110972276.400                    86311780.580    20723284.066  
  20723280.145  
  23127817.539   123544647.901                    96090278.034    23127823.227  
  23127817.055  
  24040785.484   126335205.974    24040791.234    98442992.5924                 
                
  22433182.734   117887191.066    22433190.672    91860201.4684   22433190.461  
                
  20658050.797   110119064.774                                                  
  20658049.898  
  24933763.898   131027825.089    24933769.566   102099621.6014                 
                
  22725849.828   119425139.756    22725859.734    93058606.5864   22725860.223  
                
  23170311.734   121760857.885    23170321.695    94878627.3464   23170321.656  
                
  20846826.969   109550853.867    20846835.578    85364355.2144   20846835.246  
                
  22248207.203   116915167.433    22248216.895    91102776.7634   22248217.320  
                
  22860889.836   121990094.559                    94881177.769    22860894.082  
  22860887.734  
 21  8 15 16 32 30.0000000  0 15G16R 1G 4R17R 8R12G22G 7R10G 2G 6G26
                                G 9G 3R 2
  22299310.086   117183694.841    22299316.895    91312005.4654                 
                
  19441967.234   103928487.791                    80833286.590    19441972.555  
  19441966.617  
  20602779.578   108268394.312    20602787.434    84365045.4174   20602787.230  
                
  22758658.508   121786192.704                    94722588.459    22758663.367  
  22758656.863  
  20727156.898   110993032.303                    86327924.071    20727160.117  
  20727156.199  
  23119375.734   123499553.350                    96055204.525    23119381.410  
  23119375.262  
  24047339.398   126369647.152    24047345.230    98469829.8614                 
                
  22428182.430   117860914.389    22428190.387    91839726.1524   22428190.164  
                
  20662608.508   110143359.869                                                  
  20662607.617  
  24931405.297   131015430.496    24931411.020   102089963.4854                 
                
  22726971.391   119431033.546    22726981.312    93063199.1224   22726981.785  
                
  23173085.555   121775434.383    23173095.520    94889985.6444   23173095.488  
                
  20844308.664   109537620.087    20844317.285    85354043.1804   20844316.953  
                
  22254001.414   116945616.216    22254011.105    91126503.0754   22254011.527  
                
  22854467.734   121955825.096                    94854523.753    22854471.984  
  22854465.617  
 21  8 15 16 32 40.0000000  0 15G16R 1G 4R17R 8R12G22G 7R10G 2G 6G26
                                G 9G 3R 2
  22297227.688   117172751.868    22297234.520    91303478.4784                 
                
  19440442.570   103920337.587                    80826947.543    19440447.883  
  19440441.953  
  20604321.516   108276497.275    20604329.410    84371359.4174   20604329.180  
                
  22761112.977   121799327.126                    94732804.132    22761117.832  
  22761111.336  
  20731040.695   111013829.856                    86344099.930    20731043.902  
  20731039.996  
  23110936.742   123454473.725                    96020142.609    23110942.340  
  23110936.270  
  24053896.539   126404104.965    24053902.395    98496680.0794                 
                
  22423187.867   117834667.884    22423195.812    91819274.3474   22423195.586  
                
  20667179.617   110167726.445                                                  
  20667178.742  
  24929056.188   131003085.803    24929061.918   102080344.2564                 
                
  22728105.078   119436991.105    22728115.020    93067841.3824   22728115.480  
                
  23175870.914   121790071.555    23175880.926    94901391.2294   23175880.875  
                
  20841796.078   109524416.385    20841804.715    85343754.5864   20841804.387  
                
  22259802.227   116976099.698    22259811.922    91150256.4344   22259812.359  
                
  22848045.641   121921555.732                    94827869.833    22848049.922  
  22848043.473  
 21  8 15 16 32 50.0000000  0 15G16R 1G 4R17R 8R12G22G 7R10G 2G 6G26
                                G 9G 3R 2
  22295158.211   117161876.780    22295165.082    91295004.3844                 
                
  19438926.688   103912234.323                    80820645.000    19438931.977  
  19438926.062  
  20605869.570   108284632.345    20605877.500    84377698.4274   20605877.254  
                
  22763582.102   121812539.947                    94743080.746    22763586.953  
  22763580.430  
  20734932.297   111034669.218                    86360308.327    20734935.504  
  20734931.594  
  23102500.547   123409409.290                    95985092.528    23102506.148  
  23102500.086  
  24060456.906   126438579.334    24060462.715    98523543.2094                 
                
  22418199.070   117808451.632    22418206.973    91798846.1114   22418206.766  
                
  20671764.055   110192164.022                                                  
  20671763.160  
  24926716.641   130990791.343    24926722.371   102070764.1554                 
                
  22729250.938   119443012.581    22729260.887    93072533.4314   22729261.348  
                
  23178667.852   121804769.548    23178677.918    94912844.2004   23178677.824  
                
  20839289.258   109511242.956    20839297.906    85333489.5814   20839297.586  
                
  22265609.672   117006618.019    22265619.383    91174036.9304   22265619.824  
                
  22841623.617   121887286.732                    94801216.202    22841627.930  
  22841621.457  
 21  8 15 16 33  0.0000000  0 15G16R 1G 4R17R 8R12G22G 7R10G 2G 6G26
                                G 9G 3R 2
  22293101.672   117151069.695    22293108.609    91286583.2904                 
                
  19437419.602   103904178.113                    80814379.068    19437424.898  
  19437418.965  
  20607423.742   108292799.555    20607431.703    84384062.4874   20607431.445  
                
  22766065.898   121825831.243                    94753418.422    22766070.777  
  22766064.180  
  20738831.680   111055550.264                    86376549.134    20738834.918  
  20738830.992  
  23094067.273   123364360.305                    95950054.453    23094072.832  
  23094066.801  
  24067020.453   126473070.413    24067026.223    98550419.3514                 
                
  22413216.047   117782265.719    22413223.887    91778441.5134   22413223.695  
                
  20676361.836   110216672.783                                                  
  20676360.953  
  24924386.680   130978547.217    24924392.395   102061223.2744                 
                
  22730408.969   119449098.007    22730418.902    93077275.3234   22730419.348  
                
  23181476.359   121819528.351    23181486.461    94924344.5744   23181486.348  
                
  20836788.211   109498099.889    20836796.867    85323248.2334   20836796.547  
                
  22271423.742   117037171.157    22271433.480    91197844.5584   22271433.922  
                
  22835201.703   121853018.312                    94774563.019    22835206.043  
  22835199.574  
 21  8 15 16 33 10.0000000  0 15G16R 1G 4R17R 8R12G22G 7R10G 2G 6G26
                                G 9G 3R 2
  22291058.078   117140330.577    22291065.059    91278215.1474                 
                
  19435921.352   103896169.144                    80808149.871    19435926.656  
  19435920.711  
  20608984.000   108300998.794    20608991.988    84390451.5024   20608991.719  
                
  22768564.297   121839200.571                    94763816.779    22768569.176  
  22768562.570  
  20742738.859   111076473.007                    86392822.369    20742742.094  
  20742738.156  
  23085636.875   123319326.728                    95915028.361    23085642.438  
  23085636.391  
  24073587.102   126507577.930    24073592.875    98577308.3204                 
                
  22408238.797   117756110.075    22408246.586    91758060.4984   22408246.398  
                
  20680972.914   110241252.419                                                  
  20680972.043  
  24922066.219   130966353.156    24922071.922   102051721.4304                 
                
  22731579.133   119455247.236    22731589.016    93082066.9194   22731589.461  
                
  23184296.414   121834347.830    23184306.527    94935892.2294   23184306.395  
                
  20834292.922   109484987.104    20834301.578    85313030.4824   20834301.266  
                
  22277244.398   117067758.915    22277254.176    91221679.1664   22277254.605  
                
  22828779.844   121818750.179                    94747910.001    22828784.137  
  22828777.746  
 21  8 15 16 33 20.0000000  0 15G16R 1G 4R17R 8R12G22G 7R10G 2G 6G26
                                G 9G 3R 2
  22289027.453   117129659.636    22289034.461    91269900.1344                 
                
  19434431.938   103888207.363                    80801957.377    19434437.230  
  19434431.281  
  20610550.398   108309230.237    20610558.414    84396865.6134   20610558.141  
                
  22771077.320   121852648.181                    94774276.016    22771082.195  
  22771075.605  
  20746653.852   111097437.655                    86409128.201    20746657.098  
  20746653.133  
  23077209.375   123274308.815                    95880014.456    23077214.977  
  23077208.934  
  24080156.859   126542101.891    24080162.660    98604210.0814                 
                
  22403267.352   117729984.943    22403275.094    91737703.2664   22403274.918  
                
  20685597.320   110265903.049                                                  
  20685596.438  
  24919755.352   130954209.434    24919761.008   102042258.7774                 
                
  22732761.461   119461460.370    22732771.293    93086908.3234   22732771.770  
                
  23187128.047   121849228.097    23187138.141    94947487.2384   23187138.020  
                
  20831803.438   109471904.794    20831812.094    85302836.4794   20831811.777  
                
  22283071.688   117098381.451    22283081.477    91245540.8754   22283081.898  
                
  22822358.078   121784482.406                    94721257.338    22822362.375  
  22822355.965  
 21  8 15 16 33 30.0000000  0 15G16R 1G 4R17R 8R12G22G 7R10G 2G 6G26
                                G 9G 3R 2
  22287009.820   117119056.975    22287016.855    91261638.3314                 
                
  19432951.383   103880293.002                    80795801.762    19432956.676  
  19432950.703  
  20612122.906   108317493.826    20612130.941    84403304.7644   20612130.648  
                
  22773604.914   121866173.809                    94784795.916    22773609.812  
  22773603.160  
  20750576.672   111118444.205                    86425466.636    20750579.965  
  20750575.938  
  23068784.867   123229306.714                    95845012.854    23068790.461  
  23068784.414  
  24086729.703   126576642.153    24086735.520    98631124.5744                 
                
  22398301.695   117703890.253    22398309.383    91717369.7454   22398309.211  
                
  20690234.992   110290624.453                                                  
  20690234.113  
  24917454.062   130942116.041    24917459.688   102032835.3674                 
                
  22733955.930   119467737.340    22733965.730    93091799.4614   22733966.223  
                
  23189971.219   121864169.061    23189981.297    94959129.5584   23189981.199  
                
  20829319.750   109458852.931    20829328.395    85292666.1994   20829328.078  
                
  22288905.562   117129038.629    22288915.348    91269429.5834   22288915.762  
                
  22815936.453   121750215.472                    94694605.278    22815940.758  
  22815934.312  
 21  8 15 16 33 40.0000000  0 15G16R 1G 4R17R 8R12G22G 7R10G 2G 6G26
                                G 9G 3R 2
  22285005.172   117108522.601    22285012.223    91253429.7274                 
                
  19431479.727   103872426.171                    80789683.104    19431485.004  
  19431479.035  
  20613701.523   108325789.528    20613709.578    84409768.9504   20613709.266  
                
  22776147.070   121879777.454                    94795376.517    22776152.004  
  22776145.285  
  20754507.281   111139492.474                    86441837.477    20754510.605  
  20754506.512  
  23060363.320   123184320.618                    95810023.698    23060368.949  
  23060362.902  
  24093305.648   126611198.796    24093311.461    98658051.8264                 
                
  22393341.820   117677825.988    22393349.445    91697059.9384   22393349.297  
                
  20694885.922   110315416.494                                                  
  20694885.023  
  24915162.352   130930073.001    24915167.957   102023451.1774                 
                
  22735162.547   119474078.098    22735172.320    93096740.2954   22735172.836  
                
  23192825.930   121879170.648    23192836.004    94970819.1174   23192835.922  
                
  20826841.844   109445831.500    20826850.469    85282519.6384   20826850.176  
                
  22294746.016   117159730.391    22294755.809    91293345.2274   22294756.234  
                
  22809514.969   121715949.250                    94667953.812    22809519.289  
  22809512.809  
 21  8 15 16 33 50.0000000  0 15G16R 1G 4R17R 8R12G22G 7R10G 2G 6G26
                                G 9G 3R 2
  22283013.523   117098056.488    22283020.566    91245274.3304                 
                
  19430016.898   103864606.547                    80783601.185    19430022.191  
  19430016.199  
  20615286.234   108334117.254    20615294.301    84416258.0794   20615293.980  
                
  22778703.773   121893458.960                    94806017.684    22778708.727  
  22778701.965  
  20758445.719   111160582.653                    86458240.950    20758449.059  
  20758444.930  
  23051944.789   123139350.457                    95775046.940    23051950.430  
  23051944.324  
  24099884.633   126645771.634    24099890.477    98684991.6734                 
                
  22388387.742   117651792.225    22388395.312    91676773.9044   22388395.199  
                
  20699550.047   110340278.916                                                  
  20699549.129  
  24912880.195   130918080.190    24912885.793   102014106.1364                 
                
  22736381.258   119480482.484    22736391.023    93101730.7214   22736391.547  
                
  23195692.141   121894232.708    23195702.234    94982555.7784   23195702.156  
                
  20824369.727   109432840.463    20824378.316    85272396.7524   20824378.047  
                
  22300593.016   117190456.549    22300602.832    91317287.6684   22300603.258  
                
  22803093.578   121681683.387                    94641302.588    22803097.844  
  22803091.422  
 21  8 15 16 34  0.0000000  0 15G16R 1G 4R17R 8R12G22G 7R10G 2G 6G26
                                G 9G 3R 2
  22281034.906   117087658.869    22281041.930    91237172.3014                 
                
  19428562.992   103856834.605                    80777556.339    19428568.289  
  19428562.293  
  20616877.086   108342477.226    20616885.148    84422772.3444   20616884.820  
                
  22781275.039   121907218.379                    94816719.423    22781279.996  
  22781273.250  
  20762391.945   111181714.602                    86474676.897    20762395.305  
  20762391.152  
  23043529.219   123094396.585                    95740082.852    23043534.961  
  23043528.750  
  24106466.680   126680360.872    24106472.582    98711944.3114                 
                
  22383439.523   117625789.206    22383447.066    91656511.8264   22383446.961  
                
  20704227.445   110365212.089                                                  
  20704226.516  
  24910607.680   130906138.032    24910613.297   102004800.5594                 
                
  22737612.117   119486950.708    22737621.887    93106770.8884   22737622.422  
                
  23198569.906   121909355.442    23198580.035    94994339.7234   23198579.941  
                
  20821903.445   109419880.081    20821912.000    85262297.7554   20821911.766  
                
  22306446.602   117221217.274    22306456.441    91341257.0564   22306456.855  
                
  22796672.328   121647418.327                    94614651.995    22796676.551  
  22796670.164  
 21  8 15 16 34 10.0000000  0 15G16R 1G 4R17R 8R12G22G 7R10G 2G 6G26
                                G 9G 3R 2
  22279069.242   117077329.303    22279076.258    91229123.2904                 
                
  19427118.016   103849110.368                    80771548.595    19427123.305  
  19427117.316  
  20618474.039   108350869.292    20618482.082    84429311.6104   20618481.758  
                
  22783860.859   121921055.530                    94827481.656    22783865.773  
  22783859.043  
  20766345.984   111202888.233                    86491145.279    20766349.336  
  20766345.219  
  23035116.766   123049459.076                    95705131.476    23035122.535  
  23035116.270  
  24113051.820   126714966.316    24113057.734    98738909.5684                 
                
  22378497.125   117599816.789    22378504.660    91636273.5994   22378504.559  
                
  20708917.984   110390215.266                                                  
  20708917.016  
  24908344.742   130894246.274    24908350.406   101995534.2564                 
                
  22738855.102   119493482.567    22738864.867    93111860.6464   22738865.410  
                
  23201459.172   121924538.609    23201469.359    95006170.7624   23201469.254  
                
  20819442.969   109406950.207    20819451.484    85252222.5294   20819451.281  
                
  22312306.734   117252012.362    22312316.625    91365253.2274   22312317.016  
                
  22790251.148   121613154.019                    94588002.031    22790255.434  
  22790249.004  
 21  8 15 16 34 20.0000000  0 15G16R 1G 4R17R 8R12G22G 7R10G 2G 6G26
                                G 9G 3R 2
  22277116.617   117067068.259    22277123.625    91221127.6774                 
                
  19425681.898   103841433.506                    80765577.702    19425687.188  
  19425681.215  
  20620077.086   108359293.322    20620085.090    84435875.7924   20620084.785  
                
  22786461.148   121934970.203                    94838304.182    22786466.035  
  22786459.316  
  20770307.805   111224103.591                    86507646.084    20770311.145  
  20770307.035  
  23026707.234   123004537.857                    95670192.785    23026713.152  
  23026706.812  
  24119640.023   126749587.749    24119645.953    98765887.2944                 
                
  22373560.547   117573874.963    22373568.078    91616059.2044   22373567.980  
                
  20713621.633   110415288.366                                                  
  20713620.645  
  24906091.398   130882404.907    24906097.129   101986307.2194                 
                
  22740110.164   119500077.933    22740119.906    93116999.8724   22740120.480  
                
  23204359.906   121939782.086    23204370.148    95018048.7854   23204370.031  
                
  20816988.281   109394050.757    20816996.766    85242171.0154   20816996.578  
                
  22318173.367   117282841.636    22318183.293    91389276.0274   22318183.660  
                
  22783830.227   121578890.849                    94561352.898    22783834.488  
  22783828.105  
 21  8 15 16 34 30.0000000  0 15G16R 1G 4R17R 8R12G22G 7R10G 2G 6G26
                                G 9G 3R 2
  22275177.008   117056875.630    22275184.020    91213185.3864                 
                
  19424254.695   103833804.306                    80759643.883    19424260.004  
  19424254.008  
  20621686.203   108367749.312    20621694.172    84442464.8724   20621693.887  
                
  22789075.906   121948962.188                    94849186.840    22789080.797  
  22789074.098  
  20774277.438   111245360.728                    86524179.414    20774280.762  
  20774276.684  
  23018300.969   122959633.203                    95635266.977    23018306.887  
  23018300.449  
  24126231.320   126784225.063    24126237.227    98792877.4164                 
                
  22368629.797   117547963.793    22368637.328    91595868.6984   22368637.258  
                
  20718338.406   110440431.488                                                  
  20718337.414  
  24903847.648   130870613.944    24903853.434   101977119.4334                 
                
  22741377.297   119506736.758    22741387.035    93122188.5594   22741387.637  
                
  23207272.094   121955085.777    23207282.375    95029973.7284   23207282.238  
                
  20814539.391   109381181.776    20814547.859    85232143.2414   20814547.688  
                
  22324046.500   117313705.082    22324056.418    91413325.4464   22324056.793  
                
  22777409.477   121544628.437                    94534704.372    22777413.727  
  22777407.371  
 21  8 15 16 34 40.0000000  0 15G16R 1G 4R17R 8R12G22G 7R10G 2G 6G26
                                G 9G 3R 2
  22273250.492   117046751.810    22273257.496    91205296.7004                 
                
  19422836.469   103826223.096                    80753747.386    19422841.789  
  19422835.781  
  20623301.445   108376237.479    20623309.375    84449079.0264   20623309.098  
                
  22791705.133   121963031.697                    94860129.758    22791710.043  
  22791703.328  
  20778254.852   111266659.622                    86540745.228    20778258.191  
  20778254.105  
  23009897.750   122914745.396                    95600354.276    23009903.754  
  23009897.258  
  24132825.695   126818878.479    24132831.566    98819880.0634                 
                
  22363704.922   117522083.466    22363712.426    91575702.2244   22363712.379  
                
  20723068.312   110465644.586                                                  
  20723067.301  
  24901613.539   130858873.646    24901619.383   101967971.1454                 
                
  22742656.531   119513459.179    22742666.297    93127426.8024   22742666.906  
                
  23210195.781   121970449.868    23210206.066    95041945.7454   23210205.922  
                
  20812096.336   109368343.464    20812104.793    85222139.3664   20812104.621  
                
  22329926.141   117344602.789    22329936.031    91437401.5724   22329936.438  
                
  22770988.898   121510366.958                    94508056.559    22770993.090  
  22770986.797  
 21  8 15 16 34 50.0000000  0 15G16R 1G 4R17R 8R12G22G 7R10G 2G 6G26
                                G 9G 3R 2
  22271337.078   117036696.815    22271344.086    91197461.6434                 
                
  19421427.164   103818689.566                    80747887.977    19421432.465  
  19421426.480  
  20624922.773   108384757.601    20624930.664    84455718.0864   20624930.402  
                
  22794348.812   121977178.343                    94871132.714    22794353.711  
  22794347.000  
  20782240.031   111288000.059                    86557343.313    20782243.391  
  20782239.293  
  23001497.758   122869874.257                    95565454.518    23001503.738  
  23001497.246  
  24139423.172   126853547.720    24139428.957    98846895.0444                 
                
  22358785.898   117496233.820    22358793.367    91555559.6514   22358793.344  
                
  20727811.250   110490927.075                                                  
  20727810.227  
  24899389.039   130847183.938    24899394.945   101958862.2834                 
                
  22743947.828   119520244.955    22743957.645    93132714.4154   22743958.246  
                
  23213130.914   121985874.075    23213141.164    95053964.6044   23213141.031  
                
  20809659.086   109355535.645    20809667.535    85212159.2484   20809667.379  
                
  22335812.258   117375534.477    22335822.148    91461504.1744   22335822.559  
                
  22764568.477   121476106.490                    94481409.558    22764572.672  
  22764566.383  
 21  8 15 16 35  0.0000000  0 15G16R 1G 4R17R 8R12G22G 7R10G 2G 6G26
                                G 9G 3R 2
  22269436.734   117026710.497    22269443.754    91189680.1054                 
                
  19420026.766   103811203.645                    80742065.597    19420032.082  
  19420026.066  
  20626550.172   108393309.592    20626558.016    84462381.9764   20626557.770  
                
  22797006.844   121991401.993                    94882195.540    22797011.727  
  22797005.059  
  20786233.000   111309382.171                    86573973.858    20786236.359  
  20786232.285  
  22993100.969   122825019.901                    95530567.819    22993106.883  
  22993100.410  
  24146023.508   126888232.603    24146029.312    98873922.2144                 
                
  22353872.703   117470414.818    22353880.168    91535440.9614   22353880.145  
                
  20732567.203   110516278.977                                                  
  20732566.176  
  24897174.156   130835544.653    24897180.133   101949792.7054                 
                
  22745251.172   119527093.984    22745261.039    93138051.3044   22745261.629  
                
  23216077.453   122001358.292    23216087.680    95066030.2154   23216087.527  
                
  20807227.633   109342758.291    20807236.078    85202202.8764   20807235.918  
                
  22341704.820   117406500.042    22341714.730    91485633.1704   22341715.113  
                
  22758148.289   121441847.035                    94454763.315    22758152.465  
  22758146.176  
 21  8 15 16 35 10.0000000  0 15G16R 1G 4R17R 8R12G22G 7R10G 2G 6G26
                                G 9G 3R 2
  22267549.500   117016793.070    22267556.500    91181952.2494                 
                
  19418635.367   103803765.847                    80736280.638    19418640.668  
  19418634.680  
  20628183.664   108401893.661    20628191.465    84469070.8614   20628191.230  
                
  22799679.312   122005702.861                    94893318.412    22799684.184  
  22799677.566  
  20790233.750   111330806.017                    86590636.834    20790237.109  
  20790233.047  
  22984707.367   122780182.781                    95495694.531    22984713.230  
  22984706.828  
  24152626.844   126922933.272    24152632.645    98900961.6724                 
                
  22348965.398   117444626.756    22348972.867    91515346.3764   22348972.840  
                
  20737336.195   110541700.439                                                  
  20737335.148  
  24894968.906   130823956.051    24894974.914   101940762.6294                 
                
  22746566.578   119534006.425    22746576.473    93143437.6074   22746577.047  
                
  23219035.438   122016902.660    23219045.652    95078142.7044   23219045.500  
                
  20804802.016   109330011.630    20804810.449    85192270.4164   20804810.297  
                
  22347603.859   117437499.601    22347613.758    91509788.6634   22347614.117  
                
  22751728.289   121407588.608                    94428117.873    22751732.438  
  22751726.172  
 21  8 15 16 35 20.0000000  0 15G16R 1G 4R17R 8R12G22G 7R10G 2G 6G26
                                G 9G 3R 2
  22265675.352   117006944.418    22265682.289    91174277.9884                 
                
  19417252.945   103796376.029                    80730532.992    19417258.234  
  19417252.273  
  20629823.234   108410509.671    20629830.980    84475784.6404   20629830.777  
                
  22802366.172   122020080.617                    94904501.147    22802371.020  
  22802364.441  
  20794242.305   111352271.568                    86607332.256    20794245.641  
  20794241.621  
  22976317.008   122735362.767                    95460834.541    22976322.793  
  22976316.461  
  24159233.227   126957649.482    24159238.930    98928013.2644                 
                
  22344063.953   117418869.470    22344071.414    91495275.7774   22344071.383  
                
  20742118.188   110567191.168                                                  
  20742117.145  
  24892773.289   130812418.074    24892779.316   101931772.0224                 
                
  22747894.023   119540982.089    22747903.918    93148873.1884   22747904.508  
                
  23222004.828   122032507.001    23222015.047    95090301.9284   23222014.906  
                
  20802382.219   109317295.527    20802390.652    85182361.7734   20802390.500  
                
  22353509.336   117468532.966    22353519.195    91533970.5094   22353519.551  
                
  22745308.422   121373331.208                    94401473.262    22745312.598  
  22745306.379  
 21  8 15 16 35 30.0000000  0 15G16R 1G 4R17R 8R12G22G 7R10G 2G 6G26
                                G 9G 3R 2
  22263814.297   116997164.576    22263821.137    91166657.3274                 
                
  19415879.469   103789033.984                    80724822.519    19415884.766  
  19415878.805  
  20631468.875   108419157.553    20631476.566    84482523.2474   20631476.398  
                
  22805067.352   122034535.147                    94915743.527    22805072.219  
  22805065.586  
  20798258.625   111373778.726                    86624060.035    20798261.953  
  20798257.969  
  22967929.859   122690560.019                    95425987.974    22967935.574  
  22967929.293  
  24165842.531   126992381.170    24165848.164    98955076.8964                 
                
  22339168.367   117393143.009    22339175.805    91475229.1904   22339175.789  
                
  20746913.133   110592750.940                                                  
  20746912.086  
  24890587.281   130800930.667    24890593.305   101922820.8004                 
                
  22749233.477   119548020.903    22749243.387    93154357.9674   22749243.965  
                
  23224985.609   122048171.210    23224995.848    95102507.7934   23224995.711  
                
  20799968.227   109304609.966    20799976.660    85172476.9234   20799976.508  
                
  22359421.211   117499600.038    22359431.035    91558178.6154   22359431.398  
                
  22738888.773   121339074.825                    94374829.410    22738892.945  
  22738886.750  
 21  8 15 16 35 40.0000000  0 15G16R 1G 4R17R 8R12G22G 7R10G 2G 6G26
                                G 9G 3R 2
  22261966.414   116987453.988    22261973.203    91159090.6464                 
                
  19414515.023   103781740.286                    80719149.633    19414520.316  
  19414514.359  
  20633120.633   108427837.581    20633128.270    84489286.9044   20633128.121  
                
  22807782.906   122049066.571                    94927045.741    22807787.781  
  22807781.152  
  20802282.742   111395327.636                    86640820.293    20802286.051  
  20802282.090  
  22959546.008   122645774.924                    95391155.139    22959551.672  
  22959545.434  
  24172454.766   127027128.538    24172460.383    98982152.7514                 
                
  22334278.695   117367447.666    22334286.098    91455206.8584   22334286.113  
                
  20751721.039   110618379.836                                                  
  20751719.984  
  24888410.961   130789494.156    24888416.980   101913909.2454                 
                
  22750584.992   119555123.064    22750594.941    93159892.1084   22750595.488  
                
  23227977.812   122063895.484    23227988.086    95114760.4764   23227987.934  
                
  20797560.117   109291955.264    20797568.566    85162616.1274   20797568.414  
                
  22365339.547   117530701.053    22365349.379    91582413.1544   22365349.750  
                
  22732469.328   121304819.722                    94348186.598    22732473.551  
  22732467.285  
 21  8 15 16 35 50.0000000  0 15G16R 1G 4R17R 8R12G22G 7R10G 2G 6G26
                                G 9G 3R 2
  22260131.680   116977812.442    22260138.430    91151577.7744                 
                
  19413159.648   103774494.966                    80713514.391    19413164.965  
  19413158.973  
  20634778.492   108436549.669    20634786.066    84496075.5484   20634785.961  
                
  22810512.781   122063674.732                    94938407.618    22810517.723  
  22810511.031  
  20806314.680   111416918.394                    86657613.102    20806317.969  
  20806314.039  
  22951165.445   122601007.395                    95356335.977    22951171.078  
  22951164.852  
  24179069.922   127061891.379    24179075.566    99009240.6714                 
                
  22329394.930   117341783.340    22329402.305    91435208.6904   22329402.340  
                
  20756541.859   110644077.539                                                  
  20756540.789  
  24886244.336   130778108.476    24886250.328   101905037.2994                 
                
  22751948.539   119562288.487    22751958.543    93165475.5334   22751959.062  
                
  23230981.445   122079679.704    23230991.730    95127059.8644   23230991.559  
                
  20795157.859   109279331.343    20795166.332    85152779.3074   20795166.164  
                
  22371264.312   117561835.804    22371274.176    91606673.9824   22371274.543  
                
  22726050.203   121270566.108                    94321544.935    22726054.426  
  22726048.145  
 21  8 15 16 36  0.0000000  0 15G16R 1G 4R17R 8R12G22G 7R10G 2G 6G26
                                G 9G 3R 2
  22258310.070   116968239.844    22258316.762    91144118.6154                 
                
  19411813.258   103767297.744                    80707916.551    19411818.574  
  19411812.605  
  20636442.422   108445293.647    20636449.941    84502889.0384   20636449.871  
                
  22813256.945   122078359.344                    94949828.972    22813261.934  
  22813255.152  
  20810354.328   111438550.461                    86674438.035    20810357.582  
  20810353.707  
  22942788.094   122556257.552                    95321530.575    22942793.812  
  22942787.578  
  24185687.945   127096669.484    24185693.664    99036340.4844                 
                
  22324517.055   117316149.971    22324524.426    91415234.6494   22324524.453  
                
  20761375.539   110669843.803                                                  
  20761374.465  
  24884087.336   130766773.506    24884093.324   101896204.8734                 
                
  22753324.070   119569516.926    22753334.117    93171108.0744   22753334.621  
                
  23233996.438   122095523.643    23234006.727    95139405.7894   23234006.531  
                
  20792761.438   109266738.058    20792769.938    85142966.3674   20792769.758  
                
  22377195.461   117593004.100    22377205.375    91630960.9474   22377205.707  
                
  22719631.336   121236313.763                    94294904.196    22719635.480  
  22719629.285  
 21  8 15 16 36 10.0000000  0 15G16R 1G 4R17R 8R12G22G 7R10G 2G 6G26
                                G 9G 3R 2
  22256501.633   116958736.542    22256508.270    91136713.4384                 
                
  19410475.945   103760149.052                    80702356.460    19410481.254  
  19410475.301  
  20638112.438   108454069.667    20638119.910    84509727.4964   20638119.871  
                
  22816015.438   122093120.552                    94961309.892    22816020.473  
  22816013.605  
  20814401.836   111460224.600                    86691295.690    20814405.066  
  20814401.230  
  22934414.117   122511525.630                    95286739.098    22934419.871  
  22934413.672  
  24192308.820   127131463.038    24192314.695    99063452.3134                 
                
  22319645.078   117290547.701    22319652.438    91395284.8394   22319652.457  
                
  20766222.156   110695679.002                                                  
  20766221.090  
  24881940.047   130755489.554    24881946.051   101887412.1554                 
                
  22754711.617   119576808.531    22754721.680    93176789.8294   22754722.172  
                
  23237022.797   122111427.399    23237033.062    95151798.3174   23237032.863  
                
  20790370.867   109254175.585    20790379.383    85133177.4314   20790379.195  
                
  22383133.000   117624205.996    22383142.945    91655274.1084   22383143.238  
                
  22713212.695   121202062.917                    94268264.679    22713216.832  
  22713210.668  
 21  8 15 16 36 20.0000000  0 15G16R 1G 4R17R 8R12G22G 7R10G 2G 6G26
                                G 9G 3R 2
  22254706.367   116949302.403    22254712.996    91129362.1784                 
                
  19409147.656   103753048.615                    80696833.910    19409152.969  
  19409147.012  
  20639788.539   108462877.628    20639795.973    84516590.8454   20639795.969  
                
  22818788.180   122107958.068                    94972850.173    22818793.285  
  22818786.332  
  20818457.102   111481940.256                    86708185.637    20818460.316  
  20818456.535  
  22926043.672   122466811.627                    95251961.580    22926049.309  
  22926043.145  
  24198932.625   127166271.787    24198938.629    99090575.9864                 
                
  22314779.031   117264976.496    22314786.363    91375359.2374   22314786.391  
                
  20771081.586   110721582.495                                                  
  20771080.539  
  24879802.438   130744256.364    24879808.469   101878659.0274                 
                
  22756111.148   119584163.135    22756121.199    93182520.6794   22756121.715  
                
  23240060.539   122127390.851    23240070.742    95164237.3744   23240070.566  
                
  20787986.172   109241643.897    20787994.691    85123412.4794   20787994.504  
                
  22389076.922   117655441.375    22389086.852    91679613.3564   22389087.145  
                
  22706794.328   121167813.406                    94241626.177    22706798.469  
  22706792.273  
 21  8 15 16 36 30.0000000  0 15G16R 1G 4R17R 8R12G22G 7R10G 2G 6G26
                                G 9G 3R 2
  22252924.281   116939937.502    22252930.891    91122064.8444                 
                
  19407828.414   103745996.509                    80691348.932    19407833.723  
  19407827.758  
  20641470.719   108471717.561    20641478.125    84523479.1064   20641478.145  
                
  22821575.172   122122871.832                    94984449.738    22821580.344  
  22821573.301  
  20822520.133   111503697.472                    86725107.912    20822523.340  
  20822519.574  
  22917676.484   122422115.844                    95217198.221    22917682.152  
  22917675.969  
  24205559.336   127201095.746    24205565.457    99117711.5254                 
                
  22309918.898   117239436.411    22309926.211    91355457.8974   22309926.242  
                
  20775953.859   110747554.454                                                  
  20775952.812  
  24877674.539   130733074.097    24877680.578   101869945.5874                 
                
  22757522.672   119591580.748    22757532.707    93188300.6184   22757533.238  
                
  23243109.617   122143413.907    23243119.766    95176722.8874   23243119.625  
                
  20785607.328   109229143.006    20785615.855    85113671.5314   20785615.664  
                
  22395027.195   117686710.183    22395037.109    91703978.6554   22395037.418  
                
  22700376.227   121133565.430                    94214988.876    22700380.418  
  22700374.195  
 21  8 15 16 36 40.0000000  0 15G16R 1G 4R17R 8R12G22G 7R10G 2G 6G26
                                G 9G 3R 2
  22251155.391   116930642.002    22251161.984    91114821.6174                 
                
  19406518.289   103738993.147                    80685901.887    19406523.594  
  19406517.633  
  20643158.992   108480589.463    20643166.383    84530392.2804   20643166.418  
                
  22824376.414   122137861.837                    94996108.614    22824381.645  
  22824374.539  
  20826590.961   111525496.496                    86742062.695    20826594.164  
  20826590.434  
  22909312.719   122377438.365                    95182449.085    22909318.406  
  22909312.227  
  24212188.922   127235934.899    24212195.156    99144858.8854                 
                
  22305064.719   117213927.569    22305072.020    91335580.8834   22305072.031  
                
  20780838.922   110773594.570                                                  
  20780837.883  
  24875556.344   130721942.875    24875562.414   101861271.9124                 
                
  22758946.180   119599061.314    22758956.211    93194129.6264   22758956.754  
                
  23246170.062   122159496.658    23246180.160    95189254.8784   23246180.039  
                
  20783234.352   109216672.979    20783242.887    85103954.6304   20783242.707  
                
  22400983.836   117718012.404    22400993.762    91728369.9754   22400994.074  
                
  22693958.438   121099318.980                    94188352.786    22693962.680  
  22693956.457  
 21  8 15 16 36 50.0000000  0 15G16R 1G 4R17R 8R12G22G 7R10G 2G 6G26
                                G 9G 3R 2
  22249399.680   116921415.722    22249406.262    91107632.3214                 
                
  19405217.203   103732038.139                    80680492.440    19405222.484  
  19405216.531  
  20644853.305   108489493.181    20644860.695    84537330.2374   20644860.742  
                
  22827191.844   122152927.702                    95007826.539    22827197.059  
  22827190.016  
  20830669.539   111547337.064                    86759049.811    20830672.730  
  20830669.016  
  22900952.383   122332779.124                    95147714.146    22900958.074  
  22900951.895  
  24218821.477   127270788.922    24218827.633    99172017.8584                 
                
  22300216.430   117188449.751    22300223.730    91315728.0434   22300223.750  
                
  20785736.719   110799702.632                                                  
  20785735.688  
  24873447.828   130710862.503    24873453.926   101852637.8644                 
                
  22760381.625   119606604.641    22760391.672    93200007.5384   22760392.203  
                
  23249241.789   122175638.763    23249251.863    95201833.1354   23249251.727  
                
  20780867.227   109204233.679    20780875.777    85094261.6724   20780875.590  
                
  22406946.773   117749347.786    22406956.711    91752787.1484   22406957.016  
                
  22687541.000   121065074.257                    94161718.003    22687545.207  
  22687539.020  
 21  8 15 16 37  0.0000000  0 15G16R 1G 4R17R 8R12G22G 7R10G 2G 6G26
                                G 9G 3R 2
  22247657.203   116912258.997    22247663.770    91100497.2274                 
                
  19403925.289   103725132.116                    80675121.081    19403930.559  
  19403924.613  
  20646553.734   108498429.009    20646561.137    84544293.2194   20646561.180  
                
  22830021.508   122168069.772                    95019603.695    22830026.699  
  22830019.672  
  20834755.883   111569219.166                    86776069.213    20834759.051  
  20834755.371  
  22892595.469   122288138.546                    95112993.710    22892601.227  
  22892595.035  
  24225457.047   127305658.157    24225463.027    99199188.6894                 
                
  22295374.133   117163003.331    22295381.434    91295899.6844   22295381.449  
                
  20790647.297   110825878.747                                                  
  20790646.262  
  24871349.047   130699833.315    24871355.199   101844043.7134                 
                
  22761829.055   119614211.001    22761839.121    93205934.5604   22761839.668  
                
  23252324.875   122191840.516    23252334.934    95214457.8824   23252334.801  
                
  20778506.016   109191825.438    20778514.574    85084592.9164   20778514.375  
                
  22412916.078   117780716.598    22412925.992    91777230.3674   22412926.305  
                
  22681123.938   121030831.655                    94135084.872    22681128.133  
  22681121.984  
 21  8 15 16 37 10.0000000  0 15G16R 1G 4R17R 8R12G22G 7R10G 2G 6G26
                                G 9G 3R 2
  22245927.969   116903171.850    22245934.527    91093416.3324                 
                
  19402642.492   103718274.835                    80669787.648    19402647.777  
  19402641.816  
  20648260.234   108507396.775    20648267.668    84551281.0864   20648267.688  
                
  22832865.305   122183287.686                    95031439.867    22832870.508  
  22832863.367  
  20838850.031   111591143.062                    86793121.134    20838853.191  
  20838849.539  
  22884242.062   122243516.656                    95078287.822    22884247.902  
  22884241.684  
  24232095.406   127340542.303    24232101.238    99226371.1284                 
                
  22290537.805   117137588.262    22290545.137    91276095.7464   22290545.148  
                
  20795570.594   110852122.733                                                  
  20795569.582  
  24869259.977   130688855.194    24869266.172   101835489.3314                 
                
  22763288.453   119621880.152    22763298.539    93211910.5124   22763299.066  
                
  23255419.266   122208101.693    23255429.297    95227128.9164   23255429.184  
                
  20776150.680   109179448.084    20776159.242    85074948.2344   20776159.043  
                
  22418891.688   117812118.563    22418901.582    91801699.4254   22418901.906  
                
  22674707.109   120996590.427                    94108452.841    22674711.316  
  22674705.141  
 21  8 15 16 37 20.0000000  0 15G16R 1G 4R17R 8R12G22G 7R10G 2G 6G26
                                G 9G 3R 2
  22244211.961   116894154.167    22244218.559    91086389.5764                 
                
  19401368.773   103711466.074                    80664491.936    19401374.062  
  19401368.098  
  20649972.797   108516396.333    20649980.270    84558293.7274   20649980.270  
                
  22835723.289   122198581.275                    95043334.835    22835728.500  
  22835721.445  
  20842951.898   111613108.386                    86810205.255    20842955.039  
  20842951.422  
  22875892.227   122198913.496                    95043596.496    22875898.082  
  22875891.836  
  24238736.594   127375441.168    24238742.238    99253565.0564                 
                
  22285707.422   117112204.405    22285714.785    91256316.1304   22285714.773  
                
  20800506.586   110878434.355                                                  
  20800505.586  
  24867180.609   130677927.976    24867186.832   101826974.6254                 
                
  22764759.766   119629611.921    22764769.871    93217935.2684   22764770.406  
                
  23258524.930   122224422.106    23258534.953    95239846.1144   23258534.816  
                
  20773801.211   109167101.537    20773809.766    85065327.5524   20773809.570  
                
  22424873.578   117843553.509    22424883.484    91826194.1754   22424883.801  
                
  22668290.633   120962351.004                    94081822.204    22668294.809  
  22668288.648  
 21  8 15 16 37 30.0000000  0 15G16R 1G 4R17R 8R12G22G 7R10G 2G 6G26
                                G 9G 3R 2
  22242509.180   116885206.081    22242515.836    91079417.0484                 
                
  19400104.211   103704706.252                    80659234.301    19400109.488  
  19400103.539  
  20651691.406   108525427.700    20651698.918    84565331.1514   20651698.891  
                
  22838595.406   122213950.425                    95055288.603    22838600.629  
  22838593.625  
  20847061.547   111635115.250                    86827321.687    20847064.664  
  20847061.055  
  22867545.859   122154329.109                    95008919.771    22867551.781  
  22867545.484  
  24245380.508   127410354.695    24245386.055    99280770.3964                 
                
  22280882.977   117086851.790    22280890.344    91236560.8554   22280890.324  
                
  20805455.219   110904813.315                                                  
  20805454.227  
  24865110.922   130667051.720    24865117.137   101818499.6214                 
                
  22766242.984   119637406.307    22766253.137    93224008.7994   22766253.648  
                
  23261641.867   122240801.729    23261651.859    95252609.4384   23261651.750  
                
  20771457.602   109154785.836    20771466.148    85055730.9044   20771465.965  
                
  22430861.742   117875021.391    22430871.680    91850714.5864   22430871.984  
                
  22661874.531   120928113.647                    94055193.153    22661878.672  
  22661872.566  
 21  8 15 16 37 40.0000000  0 15G16R 1G 4R17R 8R12G22G 7R10G 2G 6G26
                                G 9G 3R 2
  22240819.695   116876327.764    22240826.367    91072498.8774                 
                
  19398848.805   103697995.391                    80654014.744    19398854.078  
  19398848.137  
  20653416.102   108534491.061    20653423.648    84572393.5124   20653423.602  
                
  22841481.633   122229395.030                    95067301.059    22841486.863  
  22841479.918  
  20851179.000   111657163.956                    86844470.681    20851182.109  
  20851178.488  
  22859203.125   122109763.818                    94974257.895    22859209.051  
  22859202.695  
  24252027.156   127445283.027    24252032.723    99307987.2734                 
                
  22276064.492   117061530.601    22276071.852    91216830.0724   22276071.852  
                
  20810416.531   110931259.875                                                  
  20810415.551  
  24863051.000   130656226.745    24863057.152   101810064.5964                 
                
  22767738.148   119645263.413    22767748.359    93230131.1944   22767748.836  
                
  23264770.094   122257240.652    23264780.055    95265418.9914   23264779.980  
                
  20769119.914   109142501.170    20769128.445    85046158.4434   20769128.273  
                
  22436856.180   117906522.311    22436866.133    91875260.7434   22436866.422  
                
  22655458.742   120893877.942                    94028565.387    22655462.871  
  22655456.766  
 21  8 15 16 37 50.0000000  0 15G16R 1G 4R17R 8R12G22G 7R10G 2G 6G26
                                G 9G 3R 2
  22239143.477   116867519.213    22239150.164    91065635.0824                 
                
  19397602.539   103691333.396                    80648833.189    19397607.805  
  19397601.883  
  20655146.867   108543586.287    20655154.445    84579480.6994   20655154.387  
                
  22844381.945   122244915.183                    95079372.283    22844387.195  
  22844380.215  
  20855304.148   111679253.923                    86861651.764    20855307.242  
  20855303.641  
  22850863.977   122065217.626                    94939610.878    22850869.883  
  22850863.504  
  24258676.578   127480225.981    24258682.195    99335215.5434                 
                
  22271251.992   117036240.797    22271259.344    91197123.7464   22271259.348  
                
  20815390.438   110957773.582                                                  
  20815389.449  
  24861000.812   130645452.860    24861006.863   101801669.3604                 
                
  22769245.219   119653183.089    22769255.469    93236302.3594   22769255.926  
                
  23267909.578   122273738.736    23267919.504    95278274.6414   23267919.441  
                
  20766788.117   109130247.499    20766796.637    85036610.1244   20766796.473  
                
  22442856.883   117938056.120    22442866.805    91899832.5344   22442867.102  
                
  22649043.359   120859644.329                    94001939.248    22649047.473  
  22649041.363  
 21  8 15 16 38  0.0000000  0 15G16R 1G 4R17R 8R12G22G 7R10G 2G 6G26
                                G 9G 3R 2
  22237480.570   116858780.544    22237487.234    91058825.7374                 
                
  19396365.445   103684720.402                    80643689.754    19396370.727  
  19396364.797  
  20656883.711   108552713.433    20656891.297    84586592.7624   20656891.234  
                
  22847296.344   122260510.689                    95091502.153    22847301.555  
  22847294.641  
  20859437.109   111701385.626                    86878865.293    20859440.184  
  20859436.613  
  22842528.453   122020690.945                    94904979.034    22842534.391  
  22842527.992  
  24265328.734   127515183.512    24265334.434    99362455.1694                 
                
  22266445.492   117010982.502    22266452.836    91177441.9724   22266452.828  
                
  20820376.953   110984354.486                                                  
  20820375.953  
  24858960.367   130634730.196    24858966.367   101793314.0614                 
                
  22770764.203   119661165.351    22770774.469    93242522.3124   22770774.918  
                
  23271060.320   122290295.981    23271070.227    95291176.3794   23271070.156  
                
  20764462.227   109118024.864    20764470.742    85027085.9964   20764470.574  
                
  22448863.844   117969622.805    22448873.707    91924429.9494   22448874.035  
                
  22642628.336   120825412.730                    93975314.717    22642632.508  
  22642626.312  
 21  8 15 16 38 10.0000000  0 15G16R 1G 4R17R 8R12G22G 7R10G 2G 6G26
                                G 9G 3R 2
  22235830.906   116850111.572    22235837.520    91052070.6894                 
                
  19395137.547   103678156.584                    80638584.565    19395142.828  
  19395136.891  
  20658626.609   108561872.463    20658634.207    84593729.6704   20658634.141  
                
  22850224.781   122276181.410                    95103690.456    22850229.977  
  22850223.125  
  20863577.828   111723558.886                    86896111.160    20863580.887  
  20863577.328  
  22834196.578   121976183.594                    94870362.211    22834202.484  
  22834196.105  
  24271983.594   127550155.470    24271989.395    99389706.0244                 
                
  22261644.961   116985755.618    22261652.316    91157784.6784   22261652.301  
                
  20825376.000   111011002.207                                                  
  20825375.020  
  24856929.664   130624058.719    24856935.637   101784998.6424                 
                
  22772295.070   119669210.083    22772305.352    93248790.9244   22772305.801  
                
  23274222.289   122306912.273    23274232.219    95304124.1354   23274232.141  
                
  20762142.227   109105833.246    20762150.746    85017586.0374   20762150.566  
                
  22454877.039   118001222.234    22454886.871    91949052.8724   22454887.195  
                
  22636213.805   120791183.552                    93948692.041    22636217.969  
  22636211.746  
 21  8 15 16 38 20.0000000  0 15G16R 1G 4R17R 8R12G22G 7R10G 2G 6G26
                                G 9G 3R 2
  22234194.570   116841512.538    22234201.125    91045370.1454                 
                
  19393918.883   103671642.139                    80633517.772    19393924.176  
  19393918.215  
  20660375.609   108571063.433    20660383.203    84600891.4654   20660383.133  
                
  22853167.281   122291927.332                    95115937.330    22853172.445  
  22853165.559  
  20867726.289   111745773.604                    86913389.278    20867729.348  
  20867725.812  
  22825868.453   121931695.914                    94835760.691    22825874.297  
  22825867.891  
  24278641.172   127585141.941    24278647.102    99416968.1834                 
                
  22256850.453   116960560.332    22256857.820    91138151.9974   22256857.781  
                
  20830387.633   111037716.936                                                  
  20830386.688  
  24854908.742   130613438.603    24854914.676   101776723.2424                 
                
  22773837.844   119677317.361    22773848.164    93255108.2644   22773848.602  
                
  23277395.508   122323587.627    23277405.453    95317117.9154   23277405.359  
                
  20759828.164   109093672.745    20759836.691    85008110.3334   20759836.516  
                
  22460896.469   118032854.450    22460906.301    91973701.3464   22460906.602  
                
  22629799.625   120756956.374                    93922070.909    22629803.793  
  22629797.590  
 21  8 15 16 38 30.0000000  0 15G16R 1G 4R17R 8R12G22G 7R10G 2G 6G26
                                G 9G 3R 2
  22232571.508   116832983.317    22232578.031    91038724.0074                 
                
  19392709.398   103665176.758                    80628489.144    19392714.691  
  19392708.730  
  20662130.648   108580286.223    20662138.242    84608078.0544   20662138.176  
                
  22856123.766   122307748.304                    95128242.436    22856128.945  
  22856121.922  
  20871882.555   111768030.159                    86930699.911    20871885.602  
  20871882.078  
  22817543.891   121887227.914                    94801174.518    22817549.785  
  22817543.355  
  24285301.445   127620142.734    24285307.551    99444241.5084                 
                
  22252061.930   116935396.545    22252069.320    91118543.8694   22252069.262  
                
  20835411.750   111064498.289                                                  
  20835410.816  
  24852897.555   130602869.720    24852903.480   101768487.7434                 
                
  22775392.484   119685486.970    22775402.855    93261474.2014   22775403.293  
                
  23280579.922   122340321.880    23280589.867    95330157.5894   23280589.762  
                
  20757520.000   109081543.298    20757528.520    84998658.8164   20757528.336  
                
  22466922.094   118064519.248    22466931.957    91998375.2044   22466932.230  
                
  22623385.852   120722731.264                    93895451.386    22623389.973  
  22623383.852  
 21  8 15 16 38 40.0000000  0 15G16R 1G 4R17R 8R12G22G 7R10G 2G 6G26
                                G 9G 3R 2
  22230961.789   116824524.254    22230968.281    91032132.5254                 
                
  19391509.156   103658760.768                    80623498.926    19391514.438  
  19391508.492  
  20663891.758   108589540.884    20663899.344    84615289.4844   20663899.270  
                
  22859094.250   122323644.023                    95140605.830    22859099.387  
  22859092.387  
  20876046.562   111790328.153                    86948042.792    20876049.602  
  20876046.094  
  22809223.078   121842779.662                    94766603.690    22809228.988  
  22809222.543  
  24291964.477   127655157.817    24291970.699    99471525.9484                 
                
  22247279.422   116910264.373    22247286.828    91098960.3724   22247286.758  
                
  20840448.367   111091346.243                                                  
  20840447.469  
  24850896.141   130592352.143    24850902.066   101760292.2484                 
                
  22776958.984   119693718.945    22776969.387    93267888.7334   22776969.805  
                
  23283775.547   122357115.009    23283785.477    95343243.1464   23283785.371  
                
  20755217.766   109069444.970    20755226.266    84989231.5494   20755226.090  
                
  22472953.930   118096216.649    22472963.805    92023074.4604   22472964.059  
                
  22616972.508   120688508.477                    93868833.692    22616976.621  
  22616970.508  
 21  8 15 16 38 50.0000000  0 15G16R 1G 4R17R 8R12G22G 7R10G 2G 6G26
                                G 9G 3R 2
  22229365.383   116816135.129    22229371.832    91025595.5644                 
                
  19390318.117   103652393.977                    80618546.976    19390323.391  
  19390317.461  
  20665658.891   108598827.228    20665666.469    84622525.5964   20665666.402  
                
  22862078.688   122339614.479                    95153027.283    22862083.742  
  22862076.840  
  20880218.250   111812667.337                    86965417.701    20880221.281  
  20880217.754  
  22800906.078   121798351.375                    94732048.374    22800911.918  
  22800905.492  
  24298630.258   127690186.946    24298636.508    99498821.3464                 
                
  22242502.898   116885163.665    22242510.309    91079401.3954   22242510.238  
                
  20845497.422   111118260.532                                                  
  20845496.535  
  24848904.453   130581885.755    24848910.418   101752136.6214                 
                
  22778537.312   119702013.067    22778547.723    93274351.6694   22778548.137  
                
  23286982.336   122373966.775    23286992.270    95356374.4004   23286992.176  
                
  20752921.422   109057377.611    20752929.895    84979828.4084   20752929.727  
                
  22478991.914   118127946.381    22479001.781    92047798.9124   22479002.031  
                
  22610559.594   120654288.193                    93842217.907    22610563.727  
  22610557.613  
 21  8 15 16 39  0.0000000  0 15G16R 1G 4R17R 8R12G22G 7R10G 2G 6G26
                                G 9G 3R 2
  22227782.328   116807816.181    22227788.730    91019113.2764                 
                
  19389136.320   103646076.649                    80613633.507    19389141.598  
  19389135.660  
  20667432.094   108608145.446    20667439.664    84629786.5464   20667439.602  
                
  22865077.117   122355659.586                    95165506.779    22865082.141  
  22865075.344  
  20884397.734   111835048.183                    86982825.010    20884400.727  
  20884397.223  
  22792592.742   121753943.213                    94697508.718    22792598.625  
  22792592.168  
  24305298.797   127725230.262    24305305.059    99526127.7974                 
                
  22237732.406   116860094.646    22237739.820    91059867.0994   22237739.758  
                
  20850558.914   111145241.155                                                  
  20850558.016  
  24846922.555   130571470.765    24846928.566   101744021.0474                 
                
  22780127.492   119710369.452    22780137.902    93280863.1264   22780138.312  
                
  23290200.312   122390877.314    23290210.262    95369551.4464   23290210.148  
                
  20750631.000   109045341.409    20750639.441    84970449.5534   20750639.301  
                
  22485036.070   118159708.560    22485045.941    92072548.6584   22485046.164  
                
  22604147.070   120620069.860                    93815603.669    22604151.203  
  22604145.070  
 21  8 15 16 39 10.0000000  0 15G16R 1G 4R17R 8R12G22G 7R10G 2G 6G26
                                G 9G 3R 2
  22226212.633   116799567.351    22226218.988    91012685.6214                 
                
  19387963.781   103639808.731                    80608758.456    19387969.062  
  19387963.129  
  20669211.375   108617495.566    20669218.934    84637072.3514   20669218.867  
                
  22868089.477   122371779.314                    95178044.360    22868094.473  
  22868087.723  
  20888585.000   111857470.695                    87000264.758    20888587.961  
  20888584.469  
  22784283.156   121709555.218                    94662984.767    22784289.113  
  22784282.629  
  24311970.094   127760287.756    24311976.312    99553445.3074                 
                
  22232967.969   116835057.367    22232975.387    91040357.5414   22232975.309  
                
  20855632.852   111172288.019                                                  
  20855631.957  
  24844950.445   130561107.221    24844956.434   101735945.5694                 
                
  22781729.531   119718788.087    22781739.965    93287423.0904   22781740.367  
                
  23293429.477   122407846.630    23293439.434    95382774.2844   23293439.316  
                
  20748346.531   109033336.444    20748354.945    84961095.0454   20748354.820  
                
  22491086.406   118191503.165    22491096.273    92097323.6714   22491096.477  
                
  22597735.070   120585854.144                    93788991.463    22597739.191  
  22597733.047  
 21  8 15 16 39 20.0000000  0 15G16R 1G 4R17R 8R12G22G 7R10G 2G 6G26
                                G 9G 3R 2
  22224656.469   116791389.704    22224662.805    91006313.4224                 
                
  19386800.695   103633591.365                    80603922.729    19386805.980  
  19386800.023  
  20670996.852   108626878.328    20671004.406    84644383.5914   20671004.348  
                
  22871115.867   122387974.430                    95190640.548    22871120.891  
  22871114.066  
  20892780.148   111879935.537                    87017737.404    20892783.109  
  20892779.578  
  22775977.508   121665188.451                    94628477.312    22775983.570  
  22775977.051  
  24318644.141   127795360.036    24318650.375    99580774.3454                 
                
  22228209.727   116810052.683    22228217.156    91020873.3874   22228217.070  
                
  20860719.328   111199401.849                                                  
  20860718.422  
  24842988.273   130550795.956    24842994.184   101727910.8074                 
                
  22783343.531   119727269.675    22783354.000    93294032.1094   22783354.398  
                
  23296669.945   122424875.366    23296679.902    95396043.4454   23296679.801  
                
  20746068.156   109021363.511    20746076.543    84951765.4834   20746076.422  
                
  22497143.023   118223330.907    22497152.859    92122124.4904   22497153.055  
                
  22591323.672   120551641.749                    93762381.819    22591327.797  
  22591321.656  
 21  8 15 16 39 30.0000000  0 15G16R 1G 4R17R 8R12G22G 7R10G 2G 6G26
                                G 9G 3R 2
  22223113.406   116783280.881    22223119.730    90999994.8804                 
                
  19385646.602   103627422.053                    80599124.391    19385651.891  
  19385645.918  
  20672788.102   108636291.395    20672795.664    84651718.4494   20672795.602  
                
  22874155.883   122404242.248                    95203293.286    22874160.938  
  22874154.070  
  20896982.766   111902440.331                    87035241.123    20896985.742  
  20896982.180  
  22767675.555   121620840.627                    94593984.559    22767681.496  
  22767675.035  
  24325320.617   127830444.752    24325326.812    99608113.0784                 
                
  22223457.242   116785078.298    22223464.723    91001412.8494   22223464.629  
                
  20865817.844   111226579.775                                                  
  20865816.918  
  24841035.609   130540534.634    24841041.441   101719914.9624                 
                
  22784969.055   119735811.840    22784979.559    93300688.3324   22784979.934  
                
  23299921.289   122441961.194    23299931.227    95409357.0864   23299931.121  
                
  20743795.430   109009420.270    20743803.797    84942459.0654   20743803.680  
                
  22503205.492   118255189.384    22503215.262    92146949.2714   22503215.488  
                
  22584912.500   120517430.423                    93735773.030    22584916.582  
  22584910.457  
 21  8 15 16 39 40.0000000  0 15G16R 1G 4R17R 8R12G22G 7R10G 2G 6G26
                                G 9G 3R 2
  22221583.828   116775242.914    22221590.125    90993731.5474                 
                
  19384501.875   103621302.860                    80594365.007    19384507.168  
  19384501.191  
  20674585.500   108645736.749    20674593.055    84659078.4654   20674592.996  
                
  22877209.859   122420584.865                    95216004.147    22877214.996  
  22877207.984  
  20901193.180   111924986.906                    87052777.339    20901196.188  
  20901192.566  
  22759377.555   121576513.938                    94559508.241    22759383.375  
  22759376.973  
  24331999.805   127865543.803    24332005.965    99635462.9764                 
                
  22218710.906   116760136.150    22218718.434    90981977.4264   22218718.332  
                
  20870928.773   111253823.962                                                  
  20870927.836  
  24839092.820   130530325.218    24839098.609   101711959.5834                 
                
  22786606.469   119744416.507    22786617.000    93307393.2634   22786617.367  
                
  23303183.852   122459106.005    23303193.773    95422716.6724   23303193.664  
                
  20741528.742   108997508.748    20741537.094    84933177.3614   20741536.996  
                
  22509274.164   118287080.475    22509283.895    92171799.4684   22509284.148  
                
  22578501.922   120483222.266                    93709166.695    22578505.930  
  22578499.836  
 21  8 15 16 39 50.0000000  0 15G16R 1G 4R17R 8R12G22G 7R10G 2G 6G26
                                G 9G 3R 2
  22220067.656   116767275.404    22220073.934    90987523.1024                 
                
  19383366.438   103615233.357                    80589644.292    19383371.738  
  19383365.758  
  20676388.945   108655213.926    20676396.500    84666463.2784   20676396.438  
                
  22880277.734   122437001.579                    95228772.710    22880282.828  
  22880275.949  
  20905411.383   111947575.195                    87070345.997    20905414.398  
  20905410.734  
  22751083.391   121532208.009                    94525048.094    22751089.176  
  22751082.789  
  24338681.609   127900656.675    24338687.734    99662823.6604                 
                
  22213970.641   116735225.919    22213978.184    90962566.8744   22213978.074  
                
  20876052.047   111281133.910                                                  
  20876051.098  
  24837159.836   130520167.331    24837165.625   101704044.3584                 
                
  22788255.695   119753083.204    22788266.230    93314146.5214   22788266.582  
                
  23306457.523   122476309.271    23306467.438    95436121.8204   23306467.320  
                
  20739268.008   108985628.518    20739276.340    84923920.0374   20739276.250  
                
  22515348.953   118319003.689    22515358.699    92196674.7004   22515358.949  
                
  22572091.844   120449016.859                    93682562.510    22572095.844  
  22572089.750  
 21  8 15 16 40  0.0000000  0 15G16R 1G 4R17R 8R12G22G 7R10G 2G 6G26
                                G 9G 3R 2
  22218564.875   116759378.230    22218571.125    90981369.4674                 
                
  19382240.367   103609213.836                    80584962.438    19382245.664  
  19382239.691  
  20678198.453   108664722.962    20678206.012    84673872.9154   20678205.961  
                
  22883359.430   122453492.496                    95241599.009    22883364.512  
  22883357.578  
  20909637.359   111970205.069                    87087947.008    20909640.387  
  20909636.699  
  22742793.141   121487923.062                    94490604.265    22742798.902  
  22742792.531  
  24345366.055   127935783.326    24345372.129    99690195.0684                 
                
  22209236.445   116710347.589    22209243.977    90943181.1674   22209243.863  
                
  20881187.586   111308509.282                                                  
  20881186.605  
  24835236.672   130510061.067    24835242.465   101696169.3424                 
                
  22789916.711   119761811.879    22789927.234    93320948.0684   22789927.590  
                
  23309742.320   122493570.948    23309752.219    95449572.4974   23309752.121  
                
  20737013.234   108973779.622    20737021.559    84914687.1374   20737021.469  
                
  22521429.852   118350958.985    22521439.648    92221574.9134   22521439.875  
                
  22565682.266   120414814.092                    93655960.345    22565686.254  
  22565680.199  
 21  8 15 16 40 10.0000000  0 15G16R 1G 4R17R 8R12G22G 7R10G 2G 6G26
                                G 9G 3R 2
  22217075.508   116751551.574    22217081.719    90975270.7774                 
                
  19381123.609   103603244.147                    80580319.349    19381128.883  
  19381122.945  
  20680014.031   108674263.884    20680021.609    84681307.3984   20680021.555  
                
  22886454.961   122470057.380                    95254482.750    22886460.105  
  22886453.102  
  20913871.055   111992876.323                    87105580.193    20913874.098  
  20913870.391  
  22734506.805   121443659.233                    94456176.866    22734512.602  
  22734506.242  
  24352053.055   127970923.751    24352059.133    99717577.2214                 
                
  22204508.328   116685501.214    22204515.840    90923820.3704   22204515.730  
                
  20886335.398   111335950.098                                                  
  20886334.383  
  24833323.320   130500006.440    24833329.168   101688334.5764                 
                
  22791589.516   119770602.502    22791600.016    93327797.9134   22791600.383  
                
  23313038.250   122510891.055    23313048.129    95463068.6894   23313048.051  
                
  20734764.438   108961962.126    20734772.754    84905478.7044   20734772.672  
                
  22527516.836   118382946.338    22527526.680    92246500.1014   22527526.875  
                
  22559273.203   120380614.268                    93629360.522    22559277.227  
  22559271.133  
 21  8 15 16 40 20.0000000  0 15G16R 1G 4R17R 8R12G22G 7R10G 2G 6G26
                                G 9G 3R 2
  22215599.586   116743795.516    22215605.727    90969227.0954                 
                
  19380016.219   103597324.492                    80575715.182    19380021.492  
  19380015.566  
  20681835.648   108683836.563    20681843.262    84688766.6284   20681843.191  
                
  22889564.305   122486696.036                    95267423.942    22889569.473  
  22889562.457  
  20918112.500   112015589.054                    87123245.643    20918115.551  
  20918111.855  
  22726224.469   121399416.501                    94421765.879    22726230.262  
  22726223.934  
  24358742.609   128006077.758    24358748.730    99744969.9304                 
                
  22199786.297   116660686.813    22199793.785    90904484.4854   22199793.680  
                
  20891495.469   111363456.205                                                  
  20891494.410  
  24831419.805   130490003.443    24831425.691   101680540.0074                 
                
  22793274.086   119779454.928    22793284.559    93334695.9044   22793284.938  
                
  23316345.250   122528269.404    23316355.121    95476610.2684   23316355.047  
                
  20732521.609   108950175.957    20732529.926    84896294.6774   20732529.840  
                
  22533609.898   118414965.556    22533619.750    92271450.1304   22533619.941  
                
  22552864.727   120346417.531                    93602763.091    22552868.793  
  22552862.660  
 21  8 15 16 40 30.0000000  0 15G16R 1G 4R17R 8R12G22G 7R10G 2G 6G26
                                G 9G 3R 2
  22214137.102   116736110.078    22214143.207    90963238.4474                 
                
  19378918.156   103591454.710                    80571149.791    19378923.422  
  19378917.504  
  20683663.297   108693440.968    20683670.957    84696250.5784   20683670.859  
                
  22892687.438   122503408.302                    95280422.348    22892692.645  
  22892685.652  
  20922361.664   112038343.136                    87140943.260    20922364.730  
  20922361.004  
  22717946.125   121355195.092                    94387371.473    22717951.938  
  22717945.617  
  24365434.672   128041245.276    24365440.910    99772373.1454                 
                
  22195070.336   116635904.292    22195077.816    90885173.4404   22195077.699  
                
  20896667.672   111391027.056                                                  
  20896666.609  
  24829526.102   130480052.019    24829532.012   101672785.6484                 
                
  22794970.398   119788369.080    22794980.863    93341641.9914   22794981.234  
                
  23319663.320   122545705.924    23319673.199    95490197.1604   23319673.152  
                
  20730284.727   108938421.090    20730293.051    84887135.0354   20730292.965  
                
  22539709.008   118447016.551    22539718.832    92296424.9234   22539719.039  
                
  22546456.797   120312223.539                    93576167.783    22546460.879  
  22546454.711  
 21  8 15 16 40 40.0000000  0 15G16R 1G 4R17R 8R12G22G 7R10G 2G 6G26
                                G 9G 3R 2
  22212688.055   116728495.288    22212694.203    90957304.8674                 
                
  19377829.445   103585634.944                    80566623.305    19377834.707  
  19377828.785  
  20685497.016   108703077.197    20685504.730    84703759.3254   20685504.598  
                
  22895824.297   122520194.236                    95293478.030    22895829.574  
  22895822.527  
  20926618.602   112061138.818                    87158673.211    20926621.684  
  20926617.934  
  22709671.812   121310995.050                    94352993.688    22709677.613  
  22709671.277  
  24372129.258   128076426.263    24372135.633    99799786.8804                 
                
  22190360.477   116611153.823    22190367.945    90865887.3734   22190367.840  
                
  20901852.078   111418662.937                                                  
  20901851.000  
  24827642.250   130470152.342    24827648.160   101665071.5924                 
                
  22796678.477   119797345.001    22796688.934    93348636.2054   22796689.293  
                
  23322992.453   122563200.622    23323002.383    95503829.3894   23323002.320  
                
  20728053.828   108926697.648    20728062.164    84877999.8894   20728062.070  
                
  22545814.172   118479099.371    22545823.957    92321424.5204   22545824.180  
                
  22540049.484   120278032.756                    93549574.955    22540053.531  
  22540047.391  
 21  8 15 16 40 50.0000000  0 15G16R 1G 4R17R 8R12G22G 7R10G 2G 6G26
                                G 9G 3R 2
  22211252.461   116720951.175    22211258.703    90951426.3354                 
                
  19376750.133   103579865.423                    80562135.915    19376755.395  
  19376749.477  
  20687336.758   108712745.143    20687344.523    84711292.7844   20687344.355  
                
  22898974.867   122537053.547                    95306590.865    22898980.117  
  22898973.117  
  20930883.242   112083975.716                    87176435.241    20930886.340  
  20930882.574  
  22701401.453   121266816.460                    94318632.585    22701407.297  
  22701400.945  
  24378826.391   128111620.577    24378832.859    99827210.9844                 
                
  22185656.703   116586435.406    22185664.176    90846626.2824   22185664.059  
                
  20907048.641   111446363.576                                                  
  20907047.539  
  24825768.219   130460304.240    24825774.160   101657397.7534                 
                
  22798398.281   119806382.532    22798408.727    93355678.4334   22798409.078  
                
  23326332.625   122580753.329    23326342.602    95517506.8254   23326342.520  
                
  20725828.898   108915005.571    20725837.258    84868889.1754   20725837.152  
                
  22551925.352   118511213.833    22551935.102    92346448.7644   22551935.344  
                
  22533642.633   120243844.590                    93522984.198    22533646.664  
  22533640.559  
 21  8 15 16 41  0.0000000  0 15G16R 1G 4R17R 8R12G22G 7R10G 2G 6G26
                                G 9G 3R 2
  22209830.336   116713477.886    22209836.656    90945602.9934                 
                
  19375680.203   103574146.055                    80557687.504    19375685.473  
  19375679.539  
  20689182.547   108722444.870    20689190.359    84718851.0114   20689190.168  
                
  22902139.148   122553986.219                    95319760.673    22902144.477  
  22902137.438  
  20935155.617   112106854.055                    87194229.501    20935158.723  
  20935154.961  
  22693135.164   121222659.633                    94284288.422    22693141.055  
  22693134.637  
  24385526.188   128146828.263    24385532.656    99854645.5344                 
                
  22180959.062   116561749.182    22180966.535    90827390.2694   22180966.414  
                
  20912257.344   111474128.925                                                  
  20912256.250  
  24823904.008   130450507.754    24823909.957   101649764.1214                 
                
  22800129.812   119815481.685    22800140.219    93362768.6874   22800140.598  
                
  23329683.836   122598364.091    23329693.859    95531229.4894   23329693.773  
                
  20723609.938   108903344.930    20723618.324    84859802.9724   20723618.211  
                
  22558042.547   118543359.955    22558052.270    92371497.6804   22558052.527  
                
  22527236.359   120209659.588                    93496395.872    22527240.371  
  22527234.316  
 21  8 15 16 41 10.0000000  0 15G16R 1G 4R17R 8R12G22G 7R10G 2G 6G26
                                G 9G 3R 2
  22208421.695   116706075.403    22208428.059    90939834.8384                 
                
  19374619.680   103568476.938                    80553278.194    19374624.965  
  19374619.004  
  20691034.391   108732176.361    20691042.234    84726433.9864   20691042.027  
                
  22905317.164   122570992.228                    95332987.538    22905322.582  
  22905315.496  
  20939435.742   112129773.851                    87212056.009    20939438.852  
  20939435.082  
  22684872.844   121178524.636                    94249961.252    22684878.895  
  22684872.418  
  24392228.625   128182049.245    24392235.004    99882090.4394                 
                
  22176267.562   116537095.229    22176275.043    90808179.4124   22176274.914  
                
  20917478.117   111501958.585                                                  
  20917477.039  
  24822049.672   130440763.082    24822055.621   101642170.8604                 
                
  22801873.047   119824642.407    22801883.406    93369906.9054   22801883.824  
                
  23333046.086   122616032.804    23333056.188    95544997.3134   23333056.090  
                
  20721396.984   108891715.758    20721405.398    84850741.2864   20721405.262  
                
  22564165.750   118575537.639    22564175.473    92396571.1914   22564175.727  
                
  22520830.750   120175477.943                    93469810.134    22520834.719  
  22520828.711  
 21  8 15 16 41 20.0000000  0 15G16R 1G 4R17R 8R12G22G 7R10G 2G 6G26
                                G 9G 3R 2
  22207026.523   116698743.695    22207032.914    90934121.8204                 
                
  19373568.539   103562858.009                    80548907.913    19373573.832  
  19373567.867  
  20692892.258   108741939.547    20692900.125    84734041.6674   20692899.902  
                
  22908508.805   122588071.227                    95346271.218    22908514.152  
  22908507.160  
  20943723.555   112152734.884                    87229914.596    20943726.680  
  20943722.902  
  22676614.742   121134411.572                    94215651.120    22676620.828  
  22676614.348  
  24398933.562   128217283.374    24398939.867    99909545.6004                 
                
  22171582.141   116512473.240    22171589.625    90788993.4564   22171589.484  
                
  20922711.000   111529852.731                                                  
  20922709.934  
  24820205.172   130431070.173    24820211.121   101634617.9624                 
                
  22803627.977   119833864.581    22803638.316    93377093.0084   22803638.746  
                
  23336419.336   122633759.327    23336429.508    95558810.1804   23336429.375  
                
  20719190.008   108880118.015    20719198.438    84841704.0814   20719198.293  
                
  22570294.953   118607746.777    22570304.699    92421669.1974   22570304.938  
                
  22514425.758   120141299.709                    93443227.078    22514429.703  
  22514423.703  
 21  8 15 16 41 30.0000000  0 15G16R 1G 4R17R 8R12G22G 7R10G 2G 6G26
                                G 9G 3R 2
  22205644.844   116691482.885    22205651.258    90928464.0524                 
                
  19372526.852   103557289.597                    80544576.929    19372532.152  
  19372526.184  
  20694756.172   108751734.465    20694764.059    84741674.0754   20694763.844  
                
  22911714.125   122605223.221                    95359611.649    22911719.465  
  22911712.594  
  20948019.133   112175737.390                    87247805.420    20948022.262  
  20948018.488  
  22668360.828   121090320.556                    94181358.136    22668366.875  
  22668360.402  
  24405640.938   128252530.623    24405647.238    99937010.9754                 
                
  22166902.805   116487883.241    22166910.281    90769832.4344   22166910.125  
                
  20927955.891   111557810.925                                                  
  20927954.867  
  24818370.539   130421429.106    24818376.473   101627105.4314                 
                
  22805394.609   119843148.216    22805404.965    93384326.9984   22805405.387  
                
  23339803.594   122651543.691    23339813.836    95572668.1294   23339813.703  
                
  20716989.031   108868551.799    20716997.473    84832691.4514   20716997.320  
                
  22576430.133   118639987.325    22576439.906    92446791.7024   22576440.113  
                
  22508021.312   120107124.410                    93416646.286    22508025.250  
  22508019.277  
 21  8 15 16 41 40.0000000  0 15G16R 1G 4R17R 8R12G22G 7R10G 2G 6G26
                                G 9G 3R 2
  22204276.617   116684292.867    22204283.043    90922861.4414                 
                
  19371494.539   103551771.330                    80540284.942    19371499.848  
  19371493.867  
  20696626.094   108761560.994    20696634.012    84749331.1044   20696633.773  
                
  22914933.031   122622448.078                    95373008.753    22914938.344  
  22914931.512  
  20952322.398   112198781.150                    87265728.345    20952325.535  
  20952321.777  
  22660111.086   121046251.671                    94147082.351    22660117.035  
  22660110.629  
  24412350.859   128287790.826    24412357.055    99964486.4464                 
                
  22162229.578   116463325.343    22162237.051    90750696.4234   22162236.902  
                
  20933212.797   111585833.138                                                  
  20933211.828  
  24816545.727   130411839.714    24816551.656   101619633.1754                 
                
  22807172.891   119852493.082    22807183.273    93391608.7094   22807183.691  
                
  23343198.805   122669385.673    23343209.094    95586570.9694   23343208.961  
                
  20714794.023   108857016.982    20714802.469    84823703.2794   20714802.316  
                
  22582571.250   118672259.103    22582581.035    92471938.5334   22582581.246  
                
  22501617.477   120072952.386                    93390068.060    22501621.406  
  22501615.438  
 21  8 15 16 41 50.0000000  0 15G16R 1G 4R17R 8R12G22G 7R10G 2G 6G26
                                G 9G 3R 2
  22202921.922   116677173.863    22202928.355    90917314.1754                 
                
  19370471.695   103546303.648                    80536032.306    19370477.031  
  19370471.023  
  20698502.062   108771419.283    20698510.008    84757012.8854   20698509.762  
                
  22918165.555   122639745.758                    95386462.551    22918170.801  
  22918164.082  
  20956633.367   112221866.140                    87283683.318    20956636.516  
  20956632.750  
  22651865.562   121002205.236                    94112824.027    22651871.414  
  22651865.070  
  24419063.203   128323064.027    24419069.348    99991972.0554                 
                
  22157562.508   116438799.787    22157570.008    90731585.6124   22157569.844  
                
  20938481.703   111613919.277                                                  
  20938480.758  
  24814730.797   130402302.186    24814736.754   101612201.3534                 
                
  22808962.844   119861899.334    22808973.258    93398938.2494   22808973.660  
                
  23346605.000   122687285.382    23346615.328    95600518.7864   23346615.211  
                
  20712605.031   108845513.748    20712613.473    84814739.7244   20712613.328  
                
  22588718.344   118704562.221    22588728.113    92497109.7914   22588728.344  
                
  22495214.312   120038783.895                    93363492.595    22495218.254  
  22495212.266  
 21  8 15 16 42  0.0000000  0 15G16R 1G 4R17R 8R12G22G 7R10G 2G 6G26
                                G 9G 3R 2
  22201580.734   116670125.917    22201587.219    90911822.2724                 
                
  19369458.320   103540886.599                    80531819.054    19369463.684  
  19369457.633  
  20700384.070   108781309.321    20700392.051    84764719.4064   20700391.797  
                
  22921411.609   122657116.184                    95399972.821    22921416.941  
  22921410.125  
  20960952.055   112244992.457                    87301670.460    20960955.227  
  20960951.449  
  22643624.211   120958181.203                    94078583.139    22643630.016  
  22643623.715  
  24425778.016   128358350.161    24425784.062   100019467.7324                 
                
  22152901.617   116414306.646    22152909.160    90712500.0624   22152908.980  
                
  20943762.617   111642069.453                                                  
  20943761.695  
  24812925.758   130392816.629    24812931.734   101604810.0064                 
                
  22810764.461   119871366.906    22810774.898    93406315.5624   22810775.281  
                
  23350022.156   122705242.731    23350032.551    95614511.5334   23350032.422  
                
  20710422.047   108834042.113    20710430.473    84805800.7934   20710430.344  
                
  22594871.367   118736896.598    22594881.125    92522305.3964   22594881.383  
                
  22488811.797   120004618.752                    93336919.688    22488815.664  
  22488809.746  
 21  8 15 16 42 10.0000000  0 15G16R 1G 4R17R 8R12G22G 7R10G 2G 6G26
                                G 9G 3R 2
  22200253.086   116663149.134    22200259.625    90906385.8324                 
                
  19368454.391   103535520.078                    80527645.099    19368459.773  
  19368453.680  
  20702272.109   108791231.071    20702280.117    84772450.6404   20702279.848  
                
  22924671.250   122674559.088                    95413539.517    22924676.605  
  22924669.793  
  20965278.445   112268160.128                    87319689.746    20965281.645  
  20965277.828  
  22635387.000   120914179.758                    94044359.814    22635392.832  
  22635386.562  
  24432495.164   128393649.169    24432501.219   100046973.4394                 
                
  22148246.867   116389845.839    22148254.465    90693439.7024   22148254.266  
                
  20949055.453   111670283.206                                                  
  20949054.570  
  24811130.570   130383382.907    24811136.551   101597459.0684                 
                
  22812577.727   119880895.692    22812588.180    93413740.5784   22812588.574  
                
  23353450.266   122723257.648    23353460.723    95628549.1304   23353460.586  
                
  20708245.078   108822602.088    20708253.480    84796886.4954   20708253.371  
                
  22601030.320   118769262.137    22601040.070    92547525.2854   22601040.336  
                
  22482409.914   119970457.101                    93310349.504    22482413.750  
  22482407.832  
 21  8 15 16 42 20.0000000  0 15G16R 1G 4R17R 8R12G22G 7R10G 2G 6G26
                                G 9G 3R 2
  22198938.984   116656243.514    22198945.547    90901004.8284                 
                
  19367459.953   103530204.278                    80523510.590    19367465.344  
  19367459.234  
  20704166.188   108801184.534    20704174.215    84780206.5844   20704173.949  
                
  22927944.406   122692074.478                    95427162.584    22927949.801  
  22927942.902  
  20969612.609   112291369.345                    87337741.358    20969615.844  
  20969611.969  
  22627154.023   120870201.102                    94010154.220    22627159.922  
  22627153.645  
  24439214.750   128428960.954    24439220.852   100074489.0884                 
                
  22143598.273   116365417.354    22143605.926    90674404.5404   22143605.719  
                
  20954360.180   111698560.311                                                  
  20954359.324  
  24809345.281   130374001.119    24809351.258   101590148.5844                 
                
  22814402.641   119890485.674    22814413.090    93421213.2704   22814413.512  
                
  23356889.320   122741330.092    23356899.840    95642631.5484   23356899.680  
                
  20706074.133   108811193.701    20706082.504    84787996.8394   20706082.418  
                
  22607195.203   118801658.777    22607204.941    92572769.4084   22607205.223  
                
  22476008.656   119936298.964                    93283782.092    22476012.531  
  22476006.539  
 21  8 15 16 42 30.0000000  0 15G16R 1G 4R17R 8R12G22G 7R10G 2G 6G26
                                G 9G 3R 2
  22197638.438   116649409.147    22197645.031    90895679.3594                 
                
  19366475.031   103524939.300                    80519415.605    19366480.449  
  19366474.305  
  20706066.305   108811169.734    20706074.344    84787987.2574   20706074.066  
                
  22931231.117   122709662.271                    95440841.878    22931236.602  
  22931229.566  
  20973954.445   112314619.743                    87355824.981    20973957.727  
  20973953.773  
  22618925.266   120826245.294                    93975966.414    22618931.281  
  22618924.980  
  24445936.820   128464285.509    24445942.934   100102014.7074                 
                
  22138955.859   116341021.324    22138963.531    90655394.6544   22138963.312  
                
  20959676.875   111726901.192                                                  
  20959676.008  
  24807569.883   130364671.254    24807575.867   101582878.5694                 
                
  22816239.195   119900136.780    22816249.629    93428733.6174   22816250.059  
                
  23360339.328   122759460.041    23360349.887    95656758.7774   23360349.703  
                
  20703909.219   108799816.983    20703917.566    84779131.8704   20703917.500  
                
  22613365.992   118834086.466    22613375.750    92598037.7204   22613376.051  
                
  22469608.125   119902144.737                    93257217.741    22469612.043  
  22469606.004  
 21  8 15 16 42 40.0000000  0 15G16R 1G 4R17R 8R12G22G 7R10G 2G 6G26
                                G 9G 3R 2
  22196351.430   116642645.925    22196358.055    90890409.3314                 
                
  19365499.594   103519725.044                    80515360.084    19365505.012  
  19365498.867  
  20707972.438   108821186.549    20707980.480    84795792.5664   20707980.203  
                
  22934531.320   122727322.225                    95454577.442    22934536.824  
  22934529.703  
  20978304.016   112337911.485                    87373940.766    20978307.336  
  20978303.340  
  22610700.914   120782312.436                    93941796.454    22610706.945  
  22610700.629  
  24452661.219   128499622.583    24452667.395   100129550.0734                 
                
  22134319.586   116316657.591    22134327.262    90636409.9384   22134327.051  
                
  20965005.383   111755305.085                                                  
  20965004.531  
  24805804.344   130355393.267    24805810.340   101575648.9714                 
                
  22818087.344   119909848.864    22818097.754    93436301.4674   22818098.203  
                
  23363800.227   122777647.220    23363810.777    95670930.6204   23363810.613  
                
  20701750.320   108788471.882    20701758.652    84770291.5254   20701758.590  
                
  22619542.656   118866545.013    22619552.418    92623330.0854   22619552.707  
                
  22463208.289   119867994.080                    93230656.137    22463212.199  
  22463206.148  
 21  8 15 16 42 50.0000000  0 15G16R 1G 4R17R 8R12G22G 7R10G 2G 6G26
                                G 9G 3R 2
  22195077.992   116635953.925    22195084.645    90885194.7934                 
                
  19364533.648   103514561.518                    80511343.998    19364539.055  
  19364532.938  
  20709884.602   108831235.028    20709892.637    84803622.5434   20709892.363  
                
  22937844.969   122745054.272                    95468368.989    22937850.520  
  22937843.367  
  20982661.258   112361244.333                    87392088.535    20982664.609  
  20982660.590  
  22602480.961   120738402.676                    93907644.441    22602486.953  
  22602480.605  
  24459388.023   128534972.179    24459394.277   100157095.2074                 
                
  22129689.484   116292326.275    22129697.176    90617450.4784   22129696.969  
                
  20970345.734   111783772.109                                                  
  20970344.902  
  24804048.719   130346167.284    24804054.691   101568459.8814                 
                
  22819947.102   119919621.899    22819957.488    93443916.8154   22819957.957  
                
  23367272.031   122795891.698    23367282.551    95685147.0924   23367282.402  
                
  20699597.445   108777158.435    20699605.777    84761475.8574   20699605.715  
                
  22625725.203   118899034.425    22625734.918    92648646.5154   22625735.211  
                
  22456809.133   119833846.987                    93204097.277    22456812.984  
  22456806.953  
 21  8 15 16 43  0.0000000  0 15G16R 1G 4R17R 8R12G22G 7R10G 2G 6G26
                                G 9G 3R 2
  22193818.094   116629333.136    22193824.730    90880035.7374                 
                
  19363577.234   103509448.953                    80507367.560    19363582.629  
  19363576.531  
  20711802.766   108841315.069    20711810.789    84811477.1264   20711810.520  
                
  22941172.094   122762858.146                    95482216.446    22941177.629  
  22941170.547  
  20987026.195   112384618.375                    87410268.331    20987029.594  
  20987025.504  
  22594265.367   120694516.011                    93873510.396    22594271.266  
  22594264.949  
  24466117.180   128570334.188    24466123.492   100184649.9984                 
                
  22125065.547   116268027.390    22125073.262    90598516.3054   22125073.055  
                
  20975697.875   111812301.985                                                  
  20975697.055  
  24802302.938   130336993.189    24802308.906   101561311.2464                 
                
  22821818.438   119929455.772    22821828.816    93451579.5604   22821829.297  
                
  23370754.703   122814193.335    23370765.191    95699408.0824   23370765.062  
                
  20697450.586   108765876.613    20697458.918    84752684.8264   20697458.840  
                
  22631913.570   118931554.560    22631923.219    92673986.8714   22631923.527  
                
  22450410.758   119799703.996                    93177541.623    22450414.551  
  22450408.555  
 21  8 15 16 43 10.0000000  0 15G16R 1G 4R17R 8R12G22G 7R10G 2G 6G26
                                G 9G 3R 2
  22192571.750   116622783.606    22192578.367    90874932.2104                 
                
  19362630.352   103504387.319                    80503430.735    19362635.762  
  19362629.668  
  20713726.938   108851426.708    20713734.938    84819356.3184   20713734.688  
                
  22944512.562   122780733.937                    95496119.855    22944518.031  
  22944510.957  
  20991398.812   112408033.595                    87428480.149    20991402.262  
  20991398.113  
  22586054.094   120650652.775                    93839394.577    22586059.945  
  22586053.637  
  24472848.617   128605708.609    24472855.027   100212214.4624                 
                
  22120447.781   116243760.939    22120455.504    90579607.3934   22120455.309  
                
  20981061.781   111840894.623                                                  
  20981060.980  
  24800567.055   130327871.094    24800573.000   101554203.1084                 
                
  22823701.336   119939350.457    22823711.695    93459289.6884   22823712.180  
                
  23374248.227   122832552.049    23374258.699    95713713.5744   23374258.578  
                
  20695309.742   108754626.450    20695318.074    84743918.4774   20695317.980  
                
  22638107.781   118964105.363    22638117.398    92699351.1184   22638117.723  
                
  22444013.078   119765564.842                    93150988.942    22444016.852  
  22444010.891  
 21  8 15 16 43 20.0000000  0 15G16R 1G 4R17R 8R12G22G 7R10G 2G 6G26
                                G 9G 3R 2
  22191339.023   116616305.564    22191345.648    90869884.3964                 
                
  19361693.078   103499377.038                    80499533.848    19361698.477  
  19361692.414  
  20715657.188   108861570.247    20715665.160    84827260.3704   20715664.918  
                
  22947866.531   122798681.508                    95510079.085    22947871.930  
  22947864.922  
  20995779.203   112431490.348                    87446724.284    20995782.668  
  20995778.500  
  22577847.297   120606813.248                    93805297.196    22577853.074  
  22577846.773  
  24479582.438   128641095.635    24479588.945   100239788.7464                 
                
  22115836.258   116219527.277    22115843.973    90560724.0394   22115843.809  
                
  20986437.469   111869549.968                                                  
  20986436.668  
  24798841.133   130318801.336    24798847.031   101547135.7414                 
                
  22825595.867   119949306.192    22825606.199    93467047.4024   22825606.691  
                
  23377752.680   122850968.105    23377763.129    95728063.7384   23377763.031  
                
  20693175.000   108743408.301    20693183.324    84735177.0614   20693183.230  
                
  22644307.875   118996687.083    22644317.496    92724739.4694   22644317.840  
                
  22437616.164   119731429.916                    93124439.590    22437620.004  
  22437614.004  
 21  8 15 16 43 30.0000000  0 15G16R 1G 4R17R 8R12G22G 7R10G 2G 6G26
                                G 9G 3R 2
  22190119.844   116609898.721    22190126.484    90864892.0494                 
                
  19360765.336   103494417.684                    80495676.567    19360770.727  
  19360764.695  
  20717593.422   108871745.234    20717601.363    84835188.9414   20717601.145  
                
  22951233.797   122816700.757                    95524094.022    22951239.133  
  22951232.082  
  21000167.234   112454987.993                    87465000.216    21000170.711  
  21000166.520  
  22569644.805   120562997.260                    93771218.111    22569650.605  
  22569644.324  
  24486318.570   128676494.772    24486325.184   100267372.4784                 
                
  22111230.891   116195325.940    22111238.566    90541865.8674   22111238.434  
                
  20991824.891   111898267.843                                                  
  20991824.105  
  24797125.086   130309783.446    24797130.914   101540108.8274                 
                
  22827501.914   119959322.491    22827512.219    93474852.3094   22827512.730  
                
  23381267.938   122869441.008    23381278.379    95742458.2044   23381278.270  
                
  20691046.281   108732221.747    20691054.574    84726460.2674   20691054.496  
                
  22650513.758   119029299.198    22650523.387    92750151.5014   22650523.730  
                
  22431219.969   119697298.750                    93097893.156    22431223.867  
  22431217.844  
 21  8 15 16 43 40.0000000  0 15G16R 1G 4R17R 8R12G22G 7R10G 2G 6G26
                                G 9G 3R 2
  22188914.289   116603563.582    22188920.941    90859955.5864                 
                
  19359847.172   103489509.595                    80491859.169    19359852.566  
  19359846.531  
  20719535.688   108881951.956    20719543.594    84843142.2234   20719543.383  
                
  22954614.492   122834791.436                    95538164.576    22954619.793  
  22954612.773  
  21004562.992   112478527.073                    87483308.384    21004566.484  
  21004562.285  
  22561446.805   120519205.082                    93737157.559    22561452.582  
  22561446.352  
  24493057.086   128711906.167    24493063.762   100294965.7524                 
                
  22106631.742   116171157.350    22106639.355    90523033.1994   22106639.258  
                
  20997223.992   111927048.009                                                  
  20997223.215  
  24795418.953   130300817.722    24795424.637   101533122.5434                 
                
  22829419.523   119969399.558    22829429.789    93482704.5604   22829430.309  
                
  23384794.055   122887970.934    23384804.508    95756897.0994   23384804.375  
                
  20688923.609   108721067.077    20688931.891    84717768.3204   20688931.824  
                
  22656725.453   119061941.935    22656735.074    92775587.3914   22656735.434  
                
  22424824.539   119663171.537                    93071349.777    22424828.438  
  22424822.445  
 21  8 15 16 43 50.0000000  0 15G16R 1G 4R17R 8R12G22G 7R10G 2G 6G26
                                G 9G 3R 2
  22187722.367   116597300.011    22187729.016    90855074.8834                 
                
  19358938.570   103484652.579                    80488081.498    19358943.984  
  19358937.934  
  20721483.977   108892190.260    20721491.848    84851120.1224   20721491.656  
                
  22958008.484   122852953.570                    95552290.580    22958013.805  
  22958006.723  
  21008966.422   112502107.162                    87501648.445    21008969.926  
  21008965.719  
  22553253.281   120475436.780                    93703115.576    22553259.039  
  22553252.801  
  24499797.922   128747329.681    24499804.684   100322568.4594                 
                
  22102038.789   116147021.348    22102046.344    90504225.9394   22102046.262  
                
  21002634.750   111955890.322                                                  
  21002633.973  
  24793722.758   130291904.114    24793728.277   101526176.8824                 
                
  22831348.664   119979537.227    22831358.879    93490604.0294   22831359.418  
                
  23388330.992   122906557.701    23388341.469    95771380.2924   23388341.328  
                
  20686806.992   108709944.204    20686815.262    84709101.1484   20686815.195  
                
  22662942.938   119094615.068    22662952.547    92801046.9714   22662952.914  
                
  22418429.914   119629048.505                    93044809.647    22418433.762  
  22418427.824  
 21  8 15 16 44  0.0000000  0 15G16R 1G 4R17R 8R12G22G 7R10G 2G 6G26
                                G 9G 3R 2
  22186544.070   116591108.019    22186550.703    90850249.9594                 
                
  19358039.555   103479846.803                    80484343.663    19358044.961  
  19358038.926  
  20723438.273   108902460.138    20723446.117    84859122.6224   20723445.926  
                
  22961415.836   122871186.812                    95566472.039    22961421.023  
  22961414.090  
  21013377.547   112525728.526                    87520020.612    21013381.062  
  21013376.828  
  22545064.242   120431692.446                    93669092.232    22545069.949  
  22545063.738  
  24506541.125   128782765.189    24506547.906   100350180.5214                 
                
  22097452.055   116122917.964    22097459.543    90485444.1034   22097459.488  
                
  21008057.125   111984794.612                                                  
  21008056.344  
  24792036.469   130283042.650    24792041.891   101519271.8504                 
                
  22833289.320   119989735.425    22833299.480    93498550.6624   22833300.047  
                
  23391878.727   122925201.280    23391889.211    95785907.7324   23391889.059  
                
  20684696.430   108698853.133    20684704.707    84700458.7614   20684704.625  
                
  22669166.195   119127318.572    22669175.785    92826530.2074   22669176.191  
                
  22412036.039   119594929.820                    93018272.884    22412039.902  
  22412033.949  
 21  8 15 16 44 10.0000000  0 15G16R 1G 4R17R 8R12G22G 7R10G 2G 6G26
                                G 9G 3R 2
  22185379.391   116584987.610    22185386.039    90845480.8114                 
                
  19357150.156   103475092.474                    80480645.858    19357155.582  
  19357149.551  
  20725398.562   108912761.549    20725406.379    84867149.6964   20725406.195  
                
  22964836.477   122889491.194                    95580708.740    22964841.586  
  22964834.770  
  21017796.352   112549391.016                    87538424.748    21017799.875  
  21017795.641  
  22536879.727   120387972.278                    93635087.671    22536885.398  
  22536879.199  
  24513286.680   128818212.642    24513293.387   100377801.8864                 
                
  22092871.523   116098847.195    22092878.961    90466687.6774   22092878.941  
                
  21013491.125   112013760.826                                                  
  21013490.340  
  24790360.086   130274233.239    24790365.461   101512407.3804                 
                
  22835241.453   119999994.037    22835251.590    93506544.3884   22835252.152  
                
  23395437.250   122943901.503    23395447.727    95800479.3324   23395447.582  
                
  20682591.914   108687793.835    20682600.203    84691841.1374   20682600.109  
                
  22675395.203   119160052.309    22675404.824    92852037.0024   22675405.234  
                
  22405642.914   119560815.155                    92991739.315    22405646.820  
  22405640.812  
 21  8 15 16 44 20.0000000  0 15G16R 1G 4R17R 8R12G22G 7R10G 2G 6G26
                                G 9G 3R 2
  22184228.344   116578938.858    22184235.023    90840767.5234                 
                
  19356270.383   103470389.549                    80476988.024    19356275.809  
  19356269.797  
  20727364.891   108923094.602    20727372.668    84875201.4314   20727372.492  
                
  22968270.398   122907866.538                    95595000.713    22968275.398  
  22968268.746  
  21022222.812   112573094.425                    87556860.738    21022226.320  
  21022222.102  
  22528699.797   120344276.462                    93601102.067    22528705.477  
  22528699.250  
  24520034.469   128853672.000    24520041.105   100405432.5524                 
                
  22088297.250   116074809.265    22088304.645    90447956.8334   22088304.633  
                
  21018936.750   112042789.013                                                  
  21018935.957  
  24788693.641   130265476.061    24788698.906   101505583.6154                 
                
  22837205.117   120010313.130    22837215.238    93514585.2404   22837215.797  
                
  23399006.578   122962658.484    23399017.020    95815095.1474   23399016.902  
                
  20680493.477   108676766.488    20680501.770    84683248.4014   20680501.660  
                
  22681629.984   119192816.335    22681639.691    92877567.3944   22681640.102  
                
  22399250.672   119526704.916                    92965209.153    22399254.547  
  22399248.582  
 21  8 15 16 44 30.0000000  0 15G16R 1G 4R17R 8R12G22G 7R10G 2G 6G26
                                G 9G 3R 2
  22183090.930   116572961.747    22183097.629    90836110.0354                 
                
  19355400.203   103465737.898                    80473370.071    19355405.637  
  19355399.633  
  20729337.203   108933459.149    20729344.934    84883277.7054   20729344.781  
                
  22971717.570   122926312.787                    95609347.779    22971722.484  
  22971715.863  
  21026656.969   112596839.112                    87575328.824    21026660.469  
  21026656.273  
  22520524.422   120300604.970                    93567135.376    22520530.078  
  22520523.859  
  24526784.438   128889143.065    24526791.012   100433072.3114                 
                
  22083729.195   116050804.072    22083736.551    90429251.4774   22083736.547  
                
  21024393.906   112071878.711                                                  
  21024393.094  
  24787037.102   130256770.944    24787042.355   101498800.3984                 
                
  22839180.250   120020692.540    22839190.348    93522673.0804   22839190.898  
                
  23402586.664   122981471.982    23402597.043    95829755.0094   23402596.957  
                
  20678401.094   108665770.960    20678409.383    84674680.4674   20678409.270  
                
  22687870.508   119225610.448    22687880.297    92903121.2194   22687880.691  
                
  22392859.227   119492598.938                    92938682.256    22392863.082  
  22392857.207  
 21  8 15 16 44 40.0000000  0 15G16R 1G 4R17R 8R12G22G 7R10G 2G 6G26
                                G 9G 3R 2
  22181967.195   116567056.488    22181973.906    90831508.5454                 
                
  19354539.695   103461138.013                    80469792.384    19354545.156  
  19354539.137  
  20731315.555   108943855.438    20731323.230    84891378.7054   20731323.102  
                
  22975177.961   122944829.932                    95623749.997    22975182.867  
  22975176.285  
  21031098.828   112620625.080                    87593829.005    21031102.348  
  21031098.148  
  22512353.570   120256958.182                    93533187.912    22512359.305  
  22512353.082  
  24533536.656   128924626.085    24533543.176   100460721.4184                 
                
  22079167.406   116026831.767    22079174.738    90410571.7724   22079174.758  
                
  21029862.641   112101030.150                                                  
  21029861.816  
  24785390.531   130248118.230    24785395.805   101492058.0204                 
                
  22841166.891   120031132.397    22841176.953    93530808.0264   22841177.543  
                
  23406177.547   123000342.158    23406187.871    95844459.0334   23406187.820  
                
  20676314.820   108654807.523    20676323.094    84666137.5344   20676322.996  
                
  22694116.773   119258434.779    22694126.645    92928698.6064   22694127.004  
                
  22386468.727   119458497.988                    92912159.291    22386472.578  
  22386466.758  
 21  8 15 16 44 50.0000000  0 15G16R 1G 4R17R 8R12G22G 7R10G 2G 6G26
                                G 9G 3R 2
  22180857.125   116561223.039    22180863.832    90826962.9964                 
                
  19353688.844   103456589.663                    80466254.785    19353694.305  
  19353688.281  
  20733299.930   108954283.341    20733307.547    84899504.3504   20733307.461  
                
  22978651.562   122963417.856                    95638207.285    22978656.469  
  22978649.879  
  21035548.398   112644452.275                    87612361.251    21035551.895  
  21035547.699  
  22504187.445   120213336.108                    93499259.669    22504193.160  
  22504186.926  
  24540291.141   128960120.958    24540297.582   100488379.7684                 
                
  22074611.867   116002892.281    22074619.195    90391917.6384   22074619.207  
                
  21035342.922   112130243.107                                                  
  21035342.113  
  24783753.938   130239517.876    24783759.246   101485356.4344                 
                
  22843164.992   120041632.575    22843175.047    93538989.9804   22843175.660  
                
  23409779.188   123019268.834    23409789.508    95859207.1054   23409789.434  
                
  20674234.641   108643876.087    20674242.895    84657619.5394   20674242.816  
                
  22700368.766   119291289.219    22700378.668    92954299.4654   22700379.008  
                
  22380078.977   119424401.099                    92885639.533    22380082.844  
  22380077.016  
 21  8 15 16 45  0.0000000  0 15G16R 1G 4R17R 8R12G22G 7R10G 2G 6G26
                                G 9G 3R 2
  22179760.695   116555461.250    22179767.414    90822473.3104                 
                
  19352847.641   103452092.953                    80462757.345    19352853.102  
  19352847.082  
  20735290.281   108964742.694    20735297.848    84907654.4994   20735297.801  
                
  22982138.328   122982076.031                    95652719.204    22982143.215  
  22982136.684  
  21040005.547   112668320.016                    87630925.052    21040009.020  
  21040004.887  
  22496025.898   120169738.657                    93465350.580    22496031.598  
  22496025.359  
  24547047.711   128995627.391    24547054.164   100516047.1004                 
                
  22070062.555   115978985.579    22070069.891    90373289.0494   22070069.895  
                
  21040834.641   112159517.067                                                  
  21040833.809  
  24782127.250   130230969.680    24782132.637   101478695.4754                 
                
  22845174.531   120052192.822    22845184.621    93547218.7314   22845185.234  
                
  23413391.531   123038251.793    23413401.867    95873999.0184   23413401.773  
                
  20672160.508   108632976.506    20672168.738    84649126.3664   20672168.680  
                
  22706626.430   119324173.482    22706636.293    92979923.5564   22706636.637  
                
  22373690.125   119390308.914                    92859123.392    22373693.977  
  22373688.164  
 21  8 15 16 45 10.0000000  0 15G16R 1G 4R17R 8R12G22G 7R10G 2G 6G26
                                G 9G 3R 2
  22178677.953   116549771.439    22178684.676    90818039.6864                 
                
  19352016.125   103447648.001                    80459300.161    19352021.594  
  19352015.559  
  20737286.664   108975233.751    20737294.195    84915829.3474   20737294.172  
                
  22985638.273   123000804.874                    95667286.042    22985643.219  
  22985636.598  
  21044470.414   112692229.152                    87649521.030    21044473.883  
  21044469.754  
  22487869.109   120126166.391                    93431461.074    22487874.762  
  22487868.535  
  24553806.562   129031145.516    24553812.996   100543723.5514                 
                
  22065519.539   115955111.903    22065526.875    90354686.1964   22065526.879  
                
  21046337.852   112188852.258                                                  
  21046337.000  
  24780510.531   130222473.839    24780516.031   101472075.3374                 
                
  22847195.547   120062813.334    22847205.691    93555494.4404   22847206.305  
                
  23417014.617   123057291.256    23417024.969    95888834.9494   23417024.863  
                
  20670092.500   108622109.067    20670100.723    84640658.2334   20670100.676  
                
  22712889.805   119357087.778    22712899.613    93005571.0634   22712899.977  
                
  22367302.141   119356221.390                    92832610.876    22367305.988  
  22367300.191  
 21  8 15 16 45 20.0000000  0 15G16R 1G 4R17R 8R12G22G 7R10G 2G 6G26
                                G 9G 3R 2
  22177608.906   116544153.552    22177615.602    90813662.1214                 
                
  19351194.289   103443254.810                    80455883.231    19351199.762  
  19351193.727  
  20739289.047   108985756.272    20739296.559    84924028.7224   20739296.547  
                
  22989151.336   123019603.937                    95681907.542    22989156.285  
  22989149.676  
  21048942.945   112716179.293                    87668148.921    21048946.406  
  21048942.285  
  22479717.031   120082619.104                    93397590.969    22479722.559  
  22479716.410  
  24560567.641   129066675.090    24560574.000   100571408.9284                 
                
  22060982.758   115931271.012    22060990.113    90336108.9094   22060990.102  
                
  21051852.469   112218248.284                                                  
  21051851.605  
  24778903.758   130214030.237    24778909.320   101465495.8964                 
                
  22849227.977   120073493.825    22849238.184    93563816.9024   22849238.766  
                
  23420648.398   123076386.882    23420658.762    95903714.6624   23420658.664  
                
  20668030.570   108611273.564    20668038.797    84632214.9894   20668038.758  
                
  22719158.844   119390031.800    22719168.629    93031241.7264   22719168.996  
                
  22360915.078   119322138.706                    92806102.142    22360918.930  
  22360913.125  
 21  8 15 16 45 30.0000000  0 15G16R 1G 4R17R 8R12G22G 7R10G 2G 6G26
                                G 9G 3R 2
  22176553.539   116538607.605    22176560.215    90809340.6004                 
                
  19350382.141   103438913.408                    80452506.590    19350387.633  
  19350381.586  
  20741297.414   108996310.308    20741304.922    84932252.6434   20741304.918  
                
  22992677.516   123038473.091                    95696583.552    22992682.504  
  22992675.848  
  21053423.133   112740170.410                    87686808.657    21053426.590  
  21053422.469  
  22471569.578   120039096.989                    93363740.446    22471575.074  
  22471568.996  
  24567330.852   129102216.044    24567337.176   100599103.1674                 
                
  22056452.266   115907463.163    22056459.656    90317557.3474   22056459.621  
                
  21057378.492   112247705.052                                                  
  21057377.598  
  24777306.930   130205638.922    24777312.512   101458957.2194                 
                
  22851271.828   120084234.300    22851282.086    93572186.0974   22851282.648  
                
  23424292.867   123095538.652    23424303.258    95918638.1404   23424303.172  
                
  20665974.742   108600470.096    20665982.980    84623796.7004   20665982.930  
                
  22725433.547   119423005.540    22725443.352    93056935.5504   22725443.715  
                
  22354528.867   119288060.666                    92779597.039    22354532.746  
  22354526.883  
 21  8 15 16 45 40.0000000  0 15G16R 1G 4R17R 8R12G22G 7R10G 2G 6G26
                                G 9G 3R 2
  22175511.859   116533133.523    22175518.535    90805075.0984                 
                
  19349579.719   103434623.976                    80449170.357    19349585.207  
  19349579.176  
  20743311.789   109006895.906    20743319.301    84940501.1554   20743319.297  
                
  22996216.805   123057412.365                    95711314.074    22996221.805  
  22996215.117  
  21057911.008   112764202.675                    87705500.412    21057914.465  
  21057910.363  
  22463426.945   119995600.261                    93329909.676    22463432.348  
  22463426.316  
  24574096.164   129137768.310    24574102.539   100626806.2164                 
                
  22051928.039   115883688.261    22051935.461    90299031.4684   22051935.418  
                
  21062915.906   112277222.540                                                  
  21062914.988  
  24775720.078   130197300.048    24775725.660   101452459.4074                 
                
  22853327.070   120095034.763    22853337.375    93580602.0224   22853337.910  
                
  23427948.023   123114746.579    23427958.441    95933605.3594   23427958.344  
                
  20663925.008   108589698.727    20663933.270    84615403.4364   20663933.199  
                
  22731713.883   119456008.991    22731723.707    93082652.5034   22731724.086  
                
  22348143.570   119253987.556                    92753095.760    22348147.469  
  22348141.594  
 21  8 15 16 45 50.0000000  0 15G16R 1G 4R17R 8R12G22G 7R10G 2G 6G26
                                G 9G 3R 2
  22174483.859   116527731.381    22174490.547    90800865.6604                 
                
  19348786.992   103430386.399                    80445874.473    19348792.477  
  19348786.461  
  20745332.164   109017513.031    20745339.688    84948774.2414   20745339.676  
                
  22999769.164   123076421.502                    95726098.961    22999774.164  
  22999767.492  
  21062406.531   112788275.887                    87724224.014    21062409.977  
  21062405.918  
  22455289.047   119952129.028                    93296098.733    22455294.410  
  22455288.414  
  24580863.680   129173331.889    24580870.043   100654518.0654                 
                
  22047410.086   115859946.311    22047417.543    90280531.2684   22047417.480  
                
  21068464.672   112306800.627                                                  
  21068463.746  
  24774143.203   130189013.542    24774148.797   101446002.3764                 
                
  22855393.719   120105895.093    22855404.059    93589064.6184   22855404.574  
                
  23431613.844   123134010.581    23431624.289    95948616.2814   23431624.180  
                
  20661881.391   108578959.451    20661889.664    84607035.1754   20661889.590  
                
  22737999.852   119489042.043    22738009.672    93108392.5394   22738010.070  
                
  22341759.172   119219919.266                    92726598.235    22341763.090  
  22341757.207  
 21  8 15 16 46  0.0000000  0 15G16R 1G 4R17R 8R12G22G 7R10G 2G 6G26
                                G 9G 3R 2
  22173469.586   116522401.295    22173476.293    90796712.3484                 
                
  19348004.023   103426200.930                    80442619.112    19348009.504  
  19348003.500  
  20747358.547   109028161.716    20747366.086    84957071.9194   20747366.070  
                
  23003334.547   123095500.515                    95740938.177    23003339.582  
  23003332.859  
  21066909.766   112812390.330                    87742979.682    21066913.172  
  21066909.168  
  22447155.969   119908683.402                    93262307.721    22447161.273  
  22447155.305  
  24587633.336   129208906.768    24587639.707   100682238.7384                 
                
  22042898.445   115836237.444    22042905.945    90262056.8384   22042905.867  
                
  21074024.727   112336438.897                                                  
  21074023.809  
  24772576.320   130180779.468    24772581.973   101439586.2314                 
                
  22857471.766   120116815.271    22857482.152    93597573.8364   22857482.645  
                
  23435290.328   123153330.571    23435300.777    95963670.8444   23435300.664  
                
  20659843.891   108568252.321    20659852.168    84598691.9624   20659852.098  
                
  22744291.469   119522104.661    22744301.301    93134155.6164   22744301.730  
                
  22335375.758   119185856.095                    92700104.661    22335379.645  
  22335373.816  
 21  8 15 16 46 10.0000000  0 15G16R 1G 4R17R 8R12G22G 7R10G 2G 6G26
                                G 9G 3R 2
  22172469.062   116517143.519    22172475.785    90792615.3834                 
                
  19347230.812   103422067.681                    80439404.368    19347236.281  
  19347230.273  
  20749390.938   109038842.030    20749398.500    84965394.2404   20749398.480  
                
  23006912.953   123114649.191                    95755831.595    23006918.055  
  23006911.285  
  21071420.609   112836545.597                    87761767.105    21071423.980  
  21071420.031  
  22439027.555   119865263.673                    93228536.869    22439032.980  
  22439026.992  
  24594405.188   129244492.957    24594411.512   100709968.2014                 
                
  22038393.102   115812561.739    22038400.648    90243608.2534   22038400.547  
                
  21079596.156   112366137.775                                                  
  21079595.207  
  24771019.398   130172597.810    24771025.082   101433210.9114                 
                
  22859561.195   120127795.292    22859571.598    93606129.7044   22859572.082  
                
  23438977.477   123172706.604    23438987.910    95978769.0624   23438987.793  
                
  20657812.531   108557577.469    20657820.812    84590373.9024   20657820.734  
                
  22750588.703   119555196.851    22750598.570    93159941.7244   22750599.000  
                
  22328993.227   119151797.718                    92673614.823    22328997.078  
  22328991.312  
 21  8 15 16 46 20.0000000  0 15G16R 1G 4R17R 8R12G22G 7R10G 2G 6G26
                                G 9G 3R 2
  22171482.250   116511957.823    22171489.016    90788574.5934                 
                
  19346467.328   103417986.429                    80436230.052    19346472.770  
  19346466.797  
  20751429.312   109049553.743    20751436.906    84973741.0374   20751436.887  
                
  23010504.312   123133867.450                    95770779.042    23010509.512  
  23010502.570  
  21075939.078   112860741.715                    87780586.313    21075942.414  
  21075938.516  
  22430903.945   119821869.628                    93194785.962    22430909.484  
  22430903.496  
  24601179.219   129280090.211    24601185.441   100737706.3134                 
                
  22033894.039   115788919.066    22033901.594    90225185.3974   22033901.484  
                
  21085178.781   112395896.392                                                  
  21085177.832  
  24769472.445   130164468.465    24769478.109   101426876.3524                 
                
  22861661.977   120138834.944    22861672.352    93614732.0144   22861672.883  
                
  23442675.234   123192138.394    23442685.660    95993910.7114   23442685.562  
                
  20655787.273   108546934.690    20655795.555    84582080.8334   20655795.477  
                
  22756891.516   119588318.352    22756901.414    93185750.6724   22756901.848  
                
  22322611.680   119117744.582                    92647129.063    22322615.508  
  22322609.762  
 21  8 15 16 46 30.0000000  0 15G16R 1G 4R17R 8R12G22G 7R10G 2G 6G26
                                G 9G 3R 2
  22170509.195   116506844.403    22170516.004    90784590.1154                 
                
  19345713.609   103413957.351                    80433096.339    19345719.020  
  19345713.078  
  20753473.688   109060297.027    20753481.316    84982112.4214   20753481.281  
                
  23014108.711   123153155.181                    95785780.606    23014113.957  
  23014106.910  
  21080465.203   112884978.849                    87799437.397    21080468.504  
  21080464.660  
  22422785.266   119778501.679                    93161055.343    22422790.883  
  22422784.875  
  24607955.312   129315698.444    24607961.480   100765452.9674                 
                
  22029401.289   115765309.549    22029408.844    90206788.3884   22029408.742  
                
  21090772.695   112425715.163                                                  
  21090771.734  
  24767935.477   130156391.640    24767941.191   101420582.7234                 
                
  22863774.109   120149934.267    22863784.445    93623380.8314   22863785.023  
                
  23446383.625   123211626.005    23446394.070    96009095.8764   23446393.996  
                
  20653768.156   108536324.156    20653776.441    84573812.8884   20653776.355  
                
  22763199.898   119621469.225    22763209.812    93211582.5144   22763210.266  
                
  22316231.125   119083696.772                    92620647.459    22316234.957  
  22316229.176  
 21  8 15 16 46 40.0000000  0 15G16R 1G 4R17R 8R12G22G 7R10G 2G 6G26
                                G 9G 3R 2
  22169549.852   116501803.042    22169556.711    90780661.7914                 
                
  19344969.641   103409980.387                    80430003.135    19344975.020  
  19344969.098  
  20755524.039   109071071.667    20755531.711    84990508.2414   20755531.664  
                
  23017725.977   123172512.084                    95800835.952    23017731.285  
  23017724.152  
  21084998.977   112909256.954                    87818320.371    21085002.258  
  21084998.430  
  22414671.508   119735159.703                    93127344.939    22414677.184  
  22414671.145  
  24614733.469   129351317.505    24614739.578   100793208.0784                 
                
  22024914.805   115741732.990    22024922.359    90188417.0584   22024922.258  
                
  21096377.820   112455593.620                                                  
  21096376.828  
  24766408.477   130148367.150    24766414.250   101414329.8774                 
                
  22865897.555   120161093.005    22865907.879    93632075.9434   22865908.484  
                
  23450102.586   123231169.190    23450113.047    96024324.3404   23450112.992  
                
  20651755.141   108525745.699    20651763.434    84565569.9344   20651763.340  
                
  22769513.828   119654649.241    22769523.773    93237437.0564   22769524.246  
                
  22309851.539   119049654.124                    92594169.848    22309855.352  
  22309849.578  
 21  8 15 16 46 50.0000000  0 15G16R 1G 4R17R 8R12G22G 7R10G 2G 6G26
                                G 9G 3R 2
  22168604.305   116496834.179    22168611.180    90776789.9584                 
                
  19344235.516   103406056.115                    80426950.921    19344240.891  
  19344234.941  
  20757580.414   109081877.997    20757588.129    84998928.7614   20757588.062  
                
  23021356.234   123191938.373                    95815945.259    23021361.582  
  23021354.430  
  21089540.367   112933575.988                    87837235.172    21089543.656  
  21089539.773  
  22406562.711   119691844.248                    93093655.165    22406568.441  
  22406562.348  
  24621513.703   129386947.659    24621519.777   100820971.8064                 
                
  22020434.672   115718189.819    22020442.207    90170071.7454   22020442.117  
                
  21101994.125   112485531.704                                                  
  21101993.148  
  24764891.516   130140395.386    24764897.363   101408118.1414                 
                
  22868032.367   120172311.473    22868042.695    93640817.5884   22868043.312  
                
  23453832.172   123250768.217    23453842.656    96039596.3144   23453842.582  
                
  20649748.305   108515199.709    20649756.602    84557352.2874   20649756.500  
                
  22775833.336   119687858.670    22775843.359    93263314.5044   22775843.828  
                
  22303472.938   119015616.706                    92567696.331    22303476.715  
  22303470.941  
 21  8 15 16 47  0.0000000  0 15G16R 1G 4R17R 8R12G22G 7R10G 2G 6G26
                                G 9G 3R 2
  22167672.492   116491937.463    22167679.332    90772974.3464                 
                
  19343511.133   103402183.860                    80423939.170    19343516.508  
  19343510.559  
  20759642.758   109092715.684    20759650.516    85007373.7094   20759650.434  
                
  23024999.375   123211433.557                    95831108.193    23025004.730  
  23024997.590  
  21094089.422   112957935.972                    87856181.800    21094092.719  
  21094088.820  
  22398458.859   119648555.007                    93059985.798    22398464.609  
  22398458.469  
  24628295.984   129422588.500    24628302.012   100848743.8684                 
                
  22015960.859   115694679.799    22015968.379    90151752.2694   22015968.301  
                
  21107621.609   112515529.357                                                  
  21107620.660  
  24763384.508   130132476.038    24763390.461   101401947.2204                 
                
  22870178.469   120183589.234    22870188.789    93649605.4524   22870189.398  
                
  23457572.320   123270422.698    23457582.793    96054911.5064   23457582.742  
                
  20647747.586   108504685.842    20647755.883    84549159.6684   20647755.770  
                
  22782158.375   119721097.062    22782168.477    93289214.5314   22782168.926  
                
  22297095.312   118981584.602                    92541226.940    22297099.055  
  22297093.258  
 21  8 15 16 47 10.0000000  0 15G16R 1G 4R17R 8R12G22G 7R10G 2G 6G26
                                G 9G 3R 2
  22166754.422   116487112.989    22166761.223    90769215.0254                 
                
  19342796.562   103398364.038                    80420968.198    19342801.938  
  19342795.977  
  20761711.078   109103584.768    20761718.883    85015843.1274   20761718.781  
                
  23028655.398   123230997.611                    95846324.690    23028660.668  
  23028653.578  
  21098646.070   112982336.606                    87875160.088    21098649.387  
  21098645.461  
  22390359.867   119605292.181                    93026336.976    22390365.719  
  22390359.543  
  24635080.266   129458239.963    24635086.273   100876524.2104                 
                
  22011493.375   115671203.023    22011500.887    90133458.6824   22011500.812  
                
  21113260.242   112545586.453                                                  
  21113259.324  
  24761887.484   130124609.070    24761893.527   101395817.1184                 
                
  22872335.852   120194926.303    22872346.180    93658439.5124   22872346.797  
                
  23461323.008   123290132.564    23461333.469    96070269.8534   23461333.402  
                
  20645752.984   108494204.176    20645761.270    84540992.1434   20645761.160  
                
  22788488.930   119754364.401    22788499.098    93315137.1244   22788499.516  
                
  22290718.742   118947558.095                    92514761.875    22290722.438  
  22290716.707  
 21  8 15 16 47 20.0000000  0 15G16R 1G 4R17R 8R12G22G 7R10G 2G 6G26
                                G 9G 3R 2
  22165850.133   116482360.936    22165856.898    90765512.1244                 
                
  19342091.828   103394596.852                    80418038.160    19342097.223  
  19342091.234  
  20763785.398   109114485.420    20763793.246    85024337.1414   20763793.133  
                
  23032324.273   123250630.569                    95861594.749    23032329.473  
  23032322.453  
  21103210.367   113006778.270                    87894170.250    21103213.723  
  21103209.750  
  22382266.031   119562056.228                    92992709.020    22382271.828  
  22382265.695  
  24641866.586   129493902.187    24641872.609   100904312.9504                 
                
  22007032.242   115647759.648    22007039.746    90115191.1364   22007039.672  
                
  21118910.023   112575702.919                                                  
  21118909.133  
  24760400.477   130116794.790    24760406.566   101389728.0554                 
                
  22874504.539   120206322.756    22874514.855    93667319.8824   22874515.469  
                
  23465084.266   123309897.979    23465094.742    96085671.4724   23465094.660  
                
  20643764.562   108483754.949    20643772.824    84532849.8914   20643772.727  
                
  22794825.023   119787660.820    22794835.230    93341082.3674   22794835.621  
                
  22284343.188   118913536.751                    92488300.834    22284346.844  
  22284341.164  
 21  8 15 16 47 30.0000000  0 15G16R 1G 4R17R 8R12G22G 7R10G 2G 6G26
                                G 9G 3R 2
  22164959.586   116477681.145    22164966.320    90761865.5424                 
                
  19341396.906   103390882.138                    80415148.941    19341402.297  
  19341396.309  
  20765865.680   109125417.410    20765873.574    85032855.5674   20765873.438  
                
  23036005.977   123270332.040                    95876918.133    23036011.105  
  23036004.145  
  21107782.297   113031260.828                    87913212.220    21107785.672  
  21107781.645  
  22374177.156   119518846.923                    92959101.793    22374182.926  
  22374176.816  
  24648654.906   129529574.908    24648660.926   100932109.8504                 
                
  22002577.414   115624349.423    22002584.887    90096949.4104   22002584.820  
                
  21124570.797   112605878.012                                                  
  21124569.938  
  24758923.438   130109033.017    24758929.574   101383679.9124                 
                
  22876684.477   120217778.361    22876694.785    93676246.3154   22876695.406  
                
  23468856.023   123329718.635    23468866.492    96101116.1294   23468866.398  
                
  20641782.266   108473337.939    20641790.508    84524732.7454   20641790.410  
                
  22801166.602   119820986.030    22801176.773    93367050.0474   22801177.176  
                
  22277968.680   118879521.020                    92461844.172    22277972.297  
  22277966.656  
 21  8 15 16 47 40.0000000  0 15G16R 1G 4R17R 8R12G22G 7R10G 2G 6G26
                                G 9G 3R 2
  22164082.867   116473073.975    22164089.562    90758275.5454                 
                
  19340711.859   103387220.164                    80412300.741    19340717.266  
  19340711.250  
  20767951.977   109136380.964    20767959.922    85041398.5994   20767959.770  
                
  23039700.523   123290102.208                    95892294.959    23039705.566  
  23039698.672  
  21112361.867   113055784.203                    87932285.950    21112365.254  
  21112361.184  
  22366093.328   119475664.627                    92925515.591    22366099.105  
  22366092.977  
  24655445.156   129565258.270    24655451.285   100959915.0464                 
                
  21998128.961   115600972.691    21998136.391    90078733.7884   21998136.324  
                
  21130242.703   112636112.385                                                  
  21130241.855  
  24757456.445   130101323.982    24757462.633   101377672.8884                 
                
  22878875.703   120229293.259    22878886.027    93685218.9534   22878886.648  
                
  23472638.344   123349594.679    23472648.785    96116603.9554   23472648.688  
                
  20639806.156   108462953.406    20639814.367    84516640.9034   20639814.293  
                
  22807513.711   119854340.186    22807523.809    93393040.3044   22807524.262  
                
  22271595.211   118845511.082                    92435392.019    22271598.836  
  22271593.188  
 21  8 15 16 47 50.0000000  0 15G16R 1G 4R17R 8R12G22G 7R10G 2G 6G26
                                G 9G 3R 2
  22163219.914   116468539.146    22163226.582    90754741.9234                 
                
  19340036.633   103383610.690                    80409493.380    19340042.031  
  19340036.012  
  20770044.242   109147375.864    20770052.227    85049966.0484   20770052.059  
                
  23043407.820   123309940.674                    95907724.832    23043412.836  
  23043405.969  
  21116949.023   113080348.129                    87951391.213    21116952.414  
  21116948.332  
  22358014.500   119432509.168                    92891950.249    22358020.277  
  22358014.164  
  24662237.461   129600951.965    24662243.586   100987728.2924                 
                
  21993686.828   115577629.148    21993694.215    90060544.0184   21993694.152  
                
  21135925.594   112666405.395                                                  
  21135924.711  
  24755999.461   130093667.455    24756005.613   101371706.7434                 
                
  22881078.172   120240867.168    22881088.516    93694237.5734   22881089.152  
                
  23476431.141   123369525.838    23476441.531    96132134.7324   23476441.422  
                
  20637836.188   108452601.141    20637844.379    84508574.2144   20637844.309  
                
  22813866.266   119887723.015    22813876.293    93419052.9004   22813876.785  
                
  22265222.789   118811506.852                    92408944.301    22265226.414  
  22265220.742  
 21  8 15 16 48  0.0000000  0 15G16R 1G 4R17R 8R12G22G 7R10G 2G 6G26
                                G 9G 3R 2
  22162370.742   116464076.766    22162377.410    90751264.7534                 
                
  19339371.266   103380053.946                    80406727.027    19339376.668  
  19339370.633  
  20772142.484   109158402.209    20772150.504    85058558.0064   20772150.309  
                
  23047127.914   123329847.461                    95923207.860    23047132.910  
  23047126.070  
  21121543.844   113104953.084                    87970528.397    21121547.234  
  21121543.180  
  22349940.695   119389381.035                    92858406.185    22349946.574  
  22349940.418  
  24669031.688   129636656.102    24669037.871   101015549.6774                 
                
  21989251.055   115554319.029    21989258.410    90042380.2994   21989258.359  
                
  21141619.469   112696756.935                                                  
  21141618.582  
  24754552.477   130086063.530    24754558.566   101365781.6244                 
                
  22883291.844   120252500.134    22883302.215    93703302.2074   22883302.848  
                
  23480234.430   123389512.128    23480244.742    96147708.4654   23480244.645  
                
  20635872.383   108442281.330    20635880.555    84500532.8074   20635880.496  
                
  22820224.258   119921134.559    22820234.266    93445087.8574   22820234.797  
                
  22258851.453   118777508.410                    92382501.084    22258855.109  
  22258849.395  
 21  8 15 16 48 10.0000000  0 15G16R 1G 4R17R 8R12G22G 7R10G 2G 6G26
                                G 9G 3R 2
  22161535.359   116459686.850    22161542.059    90747844.0294                 
                
  19338715.789   103376550.056                    80404001.789    19338721.184  
  19338715.141  
  20774246.719   109169460.027    20774254.766    85067174.4814   20774254.562  
                
  23050860.742   123349822.468                    95938743.952    23050865.711  
  23050858.922  
  21126146.258   113129598.723                    87989697.216    21126149.645  
  21126145.598  
  22341872.055   119346280.198                    92824883.333    22341877.945  
  22341871.785  
  24675827.875   129672370.603    24675834.121   101043379.1254                 
                
  21984821.656   115531042.435    21984828.996    90024242.6984   21984828.945  
                
  21147324.320   112727167.016                                                  
  21147323.430  
  24753115.516   130078512.262    24753121.539   101359897.5184                 
                
  22885516.758   120264192.108    22885527.152    93712412.8244   22885527.793  
                
  23484048.211   123409553.516    23484058.453    96163325.1354   23484058.375  
                
  20633914.766   108431993.979    20633922.930    84492516.6964   20633922.875  
                
  22826587.711   119954574.749    22826597.746    93471145.1274   22826598.266  
                
  22252481.211   118743515.652                    92356062.293    22252484.875  
  22252479.188  
 21  8 15 16 48 20.0000000  0 15G16R 1G 4R17R 8R12G22G 7R10G 2G 6G26
                                G 9G 3R 2
  22160713.789   116455369.503    22160720.500    90744479.8814                 
                
  19338070.180   103373098.915                    80401317.570    19338075.566  
  19338069.516  
  20776356.922   109180549.272    20776364.992    85075815.4494   20776364.785  
                
  23054606.289   123369865.530                    95954333.002    23054611.234  
  23054604.500  
  21130756.320   113154285.341                    88008897.932    21130759.727  
  21130755.680  
  22333808.609   119303206.920                    92791381.907    22333814.504  
  22333808.344  
  24682625.992   129708095.366    24682632.305   101071216.5834                 
                
  21980398.625   115507799.302    21980405.945    90006131.1704   21980405.906  
                
  21153040.141   112757635.521                                                  
  21153039.254  
  24751688.578   130071013.648    24751694.570   101354054.4364                 
                
  22887752.875   120275943.001    22887763.285    93721569.3504   22887763.941  
                
  23487872.445   123429649.891    23487882.633    96178984.6574   23487882.590  
                
  20631963.312   108421739.093    20631971.473    84484525.8774   20631971.430  
                
  22832956.586   119988043.479    22832966.676    93497224.6404   22832967.184  
                
  22246112.102   118709528.846                    92329628.092    22246115.742  
  22246110.105  
 21  8 15 16 48 30.0000000  0 15G16R 1G 4R17R 8R12G22G 7R10G 2G 6G26
                                G 9G 3R 2
  22159906.047   116451124.804    22159912.762    90741172.3334                 
                
  19337434.453   103369700.581                    80398674.415    19337439.824  
  19337433.785  
  20778473.102   109191669.866    20778481.199    85084480.8484   20778480.969  
                
  23058364.523   123389976.446                    95969974.788    23058369.445  
  23058362.762  
  21135373.984   113179012.594                    88028130.222    21135377.422  
  21135373.367  
  22325750.305   119260161.002                    92757901.768    22325756.203  
  22325750.039  
  24689426.078   129743830.269    24689432.414   101099061.9714                 
                
  21975981.945   115484589.588    21975989.250    89988045.7024   21975989.227  
                
  21158766.891   112788162.331                                                  
  21158766.008  
  24750271.641   130063567.635    24750277.648   101348252.3494                 
                
  22890000.188   120287752.649    22890010.609    93730771.6664   22890011.262  
                
  23491707.117   123449801.114    23491717.297    96194686.9114   23491717.250  
                
  20630018.039   108411516.623    20630026.199    84476560.3274   20630026.148  
                
  22839330.891   120021540.609    22839341.020    93523326.2944   22839341.516  
                
  22239744.117   118675548.112                    92303198.656    22239747.770  
  22239742.113  
 21  8 15 16 48 40.0000000  0 15G16R 1G 4R17R 8R12G22G 7R10G 2G 6G26
                                G 9G 3R 2
  22159112.125   116446952.751    22159118.863    90737921.3794                 
                
  19336808.648   103366355.312                    80396072.549    19336814.012  
  19336807.984  
  20780595.266   109202821.891    20780603.391    85093170.7344   20780603.137  
                
  23062135.422   123410155.149                    95985669.377    23062140.281  
  23062133.684  
  21139999.211   113203780.373                    88047394.038    21140002.672  
  21139998.590  
  22317697.234   119217142.891                    92724443.260    22317703.137  
  22317696.949  
  24696228.188   129779575.218    24696234.426   101126915.1534                 
                
  21971571.664   115461413.406    21971578.949    89969986.3504   21971578.922  
                
  21164504.531   112818747.092                                                  
  21164503.652  
  24748864.750   130056174.354    24748870.738   101342491.3584                 
                
  22892258.680   120299621.130    22892269.145    93740019.7974   22892269.777  
                
  23495552.242   123470007.364    23495562.457    96210432.0364   23495562.359  
                
  20628078.953   108401326.677    20628087.109    84468620.1154   20628087.062  
                
  22845710.625   120055066.148    22845720.770    93549450.0794   22845721.266  
                
  22233377.172   118641573.101                    92276773.681    22233380.898  
  22233375.164  
 21  8 15 16 48 50.0000000  0 15G16R 1G 4R17R 8R12G22G 7R10G 2G 6G26
                                G 9G 3R 2
  22158331.984   116442853.178    22158338.723    90734726.9214                 
                
  19336192.695   103363062.739                    80393511.647    19336198.051  
  19336192.031  
  20782723.344   109214005.075    20782731.484    85101884.9024   20782731.223  
                
  23065918.898   123430401.287                    96001416.369    23065923.680  
  23065917.188  
  21144632.008   113228588.785                    88066689.472    21144635.500  
  21144631.379  
  22309649.328   119174152.349                    92691006.199    22309655.219  
  22309648.980  
  24703032.109   129815329.958    24703038.312   101154775.9784                 
                
  21967167.695   115438270.528    21967174.973    89951952.9404   21967174.941  
                
  21170252.961   112849389.452                                                  
  21170252.105  
  24747467.805   130048833.513    24747473.754   101336771.2144                 
                
  22894528.305   120311548.059    22894538.820    93749313.5064   22894539.422  
                
  23499407.703   123490267.979    23499417.934    96226219.5284   23499417.812  
                
  20626146.008   108391169.024    20626154.160    84460705.0684   20626154.129  
                
  22852095.711   120088619.789    22852105.875    93575595.7694   22852106.363  
                
  22227011.406   118607604.266                    92250353.523    22227015.156  
  22227009.402  
 21  8 15 16 49  0.0000000  0 15G16R 1G 4R17R 8R12G22G 7R10G 2G 6G26
                                G 9G 3R 2
  22157565.711   116438826.388    22157572.441    90731589.1684                 
                
  19335586.727   103359823.456                    80390992.200    19335592.059  
  19335586.070  
  20784857.445   109225219.878    20784865.598    85110623.7174   20784865.312  
                
  23069715.078   123450715.202                    96017216.016    23069719.848  
  23069713.383  
  21149272.469   113253438.130                    88086016.716    21149275.980  
  21149271.852  
  22301606.734   119131189.997                    92657591.062    22301612.566  
  22301606.301  
  24709838.055   129851094.922    24709844.191   101182644.7454                 
                
  21962770.188   115415161.508    21962777.477    89933945.9304   21962777.441  
                
  21176012.297   112880089.845                                                  
  21176011.453  
  24746080.938   130041545.540    24746086.855   101331092.2684                 
                
  22896809.133   120323533.875    22896819.691    93758653.0884   22896820.277  
                
  23503273.641   123510583.531    23503283.863    96242049.8364   23503283.711  
                
  20624219.312   108381044.175    20624227.449    84452815.5804   20624227.434  
                
  22858486.227   120122201.935    22858496.410    93601763.6594   22858496.879  
                
  22220646.820   118573641.604                    92223938.118    22220650.559  
  22220644.844  
 21  8 15 16 49 10.0000000  0 15G16R 1G 4R17R 8R12G22G 7R10G 2G 6G26
                                G 9G 3R 2
  22156813.242   116434872.153    22156819.992    90728507.9614                 
                
  19334990.711   103356637.419                    80388514.176    19334996.043  
  19334990.055  
  20786997.523   109236466.039    20787005.668    85119386.9524   20787005.383  
                
  23073523.836   123471096.452                    96033068.115    23073528.547  
  23073522.148  
  21153920.531   113278328.206                    88105375.657    21153924.070  
  21153919.914  
  22293569.305   119088255.695                    92624197.750    22293575.180  
  22293568.855  
  24716645.875   129886869.755    24716651.988   101210521.2344                 
                
  21958379.055   115392086.023    21958386.344    89915965.0504   21958386.305  
                
  21181782.430   112910847.773                                                  
  21181781.598  
  24744704.094   130034310.256    24744710.012   101325454.3754                 
                
  22899101.102   120335578.180    22899111.676    93768038.2624   22899112.234  
                
  23507149.953   123530953.661    23507160.148    96257922.6664   23507159.980  
                
  20622298.805   108370951.840    20622306.930    84444951.4264   20622306.934  
                
  22864882.078   120155812.229    22864892.297    93627953.4864   22864892.730  
                
  22214283.469   118539685.597                    92197527.901    22214287.195  
  22214281.496  
 21  8 15 16 49 20.0000000  0 15G16R 1G 4R17R 8R12G22G 7R10G 2G 6G26
                                G 9G 3R 2
  22156074.617   116430990.670    22156081.355    90725483.4374                 
                
  19334404.617   103353504.431                    80386077.406    19334409.941  
  19334403.965  
  20789143.547   109247743.514    20789151.668    85128174.5894   20789151.398  
                
  23077345.156   123491544.893                    96048972.474    23077349.809  
  23077343.473  
  21158576.164   113303258.862                    88124766.159    21158579.723  
  21158575.555  
  22285537.250   119045349.556                    92590826.324    22285543.012  
  22285536.734  
  24723455.555   129922654.311    24723461.609   101238405.3054                 
                
  21953994.305   115369044.078    21954001.590    89898010.2934   21954001.555  
                
  21187563.336   112941663.246                                                  
  21187562.492  
  24743337.266   130027127.648    24743343.199   101319857.5224                 
                
  22901404.188   120347680.941    22901414.773    93777468.9744   22901415.309  
                
  23511036.617   123551378.283    23511046.805    96273837.9424   23511046.633  
                
  20620384.484   108360892.044    20620392.605    84437112.6264   20620392.609  
                
  22871283.281   120189450.582    22871293.496    93654165.1804   22871293.918  
                
  22207921.164   118505735.310                    92171122.150    22207924.918  
  22207919.168  
 21  8 15 16 49 30.0000000  0 15G16R 1G 4R17R 8R12G22G 7R10G 2G 6G26
                                G 9G 3R 2
  22155349.945   116427182.481    22155356.668    90722516.0234                 
                
  19333828.562   103350425.100                    80383682.373    19333833.879  
  19333827.906  
  20791295.625   109259052.774    20791303.711    85136986.9994   20791303.469  
                
  23081179.047   123512060.857                    96064929.290    23081183.766  
  23081177.309  
  21163239.461   113328230.551                    88144188.571    21163243.035  
  21163238.848  
  22277510.602   119002472.244                    92557477.327    22277516.238  
  22277510.043  
  24730267.133   129958449.075    24730273.188   101266297.3244                 
                
  21949616.055   115346036.242    21949623.348    89880082.1214   21949623.316  
                
  21193355.047   112972536.244                                                  
  21193354.199  
  24741980.578   130019998.235    24741986.543   101314302.1344                 
                
  22903718.484   120359842.560    22903729.035    93786945.5504   22903729.574  
                
  23514933.727   123571857.777    23514943.918    96289795.9904   23514943.730  
                
  20618476.453   108350865.287    20618484.586    84429299.5764   20618484.582  
                
  22877689.883   120223117.381    22877700.094    93680399.0464   22877700.508  
                
  22201560.188   118471792.154                    92144721.931    22201563.980  
  22201558.215  
 21  8 15 16 49 40.0000000  0 15G16R 1G 4R17R 8R12G22G 7R10G 2G 6G26
                                G 9G 3R 2
  22154639.078   116423446.872    22154645.797    90719605.1664                 
                
  19333262.422   103347398.768                    80381328.559    19333267.746  
  19333261.773  
  20793453.609   109270393.093    20793461.668    85145823.6084   20793461.438  
                
  23085025.430   123532643.536                    96080938.005    23085030.195  
  23085023.660  
  21167910.320   113353242.741                    88163642.483    21167913.883  
  21167909.711  
  22269489.242   118959623.078                    92524150.201    22269494.719  
  22269488.609  
  24737080.422   129994253.236    24737086.500   101294196.6224                 
                
  21945244.164   115323061.817    21945251.461    89862179.9804   21945251.414  
                
  21199157.477   113003466.447                                                  
  21199156.648  
  24740633.883   130012921.321    24740639.871   101308787.6684                 
                
  22906043.828   120372062.241    22906054.324    93796467.3694   22906054.871  
                
  23518841.117   123592391.351    23518851.301    96305796.1814   23518851.129  
                
  20616574.578   108340870.882    20616582.727    84421511.7274   20616582.711  
                
  22884101.750   120256811.849    22884111.938    93706654.4624   22884112.363  
                
  22195200.328   118437854.764                    92118326.207    22195204.129  
  22195198.336  
 21  8 15 16 49 50.0000000  0 15G16R 1G 4R17R 8R12G22G 7R10G 2G 6G26
                                G 9G 3R 2
  22153942.094   116419784.180    22153948.816    90716751.1194                 
                
  19332706.273   103344425.823                    80379016.277    19332711.602  
  19332705.617  
  20795617.570   109281764.795    20795625.605    85154684.6734   20795625.379  
                
  23088884.312   123553293.133                    96096998.773    23088889.125  
  23088882.504  
  21172588.742   113378295.398                    88183127.891    21172592.305  
  21172588.133  
  22261473.180   118916802.596                    92490845.395    22261478.570  
  22261472.523  
  24743895.484   130030067.049    24743901.652   101322103.4894                 
                
  21940878.680   115300121.089    21940885.980    89844304.0864   21940885.938  
                
  21204970.602   113034453.549                                                  
  21204969.812  
  24739297.250   130005897.234    24739303.254   101303314.3694                 
                
  22908380.266   120384340.196    22908390.703    93806034.6204   22908391.258  
                
  23522758.836   123612979.276    23522768.984    96321838.7254   23522768.852  
                
  20614678.922   108330909.154    20614687.098    84413749.3544   20614687.066  
                
  22890518.930   120290534.253    22890529.102    93732931.6514   22890529.531  
                
  22188841.750   118403924.094                    92091935.680    22188845.520  
  22188839.777  
 21  8 15 16 50  0.0000000  0 15G16R 1G 4R17R 8R12G22G 7R10G 2G 6G26
                                G 9G 3R 2
  22153258.969   116416194.374    22153265.684    90713953.8784                 
                
  19332160.133   103341506.366                    80376745.586    19332165.465  
  19332159.504  
  20797787.477   109293167.801    20797795.480    85163570.1314   20797795.273  
                
  23092755.625   123574009.437                    96113111.417    23092760.512  
  23092753.852  
  21177274.688   113403388.514                    88202644.757    21177278.254  
  21177274.066  
  22253462.445   118874010.642                    92457562.783    22253467.777  
  22253461.758  
  24750712.398   130065890.380    24750718.594   101350017.7454                 
                
  21936519.609   115277214.095    21936526.938    89826454.4944   21936526.871  
                
  21210794.375   113065497.438                                                  
  21210793.566  
  24737970.648   129998925.883    24737976.641   101297882.1514                 
                
  22910727.773   120396676.398    22910738.176    93815647.2194   22910738.762  
                
  23526686.875   123633621.416    23526696.988    96337923.5024   23526696.875  
                
  20612789.484   108320980.107    20612797.672    84406012.4384   20612797.629  
                
  22896941.375   120324284.423    22896951.559    93759230.4824   22896951.977  
                
  22182484.352   118369999.820                    92065550.160    22182488.156  
  22182482.395  
 21  8 15 16 50 10.0000000  0 15G16R 1G 4R17R 8R12G22G 7R10G 2G 6G26
                                G 9G 3R 2
  22152589.711   116412677.407    22152596.398    90711213.3764                 
                
  19331623.938   103338640.118                    80374516.290    19331629.258  
  19331623.316  
  20799963.359   109304602.119    20799971.332    85172479.9904   20799971.125  
                
  23096639.438   123594792.269                    96129275.800    23096644.367  
  23096637.703  
  21181968.211   113428522.172                    88222193.139    21181971.770  
  21181967.570  
  22245457.102   118831247.669                    92424302.721    22245462.434  
  22245456.453  
  24757531.133   130101723.171    24757537.332   101377939.3834                 
                
  21932166.984   115254340.948    21932174.344    89808631.2784   21932174.273  
                
  21216628.766   113096597.918                                                  
  21216627.973  
  24736654.109   129992007.382    24736660.078   101292491.1234                 
                
  22913086.336   120409070.699    22913096.711    93825305.1104   22913097.309  
                
  23530625.211   123654317.692    23530635.312    96354050.4774   23530635.215  
                
  20610906.258   108311083.742    20610914.449    84398300.9914   20610914.414  
                
  22903369.086   120358062.338    22903379.312    93785550.9214   22903379.719  
                
  22176128.266   118336082.467                    92039170.014    22176132.039  
  22176126.305  
 21  8 15 16 50 20.0000000  0 15G16R 1G 4R17R 8R12G22G 7R10G 2G 6G26
                                G 9G 3R 2
  22151934.305   116409233.238    22151940.953    90708529.6274                 
                
  19331097.797   103335827.563                    80372328.745    19331103.105  
  19331097.184  
  20802145.188   109316067.723    20802153.117    85181414.2224   20802152.926  
                
  23100535.656   123615641.603                    96145491.880    23100540.684  
  23100533.953  
  21186669.336   113453696.423                    88241773.103    21186672.852  
  21186668.707  
  22237457.297   118788513.756                    92391065.244    22237462.551  
  22237456.598  
  24764351.680   130137565.306    24764357.859   101405868.3104                 
                
  21927820.781   115231501.521    21927828.160    89790834.3364   21927828.078  
                
  21222473.789   113127755.124                                                  
  21222473.008  
  24735347.617   129985141.677    24735353.605   101287141.2204                 
                
  22915455.938   120421523.040    22915466.285    93835008.2234   22915466.895  
                
  23534573.836   123675068.028    23534583.926    96370219.5694   23534583.859  
                
  20609029.266   108301220.068    20609037.461    84390615.0124   20609037.422  
                
  22909802.055   120391867.901    22909812.332    93811892.8954   22909812.727  
                
  22169773.430   118302171.896                    92012795.149    22169777.215  
  22169771.457  
 21  8 15 16 50 30.0000000  0 15G16R 1G 4R17R 8R12G22G 7R10G 2G 6G26
                                G 9G 3R 2
  22151292.773   116405861.990    22151299.375    90705902.6814                 
                
  19330581.656   103333068.519                    80370182.821    19330586.969  
  19330581.051  
  20804332.969   109327564.617    20804340.852    85190372.8484   20804340.691  
                
  23104444.266   123636557.176                    96161759.609    23104449.289  
  23104442.570  
  21191378.039   113478911.225                    88261384.612    21191381.527  
  21191377.426  
  22229462.836   118745808.900                    92357850.401    22229468.090  
  22229462.133  
  24771173.961   130173416.709    24771180.168   101433804.4434                 
                
  21923480.992   115208695.824    21923488.387    89773063.6724   21923488.301  
                
  21228329.422   113158968.937                                                  
  21228328.641  
  24734051.156   129978328.784    24734057.172   101281832.4754                 
                
  22917836.570   120434033.383    22917846.898    93844756.5254   22917847.504  
                
  23538532.727   123695872.352    23538542.828    96386430.7284   23538542.789  
                
  20607158.500   108291389.143    20607166.699    84382954.5564   20607166.664  
                
  22916240.297   120425701.044    22916250.570    93838256.3754   22916250.961  
                
  22163419.898   118268268.308                    91986425.697    22163423.715  
  22163417.941  
 21  8 15 16 50 40.0000000  0 15G16R 1G 4R17R 8R12G22G 7R10G 2G 6G26
                                G 9G 3R 2
  22150665.156   116402563.895    22150671.715    90703332.7414                 
                
  19330075.578   103330363.233                    80368078.698    19330080.863  
  19330074.977  
  20806526.742   109339092.968    20806534.582    85199355.9774   20806534.445  
                
  23108365.266   123657539.155                    96178078.926    23108370.238  
  23108363.605  
  21196094.320   113504166.608                    88281027.671    21196097.766  
  21196093.703  
  22221473.906   118703133.425                    92324658.396    22221479.125  
  22221473.168  
  24777998.070   130209277.419    24778004.246   101461747.8494                 
                
  21919147.672   115185924.065    21919155.066    89755319.4534   21919154.973  
                
  21234195.617   113190239.034                                                  
  21234194.824  
  24732764.789   129971568.896    24732770.832   101276565.0144                 
                
  22920228.250   120446601.809    22920238.547    93854550.0914   22920239.160  
                
  23542501.914   123716730.763    23542512.023    96402684.0394   23542511.996  
                
  20605293.992   108281591.145    20605302.195    84375319.7514   20605302.160  
                
  22922683.812   120459561.838    22922694.066    93864641.4054   22922694.477  
                
  22157067.570   118234371.157                    91960061.258    22157071.402  
  22157065.605  
 21  8 15 16 50 50.0000000  0 15G16R 1G 4R17R 8R12G22G 7R10G 2G 6G26
                                G 9G 3R 2
  22150051.430   116399338.733    22150057.957    90700819.6324                 
                
  19329579.547   103327711.587                    80366016.305    19329584.836  
  19329578.973  
  20808726.469   109350652.580    20808734.273    85208363.4684   20808734.148  
                
  23112298.625   123678587.168                    96194449.534    23112303.559  
  23112296.945  
  21200818.164   113529462.467                    88300702.218    21200821.562  
  21200817.566  
  22213490.516   118660487.349                    92291489.239    22213495.672  
  22213489.742  
  24784823.953   130245147.254    24784830.059   101489698.3534                 
                
  21914820.789   115163186.128    21914828.168    89737601.5864   21914828.090  
                
  21240072.320   113221565.078                                                  
  21240071.496  
  24731488.477   129964861.799    24731494.559   101271338.6974                 
                
  22922630.945   120459228.042    22922641.195    93864388.7064   22922641.828  
                
  23546481.359   123737642.989    23546491.504    96418979.2834   23546491.441  
                
  20603435.734   108271825.899    20603443.938    84367710.4784   20603443.898  
                
  22929132.570   120493450.197    22929142.820    93891047.9064   22929143.230  
                
  22150716.508   118200480.877                    91933702.176    22150720.387  
  22150714.531  
 21  8 15 16 51  0.0000000  0 15G16R 1G 4R17R 8R12G22G 7R10G 2G 6G26
                                G 9G 3R 2
  22149451.578   116396186.576    22149458.078    90698363.4014                 
                
  19329093.555   103325113.699                    80363995.740    19329098.852  
  19329092.996  
  20810932.133   109362243.426    20810939.898    85217395.3004   20810939.793  
                
  23116244.289   123699701.133                    96210871.554    23116249.125  
  23116242.582  
  21205549.555   113554798.763                    88320408.221    21205552.922  
  21205548.980  
  22205512.586   118617870.682                    92258342.962    22205517.695  
  22205511.801  
  24791651.602   130281026.153    24791657.590   101517655.9314                 
                
  21910500.336   115140482.063    21910507.691    89719910.1184   21910507.641  
                
  21245959.492   113252947.027                                                  
  21245958.652  
  24730222.195   129958207.506    24730228.309   101266153.5434                 
                
  22925044.625   120471911.997    22925054.840    93874272.3024   22925055.465  
                
  23550470.953   123758608.927    23550481.203    96435316.3824   23550481.141  
                
  20601583.703   108262093.419    20601591.914    84360126.7324   20601591.871  
                
  22935586.500   120527365.735    22935596.766    93917475.5804   22935597.156  
                
  22144366.789   118166597.746                    91907348.645    22144370.695  
  22144364.824  
 21  8 15 16 51 10.0000000  0 15G16R 1G 4R17R 8R12G22G 7R10G 2G 6G26
                                G 9G 3R 2
  22148865.648   116393107.526    22148872.109    90695964.1534                 
                
  19328617.625   103322569.513                    80362016.924    19328622.918  
  19328617.086  
  20813143.758   109373865.566    20813151.500    85226451.5144   20813151.406  
                
  23120202.250   123720880.754                    96227344.596    23120206.984  
  23120200.527  
  21210288.500   113580175.420                    88340145.620    21210291.848  
  21210287.945  
  22197540.164   118575283.659                    92225219.743    22197545.293  
  22197539.414  
  24798480.906   130316914.155    24798486.836   101545620.6004                 
                
  21906186.352   115117811.924    21906193.672    89702245.0824   21906193.637  
                
  21251857.188   113284385.019                                                  
  21251856.336  
  24728965.992   129951606.118    24728972.148   101261009.6164                 
                
  22927469.289   120484653.707    22927479.492    93884200.8864   22927480.102  
                
  23554470.805   123779628.596    23554481.102    96451695.3594   23554481.055  
                
  20599737.930   108252393.798    20599746.156    84352568.5874   20599746.102  
                
  22942045.625   120561308.588    22942055.922    93943924.5334   22942056.285  
                
  22138018.430   118132721.676                    91881000.610    22138022.316  
  22138016.457  
 21  8 15 16 51 20.0000000  0 15G16R 1G 4R17R 8R12G22G 7R10G 2G 6G26
                                G 9G 3R 2
  22148293.641   116390101.680    22148300.051    90693621.9364                 
                
  19328151.797   103320079.419                    80360080.177    19328157.086  
  19328151.270  
  20815361.344   109385519.090    20815369.055    85235532.1814   20815368.973  
                
  23124172.461   123742126.224                    96243868.812    23124177.215  
  23124170.707  
  21215034.977   113605592.531                    88359914.478    21215038.332  
  21215034.438  
  22189573.375   118532726.523                    92192119.761    22189578.457  
  22189572.625  
  24805311.961   130352811.215    24805317.836   101573592.3254                 
                
  21901878.836   115095175.874    21901886.141    89684606.6114   21901886.078  
                
  21257765.328   113315878.797                                                  
  21257764.441  
  24727719.875   129945057.719    24727726.090   101255906.9644                 
                
  22929904.938   120497453.148    22929915.145    93894174.4764   22929915.746  
                
  23558480.922   123800701.994    23558491.203    96468116.1904   23558491.164  
                
  20597898.422   108242727.160    20597906.656    84345036.1414   20597906.594  
                
  22948509.945   120595278.771    22948520.254    93970394.7814   22948520.598  
                
  22131671.422   118098852.897                    91854658.234    22131675.320  
  22131669.449  
 21  8 15 16 51 30.0000000  0 15G16R 1G 4R17R 8R12G22G 7R10G 2G 6G26
                                G 9G 3R 2
  22147735.547   116387168.911    22147741.914    90691336.6584                 
                
  19327696.047   103317643.174                    80358185.335    19327701.340  
  19327695.520  
  20817584.891   109397203.847    20817592.578    85244637.1894   20817592.512  
                
  23128154.930   123763437.232                    96260444.014    23128159.711  
  23128153.164  
  21219789.031   113631050.184                    88379714.869    21219792.387  
  21219788.508  
  22181612.164   118490199.301                    92159043.047    22181617.227  
  22181611.461  
  24812144.688   130388717.133    24812150.523   101601570.9534                 
                
  21897577.805   115072573.791    21897585.094    89666994.6034   21897585.035  
                
  21263683.914   113347428.257                                                  
  21263682.988  
  24726483.836   129938562.204    24726490.086   101250845.5294                 
                
  22932351.547   120510310.128    22932361.746    93904192.9074   22932362.328  
                
  23562501.211   123821828.906    23562511.480    96484578.7064   23562511.461  
                
  20596065.180   108233093.412    20596073.426    84337529.3264   20596073.348  
                
  22954979.469   120629276.072    22954989.750    93996886.1754   22954990.086  
                
  22125325.750   118064991.129                    91828321.304    22125329.641  
  22125323.801  
 21  8 15 16 51 40.0000000  0 15G16R 1G 4R17R 8R12G22G 7R10G 2G 6G26
                                G 9G 3R 2
  22147191.359   116384309.213    22147197.660    90689108.3234                 
                
  19327250.383   103315260.865                    80356332.429    19327255.672  
  19327249.855  
  20819814.367   109408919.814    20819822.031    85253766.5124   20819821.973  
                
  23132149.648   123784813.611                    96277070.075    23132154.383  
  23132147.941  
  21224550.617   113656548.270                    88399546.697    21224553.961  
  21224550.090  
  22173656.539   118447701.952                    92125989.555    22173661.605  
  22173655.852  
  24818979.070   130424631.818    24818984.859   101629556.4104                 
                
  21893283.219   115050005.653    21893290.488    89649409.0484   21893290.434  
                
  21269612.844   113379032.890                                                  
  21269611.887  
  24725257.852   129932119.570    24725264.125   101245825.2924                 
                
  22934809.094   120523224.553    22934819.273    93914256.0914   22934819.844  
                
  23566531.711   123843009.202    23566541.941    96501082.8584   23566541.949  
                
  20594238.180   108223492.504    20594246.430    84330048.0994   20594246.336  
                
  22961454.125   120663300.402    22961464.363    94023398.6374   22961464.707  
                
  22118981.438   118031136.671                    91801990.090    22118985.336  
  22118979.504  
 21  8 15 16 51 50.0000000  0 15G16R 1G 4R17R 8R12G22G 7R10G 2G 6G26
                                G 9G 3R 2
  22146661.117   116381522.760    22146667.371    90686937.0674                 
                
  19326814.852   103312932.667                    80354521.609    19326820.125  
  19326814.324  
  20822049.812   109420667.126    20822057.434    85262920.2634   20822057.395  
                
  23136156.578   123806255.340                    96293746.974    23136161.238  
  23136154.895  
  21229319.734   113682086.545                    88419409.784    21229323.043  
  21229319.234  
  22165706.445   118405234.861                    92092959.634    22165711.695  
  22165705.898  
  24825815.148   130460555.336    24825820.863   101657548.7334                 
                
  21888995.133   115027471.597    21889002.371    89631850.0624   21889002.324  
                
  21275552.188   113410692.982                                                  
  21275551.203  
  24724041.961   129925729.936    24724048.207   101240846.3534                 
                
  22937277.578   120536196.525    22937287.711    93924364.1014   22937288.312  
                
  23570572.422   123864243.031    23570582.570    96517628.7054   23570582.621  
                
  20592417.477   108213924.638    20592425.715    84322592.6264   20592425.621  
                
  22967933.945   120697351.834    22967944.117    94049932.2184   22967944.492  
                
  22112638.422   117997289.216                    91775664.325    22112642.305  
  22112636.492  
 21  8 15 16 52  0.0000000  0 15G16R 1G 4R17R 8R12G22G 7R10G 2G 6G26
                                G 9G 3R 2
  22146144.781   116378809.386    22146151.000    90684822.7574                 
                
  19326389.414   103310658.442                    80352752.760    19326394.656  
  19326388.891  
  20824291.203   109432445.624    20824298.789    85272098.3184   20824298.758  
                
  23140175.672   123827762.097                    96310474.432    23140180.277  
  23140173.992  
  21234096.406   113707665.299                    88439304.369    21234099.672  
  21234095.898  
  22157762.070   118362798.045                    92059953.254    22157767.434  
  22157761.609  
  24832652.773   130496487.532    24832658.535   101685547.8384                 
                
  21884713.516   115004971.557    21884720.730    89614317.5644   21884720.707  
                
  21281501.828   113442407.994                                                  
  21281500.801  
  24722836.125   129919393.209    24722842.363   101235908.6524                 
                
  22939756.984   120549225.794    22939767.059    93934516.7674   22939767.699  
                
  23574623.266   123885530.123    23574633.340    96534216.0604   23574633.414  
                
  20590603.039   108204389.690    20590611.266    84315162.8014   20590611.172  
                
  22974418.859   120731430.178    22974428.957    94076486.7654   22974429.367  
                
  22106296.906   117963449.708                    91749344.703    22106300.758  
  22106294.949  
 21  8 15 16 52 10.0000000  0 15G16R 1G 4R17R 8R12G22G 7R10G 2G 6G26
                                G 9G 3R 2
  22145642.391   116376169.326    22145648.598    90682765.5714                 
                
  19325974.125   103308438.472                    80351026.123    19325979.355  
  19325973.590  
  20826538.555   109444255.476    20826546.105    85281300.8054   20826546.098  
                
  23144206.930   123849334.032                    96327252.543    23144211.570  
  23144205.238  
  21238880.617   113733284.477                    88459230.376    21238883.863  
  21238880.094  
  22149823.391   118320391.708                    92026970.571    22149828.855  
  22149823.031  
  24839492.039   130532428.382    24839497.836   101713553.6874                 
                
  21880438.422   114982505.764    21880445.609    89596811.7604   21880445.590  
                
  21287461.812   113474178.089                                                  
  21287460.762  
  24721640.383   129913109.573    24721646.652   101231012.3094                 
                
  22942247.305   120562312.456    22942257.344    93944714.1664   22942258.031  
                
  23578684.234   123906870.575    23578694.266    96550844.9924   23578694.355  
                
  20588794.898   108194887.851    20588803.102    84307758.7794   20588803.023  
                
  22980908.875   120765535.518    22980918.945    94103062.3384   22980919.363  
                
  22099956.805   117929617.685                    91723030.913    22099960.617  
  22099954.789  
 21  8 15 16 52 20.0000000  0 16G16R 1G 4R17R 8R12G22G 7R10G 2G 6G26
                                G30G 9G 3R 2
  22145153.977   116373602.673    22145160.168    90680765.5874                 
                
  19325569.000   103306272.840                    80349341.736    19325574.215  
  19325568.441  
  20828791.867   109456096.660    20828799.383    85290527.7024   20828799.383  
                
  23148250.289   123870970.847                    96344081.151    23148254.941  
  23148248.582  
  21243672.375   113758944.112                    88479187.863    21243675.613  
  21243671.820  
  22141890.445   118278016.088                    91994011.760    22141896.008  
  22141890.176  
  24846332.938   130568377.914    24846338.781   101741566.2694                 
                
  21876169.820   114960074.169    21876176.973    89579332.6024   21876176.973  
                
  21293432.117   113506003.202                                                  
  21293431.082  
  24720454.734   129906878.991    24720461.023   101226157.3234                 
                
  22944748.531   120575456.411    22944758.559    93954956.1974   22944759.258  
                
  23582755.336   123928264.291    23582765.355    96567515.4224   23582765.441  
                
  24917340.609   130941504.309    24917351.938   102032388.1944   24917351.945  
                
  20586993.062   108185419.129    20587001.246    84300380.5554   20587001.172  
                
  22987403.992   120799667.714    22987414.074    94129658.8424   22987414.473  
                
  22093618.039   117895793.001                    91696722.829    22093621.859  
  22093616.035  
 21  8 15 16 52 30.0000000  0 16G16R 1G 4R17R 8R12G22G 7R10G 2G 6G26
                                G30G 9G 3R 2
  22144679.578   116371109.709    22144685.734    90678823.0214                 
                
  19325174.078   103304161.763                    80347699.776    19325179.297  
  19325173.520  
  20831051.180   109467969.398    20831058.664    85299779.1874   20831058.668  
                
  23152305.812   123892672.821                    96360960.492    23152310.426  
  23152304.004  
  21248471.695   113784644.260                    88499176.850    21248474.902  
  21248471.086  
  22133963.391   118235671.493                    91961077.098    22133969.012  
  22133963.133  
  24853175.555   130604336.241    24853181.453   101769585.7324                 
                
  21871907.781   114937677.009    21871914.906    89561880.2814   21871914.918  
                
  21299412.742   113537883.360                                                  
  21299411.703  
  24719279.250   129900701.780    24719285.516   101221343.8884                 
                
  22947260.688   120588657.864    22947270.730    93965243.0324   22947271.418  
                
  23586836.609   123949711.429    23586846.641    96584227.4764   23586846.703  
                
  24910890.484   130907608.214    24910901.727   102005975.6734   24910901.703  
                
  20585197.570   108175983.790    20585205.734    84293028.3474   20585205.668  
                
  22993904.312   120833826.983    22993914.359    94156276.4544   22993914.750  
                
  22087280.867   117861976.736                    91670421.314    22087284.719  
  22087278.887  
 21  8 15 16 52 40.0000000  0 16G16R 1G 4R17R 8R12G22G 7R10G 2G 6G26
                                G30G 9G 3R 2
  22144219.078   116368689.691    22144225.211    90676937.2924                 
                
  19324789.250   103302104.631                    80346099.795    19324794.480  
  19324788.695  
  20833316.375   109479873.013    20833323.828    85309054.7234   20833323.848  
                
  23156373.305   123914438.915                    96377889.626    23156377.988  
  23156371.492  
  21253278.508   113810384.552                    88519197.079    21253281.695  
  21253277.852  
  22126042.047   118193357.381                    91928166.162    22126047.715  
  22126041.824  
  24860019.695   130640302.610    24860025.625   101797611.4354                 
                
  21867652.180   114915313.702    21867659.301    89544454.3344   21867659.320  
                
  21305403.500   113569817.486                                                  
  21305402.480  
  24718113.773   129894577.141    24718120.027   101216571.4384                 
                
  22949783.641   120601916.027    22949793.699    93975574.0514   22949794.391  
                
  23590927.906   123971211.248    23590937.957    96600980.5824   23590938.008  
                
  24904442.359   130873723.346    24904453.770   101979571.9304   24904453.707  
                
  20583408.312   108166581.165    20583416.461    84285701.6224   20583416.398  
                
  23000409.641   120868012.538    23000419.637    94182914.5374   23000420.031  
                
  22080945.055   117828167.606                    91644125.333    22080948.910  
  22080943.062  
 21  8 15 16 52 50.0000000  0 16G16R 1G 4R17R 8R12G22G 7R10G 2G 6G26
                                G30G 9G 3R 2
  22143772.492   116366342.881    22143778.629    90675108.6174                 
                
  19324414.578   103300101.806                    80344542.044    19324419.828  
  19324414.016  
  20835587.492   109491807.749    20835594.930    85318354.5224   20835594.953  
                
  23160452.797   123936269.475                    96394868.899    23160457.652  
  23160450.953  
  21258092.789   113836164.773                    88539248.353    21258095.938  
  21258092.141  
  22118126.516   118151074.090                    91895279.186    22118132.191  
  22118126.270  
  24866865.492   130676277.216    24866871.355   101825643.5814                 
                
  21863403.086   114892984.598    21863410.211    89527055.0434   21863410.223  
                
  21311404.500   113601806.188                                                  
  21311403.473  
  24716958.367   129888505.453    24716964.625   101211840.2314                 
                
  22952317.430   120615231.084    22952327.477    93985949.4184   22952328.160  
                
  23595029.250   123992763.903    23595039.352    96617774.8654   23595039.398  
                
  24897996.516   130839850.007    24898007.973   101953177.1584   24898007.906  
                
  20581625.336   108157211.551    20581633.473    84278400.6254   20581633.410  
                
  23006919.977   120902224.600    23006929.930    94209573.2744   23006930.340  
                
  22074610.641   117794366.061                    91617835.258    22074614.496  
  22074608.629  
 21  8 15 16 53  0.0000000  0 16G16R 1G 4R17R 8R12G22G 7R10G 2G 6G26
                                G30G 9G 3R 2
  22143339.883   116364069.458    22143346.016    90673337.1264                 
                
  19324050.117   103298153.518                    80343026.701    19324055.348  
  19324049.547  
  20837864.555   109503773.752    20837871.977    85327678.6754   20837871.996  
                
  23164544.375   123958164.421                    96411898.255    23164549.281  
  23164542.520  
  21262914.641   113861985.475                    88559331.103    21262917.754  
  21262914.000  
  22110216.852   118108821.973                    91862416.444    22110222.516  
  22110216.551  
  24873712.828   130712260.137    24873718.688   101853682.2134                 
                
  21859160.508   114870689.748    21859167.648    89509682.4414   21859167.656  
                
  21317415.688   113633849.178                                                  
  21317414.629  
  24715813.055   129882486.798    24715819.312   101207150.3684                 
                
  22954862.055   120628603.109    22954872.090    93996369.1894   22954872.789  
                
  23599140.664   124014369.474    23599150.812    96634610.3674   23599150.840  
                
  24891552.812   130805988.390    24891564.336   101926791.5254   24891564.281  
                
  20579848.672   108147875.103    20579856.812    84271125.4714   20579856.734  
                
  23013435.406   120936463.206    23013445.309    94236252.7054   23013445.727  
                
  22068277.719   117760572.417                    91591551.306    22068281.543  
  22068275.691  
 21  8 15 16 53 10.0000000  0 16G16R 1G 4R17R 8R12G22G 7R10G 2G 6G26
                                G30G 9G 3R 2
  22142921.234   116361869.415    22142927.363    90671622.8014                 
                
  19323695.828   103296259.607                    80341553.663    19323701.051  
  19323695.254  
  20840147.547   109515770.912    20840154.961    85337027.1124   20840154.980  
                
  23168647.977   123980123.481                    96428977.545    23168652.852  
  23168646.141  
  21267743.961   113887846.189                    88579444.973    21267747.004  
  21267743.301  
  22102312.914   118066600.982                    91829577.906    22102318.605  
  22102312.652  
  24880561.750   130748251.129    24880567.535   101881727.1444                 
                
  21854924.445   114848429.089    21854931.602    89492336.4864   21854931.617  
                
  21323437.016   113665946.176                                                  
  21323435.965  
  24714677.836   129876521.131    24714684.055   101202501.8074                 
                
  22957417.484   120642031.961    22957427.523    94006833.2154   22957428.207  
                
  23603262.109   124036027.796    23603272.270    96651486.9714   23603272.266  
                
  24885111.398   130772138.454    24885122.898   101900414.9804   24885122.863  
                
  20578078.297   108138571.752    20578086.438    84263876.1154   20578086.344  
                
  23019955.812   120970728.236    23019965.746    94262952.7094   23019966.176  
                
  22061946.266   117726786.525                    91565273.391    22061950.055  
  22061944.203  
 21  8 15 16 53 20.0000000  0 16G16R 1G 4R17R 8R12G22G 7R10G 2G 6G26
                                G30G 9G 3R 2
  22142516.531   116359742.623    22142522.633    90669965.5534                 
                
  19323351.719   103294420.166                    80340123.007    19323356.953  
  19323351.156  
  20842436.453   109527799.133    20842443.863    85346399.7514   20842443.875  
                
  23172763.523   124002146.562                    96446106.547    23172768.469  
  23172761.711  
  21272580.766   113913746.944                    88599590.023    21272583.766  
  21272580.102  
  22094414.891   118024411.201                    91796763.652    22094420.535  
  22094414.602  
  24887412.211   130784250.098    24887417.914   101909778.2794                 
                
  21850694.883   114826202.545    21850702.055    89475017.1154   21850702.059  
                
  21329468.430   113698096.930                                                  
  21329467.402  
  24713552.688   129870608.422    24713558.887   101197894.5014                 
                
  22959983.711   120655517.452    22959993.762    94017341.3784   22959994.441  
                
  23607393.555   124057738.687    23607403.746    96668404.5584   23607403.738  
                
  24878672.250   130738300.145    24878683.688   101874047.4914   24878683.688  
                
  20576314.219   108129301.461    20576322.363    84256652.5094   20576322.246  
                
  23026481.242   121005019.486    23026491.188    94289673.1444   23026491.617  
                
  22055616.312   117693008.653                    91539001.721    22055620.082  
  22055614.223  
 21  8 15 16 53 30.0000000  0 17G16R 1G 4R17R 8R18R12G22G 7R10G 2G 6
                                G26G30G 9G 3R 2
  22142125.836   116357689.507    22142131.902    90668365.7234                 
                
  19323017.875   103292635.596                    80338734.995    19323023.117  
  19323017.305  
  20844731.344   109539858.842    20844738.754    85355796.9294   20844738.762  
                
  23176891.086   124024233.772                    96463285.454    23176896.059  
  23176889.277  
  21277425.094   113939688.082                    88619766.455    21277428.102  
  21277424.434  
  23616687.422   126067475.400                    98052475.384    23616692.152  
  23616685.457  
  22086522.906   117982253.271                    91763974.173    22086528.453  
  22086522.559  
  24894264.258   130820257.451    24894269.887   101937835.9434                 
                
  21846471.898   114804010.586    21846479.094    89457724.6904   21846479.078  
                
  21335509.977   113730301.741                                                  
  21335508.977  
  24712437.719   129864749.103    24712443.871   101193328.7984                 
                
  22962560.773   120669059.994    22962570.863    94027893.9824   22962571.504  
                
  23611535.086   124079502.506    23611545.301    96685363.3774   23611545.297  
                
  24872235.352   130704473.932    24872246.770   101847689.4294   24872246.797  
                
  20574556.516   108120064.651    20574564.660    84249454.9964   20574564.539  
                
  23033011.734   121039337.331    23033021.688    94316414.2964   23033022.094  
                
  22049287.953   117659239.336                    91512736.712    22049291.727  
  22049285.832  
 21  8 15 16 53 40.0000000  0 17G16R 1G 4R17R 8R18R12G22G 7R10G 2G 6
                                G26G30G 9G 3R 2
  22141749.266   116355710.530    22141755.309    90666823.6744                 
                
  19322694.406   103290906.421                    80337390.086    19322699.645  
  19322693.812  
  20847032.320   109551950.447    20847039.738    85365218.9554   20847039.750  
                
  23181030.750   124046385.502                    96480514.617    23181035.645  
  23181028.883  
  21282277.070   113965670.125                    88639974.689    21282280.105  
  21282276.402  
  23615433.641   126060782.573                    98047269.848    23615438.367  
  23615431.668  
  22078636.992   117940127.556                    91731209.739    22078642.402  
  22078636.578  
  24901117.977   130856273.597    24901123.551   101965900.4564                 
                
  21842255.602   114781853.684    21842262.820    89440459.5764   21842262.781  
                
  21341561.750   113762561.068                                                  
  21341560.766  
  24711332.969   129858943.527    24711339.082   101188804.9484                 
                
  22965148.766   120682659.821    22965158.871    94038491.2634   22965159.504  
                
  23615686.766   124101319.605    23615696.984    96702363.7234   23615696.977  
                
  24865800.750   130670660.281    24865812.207   101821341.1744   24865812.277  
                
  20572805.273   108110861.782    20572813.414    84242283.9344   20572813.293  
                
  23039547.375   121073682.090    23039557.312    94343176.4354   23039557.688  
                
  22042961.195   117625478.578                    91486478.355    22042964.957  
  22042959.027  
 21  8 15 16 53 50.0000000  0 17G16R 1G 4R17R 8R18R12G22G 7R10G 2G 6
                                G26G30G 9G 3R 2
  22141386.469   116353804.029    22141392.469    90665338.0904                 
                
  19322380.969   103289230.962                    80336086.961    19322386.203  
  19322380.355  
  20849339.039   109564072.341    20849346.477    85374664.5834   20849346.457  
                
  23185182.086   124068600.044                    96497792.557    23185187.004  
  23185180.230  
  21287136.398   113991691.517                    88660213.526    21287139.434  
  21287135.727  
  23614195.219   126054171.982                    98042128.275    23614199.988  
  23614193.363  
  22070756.852   117898032.733                    91698469.300    22070762.090  
  22070756.359  
  24907973.086   130892296.769    24907978.535   101993970.4524                 
                
  21838045.672   114759730.353    21838052.941    89423220.6324   21838052.875  
                
  21347623.391   113794873.012                                                  
  21347622.391  
  24710238.133   129853190.127    24710244.219   101184321.7884                 
                
  22967747.328   120696315.361    22967757.453    94049131.9224   22967758.098  
                
  23619848.250   124123188.291    23619858.492    96719404.2414   23619858.453  
                
  24859368.297   130636857.657    24859379.707   101795001.4964   24859379.820  
                
  20571060.172   108101691.278    20571068.305    84235138.0824   20571068.191  
                
  23046087.789   121108052.096    23046097.672    94369958.2594   23046098.051  
                
  22036635.820   117591725.271                    91460225.787    22036639.590  
  22036633.648  
 21  8 15 16 54  0.0000000  0 16G16R 1G 4R17R 8R18R12G 7R10G 2G 6G26
                                G30G 9G 3R 2
  22141037.703   116351971.191    22141043.691    90663909.9134                 
                
  19322077.805   103287610.407                    80334826.520    19322083.027  
  19322077.180  
  20851651.734   109576225.582    20851659.184    85384134.6434   20851659.164  
                
  23189345.359   124090878.280                    96515120.013    23189350.363  
  23189343.504  
  21292003.258   114017753.216                    88680483.723    21292006.258  
  21292002.617  
  23612972.500   126047644.865                    98037051.620    23612977.277  
  23612970.676  
  22062882.656   117855970.055                    91665753.905    22062887.816  
  22062882.109  
  21833842.320   114737641.607    21833849.621    89406008.6344   21833849.555  
                
  21353695.070   113827238.420                                                  
  21353694.039  
  24709153.430   129847490.008    24709159.484   101179880.1244                 
                
  22970356.680   120710027.533    22970366.824    94059816.7124   22970367.449  
                
  23624019.734   124145109.546    23624030.004    96736485.7464   23624029.914  
                
  24852938.172   130603067.197    24852949.551   101768671.3034   24852949.691  
                
  20569321.445   108092554.225    20569329.574    84228018.3044   20569329.457  
                
  23052633.195   121142448.384    23052643.016    94396760.5604   23052643.430  
                
  22030312.031   117557980.442                    91433979.846    22030315.824  
  22030309.875  
 21  8 15 16 54 10.0000000  0 16G16R 1G 4R17R 8R18R12G 7R10G 2G 6G26
                                G30G 9G 3R 2
  22140702.977   116350212.151    22140708.996    90662539.2304                 
                
  19321784.969   103286045.010                    80333609.000    19321790.172  
  19321784.340  
  20853970.406   109588410.231    20853977.887    85393629.1734   20853977.844  
                
  23193520.492   124113220.066                    96532496.973    23193525.477  
  23193518.641  
  21296877.641   114043855.179                    88700785.245    21296880.605  
  21296877.039  
  23611765.508   126041201.297                    98032039.979    23611770.180  
  23611763.695  
  22055014.445   117813939.532                    91633063.528    22055019.582  
  22055013.883  
  21829645.570   114715587.445    21829652.867    89388823.5744   21829652.801  
                
  21359776.797   113859657.437                                                  
  21359775.785  
  24708078.891   129841843.173    24708084.910   101175479.9704                 
                
  22972976.828   120723796.347    22972986.996    94070545.6554   22972987.602  
                
  23628201.242   124167083.366    23628211.492    96753608.2094   23628211.391  
                
  24846510.383   130569288.956    24846521.730   101742350.6244   24846521.902  
                
  20567589.117   108083450.692    20567597.250    84220924.6434   20567597.141  
                
  23059183.594   121176870.901    23059193.379    94423583.2814   23059193.820  
                
  22023989.859   117524244.042                    91407740.434    22023993.605  
  22023987.703  
 21  8 15 16 54 20.0000000  0 16G16R 1G 4R17R 8R18R12G 7R10G 2G 6G26
                                G30G 9G 3R 2
  22140382.141   116348526.170    22140388.203    90661225.4804                 
                
  19321502.336   103284534.174                    80332433.903    19321507.520  
  19321501.688  
  20856294.914   109600625.599    20856302.418    85403147.6344   20856302.359  
                
  23197707.352   124135624.726                    96549922.821    23197712.281  
  23197705.512  
  21301759.414   114069996.716                    88721117.566    21301762.395  
  21301758.836  
  23610573.961   126034840.413                    98027092.628    23610578.652  
  23610572.125  
  22047152.102   117771940.679                    91600397.775    22047157.316  
  22047151.586  
  21825455.258   114693567.248    21825462.527    89371664.9924   21825462.480  
                
  21365868.383   113892128.944                                                  
  21365867.402  
  24707014.344   129836248.953    24707020.332   101171120.8564                 
                
  22975607.594   120737621.034    22975617.781    94081318.1404   22975618.367  
                
  23632392.594   124189108.985    23632402.848    96770771.0364   23632402.746  
                
  24840084.734   130535522.368    24840096.152   101716039.0304   24840096.328  
                
  20565863.023   108074380.052    20565871.168    84213856.6164   20565871.051  
                
  23065738.852   121211318.900    23065748.648    94450425.8614   23065749.090  
                
  22017669.164   117490515.585                    91381507.178    22017672.875  
  22017667.043  
 21  8 15 16 54 30.0000000  0 16G16R 1G 4R17R 8R18R12G 7R10G 2G 6G26
                                G30G 9G 3R 2
  22140075.336   116346913.869    22140081.441    90659969.1434                 
                
  19321229.969   103283078.248                    80331301.513    19321235.152  
  19321229.293  
  20858625.383   109612872.250    20858632.914    85412690.4744   20858632.844  
                
  23201906.055   124158092.600                    96567397.754    23201911.008  
  23201904.266  
  21306648.695   114096178.552                    88741481.201    21306651.695  
  21306648.148  
  23609397.945   126028563.009                    98022210.227    23609402.688  
  23609396.215  
  22039295.867   117729974.197                    91567757.209    22039301.117  
  22039295.352  
  21821271.547   114671581.715    21821278.781    89354533.4134   21821278.746  
                
  21371969.945   113924653.566                                                  
  21371968.965  
  24705959.938   129830707.983    24705965.879   101166803.2094                 
                
  22978249.086   120751502.154    22978259.293    94092134.5704   22978259.871  
                
  23636593.898   124211186.921    23636604.172    96787974.6134   23636604.066  
                
  24833661.445   130501767.981    24833672.914   101689736.9374   24833673.070  
                
  20564143.312   108065342.883    20564151.473    84206814.6704   20564151.348  
                
  23072299.062   121245792.883    23072308.871    94477288.6994   23072309.277  
                
  22011350.148   117456796.048                    91355280.881    22011353.852  
  22011348.016  
 21  8 15 16 54 40.0000000  0 16G16R 1G 4R17R 8R18R12G 7R10G 2G 6G26
                                G30G 9G 3R 2
  22139782.492   116345374.953    22139788.645    90658769.9854                 
                
  19320967.867   103281677.179                    80330211.785    19320973.043  
  19320967.191  
  20860961.758   109625149.998    20860969.312    85422257.5484   20860969.219  
                
  23206116.531   124180623.388                    96584921.615    23206121.508  
  23206114.785  
  21311545.445   114122400.375                    88761875.936    21311548.477  
  21311544.934  
  23608237.617   126022368.969                    98017392.598    23608242.363  
  23608235.910  
  22031445.711   117688040.131                    91535141.858    22031450.953  
  22031445.207  
  21817094.383   114649630.622    21817101.590    89337428.6724   21817101.543  
                
  21378081.383   113957230.862                                                  
  21378080.441  
  24704915.641   129825220.073    24704921.539   101162526.9234                 
                
  22980901.266   120765439.386    22980911.480    94102994.7464   22980912.051  
                
  23640805.102   124233316.885    23640815.375    96805218.7374   23640815.297  
                
  24827240.461   130468025.740    24827252.004   101663444.3024   24827252.133  
                
  20562429.938   108056339.063    20562438.109    84199798.7114   20562437.984  
                
  23078864.172   121280292.601    23078873.957    94504171.5834   23078874.371  
                
  22005032.664   117423084.799                    91329061.045    22005036.359  
  22005030.516  
 21  8 15 16 54 50.0000000  0 16G16R 1G 4R17R 8R18R12G 7R10G 2G 6G26
                                G30G 9G 3R 2
  22139503.648   116343909.605    22139509.855    90657628.1614                 
                
  19320716.078   103280331.182                    80329164.900    19320721.270  
  19320715.395  
  20863304.055   109637458.817    20863311.633    85431848.8314   20863311.531  
                
  23210338.742   124203216.901                    96602494.434    23210343.656  
  23210337.039  
  21316449.664   114148661.997                    88782301.631    21316452.691  
  21316449.227  
  23607092.977   126016258.160                    98012639.767    23607097.605  
  23607091.238  
  22023601.641   117646138.439                    91502551.674    22023606.848  
  22023601.133  
  21812923.781   114627713.956    21812930.965    89320350.7644   21812930.895  
                
  21384202.680   113989860.736                                                  
  21384201.770  
  24703881.438   129819785.265    24703887.320   101158292.0254                 
                
  22983564.109   120779432.638    22983574.336    94113898.5704   22983574.906  
                
  23645026.180   124255498.772    23645036.449    96822503.3314   23645036.355  
                
  24820821.805   130434295.621    24820833.391   101637161.1334   24820833.508  
                
  20560722.906   108047368.562    20560731.082    84192808.7114   20560730.945  
                
  23085434.180   121314817.967    23085443.910    94531074.4564   23085444.328  
                
  21998716.859   117389382.496                    91302848.163    21998720.535  
  21998714.703  
 21  8 15 16 55  0.0000000  0 16G16R 1G 4R17R 8R18R12G 7R10G 2G 6G26
                                G30G 9G 3R 2
  22139238.812   116342517.926    22139245.062    90656543.7434                 
                
  19320474.602   103279040.338                    80328160.919    19320479.793  
  19320473.934  
  20865652.289   109649798.896    20865659.895    85441464.4824   20865659.777  
                
  23214572.750   124225873.240                    96620116.020    23214577.508  
  23214571.012  
  21321361.367   114174963.784                    88802758.550    21321364.434  
  21321360.961  
  23605963.828   126010230.802                    98007951.834    23605968.461  
  23605962.172  
  22015763.711   117604269.501                    91469986.948    22015768.875  
  22015763.176  
  21808759.781   114605831.983    21808766.930    89303299.8794   21808766.871  
                
  21390333.852   114022543.272                                                  
  21390332.977  
  24702857.391   129814403.782    24702863.266   101154098.6624                 
                
  22986237.648   120793482.075    22986247.859    94124846.1824   22986248.445  
                
  23649257.164   124277732.750    23649267.422    96839828.4964   23649267.316  
                
  24814405.523   130400577.891    24814417.145   101610887.6114   24814417.254  
                
  20559022.266   108038431.637    20559030.449    84185844.8754   20559030.312  
                
  23092009.062   121349369.114    23092018.781    94557997.4144   23092019.207  
                
  21992402.719   117355688.883                    91276642.008    21992406.352  
  21992400.578  
 21  8 15 16 55 10.0000000  0 16G16R 1G 4R17R 8R18R12G 7R10G 2G 6G26
                                G30G 9G 3R 2
  22138988.164   116341200.755    22138994.434    90655517.3804                 
                
  19320243.578   103277805.350                    80327200.364    19320248.766  
  19320242.934  
  20868006.602   109662170.905    20868014.234    85451105.0074   20868014.098  
                
  23218818.562   124248593.015                    96637786.878    23218823.289  
  23218816.828  
  21326280.711   114201306.458                    88823247.267    21326283.793  
  21326280.316  
  23604850.438   126004287.674                    98003329.403    23604855.086  
  23604848.805  
  22007932.062   117562434.138                    91437448.369    22007937.215  
  22007931.523  
  21804602.508   114583985.401    21804609.637    89286276.5734   21804609.578  
                
  21396475.016   114055278.983                                                  
  21396474.191  
  24701843.586   129809076.197    24701849.484   101149947.3124                 
                
  22988921.984   120807588.264    22988932.203    94135837.9964   22988932.801  
                
  23653498.180   124300019.340    23653508.426    96857194.6764   23653508.312  
                
  24807991.719   130366873.276    24808003.375   101584624.3044   24808003.480  
                
  20557328.141   108029528.929    20557336.344    84178907.7114   20557336.203  
                
  23098588.945   121383946.610    23098598.699    94584940.9084   23098599.109  
                
  21986090.344   117322004.807                    91250443.301    21986093.969  
  21986088.211  
 21  8 15 16 55 20.0000000  0 16G16R 1G 4R17R 8R18R12G 7R10G 2G 6G26
                                G30G 9G 3R 2
  22138751.203   116339955.543    22138757.500    90654547.1044                 
                
  19320022.578   103276623.940                    80326281.480    19320027.777  
  19320021.953  
  20870366.500   109674572.305    20870374.164    85460768.4354   20870374.012  
                
  23223075.695   124271373.419                    96655504.980    23223080.344  
  23223073.988  
  21331207.164   114227687.126                    88843765.561    21331210.223  
  21331206.816  
  23603752.367   125998426.185                    97998770.478    23603757.039  
  23603750.750  
  22000106.383   117520630.030                    91404934.080    22000111.363  
  22000105.723  
  21800451.484   114562171.704    21800458.617    89269278.9034   21800458.539  
                
  21402625.609   114088065.025                                                  
  21402624.828  
  24700839.578   129803800.073    24700845.492   101145836.0374                 
                
  22991616.609   120821748.594    22991626.867    94146872.0134   22991627.445  
                
  23657748.703   124322355.972    23657758.918    96874599.8394   23657758.793  
                
  24801579.906   130333179.278    24801591.625   101558369.2714   24801591.730  
                
  20555640.047   108020657.975    20555648.254    84171995.2814   20555648.105  
                
  23105173.312   121418547.849    23105183.129    94611902.8924   23105183.523  
                
  21979779.297   117288327.833                    91224250.104    21979782.922  
  21979777.148  
 21  8 15 16 55 30.0000000  0 16G16R 1G 4R17R 8R18R12G 7R10G 2G 6G26
                                G30G 9G 3R 2
  22138528.375   116338784.601    22138534.688    90653634.6734                 
                
  19319812.008   103275498.312                    80325406.008    19319817.227  
  19319811.375  
  20872732.438   109687005.362    20872740.125    85470456.5304   20872739.949  
                
  23227344.570   124294216.608                    96673271.940    23227349.090  
  23227342.895  
  21336141.148   114254108.249                    88864315.337    21336144.207  
  21336140.836  
  23602670.016   125992648.740                    97994276.911    23602674.730  
  23602668.406  
  21992286.875   117478859.486                    91372445.883    21992291.797  
  21992286.180  
  21796307.172   114540393.188    21796314.305    89252308.6464   21796314.215  
                
  21408786.109   114120903.798                                                  
  21408785.336  
  24699845.789   129798577.596    24699851.695   101141766.5814                 
                
  22994321.977   120835965.272    22994332.262    94157949.9324   22994332.812  
                
  23662009.180   124344744.861    23662019.332    96892045.7294   23662019.199  
                
  24795170.625   130299498.226    24795182.352   101532124.3374   24795182.441  
                
  20553958.445   108011821.078    20553966.656    84165109.3864   20553966.508  
                
  23111762.602   121453175.068    23111772.535    94638885.1244   23111772.891  
                
  21973470.125   117254660.891                    91198064.726    21973473.754  
  21973468.020  
 21  8 15 16 55 40.0000000  0 16G16R 1G 4R17R 8R18R12G 7R10G 2G 6G26
                                G30G 9G 3R 2
  22138319.602   116337687.491    22138325.914    90652779.7824                 
                
  19319611.805   103274428.095                    80324573.619    19319617.031  
  19319611.176  
  20875104.305   109699469.675    20875112.023    85480168.9704   20875111.828  
                
  23231625.062   124317122.136                    96691087.302    23231629.594  
  23231623.406  
  21341082.609   114280569.430                    88884896.229    21341085.668  
  21341082.281  
  23601603.406   125986955.035                    97989848.470    23601608.098  
  23601601.809  
  21984473.500   117437122.178                    91339983.556    21984478.480  
  21984472.855  
  21792169.477   114518649.471    21792176.609    89235365.5004   21792176.512  
                
  21414956.367   114153794.595                                                  
  21414955.605  
  24698862.141   129793408.456    24698867.996   101137738.6574                 
                
  22997037.977   120850237.809    22997048.277    94169071.3944   22997048.805  
                
  23666279.508   124367185.478    23666289.562    96909531.9484   23666289.457  
                
  24788763.656   130265829.771    24788775.402   101505889.1954   24788775.492  
                
  20552283.242   108003017.849    20552291.461    84158249.7304   20552291.309  
                
  23118356.805   121487827.741    23118366.812    94665887.1984   23118367.109  
                
  21967162.570   117221002.521                    91171885.990    21967166.199  
  21967160.520  
 21  8 15 16 55 50.0000000  0 16G16R 1G 4R17R 8R18R12G 7R10G 2G 6G26
                                G30G 9G 3R 2
  22138124.812   116336663.933    22138131.168    90651982.2074                 
                
  19319421.930   103273413.123                    80323784.192    19319427.145  
  19319421.293  
  20877482.062   109711964.927    20877489.805    85489905.5334   20877489.594  
                
  23235917.086   124340089.501                    96708950.759    23235921.688  
  23235915.453  
  21346031.484   114307070.375                    88905508.072    21346034.531  
  21346031.156  
  23600552.391   125981344.568                    97985484.779    23600557.070  
  23600550.797  
  21976666.344   117395418.090                    91307547.077    21976671.379  
  21976665.742  
  21788038.352   114496940.307    21788045.480    89218449.2704   21788045.383  
                
  21421136.281   114186736.976                                                  
  21421135.555  
  24697888.578   129788292.326    24697894.348   101133752.0554                 
                
  22999764.523   120864565.874    22999774.824    94180236.0934   22999775.316  
                
  23670559.609   124389677.490    23670569.609    96927058.2034   23670569.508  
                
  24782359.102   130232173.666    24782370.848   101479663.6954   24782370.941  
                
  20550614.391   107994248.007    20550622.613    84151416.0924   20550622.465  
                
  23124955.844   121522505.550    23124965.828    94692908.8554   23124966.098  
                
  21960856.750   117187353.371                    91145714.439    21960860.363  
  21960854.699  
 21  8 15 16 56  0.0000000  0 16G16R 1G 4R17R 8R18R12G 7R10G 2G 6G26
                                G30G 9G 3R 2
  22137944.094   116335714.243    22137950.512    90651242.1794                 
                
  19319242.438   103272453.622                    80323037.917    19319247.645  
  19319241.789  
  20879865.773   109724491.412    20879873.543    85499666.4274   20879873.324  
                
  23240220.711   124363118.814                    96726862.459    23240225.309  
  23240219.086  
  21350987.852   114333611.414                    88926151.099    21350990.859  
  21350987.512  
  23599517.031   125975817.640                    97981186.049    23599521.688  
  23599515.379  
  21968865.477   117353747.556                    91275136.687    21968870.551  
  21968864.906  
  21783913.852   114475265.944    21783921.000    89201560.1704   21783920.895  
                
  21427325.914   114219731.085                                                  
  21427325.191  
  24696925.156   129783229.439    24696930.828   101129806.9484                 
                
  23002501.672   120878949.616    23002511.969    94191444.2084   23002512.465  
                
  23674849.531   124412221.092    23674859.512    96944624.6394   23674859.391  
                
  24775956.930   130198530.282    24775968.707   101453448.1104   24775968.836  
                
  20548951.961   107985511.881    20548960.188    84144608.7244   20548960.039  
                
  23131559.648   121557208.713    23131569.609    94719950.2694   23131569.871  
                
  21954552.664   117153713.521                    91119550.150    21954556.277  
  21954550.594  
 21  8 15 16 56 10.0000000  0 16G16R 1G 4R17R 8R18R12G 7R10G 2G 6G26
                                G30G 9G 3R 2
  22137777.414   116334838.353    22137783.875    90650559.6924                 
                
  19319073.336   103271549.667                    80322334.849    19319078.531  
  19319072.680  
  20882255.406   109737049.050    20882263.191    85509451.5934   20882262.965  
                
  23244535.898   124386209.974                    96744822.249    23244540.484  
  23244534.238  
  21355951.664   114360192.280                    88946825.108    21355954.637  
  21355951.332  
  23598497.305   125970374.373                    97976952.423    23598501.973  
  23598495.656  
  21961070.812   117312110.605                    91242752.404    21961075.992  
  21961070.324  
  21779795.961   114453626.340    21779803.125    89184698.1554   21779803.004  
                
  21433525.219   114252776.787                                                  
  21433524.484  
  24695971.859   129778219.822    24695977.461   101125903.3424                 
                
  23005249.383   120893388.946    23005259.645    94202695.6124   23005260.172  
                
  23679149.219   124434816.123    23679159.180    96962231.1544   23679159.086  
                
  24769557.156   130164899.527    24769568.945   101427242.3544   24769569.086  
                
  20547295.938   107976809.425    20547304.160    84137827.5964   20547304.020  
                
  23138168.242   121591937.046    23138178.148    94747011.3074   23138178.434  
                
  21948250.328   117120083.063                    91093393.111    21948253.930  
  21948248.270  
 21  8 15 16 56 20.0000000  0 16G16R 1G 4R17R 8R18R12G 7R10G 2G 6G26
                                G30G 9G 3R 2
  22137624.750   116334036.090    22137631.199    90649934.5434                 
                
  19318914.617   103270701.243                    80321674.963    19318919.820  
  19318913.965  
  20884650.938   109749637.685    20884658.730    85519260.9214   20884658.504  
                
  23248862.547   124409362.540                    96762829.756    23248867.117  
  23248860.871  
  21360922.898   114386812.960                    88967530.069    21360925.875  
  21360922.582  
  23597493.227   125965014.595                    97972783.683    23597497.891  
  23597491.578  
  21953282.492   117270507.326                    91210394.316    21953287.727  
  21953282.090  
  21775684.680   114432021.402    21775691.852    89167863.1514   21775691.734  
                
  21439734.156   114285873.780                                                  
  21439733.434  
  24695028.680   129773263.302    24695034.285   101122041.1334                 
                
  23008007.633   120907883.570    23008017.871    94213990.1284   23008018.414  
                
  23683458.656   124457462.354    23683468.609    96979877.5734   23683468.547  
                
  24763159.883   130131281.355    24763171.586   101401046.3884   24763171.754  
                
  20545646.297   107968140.500    20545654.520    84131072.5944   20545654.387  
                
  23144781.523   121626690.354    23144791.480    94774091.7934   23144791.770  
                
  21941949.680   117086461.576                    91067243.085    21941953.293  
  21941947.613  
 21  8 15 16 56 30.0000000  0 16G16R 1G 4R17R 8R18R12G 7R10G 2G 6G26
                                G30G 9G 3R 2
  22137486.102   116333307.524    22137492.535    90649366.8264                 
                
  19318766.273   103269908.268                    80321058.203    19318771.469  
  19318765.609  
  20887052.383   109762257.367    20887060.168    85529094.4374   20887059.957  
                
  23253200.695   124432576.440                    96780885.009    23253205.223  
  23253198.988  
  21365901.523   114413473.217                    88988265.822    21365904.504  
  21365901.223  
  23596504.820   125959738.356                    97968679.977    23596509.480  
  23596503.188  
  21945500.570   117228937.746                    91178062.443    21945505.781  
  21945500.199  
  21771580.000   114410451.222    21771587.180    89151055.2284   21771587.047  
                
  21445952.648   114319021.696                                                  
  21445951.941  
  24694095.609   129768359.954    24694101.211   101118220.3344                 
                
  23010776.383   120922433.524    23010786.629    94225327.7234   23010787.168  
                
  23687777.820   124480159.774    23687787.789    96997563.8674   23687787.707  
                
  24756764.922   130097675.826    24756776.680   101374860.3004   24756776.828  
                
  20544003.047   107959505.200    20544011.270    84124343.7874   20544011.137  
                
  23151399.555   121661468.572    23151409.562    94801191.6844   23151409.852  
                
  21935650.852   117052849.847                    91041100.654    21935654.453  
  21935648.754  
 21  8 15 16 56 40.0000000  0 16G16R 1G 4R17R 8R18R12G 7R10G 2G 6G26
                                G30G 9G 3R 2
  22137361.500   116332652.727    22137367.930    90648856.6154                 
                
  19318628.359   103269170.988                    80320484.760    19318633.551  
  19318627.695  
  20889459.742   109774908.139    20889467.520    85538952.1814   20889467.309  
                
  23257550.219   124455851.743                    96798987.985    23257554.762  
  23257548.496  
  21370887.609   114440173.397                    89009032.608    21370890.566  
  21370887.305  
  23595532.062   125954545.586                    97964641.161    23595536.664  
  23595530.477  
  21937725.078   117187402.150                    91145757.013    21937730.207  
  21937724.672  
  21767481.953   114388915.845    21767489.125    89134274.4274   21767488.996  
                
  21452180.727   114352220.659                                                  
  21452180.031  
  24693172.688   129763509.895    24693178.301   101114441.0674                 
                
  23013555.664   120937038.733    23013565.938    94236708.4014   23013566.445  
                
  23692106.719   124502908.333    23692116.715    97015290.0264   23692116.629  
                
  24750372.406   130064083.070    24750384.215   101348684.1574   24750384.355  
                
  20542366.219   107950903.610    20542374.445    84117641.2584   20542374.309  
                
  23158022.352   121696271.735    23158032.422    94828311.0264   23158032.703  
                
  21929353.766   117019247.383                    91014965.409    21929357.355  
  21929351.723  
 21  8 15 16 56 50.0000000  0 16G16R 1G 4R17R 8R18R12G 7R10G 2G 6G26
                                G30G 9G 3R 2
  22137250.898   116332071.557    22137257.297    90648403.7504                 
                
  19318500.836   103268489.306                    80319954.568    19318506.008  
  19318500.180  
  20891872.992   109787589.856    20891880.754    85548834.0364   20891880.551  
                
  23261911.180   124479188.164                    96817138.548    23261915.680  
  23261909.434  
  21375881.062   114466912.963                    89029830.026    21375884.000  
  21375880.766  
  23594574.945   125949436.360                    97960667.350    23594579.523  
  23594573.363  
  21929956.008   117145900.508                    91113477.970    21929960.996  
  21929955.492  
  21763390.500   114367415.163    21763397.656    89117520.6574   21763397.539  
                
  21458418.312   114385470.423                                                  
  21458417.621  
  24692259.852   129758712.917    24692265.535   101110703.1414                 
                
  23016345.414   120951699.026    23016355.746    94248131.9724   23016356.234  
                
  23696445.305   124525707.829    23696455.320    97033055.8584   23696455.254  
                
  24743982.320   130030503.005    24743994.125   101322517.8994   24743994.262  
                
  20540735.773   107942335.592    20540744.012    84110964.8804   20540743.859  
                
  23164649.805   121731099.591    23164659.953    94855449.6064   23164660.219  
                
  21923058.461   116985654.411                    90988837.567    21923062.008  
  21923056.445  
 21  8 15 16 57  0.0000000  0 16G16R 1G 4R17R 8R18R12G 7R10G 2G 6G26
                                G30G 9G 3R 2
  22137154.336   116331564.099    22137160.684    90648008.3224                 
                
  19318383.727   103267863.233                    80319467.618    19318388.875  
  19318383.090  
  20894292.141   109800302.602    20894299.883    85558740.0694   20894299.688  
                
  23266283.570   124502585.485                    96835336.453    23266288.016  
  23266281.809  
  21380881.969   114493692.384                    89050658.454    21380884.871  
  21380881.695  
  23593633.484   125944410.873                    97956758.642    23593638.090  
  23593631.953  
  21922193.234   117104433.026                    91081225.480    21922198.168  
  21922192.723  
  21759305.688   114345949.339    21759312.859    89100794.0544   21759312.730  
                
  21464665.430   114418770.997                                                  
  21464664.746  
  24691357.133   129753969.123    24691362.902   101107006.6844                 
                
  23019145.633   120966414.352    23019156.027    94259598.4574   23019156.508  
                
  23700793.578   124548558.269    23700803.645    97050861.3814   23700803.586  
                
  24737594.672   129996935.732    24737606.434   101296361.6034   24737606.605  
                
  20539111.742   107933801.269    20539119.977    84104314.7584   20539119.832  
                
  23171281.961   121765952.204    23171292.219    94882607.4724   23171292.484  
                
  21916764.961   116952071.131                    90962717.250    21916768.480  
  21916762.957  
 21  8 15 16 57 10.0000000  0 16G16R 1G 4R17R 8R18R12G 7R10G 2G 6G26
                                G30G 9G 3R 2
  22137071.844   116331130.595    22137078.164    90647670.5334                 
                
  19318277.078   103267293.102                    80319024.181    19318282.219  
  19318276.441  
  20896717.219   109813046.461    20896724.953    85568670.3514   20896724.758  
                
  23270667.312   124526043.822                    96853581.789    23270671.797  
  23270665.504  
  21385890.281   114520511.487                    89071517.764    21385893.156  
  21385890.027  
  23592707.688   125939468.960                    97952914.913    23592712.285  
  23592706.176  
  21914436.922   117063000.067                    91048999.867    21914441.855  
  21914436.457  
  21755227.523   114324518.488    21755234.738    89084094.7094   21755234.590  
                
  21470922.070   114452122.274                                                  
  21470921.414  
  24690464.570   129749278.684    24690470.406   101103351.7904                 
                
  23021956.359   120981184.784    23021966.797    94271107.8844   23021967.230  
                
  23705151.547   124571459.665    23705161.648    97068706.6144   23705161.586  
                
  24731209.414   129963381.446    24731221.184   101270215.4244   24731221.410  
                
  20537494.141   107925300.773    20537502.379    84097690.9994   20537502.234  
                
  23177918.875   121800829.542    23177929.230    94909784.5944   23177929.480  
                
  21910473.336   116918497.800                    90936604.637    21910476.820  
  21910471.352  
 21  8 15 16 57 20.0000000  0 16G16R 1G 4R17R 8R18R12G 7R10G 2G 6G26
                                G30G 9G 3R 2
  22137003.414   116330771.004    22137009.727    90647390.3424                 
                
  19318180.898   103266778.899                    80318624.254    19318186.035  
  19318180.266  
  20899148.227   109825821.437    20899155.945    85578624.8784   20899155.754  
                
  23275062.375   124549562.952                    96871874.440    23275066.918  
  23275060.605  
  21390906.016   114547370.500                    89092408.095    21390908.895  
  21390905.727  
  23591797.594   125934610.817                    97949136.355    23591802.176  
  23591796.113  
  21906687.047   117021601.511                    91016801.013    21906691.977  
  21906686.598  
  21751156.039   114303122.691    21751163.293    89067422.6664   21751163.113  
                
  21477188.156   114485523.870                                                  
  21477187.535  
  24689582.148   129744641.564    24689588.039   101099738.4364                 
                
  23024777.547   120996010.268    23024787.996    94282660.1874   23024788.430  
                
  23709519.203   124594411.917    23709529.289    97086591.4804   23709529.227  
                
  24724826.602   129929840.154    24724838.449   101244079.3894   24724838.680  
                
  20535882.992   107916834.134    20535891.223    84091093.6234   20535891.078  
                
  23184560.477   121835731.569    23184570.941    94936980.9554   23184571.168  
                
  21904183.500   116884934.010                    90910499.502    21904186.984  
  21904181.492  
 21  8 15 16 57 30.0000000  0 16G16R 1G 4R17R 8R18R12G 7R10G 2G 6G26
                                G30G 9G 3R 2
  22136949.047   116330485.284    22136955.320    90647167.6914                 
                
  19318095.148   103266320.456                    80318267.691    19318100.285  
  19318094.531  
  20901585.125   109838627.390    20901592.832    85588603.5444   20901592.633  
                
  23279468.836   124573142.553                    96890214.160    23279473.281  
  23279467.121  
  21395929.133   114574269.028                    89113329.144    21395931.992  
  21395928.816  
  23590903.203   125929836.286                    97945422.860    23590907.762  
  23590901.730  
  21898943.695   116980237.544                    90984629.046    21898948.574  
  21898943.199  
  21747091.188   114281761.779    21747098.473    89050777.8164   21747098.273  
                
  21483463.641   114518975.602                                                  
  21483463.004  
  24688709.836   129740057.558    24688715.797   101096166.4854                 
                
  23027609.156   121010890.516    23027619.594    94294255.1704   23027620.027  
                
  23713896.508   124617414.817    23713906.551    97104515.8354   23713906.496  
                
  24718446.273   129896311.777    24718458.211   101217953.4174   24718458.414  
                
  20534278.266   107908401.226    20534286.492    84084522.5314   20534286.352  
                
  23191206.781   121870658.042    23191217.273    94964196.3814   23191217.504  
                
  21897895.477   116851379.989                    90884401.939    21897898.957  
  21897893.449  
 21  8 15 16 57 40.0000000  0 16G16R 1G 4R17R 8R18R12G 7R10G 2G 6G26
                                G30G 9G 3R 2
  22136908.695   116330273.276    22136914.957    90647002.4914                 
                
  19318019.852   103265917.933                    80317954.615    19318024.984  
  19318019.266  
  20904027.891   109851464.216    20904035.574    85598606.2724   20904035.383  
                
  23283886.555   124596782.522                    96908600.748    23283890.969  
  23283884.801  
  21400959.625   114601206.957                    89134280.885    21400962.438  
  21400959.340  
  23590024.430   125925145.174                    97941774.250    23590028.965  
  23590022.965  
  21891206.703   116938908.108                    90952483.965    21891211.652  
  21891206.230  
  21743032.938   114260435.628    21743040.234    89034160.0494   21743040.027  
                
  21489748.500   114552477.332                                                  
  21489747.840  
  24687847.633   129735526.659    24687853.699   101092635.9164                 
                
  23030451.172   121025825.440    23030461.559    94305892.7434   23030462.020  
                
  23718283.406   124640468.222    23718293.402    97122479.5244   23718293.375  
                
  24712068.484   129862796.333    24712080.441   101191837.5204   24712080.656  
                
  20532679.938   107900002.008    20532688.164    84077977.6884   20532688.023  
                
  23197857.664   121905608.835    23197868.160    94991430.7614   23197868.426  
                
  21891609.320   116817835.973                    90858312.186    21891612.809  
  21891607.297  
 21  8 15 16 57 50.0000000  0 16G16R 1G 4R17R 8R18R12G 7R10G 2G 6G26
                                G30G 9G 3R 2
  22136882.406   116330135.094    22136888.648    90646894.8294                 
                
  19317954.977   103265571.118                    80317684.870    19317960.098  
  19317954.410  
  20906476.570   109864332.049    20906484.234    85608633.1514   20906484.043  
                
  23288315.531   124620482.770                    96927034.240    23288319.930  
  23288313.762  
  21405997.508   114628184.481                    89155263.405    21406000.289  
  21405997.227  
  23589161.336   125920537.849                    97938190.768    23589165.848  
  23589159.844  
  21883476.211   116897613.537                    90920366.001    21883481.270  
  21883475.766  
  21738981.336   114239144.336    21738988.598    89017569.4414   21738988.414  
                
  21496042.750   114586029.137                                                  
  21496042.078  
  24686995.547   129731048.935    24687001.676   101089146.7844                 
                
  23033303.602   121040815.003    23033313.934    94317572.9224   23033314.410  
                
  23722679.930   124663572.151    23722689.883    97140482.5914   23722689.879  
                
  24705693.078   129829293.921    24705705.141   101165731.7784   24705705.363  
                
  20531088.047   107891636.603    20531096.273    84071459.1934   20531096.125  
                
  23204513.234   121940584.011    23204523.676    95018684.1194   23204523.977  
                
  21885325.070   116784301.949                    90832230.161    21885328.531  
  21885323.090  
 21  8 15 16 58  0.0000000  0 16G16R 1G 4R17R 8R18R12G 7R10G 2G 6G26
                                G30G 9G 3R 2
  22136870.234   116330071.081    22136876.477    90646844.9454                 
                
  19317900.688   103265280.796                    80317459.062    19317905.805  
  19317900.145  
  20908931.188   109877231.129    20908938.840    85618684.3904   20908938.648  
                
  23292755.820   124644243.311                    96945514.673    23292760.145  
  23292754.031  
  21411042.828   114655201.751                    89176276.828    21411045.582  
  21411042.559  
  23588313.938   125916014.483                    97934672.582    23588318.418  
  23588312.445  
  21875752.266   116856354.095                    90888275.362    21875757.414  
  21875751.863  
  21734936.438   114217888.256    21734943.660    89001006.2704   21734943.508  
                
  21502346.367   114619630.919                                                  
  21502345.648  
  24686153.641   129726624.682    24686159.770   101085699.2984                 
                
  23036166.461   121055859.414    23036176.734    94329295.8304   23036177.238  
                
  23727086.109   124686726.810    23727096.027    97158525.1914   23727096.016  
                
  24699320.312   129795804.876    24699332.340   101139636.4434   24699332.613  
                
  20529502.664   107883305.323    20529510.902    84064967.2954   20529510.742  
                
  23211173.477   121975583.701    23211183.871    95045956.6004   23211184.199  
                
  21879042.773   116750778.418                    90806156.308    21879046.246  
  21879040.812  
 21  8 15 16 58 10.0000000  0 16G16R 1G 4R17R 8R18R12G 7R10G 2G 6G26
                                G30G 9G 3R 2
  22136872.094   116330080.787    22136878.312    90646852.5134                 
                
  19317856.820   103265046.318                    80317276.691    19317861.934  
  19317856.293  
  20911391.664   109890160.991    20911399.312    85628759.6044   20911399.121  
                
  23297207.258   124668063.704                    96964041.624    23297211.488  
  23297205.449  
  21416095.469   114682258.326                    89197320.816    21416098.203  
  21416095.188  
  23587482.211   125911574.630                    97931219.342    23587486.637  
  23587480.734  
  21868034.859   116815129.630                    90856211.921    21868040.078  
  21868034.516  
  21730898.141   114196666.940    21730905.359    88984470.1864   21730905.215  
                
  21508659.266   114653282.216                                                  
  21508658.500  
  24685321.812   129722253.415    24685327.910   101082293.1324                 
                
  23039039.648   121070958.123    23039049.875    94341061.0494   23039050.395  
                
  23731501.820   124709931.620    23731511.742    97176606.8544   23731511.707  
                
  24692949.867   129762328.781    24692961.957   101113551.1894   24692962.277  
                
  20527923.664   107875007.711    20527931.922    84058501.6244   20527931.754  
                
  23217838.297   122010607.387    23217848.648    95073247.7874   23217849.000  
                
  21872762.297   116717264.696                    90780090.108    21872765.781  
  21872760.348  
 21  8 15 16 58 20.0000000  0 16G16R 1G 4R17R 8R18R12G 7R10G 2G 6G26
                                G30G 9G 3R 2
  22136887.977   116330164.170    22136894.191    90646917.4954                 
                
  19317823.445   103264867.870                    80317137.895    19317828.559  
  19317822.934  
  20913858.039   109903121.844    20913865.684    85638858.9734   20913865.484  
                
  23301669.891   124691943.948                    96982615.180    23301674.008  
  23301668.059  
  21421155.477   114709354.424                    89218395.555    21421158.207  
  21421155.172  
  23586666.188   125907218.484                    97927831.250    23586670.535  
  23586664.730  
  21860324.086   116773940.273                    90824175.753    21860329.289  
  21860323.758  
  21726866.508   114175480.623    21726873.746    88967961.3834   21726873.582  
                
  21514981.477   114686983.144                                                  
  21514980.664  
  24684500.117   129717935.409    24684506.145   101078928.4554                 
                
  23041923.219   121086111.332    23041933.402    94352868.7294   23041933.934  
                
  23735927.109   124733186.759    23735937.047    97194727.7294   23735936.996  
                
  24686582.078   129728865.885    24686594.164   101087476.2584   24686594.484  
                
  20526351.133   107866744.007    20526359.414    84052062.3804   20526359.234  
                
  23224507.711   122045655.249    23224518.059    95100557.7944   23224518.406  
                
  21866483.758   116683761.267                    90754031.908    21866487.234  
  21866481.785  
 21  8 15 16 58 30.0000000  0 16G16R 1G 4R17R 8R18R12G 7R10G 2G 6G26
                                G30G 9G 3R 2
  22136917.906   116330321.504    22136924.148    90647040.0934                 
                
  19317800.586   103264745.614                    80317042.812    19317805.688  
  19317800.086  
  20916330.305   109916113.667    20916337.953    85648982.4694   20916337.746  
                
  23306143.758   124715883.891                    97001235.175    23306147.738  
  23306141.879  
  21426222.883   114736490.050                    89239501.035    21426225.605  
  21426222.570  
  23585865.820   125902946.016                    97924508.250    23585870.133  
  23585864.395  
  21852619.984   116732786.333                    90792167.163    21852625.164  
  21852619.641  
  21722841.539   114154329.356    21722848.781    88951479.8864   21722848.625  
                
  21521312.891   114720733.216                                                  
  21521312.066  
  24683688.578   129713670.700    24683694.527   101075605.2924                 
                
  23044817.133   121101318.875    23044827.281    94364718.7534   23044827.820  
                
  23740361.953   124756492.087    23740371.902    97212887.7324   23740371.848  
                
  24680216.742   129695416.243    24680228.891   101061411.6354   24680229.219  
                
  20524785.062   107858514.236    20524793.363    84045649.5784   20524793.180  
                
  23231181.680   122080727.151    23231192.086    95127886.5294   23231192.422  
                
  21860207.164   116650268.253                    90727981.817    21860210.648  
  21860205.176  
 21  8 15 16 58 40.0000000  0 16G16R 1G 4R17R 8R18R12G 7R10G 2G 6G26
                                G30G 9G 3R 2
  22136961.914   116330552.746    22136968.199    90647220.2894                 
                
  19317788.227   103264679.506                    80316991.395    19317793.324  
  19317787.738  
  20918808.445   109929136.369    20918816.090    85659130.0244   20918815.887  
                
  23310628.672   124739883.388                    97019901.402    23310632.547  
  23310626.734  
  21431297.672   114763665.241                    89260637.295    21431300.434  
  21431297.336  
  23585081.117   125898757.242                    97921250.313    23585085.434  
  23585079.656  
  21844922.562   116691667.821                    90760186.122    21844927.699  
  21844922.195  
  21718823.242   114133213.057    21718830.453    88935025.6294   21718830.309  
                
  21527653.555   114754532.561                                                  
  21527652.719  
  24682887.148   129709459.168    24682893.051   101072323.5634                 
                
  23047721.352   121116580.602    23047731.480    94376610.9864   23047732.047  
                
  23744806.320   124779847.457    23744816.270    97231086.7074   23744816.211  
                
  24673853.984   129661979.845    24673866.137   101035357.3264   24673866.457  
                
  20523225.430   107850318.333    20523233.738    84039263.1674   20523233.551  
                
  23237860.172   122115822.933    23237870.684    95155233.8804   23237871.000  
                
  21853932.484   116616785.393                    90701939.581    21853935.957  
  21853930.500  
 21  8 15 16 58 50.0000000  0 16G16R 1G 4R17R 8R18R12G 7R10G 2G 6G26
                                G30G 9G 3R 2
  22137019.992   116330857.934    22137026.293    90647458.1084                 
                
  19317786.406   103264669.752                    80316983.800    19317791.492  
  19317785.918  
  20921292.484   109942190.061    20921300.121    85669301.7334   20921299.930  
                
  23315124.641   124763942.266                    97038613.836    23315128.418  
  23315122.719  
  21436379.781   114790879.775                    89281804.127    21436382.594  
  21436379.410  
  23584312.109   125894652.296                    97918057.538    23584316.457  
  23584310.578  
  21837231.852   116650584.925                    90728232.771    21837236.883  
  21837231.406  
  21714811.625   114112131.905    21714818.797    88918598.7584   21714818.660  
                
  21534003.422   114788380.963                                                  
  21534002.574  
  24682095.859   129705300.924    24682101.723   101069083.3784                 
                
  23050635.898   121131896.547    23050646.012    94388545.4744   23050646.594  
                
  23749260.211   124803252.903    23749270.172    97249324.7164   23749270.102  
                
  24667493.711   129628556.816    24667505.898   101009313.4294   24667506.230  
                
  20521672.273   107842156.440    20521680.578    84032903.2534   20521680.395  
                
  23244543.211   122150942.669    23244553.812    95182599.8854   23244554.113  
                
  21847659.750   116583312.904                    90675905.428    21847663.227  
  21847657.781  
 21  8 15 16 59  0.0000000  0 16G16R 1G 4R17R 8R18R12G 7R10G 2G 6G26
                                G30G 9G 3R 2
  22137092.141   116331237.050    22137098.430    90647753.5144                 
                
  19317795.109   103264716.250                    80317019.962    19317800.180  
  19317794.613  
  20923782.391   109955274.634    20923790.016    85679497.4984   20923789.828  
                
  23319631.719   124788060.321                    97057372.343    23319635.379  
  23319629.820  
  21441469.203   114818133.420                    89303001.400    21441472.043  
  21441468.805  
  23583558.773   125890631.081                    97914929.936    23583563.145  
  23583557.207  
  21829547.734   116609537.646                    90696307.129    21829552.688  
  21829547.270  
  21710806.664   114091085.765    21710813.781    88902199.1784   21710813.672  
                
  21540362.461   114822278.228                                                  
  21540361.566  
  24681314.695   129701195.819    24681320.562   101065884.6084                 
                
  23053560.734   121147266.515    23053570.852    94400522.0704   23053571.426  
                
  23753723.594   124826708.222    23753733.562    97267601.5984   23753733.496  
                
  24661136.070   129595147.113    24661148.180   100983279.9094   24661148.535  
                
  20520125.570   107834028.478    20520133.867    84026569.7814   20520133.691  
                
  23251230.820   122186086.170    23251241.398    95209984.4204   23251241.723  
                
  21841388.984   116549850.950                    90649879.488    21841392.473  
  21841387.004  
 21  8 15 16 59 10.0000000  0 16G16R 1G 4R17R 8R18R12G 7R10G 2G 6G26
                                G30G 9G 3R 2
  22137178.367   116331690.185    22137184.672    90648106.6174                 
                
  19317814.367   103264819.135                    80317099.990    19317819.441  
  19317813.891  
  20926278.203   109968390.189    20926285.805    85689717.4074   20926285.625  
                
  23324149.820   124812237.471                    97076176.775    23324153.438  
  23324147.934  
  21446566.047   114845426.736                    89324229.518    21446568.918  
  21446565.617  
  23582821.180   125886693.660                    97911867.476    23582825.547  
  23582819.609  
  21821870.273   116568526.194                    90664409.356    21821875.207  
  21821869.844  
  21706808.438   114070074.955    21706815.512    88885827.1324   21706815.438  
                
  21546730.648   114856224.258                                                  
  21546729.719  
  24680543.656   129697143.960    24680549.516   101062727.2884                 
                
  23056495.859   121162690.556    23056505.973    94412540.7984   23056506.539  
                
  23758196.469   124850213.463    23758206.453    97285917.3564   23758206.379  
                
  24654780.898   129561750.855    24654793.031   100957256.9044   24654793.410  
                
  20518585.359   107825934.596    20518593.656    84020262.8604   20518593.484  
                
  23257923.039   122221253.472    23257933.504    95237387.5064   23257933.848  
                
  21835120.320   116516400.167                    90623862.222    21835123.801  
  21835118.320  
 21  8 15 16 59 20.0000000  0 16G16R 1G 4R17R 8R18R12G 7R10G 2G 6G26
                                G30G 9G 3R 2
  22137278.641   116332217.104    22137284.980    90648517.2034                 
                
  19317844.180   103264978.419                    80317223.874    19317849.234  
  19317843.711  
  20928779.898   109981536.698    20928787.473    85699961.4344   20928787.301  
                
  23328678.977   124836473.696                    97095027.160    23328682.520  
  23328677.086  
  21451670.203   114872759.209                    89345488.095    21451673.117  
  21451669.770  
  23582099.266   125882840.056                    97908870.228    23582103.641  
  23582097.734  
  21814199.656   116527550.914                    90632539.702    21814204.508  
  21814199.191  
  21702816.922   114049099.366    21702823.984    88869482.5214   21702823.910  
                
  21553107.992   114890219.180                                                  
  21553107.027  
  24679782.727   129693145.314    24679788.629   101059611.4464                 
                
  23059441.242   121178168.564    23059451.359    94424601.5724   23059451.922  
                
  23762678.828   124873768.495    23762688.840    97304271.9334   23762688.758  
                
  24648428.375   129528368.123    24648440.473   100931244.4214   24648440.867  
                
  20517051.625   107817874.783    20517059.922    84013982.4944   20517059.750  
                
  23264619.680   122256444.465    23264630.152    95264809.0604   23264630.480  
                
  21828853.539   116482959.441                    90597852.786    21828857.016  
  21828851.523  
 21  8 15 16 59 30.0000000  0 16G16R 1G 4R17R 8R18R12G 7R10G 2G 6G26
                                G30G 9G 3R 2
  22137392.992   116332817.997    22137399.355    90648985.4424                 
                
  19317884.562   103265194.289                    80317391.771    19317889.605  
  19317884.094  
  20931287.484   109994714.121    20931295.039    85710229.5694   20931294.887  
                
  23333219.156   124860768.736                    97113923.310    23333222.633  
  23333217.246  
  21456781.703   114900131.124                    89366777.342    21456784.613  
  21456781.266  
  23581393.062   125879070.310                    97905938.217    23581397.441  
  23581391.539  
  21806535.758   116486611.647                    90600698.070    21806540.598  
  21806535.281  
  21698832.062   114028158.869    21698839.117    88853165.2604   21698839.055  
                
  21559494.430   114924262.456                                                  
  21559493.418  
  24679031.930   129689199.909    24679037.887   101056537.0994                 
                
  23062396.891   121193700.463    23062407.020    94436704.3394   23062407.543  
                
  23767170.648   124897373.273    23767180.656    97322665.2664   23767180.594  
                
  24642078.422   129494998.953    24642090.465   100905242.4854   24642090.891  
                
  20515524.375   107809849.049    20515532.676    84007728.6774   20515532.500  
                
  23271320.742   122291659.076    23271331.316    95292249.0174   23271331.629  
                
  21822588.805   116449529.647                    90571851.838    21822592.238  
  21822586.797  
 21  8 15 16 59 40.0000000  0 16G16R 1G 4R17R 8R18R12G 7R10G 2G 6G26
                                G30G 9G 3R 2
  22137521.367   116333492.660    22137527.738    90649511.1494                 
                
  19317935.484   103265466.427                    80317603.438    19317940.516  
  19317935.039  
  20933800.930   110007922.338    20933808.461    85720521.6834   20933808.324  
                
  23337770.242   124885122.194                    97132864.899    23337773.723  
  23337768.332  
  21461900.539   114927542.186                    89388097.061    21461903.430  
  21461900.113  
  23580702.555   125875384.212                    97903071.238    23580706.934  
  23580701.000  
  21798878.547   116445708.496                    90568884.526    21798883.441  
  21798878.152  
  21694853.875   114007253.372    21694860.914    88836875.2844   21694860.859  
                
  21565889.891   114958353.894                                                  
  21565888.863  
  24678291.250   129685307.598    24678297.262   101053504.1364                 
                
  23065362.734   121209285.978    23065372.883    94448848.8854   23065373.402  
                
  23771671.898   124921027.526    23771681.898    97341097.1524   23771681.832  
                
  24635731.094   129461643.219    24635743.082   100879251.0384   24635743.512  
                
  20514003.586   107801857.280    20514011.895    84001501.3304   20514011.719  
                
  23278026.227   122326897.109    23278036.918    95319707.1964   23278037.242  
                
  21816326.117   116416110.819                    90545859.436    21816329.547  
  21816324.113  
 21  8 15 16 59 50.0000000  0 16G16R 1G 4R17R 8R18R12G 7R10G 2G 6G26
                                G30G 9G 3R 2
  22137663.844   116334241.410    22137670.180    90650094.5904                 
                
  19317997.023   103265795.337                    80317859.244    19318002.039  
  19317996.578  
  20936320.266   110021161.526    20936327.770    85730837.9324   20936327.660  
                
  23342332.258   124909534.337                    97151852.110    23342335.789  
  23342330.336  
  21467026.703   114954992.433                    89409447.237    21467029.574  
  21467026.312  
  23580027.750   125871781.992                    97900269.517    23580032.176  
  23580026.219  
  21791228.094   116404841.675                    90537099.243    21791233.082  
  21791227.789  
  21690882.391   113986383.114    21690889.391    88820612.7484   21690889.344  
                
  21572294.422   114992493.679                                                  
  21572293.395  
  24677560.695   129681468.529    24677566.734   101050512.6494                 
                
  23068338.812   121224925.292    23068348.973    94461035.3364   23068349.453  
                
  23776182.555   124944731.355    23776192.570    97359567.6784   23776192.492  
                
  24629386.352   129428301.187    24629398.305   100853270.2554   24629398.719  
                
  20512489.305   107793899.682    20512497.613    83995300.6104   20512497.434  
                
  23284736.312   122362158.638    23284747.004    95347183.6884   23284747.320  
                
  21810065.461   116382702.778                    90519875.420    21810068.891  
  21810063.473  
 21  8 15 17  0  0.0000000  0 16G16R 1G 4R17R 8R18R12G 7R10G 2G 6G26
                                G30G 9G 3R 2
  22137820.422   116335064.235    22137826.715    90650735.7684                 
                
  19318069.164   103266180.959                    80318159.171    19318074.195  
  19318068.730  
  20938845.484   110034431.644    20938852.973    85741178.2854   20938852.891  
                
  23346905.172   124934004.899                    97170884.750    23346908.762  
  23346903.223  
  21472160.242   114982482.212                    89430828.167    21472163.098  
  21472159.844  
  23579368.641   125868263.651                    97897533.049    23579373.078  
  23579367.109  
  21783584.516   116364011.492                    90505342.457    21783589.570  
  21783584.258  
  21686917.609   113965548.113    21686924.574    88804377.6874   21686924.539  
                
  21578707.961   115026681.419                                                  
  21578706.934  
  24676840.281   129677682.775    24676846.359   101047562.7134                 
                
  23071325.086   121240618.201    23071335.301    94473263.5804   23071335.750  
                
  23780702.602   124968484.681    23780712.625    97378076.7514   23780712.566  
                
  24623044.109   129394972.838    24623056.117   100827300.1354   24623056.527  
                
  20510981.531   107785976.284    20510989.848    83989126.5444   20510989.668  
                
  23291450.875   122397443.566    23291461.551    95374678.4344   23291461.852  
                
  21803806.883   116349305.888                    90493900.077    21803810.297  
  21803804.914  
 21  8 15 17  0 10.0000000  0 16G16R 1G 4R17R 8R18R12G 7R10G 2G 6G26
                                G30G 9G 3R 2
  22137991.109   116335961.146    22137997.398    90651434.6554                 
                
  19318151.883   103266623.100                    80318503.068    19318156.918  
  19318151.438  
  20941376.602   110047732.722    20941384.094    85751542.7574   20941384.004  
                
  23351488.969   124958533.794                    97189962.738    23351492.645  
  23351487.027  
  21477301.094   115010011.073                    89452239.500    21477303.918  
  21477300.711  
  23578725.250   125864829.198                    97894861.791    23578729.703  
  23578723.754  
  21775947.883   116323217.900                    90473614.138    21775952.930  
  21775947.602  
  21682959.562   113944748.439    21682966.496    88788170.1664   21682966.480  
                
  21585130.531   115060917.271                                                  
  21585129.504  
  24676130.016   129673950.294    24676136.070   101044654.2744                 
                
  23074321.570   121256364.721    23074331.848    94485533.5774   23074332.258  
                
  23785232.102   124992287.425    23785242.098    97396624.3494   23785242.051  
                
  24616704.484   129361658.272    24616716.562   100801340.7784   24616716.961  
                
  20509480.273   107778087.097    20509488.605    83982979.1344   20509488.414  
                
  23298169.883   122432751.860    23298180.547    95402191.3754   23298180.832  
                
  21797550.422   116315920.237                    90467933.475    21797553.797  
  21797548.477  
 21  8 15 17  0 20.0000000  0 16G16R 1G 4R17R 8R18R12G 7R10G 2G 6G26
                                G30G 9G 3R 2
  22138175.859   116336931.980    22138182.160    90652191.1494                 
                
  19318245.227   103267122.027                    80318891.114    19318250.254  
  19318244.770  
  20943913.594   110061064.642    20943921.094    85761931.2704   20943920.992  
                
  23356083.609   124983120.783                    97209085.966    23356087.391  
  23356081.703  
  21482449.250   115037579.092                    89473681.280    21482452.039  
  21482448.848  
  23578097.539   125861478.556                    97892255.711    23578101.977  
  23578096.039  
  21768318.094   116282460.998                    90441914.365    21768323.141  
  21768317.812  
  21679008.211   113923983.986    21679015.148    88771990.0864   21679015.137  
                
  21591562.008   115095200.630                                                  
  21591561.008  
  24675429.891   129670271.055    24675435.887   101041787.3224                 
                
  23077328.211   121272164.605    23077338.527    94497845.1674   23077338.902  
                
  23789770.977   125016139.412    23789780.953    97415210.3054   23789780.914  
                
  24610367.531   129328357.420    24610379.590   100775392.0864   24610379.992  
                
  20507985.508   107770232.058    20507993.852    83976858.3284   20507993.656  
                
  23304893.258   122468083.340    23304903.953    95429722.3794   23304904.223  
                
  21791296.047   116282545.717                    90441975.523    21791299.383  
  21791294.109  
 21  8 15 17  0 30.0000000  0 16G16R 1G 4R17R 8R18R12G 7R10G 2G 6G26
                                G30G 9G 3R 2
  22138374.711   116337976.895    22138381.012    90653005.3634                 
                
  19318349.180   103267677.759                    80319323.349    19318354.191  
  19318348.719  
  20946456.453   110074427.465    20946463.965    85772343.8654   20946463.852  
                
  23360689.047   125007765.733                    97228254.272    23360692.945  
  23360687.188  
  21487604.688   115065186.166                    89495153.428    21487607.461  
  21487604.305  
  23577485.547   125858211.772                    97889714.860    23577489.977  
  23577484.043  
  21760695.242   116241741.046                    90410243.315    21760700.230  
  21760694.965  
  21675063.586   113903254.915    21675070.535    88755837.5754   21675070.512  
                
  21598002.422   115129531.617                                                  
  21598001.430  
  24674739.891   129666645.106    24674745.809   101038961.9104                 
                
  23080345.008   121288017.885    23080355.320    94510198.3654   23080355.688  
                
  23794319.234   125040040.612    23794329.215    97433834.6244   23794329.188  
                
  24604033.102   129295070.444    24604045.242   100749454.2194   24604045.641  
                
  20506497.258   107762411.292    20506505.617    83970764.2294   20506505.426  
                
  23311621.039   122503438.007    23311631.734    95457271.4594   23311631.996  
                
  21785043.766   116249182.507                    90416026.370    21785047.062  
  21785041.840  
 21  8 15 17  0 40.0000000  0 16G16R 1G 4R17R 8R18R12G 7R10G 2G 6G26
                                G30G 9G 3R 2
  22138587.633   116339095.701    22138593.938    90653877.1604                 
                
  19318463.781   103268290.288                    80319799.764    19318468.777  
  19318463.301  
  20949005.195   110087821.148    20949012.715    85782780.4964   20949012.594  
                
  23365305.219   125032468.504                    97247467.481    23365309.305  
  23365303.461  
  21492767.484   115092832.517                    89516656.122    21492770.227  
  21492767.125  
  23576889.281   125855028.821                    97887239.247    23576893.750  
  23576887.727  
  21753079.352   116201058.073                    90378601.020    21753084.223  
  21753079.043  
  21671125.695   113882561.152    21671132.652    88739712.5754   21671132.633  
                
  21604451.719   115163910.011                                                  
  21604450.734  
  24674060.031   129663072.388    24674065.840   101036177.9864                 
                
  23083371.945   121303924.441    23083382.246    94522593.0624   23083382.641  
                
  23798876.859   125063990.849    23798886.836    97452497.1364   23798886.797  
                
  24597701.445   129261797.294    24597713.516   100723527.1184   24597713.918  
                
  20505015.523   107754624.739    20505023.898    83964696.7834   20505023.703  
                
  23318353.172   122538815.734    23318363.875    95484838.4984   23318364.137  
                
  21778793.609   116215830.509                    90390085.927    21778796.883  
  21778791.699  
