     2.11           OBSERVATION DATA    M (MIXED)           RINEX VERSION / TYPE
EFT-CORS.RU                             20210817 150528 UTC PGM / RUN BY / DATE 
MDNG                                                        MARKER NAME         
                                                            MARKER NUMBER       
MDNG                EFT-CORS.RU                             OBSERVER / AGENCY   
0                   TRIMBLE BD970       2.0                 REC # / TYPE / VERS 
0                   UNKNOWN EXT NONE                        ANT # / TYPE        
  3463911.2830  3030468.2400  4402179.3760                  APPROX POSITION XYZ 
        0.0000        0.0000        0.0000                  ANTENNA: DELTA H/E/N
     1     1                                                WAVELENGTH FACT L1/2
     6    C1    L1    P2    L2    C2    P1                  # / TYPES OF OBSERV 
    10.000                                                  INTERVAL            
  2021     8    14     0    30    0.0000000     GPS         TIME OF FIRST OBS   
  2021     8    14     1    30    0.0000000     GPS         TIME OF LAST OBS    
     0                                                      RCV CLOCK OFFS APPL 
                                                            END OF HEADER       
 21  8 14  0 30  0.0000000  0 16G 6R23G17G15R 4G13G14R13R12G12R14G19
                                G 2G24R22R 3
  22534659.586   118420433.037    22534668.367    92275697.9764   22534668.742  
                
  20523934.742   109789228.783                                                  
  20523933.016  
  22608691.039   118809483.377    22608696.684    92578854.1814   22608696.754  
                
  24154533.266   126932944.261    24154540.230    98908817.5444   24154540.090  
                
  22847515.836   122347409.307                    95159092.873    22847518.789  
  22847514.949  
  24575373.508   129144477.132    24575380.188   100632088.6084                 
                
  24219151.062   127272514.435    24219157.496    99173427.8974   24219157.582  
                
  19720532.469   105306558.622                    81905124.822    19720534.695  
  19720530.758  
  20398213.836   108963610.923                    84749476.200    20398217.215  
  20398213.316  
  22185441.922   116585289.446    22185447.746    90845714.6824   22185447.906  
                
  23249190.141   123931262.986                    96390978.627    23249194.371  
  23249189.707  
  20578520.320   108140869.132    20578524.145    84265636.7044                 
                
  23785927.055   124995887.862    23785931.324    97399414.9334                 
                
  20390173.703   107151099.589    20390181.902    83494404.2484   20390182.125  
                
  20331536.844   108531139.239                    84413116.377    20331538.734  
  20331535.207  
  23393772.469   125228685.779                    97400084.511    23393777.293  
  23393771.402  
 21  8 14  0 30 10.0000000  0 16G 6R23G17G15R 4G13G14R13R12G12R14G19
                                G 2G24R22R 3
  22529844.539   118395129.786    22529853.293    92255981.1574   22529853.684  
                
  20517750.078   109756145.078                                                  
  20517748.336  
  22613932.625   118837028.103    22613938.301    92600317.6044   22613938.332  
                
  24160692.758   126965312.625    24160699.762    98934039.6574   24160699.598  
                
  22848989.125   122355298.604                    95165228.974    22848992.039  
  22848988.277  
  24582449.039   129181658.910    24582455.672   100661061.4374                 
                
  24224712.039   127301737.280    24224718.418    99196198.9334   24224718.527  
                
  19717880.812   105292398.894                    81894111.705    19717883.039  
  19717879.082  
  20401668.109   108982062.992                    84763827.808    20401671.484  
  20401667.621  
  22180670.008   116560212.895    22180675.859    90826174.5254   22180676.016  
                
  23242733.195   123896843.504                    96364207.915    23242737.355  
  23242732.781  
  20581094.328   108154395.623    20581098.145    84276176.8344                 
                
  23779838.766   124963893.919    23779843.109    97374484.6044                 
                
  20389055.086   107145221.221    20389063.285    83489823.7004   20389063.508  
                
  20335101.758   108550168.945                    84427917.260    20335103.625  
  20335100.137  
  23399988.859   125261962.701                    97425966.525    23399993.727  
  23399987.828  
 21  8 14  0 30 20.0000000  0 16G 6R23G17G15R 4G13G14R13R12G12R14G19
                                G 2G24R22R 3
  22525037.672   118369869.608    22525046.434    92236297.9114   22525046.836  
                
  20511577.273   109723124.764                                                  
  20511575.539  
  22619178.906   118864597.544    22619184.609    92621800.2854   22619184.598  
                
  24166854.039   126997690.451    24166861.062    98959269.1294   24166860.906  
                
  22850477.609   122363269.288                    95171428.402    22850480.500  
  22850476.816  
  24589524.219   129218838.703    24589530.785   100690032.6884                 
                
  24230274.305   127330966.878    24230280.629    99218975.2494   24230280.762  
                
  19715236.602   105278279.007                    81883129.574    19715238.836  
  19715234.871  
  20405130.242   109000557.005                    84778212.033    20405133.617  
  20405129.770  
  22175902.117   116535157.509    22175907.992    90806650.8614   22175908.145  
                
  23236275.977   123862422.657                    96337436.139    23236280.062  
  23236275.559  
  20583679.391   108167980.214    20583683.207    84286762.2304                 
                
  23773753.383   124931915.276    23773757.730    97349566.1834                 
                
  20387947.734   107139402.039    20387955.945    83485289.2754   20387956.164  
                
  20338682.180   108569281.424                    84442782.512    20338684.043  
  20338680.547  
  23406211.414   125295272.475                    97451874.121    23406216.281  
  23406210.383  
 21  8 14  0 30 30.0000000  0 16G 6R23G17G15R 4G13G14R13R12G12R14G19
                                G 2G24R22R 3
  22520239.078   118344652.806    22520247.840    92216648.4634   22520248.227  
                
  20505416.375   109690168.153                                                  
  20505414.664  
  22624429.898   118892191.742    22624435.605    92643302.2554   22624435.586  
                
  24173017.102   127030077.602    24173024.168    98984505.8674   24173024.008  
                
  22851981.305   122371321.488                    95177691.229    22851984.184  
  22851980.512  
  24596598.961   129256016.504    24596605.523   100719002.4084                 
                
  24235837.859   127360203.287    24235844.148    99241756.8454   24235844.301  
                
  19712599.930   105264199.313                    81872178.694    19712602.180  
  19712598.211  
  20408600.273   109019093.204                    84792629.076    20408603.629  
  20408599.809  
  22171138.266   116510123.301    22171144.168    90787143.6834   22171144.297  
                
  23229818.523   123828000.804                    96310663.595    23229822.602  
  23229818.148  
  20586275.516   108181622.936    20586279.348    84297392.9254                 
                
  23767670.969   124899952.168    23767675.270    97324659.8704                 
                
  20386851.688   107133642.284    20386859.918    83480801.1534   20386860.117  
                
  20342278.102   108588476.715                    84457712.201    20342279.973  
  20342276.488  
  23412440.141   125328614.976                    97477807.192    23412444.945  
  23412439.031  
 21  8 14  0 30 40.0000000  0 16G 6R23G17G15R 4G13G14R13R12G12R14G19
                                G 2G24R22R 3
  22515448.719   118319479.282    22515457.477    92197032.7294   22515457.848  
                
  20499267.398   109657275.313                                                  
  20499265.707  
  22629685.531   118919810.355    22629691.242    92664823.2594   22629691.238  
                
  24179181.953   127062473.825    24179189.020    99009749.6924   24179188.855  
                
  22853500.141   122379454.804                    95184017.114    22853503.023  
  22853499.305  
  24603673.180   129293191.937    24603679.820   100747970.2754                 
                
  24241402.633   127389446.243    24241408.945    99264543.5634   24241409.051  
                
  19709970.727   105250159.534                    81861258.864    19709972.965  
  19709969.012  
  20412078.117   109037671.199                    84807078.632    20412081.484  
  20412077.668  
  22166378.398   116485110.063    22166384.324    90767652.8514   22166384.430  
                
  23223360.844   123793577.592                    96283889.977    23223364.867  
  23223360.480  
  20588882.633   108195323.423    20588886.488    84308068.6314                 
                
  23761591.586   124868004.434    23761595.703    97299765.5254                 
                
  20385766.906   107127941.717    20385775.164    83476359.1514   20385775.336  
                
  20345889.438   108607754.291                    84472705.876    20345891.344  
  20345887.793  
  23418674.953   125361989.932                    97503765.508    23418679.668  
  23418673.789  
 21  8 14  0 30 50.0000000  0 16G 6R23G17G15R 4G13G14R13R12G12R14G19
                                G 2G24R22R 3
  22510666.672   118294349.530    22510675.453    92177451.1094   22510675.793  
                
  20493130.391   109624446.526                                                  
  20493128.691  
  22634945.875   118947453.656    22634951.590    92686363.4924   22634951.590  
                
  24185348.586   127094879.413    24185355.660    99035000.8014   24185355.449  
                
  22855034.203   122387669.633                    95190406.416    22855037.082  
  22855033.367  
  24610747.062   129330365.358    24610753.715   100776936.5634                 
                
  24246968.688   127418696.128    24246975.043    99287335.6744   24246975.125  
                
  19707349.164   105236160.490                    81850370.712    19707351.391  
  19707347.453  
  20415563.891   109056291.550                    84821561.112    20415567.258  
  20415563.434  
  22161622.555   116460117.992    22161628.465    90748178.5184   22161628.562  
                
  23216902.984   123759153.550                    96257115.738    23216907.016  
  23216902.621  
  20591500.797   108209082.020    20591504.668    84318789.6144                 
                
  23755515.312   124836072.578    23755519.184    97274883.5544                 
                
  20384693.461   107122300.741    20384701.750    83471963.5884   20384701.898  
                
  20349516.266   108627114.582                    84487763.883    20349518.152  
  20349514.645  
  23424915.906   125395397.473                    97529749.123    23424920.473  
  23424914.652  
 21  8 14  0 31  0.0000000  0 16G 6R23G17G15R 4G13G14R13R12G12R14G19
                                G 2G24R22R 3
  22505892.953   118269263.528    22505901.746    92157903.5734   22505902.094  
                
  20487005.406   109591682.034                                                  
  20487003.703  
  22640210.891   118975121.527    22640216.633    92707922.8664   22640216.605  
                
  24191516.875   127127294.111    24191524.016    99060259.0044   24191523.773  
                
  22856583.453   122395965.705                    95196858.922    22856586.312  
  22856582.664  
  24617820.422   129367536.548    24617827.160   100805901.1404                 
                
  24252536.039   127447952.846    24252542.387    99310133.0964   24252542.469  
                
  19704735.172   105222201.892                    81839514.024    19704737.379  
  19704733.453  
  20419057.547   109074954.003                    84836076.358    20419060.898  
  20419057.102  
  22156870.805   116435147.378    22156876.715    90728720.9014   22156876.812  
                
  23210444.961   123724728.517                    96230340.719    23210448.930  
  23210444.602  
  20594129.977   108222898.440    20594133.871    84329555.6554                 
                
  23749442.047   124804156.670    23749445.762    97250014.0004                 
                
  20383631.352   107116719.314    20383639.672    83467614.4224   20383639.793  
                
  20353158.602   108646557.551                    84502886.187    20353160.477  
  20353156.965  
  23431162.766   125428837.277                    97555757.864    23431167.332  
  23431161.539  
 21  8 14  0 31 10.0000000  0 16G 6R23G17G15R 4G13G14R13R12G12R14G19
                                G 2G24R22R 3
  22501127.586   118244221.326    22501136.391    92138390.1744   22501136.746  
                
  20480892.422   109558981.740                                                  
  20480890.699  
  22645480.547   119002813.780    22645486.320    92729501.2484   22645486.258  
                
  24197686.875   127159717.664    24197694.059    99085524.1064   24197693.793  
                
  22858147.883   122404342.981                    95203374.582    22858150.762  
  22858147.125  
  24624893.430   129404705.267    24624900.125   100834863.7844                 
                
  24258104.711   127477216.243    24258110.969    99332935.7504   24258111.094  
                
  19702128.781   105208283.854                    81828688.885    19702130.984  
  19702127.059  
  20422559.078   109093658.578                    84850624.366    20422562.426  
  20422558.625  
  22152123.125   116410198.184    22152129.051    90709279.9784   22152129.129  
                
  23203986.742   123690302.627                    96203565.007    23203990.668  
  23203986.414  
  20596770.133   108236772.570    20596774.062    84340366.6684                 
                
  23743371.789   124772256.586    23743375.383    97225156.7904                 
                
  20382580.555   107111197.384    20382588.910    83463311.6184   20382589.016  
                
  20356816.281   108666082.565                    84518072.312    20356818.156  
  20356814.656  
  23437415.641   125462309.142                    97581791.523    23437420.203  
  23437414.430  
 21  8 14  0 31 20.0000000  0 16G 6R23G17G15R 4G13G14R13R12G12R14G19
                                G 2G24R22R 3
  22496370.555   118219222.984    22496379.402    92118910.9554   22496379.762  
                
  20474791.461   109526345.764                                                  
  20474789.742  
  22650754.805   119030530.242    22650760.594    92751098.4974   22650760.531  
                
  24203858.523   127192150.026    24203865.746    99110796.0894   24203865.465  
                
  22859727.422   122412801.332                    95209953.298    22859730.305  
  22859726.695  
  24631965.961   129441871.443    24631972.617   100863824.4264                 
                
  24263674.625   127506486.298    24263680.840    99355743.5954   24263681.035  
                
  19699529.953   105194406.287                    81817895.222    19699532.176  
  19699528.219  
  20426068.508   109112405.304                    84865205.143    20426071.836  
  20426068.059  
  22147379.508   116385270.335    22147385.449    90689855.6934   22147385.527  
                
  23197528.344   123655875.807                    96176788.603    23197532.285  
  23197528.016  
  20599421.250   108250704.328    20599425.223    84351222.5874                 
                
  23737304.547   124740372.457    23737308.043    97200312.0234                 
                
  20381541.086   107105734.939    20381549.473    83459055.1714   20381549.570  
                
  20360489.359   108685689.731                    84533322.341    20360491.250  
  20360487.734  
  23443674.414   125495812.876                    97607849.982    23443679.047  
  23443673.215  
 21  8 14  0 31 30.0000000  0 17G 6R23G17G15R 4G13G14R13R12G12R14G19
                                G 2R24G24R22R 3
  22491621.922   118194268.717    22491630.828    92099466.0854   22491631.176  
                
  20468702.602   109493774.436                                                  
  20468700.891  
  22656033.695   119058271.008    22656039.512    92772714.6664   22656039.441  
                
  24210031.914   127224591.179    24210039.070    99136074.9084   24210038.812  
                
  22861322.094   122421340.736                    95216595.089    22861324.973  
  22861321.348  
  24639037.930   129479035.112    24639044.621   100892783.1294                 
                
  24269245.836   127535763.119    24269252.062    99378556.6974   24269252.277  
                
  19696938.742   105180569.302                    81807133.118    19696940.961  
  19696937.008  
  20429585.836   109131194.179                    84879818.700    20429589.145  
  20429585.387  
  22142639.977   116360363.890    22142645.934    90670448.0764   22142645.988  
                
  23191069.789   123621448.147                    96150011.541    23191073.734  
  23191069.418  
  20602083.359   108264693.818    20602087.387    84362123.4824                 
                
  23731240.352   124708504.516    23731243.809    97175479.8624                 
                
  23550520.680   125935219.001                    97949615.961    23550525.723  
  23550520.086  
  20380512.969   107100332.134    20380521.383    83454845.1944   20380521.465  
                
  20364177.828   108705378.973                    84548636.185    20364179.707  
  20364176.207  
  23449939.141   125529348.382                    97633933.129    23449943.824  
  23449937.898  
 21  8 14  0 31 40.0000000  0 17G 6R23G17G15R 4G13G14R13R12G12R14G19
                                G 2R24G24R22R 3
  22486881.672   118169358.638    22486890.605    92080055.6264   22486890.965  
                
  20462625.820   109461267.806                                                  
  20462624.109  
  22661317.172   119086035.904    22661323.035    92794349.6464   22661322.938  
                
  24216206.914   127257041.019    24216214.078    99161360.5004   24216213.832  
                
  22862931.883   122429961.129                    95223299.808    22862934.758  
  22862931.082  
  24646109.367   129516196.105    24646116.102   100921739.7554                 
                
  24274818.297   127565046.621    24274824.551    99401374.9934   24274824.754  
                
  19694355.133   105166772.992                    81796402.655    19694357.352  
  19694353.398  
  20433111.039   109150025.154                    84894465.013    20433114.352  
  20433110.582  
  22137904.508   116335478.882    22137910.480    90651057.1604   22137910.512  
                
  23184611.078   123587019.773                    96123233.950    23184615.059  
  23184610.652  
  20604756.422   108278740.893    20604760.508    84373069.2504                 
                
  23725179.258   124676652.781    23725182.676    97150660.3354                 
                
  23541942.203   125889345.868                    97913936.854    23541947.203  
  23541941.621  
  20379496.195   107094988.975    20379504.641    83450681.6954   20379504.699  
                
  20367881.656   108725150.275                    84564013.872    20367883.555  
  20367880.035  
  23456209.898   125562915.560                    97660040.925    23456214.461  
  23456208.551  
 21  8 14  0 31 50.0000000  0 17G 6R23G17G15R 4G13G14R13R12G12R14G19
                                G 2R24G24R22R 3
  22482149.836   118144492.677    22482158.777    92060679.5444   22482159.148  
                
  20456561.141   109428825.812                                                  
  20456559.410  
  22666605.219   119113824.776    22666611.109    92816003.3124   22666611.008  
                
  24222383.531   127289499.249    24222390.668    99186652.6354   24222390.438  
                
  22864556.812   122438662.505                    95230067.535    22864559.660  
  22864555.996  
  24653180.250   129553354.117    24653186.996   100950694.0434                 
                
  24280392.023   127594336.679    24280398.297    99424198.4054   24280398.469  
                
  19691779.133   105153017.261                    81785703.761    19691781.340  
  19691777.398  
  20436644.086   109168898.038                    84909143.915    20436647.414  
  20436643.637  
  22133173.094   116310615.181    22133179.074    90631682.8764   22133179.121  
                
  23178152.242   123552590.542                    96096455.669    23178156.250  
  23178151.797  
  20607440.414   108292845.372    20607444.539    84384059.7544                 
                
  23719121.188   124644817.176    23719124.613    97125853.3684                 
                
  23533365.398   125843481.850                    97878264.835    23533370.371  
  23533364.805  
  20378490.758   107089705.372    20378499.230    83446564.5994   20378499.273  
                
  20371600.797   108745003.354                    84579455.149    20371602.719  
  20371599.156  
  23462486.375   125596513.905                    97686172.972    23462490.934  
  23462485.023  
 21  8 14  0 32  0.0000000  0 17G 6R23G17G15R 4G13G14R13R12G12R14G19
                                G 2R24G24R22R 3
  22477426.406   118119670.967    22477435.344    92041337.9504   22477435.734  
                
  20450508.562   109396448.676                                                  
  20450506.836  
  22671897.820   119141637.593    22671903.707    92837675.6354   22671903.625  
                
  24228561.758   127321965.739    24228568.844    99211951.2014   24228568.621  
                
  22866196.805   122447444.525                    95236897.993    22866199.633  
  22866195.992  
  24660250.648   129590509.114    24660257.301   100979645.9934                 
                
  24285966.953   127623633.279    24285973.227    99447026.9334   24285973.379  
                
  19689210.766   105139302.343                    81775036.602    19689212.992  
  19689209.023  
  20440185.023   109187813.086                    84923855.618    20440188.340  
  20440184.574  
  22128445.742   116285772.801    22128451.688    90612325.1804   22128451.754  
                
  23171693.211   123518160.391                    96069676.685    23171697.250  
  23171692.773  
  20610135.312   108307007.212    20610139.473    84395094.9464                 
                
  23713066.172   124612997.975    23713069.664    97101059.1794                 
                
  23524790.312   125797626.915                    97842599.864    23524795.203  
  23524789.688  
  20377496.656   107084481.348    20377505.152    83442493.9304   20377505.184  
                
  20375335.219   108764937.957                    84594959.831    20375337.188  
  20375333.562  
  23468768.594   125630143.390                    97712329.237    23468773.234  
  23468767.297  
 21  8 14  0 32 10.0000000  0 17G 6R23G17G15R 4G13G14R13R12G12R14G19
                                G 2R24G24R22R 3
  22472711.406   118094893.564    22472720.348    92022030.9044   22472720.754  
                
  20444468.133   109364136.522                                                  
  20444466.422  
  22677194.969   119169474.272    22677200.855    92859366.5494   22677200.785  
                
  24234741.555   127354440.449    24234748.629    99237256.1504   24234748.383  
                
  22867851.875   122456307.237                    95243791.233    22867854.703  
  22867851.117  
  24667320.398   129627661.016    24667327.020   101008595.5084                 
                
  24291543.117   127652936.387    24291549.352    99469860.4944   24291549.570  
                
  19686650.109   105125628.551                    81764401.432    19686652.352  
  19686648.387  
  20443733.805   109206769.991                    84938599.873    20443737.117  
  20443733.348  
  22123722.438   116260951.740    22123728.352    90592984.0884   22123728.430  
                
  23165234.031   123483729.490                    96042897.123    23165238.105  
  23165233.586  
  20612841.109   108321226.307    20612845.305    84406174.7594                 
                
  23707014.266   124581195.115    23707017.836    97076277.7404                 
                
  23516217.031   125751781.229                    97806942.090    23516221.805  
  23516216.320  
  20376513.898   107079316.925    20376522.402    83438469.7024   20376522.430  
                
  20379084.906   108784954.007                    84610527.880    20379086.863  
  20379083.234  
  23475056.570   125663803.745                    97738509.518    23475061.309  
  23475055.277  
 21  8 14  0 32 20.0000000  0 17G 6R23G17G15R 4G13G14R13R12G12R14G19
                                G 2R24G24R22R 3
  22468004.930   118070160.843    22468013.871    92002758.6504   22468014.281  
                
  20438439.938   109331889.699                                                  
  20438438.238  
  22682496.672   119197334.860    22682502.570    92881076.0984   22682502.496  
                
  24240922.953   127386923.439    24240929.969    99262567.5784   24240929.715  
                
  22869522.023   122465250.753                    95250747.307    22869524.852  
  22869521.270  
  24674389.641   129664809.884    24674396.145   101037542.6704                 
                
  24297120.539   127682246.180    24297126.758    99492699.2814   24297127.055  
                
  19684097.078   105111995.539                    81753797.985    19684099.344  
  19684095.359  
  20447290.484   109225769.116                    84953376.965    20447293.789  
  20447290.035  
  22119003.211   116236152.133    22119009.125    90573659.7424   22119009.215  
                
  23158774.828   123449298.191                    96016117.235    23158778.914  
  23158774.387  
  20615557.828   108335502.793    20615562.051    84417299.2914                 
                
  23700965.516   124549408.968    23700969.203    97051509.3534                 
                
  23507645.602   125705945.194                    97771291.822    23507650.242  
  23507644.762  
  20375542.531   107074212.367    20375551.043    83434492.1244   20375551.062  
                
  20382849.875   108805051.675                    84626159.402    20382851.863  
  20382848.164  
  23481350.266   125697495.155                    97764713.932    23481355.215  
  23481349.051  
 21  8 14  0 32 30.0000000  0 17G 6R23G17G15R 4G13G14R13R12G12R14G19
                                G 2R24G24R22R 3
  22463306.906   118045472.669    22463315.863    91983521.1254   22463316.266  
                
  20432423.898   109299707.986                                                  
  20432422.195  
  22687802.852   119225219.059    22687808.773    92902804.0424   22687808.711  
                
  24247105.719   127419414.290    24247112.785    99287885.1184   24247112.531  
                
  22871207.172   122474274.792                    95257765.980    22871209.988  
  22871206.363  
  24681458.148   129701955.461    24681464.641   101066487.2754                 
                
  24302699.219   127711562.466    24302705.430    99515543.1474   24302705.777  
                
  19681551.758   105098403.686                    81743226.540    19681554.023  
  19681550.043  
  20450855.008   109244810.259                    84968186.746    20450858.316  
  20450854.547  
  22114288.062   116211373.897    22114293.961    90554352.0244   22114294.051  
                
  23152315.461   123414866.211                    95989336.812    23152319.531  
  23152315.039  
  20618285.406   108349836.371    20618289.633    84428468.3104                 
                
  23694919.898   124517639.508    23694923.719    97026753.9384                 
                
  23499075.938   125660118.948                    97735649.178    23499080.492  
  23499075.000  
  20374582.523   107069167.513    20374591.047    83430561.0674   20374591.066  
                
  20386630.039   108825230.520                    84641854.051    20386632.031  
  20386628.324  
  23487649.695   125731217.361                    97790942.341    23487654.816  
  23487648.586  
 21  8 14  0 32 40.0000000  0 17G 6R23G17G15R 4G13G14R13R12G12R14G19
                                G 2R24G24R22R 3
  22458617.445   118020829.413    22458626.387    91964318.5834   22458626.793  
                
  20426420.141   109267591.882                                                  
  20426418.438  
  22693113.547   119253126.916    22693119.492    92924550.4174   22693119.434  
                
  24253290.070   127451913.160    24253297.125    99313208.9024   24253296.879  
                
  22872907.438   122483379.596                    95264847.489    22872910.230  
  22872906.637  
  24688526.094   129739097.803    24688532.574   101095429.3714                 
                
  24308279.195   127740885.435    24308285.383    99538392.1854   24308285.754  
                
  19679014.172   105084853.027                    81732687.136    19679016.434  
  19679012.465  
  20454427.469   109263893.684                    84983029.410    20454430.762  
  20454426.996  
  22109577.055   116186617.395    22109582.945    90535061.2524   22109583.047  
                
  23145856.070   123380433.853                    95962556.110    23145860.137  
  23145855.629  
  20621023.883   108364227.189    20621028.098    84439681.9364                 
                
  23688877.562   124485886.918    23688881.418    97002011.6694                 
                
  23490508.047   125614302.601                    97700014.237    23490512.617  
  23490507.090  
  20373633.930   107064182.621    20373642.465    83426676.7364   20373642.477  
                
  20390425.484   108845490.779                    84657612.040    20390427.539  
  20390423.785  
  23493954.781   125764970.238                    97817194.576    23493960.121  
  23493953.832  
 21  8 14  0 32 50.0000000  0 17G 6R23G17G15R 4G13G14R13R12G12R14G19
                                G 2R24G24R22R 3
  22453936.508   117996230.990    22453945.422    91945150.9804   22453945.840  
                
  20420428.625   109235541.369                                                  
  20420426.926  
  22698428.711   119281058.252    22698434.652    92946315.1014   22698434.605  
                
  24259475.891   127484419.886    24259482.938    99338538.8194   24259482.699  
                
  22874622.703   122492564.746                    95271991.495    22874625.477  
  22874621.895  
  24695593.367   129776236.714    24695599.844   101124368.7634                 
                
  24313860.422   127770214.917    24313866.605    99561246.3204   24313866.988  
                
  19676484.305   105071343.672                    81722179.862    19676486.547  
  19676482.594  
  20458007.789   109283019.102                    84997904.724    20458011.059  
  20458007.305  
  22104870.141   116161882.424    22104876.047    90515787.2584   22104876.160  
                
  23139396.555   123346000.945                    95935774.954    23139400.590  
  23139396.090  
  20623773.227   108378675.055    20623777.414    84450940.0154                 
                
  23682838.484   124454151.259    23682842.285    96977282.5884                 
                
  23481942.000   125568496.244                    97664387.074    23481946.586  
  23481941.047  
  20372696.719   107059257.538    20372705.254    83422839.0104   20372705.266  
                
  20394236.086   108865832.000                    84673432.982    20394238.090  
  20394234.375  
  23500265.695   125798753.349                    97843470.320    23500271.055  
  23500264.789  
 21  8 14  0 33  0.0000000  0 17G 6R23G17G15R 4G13G14R13R12G12R14G19
                                G 2R24G24R22R 3
  22449264.102   117971677.419    22449272.957    91926018.3264   22449273.410  
                
  20414449.367   109203556.423                                                  
  20414447.680  
  22703748.328   119309012.995    22703754.262    92968098.0174   22703754.215  
                
  24265663.195   127516934.222    24265670.215    99363874.6604   24265669.945  
                
  22876352.961   122501830.190                    95279197.964    22876355.672  
  22876352.152  
  24702659.961   129813371.986    24702666.430   101153305.3544                 
                
  24319442.891   127799550.776    24319449.043    99584105.4264   24319449.441  
                
  19673962.109   105057875.297                    81711704.466    19673964.355  
  19673960.387  
  20461595.945   109302186.422                    85012812.638    20461599.203  
  20461595.449  
  22100167.297   116137168.894    22100173.242    90496529.9744   22100173.344  
                
  23132936.906   123311567.451                    95908993.352    23132940.914  
  23132936.441  
  20626533.375   108393179.753    20626537.531    84462242.3864                 
                
  23676802.688   124422432.534    23676806.348    96952566.6954                 
                
  23473377.766   125522699.714                    97628767.555    23473382.398  
  23473376.855  
  20371770.875   107054392.204    20371779.410    83419047.8434   20371779.426  
                
  20398061.828   108886254.128                    84689316.856    20398063.844  
  20398060.133  
  23506582.406   125832566.680                    97869769.579    23506587.570  
  23506581.406  
 21  8 14  0 33 10.0000000  0 17G 6R23G17G15R 4G13G14R13R12G12R14G19
                                G 2R24G24R22R 3
  22444600.258   117947168.842    22444609.059    91906920.7374   22444609.539  
                
  20408482.414   109171637.277                                                  
  20408480.711  
  22709072.398   119336991.112    22709078.309    92989899.1394   22709078.273  
                
  24271851.969   127549456.155    24271858.914    99389216.4484   24271858.656  
                
  22878098.211   122511175.870                    95286466.817    22878100.895  
  22878097.441  
  24709725.867   129850503.561    24709732.336   101182239.0314                 
                
  24325026.594   127828893.083    24325032.715    99606969.5514   24325033.105  
                
  19671447.664   105044448.279                    81701261.225    19671449.918  
  19671445.941  
  20465191.977   109321395.796                    85027753.263    20465195.211  
  20465191.477  
  22095468.531   116112476.798    22095474.504    90477289.3884   22095474.602  
                
  23126477.195   123277133.563                    95882211.447    23126481.160  
  23126476.727  
  20629304.352   108407741.290    20629308.480    84473589.0434                 
                
  23670770.172   124390730.956    23670773.648    96927864.1494                 
                
  23464815.352   125476913.362                    97593155.939    23464820.105  
  23464814.543  
  20370856.422   107049586.741    20370864.965    83415303.3234   20370864.984  
                
  20401902.734   108906757.058                    84705263.581    20401904.770  
  20401901.023  
  23512904.484   125866409.845                    97896092.067    23512909.719  
  23512903.480  
 21  8 14  0 33 20.0000000  0 17G 6R23G17G15R 4G13G14R13R12G12R14G19
                                G 2R24G24R22R 3
  22439945.023   117922705.459    22439953.785    91887858.3624   22439954.285  
                
  20402527.797   109139784.091                                                  
  20402526.105  
  22714400.891   119364992.465    22714406.754    93011718.3834   22714406.750  
                
  24278042.141   127581985.613    24278049.004    99414564.0854   24278048.781  
                
  22879858.461   122520601.893                    95293798.171    22879861.156  
  22879857.660  
  24716791.117   129887631.402    24716797.562   101211169.8184                 
                
  24330611.547   127858241.874    24330617.637    99629838.7384   24330618.008  
                
  19668941.047   105031062.978                    81690850.433    19668943.297  
  19668939.312  
  20468795.914   109340647.325                    85042726.672    20468799.125  
  20468795.422  
  22090773.891   116087806.325    22090779.867    90458065.6554   22090779.988  
                
  23120017.430   123242699.396                    95855429.317    23120021.340  
  23120016.926  
  20632086.125   108422359.609    20632090.227    84484979.9474                 
                
  23664741.039   124359046.599    23664744.246    96903175.0304                 
                
  23456254.969   125431137.302                    97557552.346    23456259.750  
  23456254.152  
  20369953.383   107044841.210    20369961.918    83411605.5044   20369961.941  
                
  20405758.742   108927340.612                    84721273.021    20405760.750  
  20405757.023  
  23519232.102   125900282.915                    97922437.764    23519237.477  
  23519231.164  
 21  8 14  0 33 30.0000000  0 17G 6R23G17G15R 4G13G14R13R12G12R14G19
                                G 2R24G24R22R 3
  22435298.414   117898287.362    22435307.141    91868831.2724   22435307.676  
                
  20396585.539   109107996.963                                                  
  20396583.859  
  22719733.805   119393017.051    22719739.637    93033555.7194   22719739.645  
                
  24284233.617   127614522.340    24284240.496    99439917.3734   24284240.324  
                
  22881633.672   122530108.039                    95301191.839    22881636.375  
  22881632.871  
  24723855.555   129924755.475    24723862.043   101240097.6694                 
                
  24336197.734   127887597.112    24336203.793    99652712.9504   24336204.129  
                
  19666442.125   105017718.822                    81680471.658    19666444.375  
  19666440.410  
  20472407.711   109359940.871                    85057732.764    20472410.891  
  20472407.219  
  22086083.367   116063157.533    22086089.344    90438858.8224   22086089.480  
                
  23113557.531   123208264.858                    95828646.899    23113561.523  
  23113557.035  
  20634878.711   108437034.710    20634882.773    84496415.0934                 
                
  23658715.172   124327379.551    23658718.137    96878499.3724                 
                
  23447696.586   125385371.650                    97521956.829    23447701.344  
  23447695.754  
  20369061.750   107040155.655    20369070.277    83407954.4304   20369070.309  
                
  20409629.844   108948004.744                    84737345.128    20409631.852  
  20409628.117  
  23525565.297   125934185.695                    97948806.571    23525570.762  
  23525564.414  
 21  8 14  0 33 40.0000000  0 17G 6R23G17G15R 4G13G14R13R12G12R14G19
                                G 2R24G24R22R 3
  22430660.453   117873914.708    22430669.141    91849839.5844   22430669.711  
                
  20390655.672   109076276.135                                                  
  20390654.012  
  22725071.133   119421064.894    22725076.949    93055411.1794   22725076.953  
                
  24290426.484   127647066.402    24290433.422    99465276.3744   24290433.266  
                
  22883423.852   122539694.352                    95308647.819    22883426.551  
  22883423.043  
  24730919.398   129961875.675    24730925.789   101269022.5094                 
                
  24341785.172   127916958.841    24341791.191    99675592.2154   24341791.500  
                
  19663950.953   105004416.130                    81670125.116    19663953.199  
  19663949.254  
  20476027.367   109379276.439                    85072771.538    20476030.531  
  20476026.867  
  22081396.984   116038530.470    22081402.949    90419668.8994   22081403.078  
                
  23107097.641   123173830.289                    95801864.481    23107101.656  
  23107097.160  
  20637682.086   108451766.538    20637686.102    84507894.4354                 
                
  23652692.578   124295729.951    23652695.352    96853837.3344                 
                
  23439140.180   125339616.740                    97486369.689    23439144.941  
  23439139.328  
  20368181.547   107035530.152    20368190.059    83404350.1404   20368190.105  
                
  20413516.047   108968749.535                    84753479.975    20413518.023  
  20413514.332  
  23531904.125   125968118.057                    97975198.395    23531909.594  
  23531903.219  
 21  8 14  0 33 50.0000000  0 17G 6R23G17G15R 4G13G14R13R12G12R14G19
                                G 2R24G24R22R 3
  22426031.109   117849587.395    22426039.770    91830883.2384   22426040.363  
                
  20384738.180   109044621.560                                                  
  20384736.535  
  22730412.836   119449135.706    22730418.633    93077284.5434   22730418.633  
                
  24296620.781   127679617.487    24296627.680    99490640.8694   24296627.535  
                
  22885228.945   122549360.541                    95316166.000    22885231.625  
  22885228.164  
  24737982.398   129998991.932    24737988.766   101297944.2344                 
                
  24347373.805   127946326.856    24347379.816    99698476.3794   24347380.074  
                
  19661467.570   104991154.937                    81659810.850    19661469.816  
  19661465.875  
  20479654.898   109398654.036                    85087843.011    20479658.031  
  20479654.418  
  22076714.688   116013924.906    22076720.645    90400495.7354   22076720.773  
                
  23100637.664   123139395.258                    95775081.713    23100641.730  
  23100637.156  
  20640496.188   108466554.758    20640500.156    84519417.7234                 
                
  23646673.258   124264097.770    23646675.906    96829188.8624                 
                
  23430585.727   125293872.224                    97450790.597    23430590.461  
  23430584.855  
  20367312.742   107030964.572    20367321.238    83400792.5464   20367321.297  
                
  20417417.258   108989574.538                    84769677.192    20417419.191  
  20417415.531  
  23538248.555   126002079.675                    98001612.994    23538253.891  
  23538247.484  
 21  8 14  0 34  0.0000000  0 17G 6R23G17G15R 4G13G14R13R12G12R14G19
                                G 2R24G24R22R 3
  22421410.453   117825305.759    22421419.102    91811962.4934   22421419.711  
                
  20378833.133   109013033.515                                                  
  20378831.496  
  22735758.938   119477229.605    22735764.707    93099175.8964   22735764.711  
                
  24302816.453   127712175.804    24302823.312    99516010.9904   24302823.176  
                
  22887049.000   122559106.828                    95323746.454    22887051.711  
  22887048.199  
  24745044.625   130036104.047    24745050.957   101326862.8064                 
                
  24352963.648   127975701.380    24352969.664    99721365.6044   24352969.879  
                
  19658992.016   104977935.611                    81649529.162    19658994.246  
  19658990.305  
  20483290.320   109418073.773                    85102947.233    20483293.441  
  20483289.824  
  22072036.516   115989340.958    22072042.480    90381339.4274   22072042.594  
                
  23094177.727   123104960.113                    95748298.806    23094181.727  
  23094177.180  
  20643321.055   108481399.494    20643324.977    84530985.0514                 
                
  23640657.172   124232483.306    23640659.871    96804554.2034                 
                
  23422033.359   125248138.859                    97415220.191    23422038.023  
  23422032.492  
  20366455.391   107026459.157    20366463.863    83397281.8354   20366463.945  
                
  20421333.508   109010479.726                    84785936.788    20421335.492  
  20421331.773  
  23544598.344   126036070.500                    98028050.290    23544603.676  
  23544597.246  
 21  8 14  0 34 10.0000000  0 17G 6R23G17G15R 4G13G14R13R12G12R14G19
                                G 2R24G24R22R 3
  22416798.508   117801069.818    22416807.184    91793077.3484   22416807.785  
                
  20372940.531   108981512.064                                                  
  20372938.906  
  22741109.391   119505346.336    22741115.164    93121085.0324   22741115.176  
                
  24309013.406   127744741.066    24309020.305    99541386.5124   24309020.148  
                
  22888883.969   122568932.986                    95331389.010    22888886.680  
  22888883.129  
  24752106.016   130073211.889    24752112.320   101355778.0074                 
                
  24358554.633   128005082.256    24358560.719    99744259.7964   24358560.914  
                
  19656524.336   104964758.352                    81639280.168    19656526.605  
  19656522.637  
  20486933.594   109437535.467                    85118084.101    20486936.707  
  20486933.117  
  22067362.461   115964778.716    22067368.438    90362200.0234   22067368.531  
                
  23087717.766   123070524.979                    95721515.929    23087721.758  
  23087717.207  
  20646156.633   108496300.563    20646160.523    84542596.2744                 
                
  23634644.422   124200886.571    23634647.258    96779933.3844                 
                
  23413483.078   125202416.244                    97379658.144    23413487.641  
  23413482.176  
  20365609.469   107022013.824    20365617.930    83393817.9354   20365618.016  
                
  20425264.750   109031464.999                    84802258.662    20425266.734  
  20425263.020  
  23550953.609   126070090.368                    98054510.194    23550958.863  
  23550952.547  
 21  8 14  0 34 20.0000000  0 17G 6R23G17G15R 4G13G14R13R12G12R14G19
                                G 2R24G24R22R 3
  22412195.312   117776879.817    22412204.027    91774228.0024   22412204.598  
                
  20367060.430   108950057.498                                                  
  20367058.809  
  22746464.211   119533486.033    22746469.984    93143012.0744   22746469.984  
                
  24315211.633   127777313.324    24315218.605    99566767.4864   24315218.457  
                
  22890733.867   122578839.072                    95339093.744    22890736.598  
  22890733.047  
  24759166.547   130110315.375    24759172.867   101384689.8004                 
                
  24364146.828   128034469.676    24364153.043    99767159.0414   24364153.215  
                
  19654064.477   104951622.826                    81629063.656    19654066.750  
  19654062.809  
  20490584.789   109457039.451                    85133253.876    20490587.902  
  20490584.301  
  22062692.602   115940238.452    22062698.586    90343077.7554   22062698.660  
                
  23081257.820   123036089.867                    95694733.063    23081261.828  
  23081257.250  
  20649002.984   108511258.194    20649006.859    84554251.5824                 
                
  23628635.125   124169307.857    23628638.113    96755326.6014                 
                
  23404934.797   125156705.044                    97344104.973    23404939.398  
  23404933.973  
  20364775.023   107017628.767    20364783.477    83390401.0114   20364783.562  
                
  20429211.023   109052530.462                    84818642.909    20429213.004  
  20429209.281  
  23557314.258   126104139.263                    98080992.666    23557319.496  
  23557313.234  
 21  8 14  0 34 30.0000000  0 17G 6R23G17G15R 4G13G14R13R12G12R14G19
                                G 2R24G24R22R 3
  22407600.867   117752735.832    22407609.574    91755414.4934   22407610.133  
                
  20361192.820   108918669.788                                                  
  20361191.223  
  22751823.383   119561648.560    22751829.141    93164956.9014   22751829.137  
                
  24321411.148   127809892.383    24321418.199    99592153.7594   24321418.059  
                
  22892598.656   122588824.934                    95346860.510    22892601.395  
  22892597.859  
  24766226.273   130147414.442    24766232.582   101413598.1754                 
                
  24369740.250   128063863.524    24369746.578    99790063.3104   24369746.711  
                
  19651612.516   104938529.420                    81618879.899    19651614.762  
  19651610.840  
  20494243.852   109476585.516                    85148456.367    20494246.969  
  20494243.359  
  22058026.930   115915720.134    22058032.926    90323972.5764   22058032.980  
                
  23074797.930   123001654.957                    95667950.356    23074801.934  
  23074797.359  
  20651860.070   108526272.309    20651863.934    84565950.8884                 
                
  23622629.227   124137747.174    23622632.418    96730733.8864                 
                
  23396388.656   125111004.928                    97308560.435    23396393.207  
  23396387.820  
  20363952.039   107013303.943    20363960.488    83387031.0194   20363960.582  
                
  20433172.273   109073675.900                    84835089.373    20433174.273  
  20433170.559  
  23563680.344   126138216.884                    98107497.463    23563685.500  
  23563679.277  
 21  8 14  0 34 40.0000000  0 17G 6R23G17G15R 4G13G14R13R12G12R14G19
                                G 2R24G24R22R 3
  22403015.172   117728637.836    22403023.848    91736636.8394   22403024.422  
                
  20355337.742   108887349.082                                                  
  20355336.168  
  22757186.852   119589833.762    22757192.598    93186919.3994   22757192.598  
                
  24327611.961   127842478.054    24327619.066    99617545.1914   24327618.941  
                
  22894478.344   122598890.555                    95354689.319    22894481.113  
  22894477.520  
  24773285.148   130184509.026    24773291.418   101442503.0174                 
                
  24375334.891   128093263.684    24375341.285    99812972.5254   24375341.398  
                
  19649168.352   104925477.712                    81608728.573    19649170.574  
  19649166.676  
  20497910.797   109496173.664                    85163691.594    20497913.922  
  20497910.285  
  22053365.352   115891223.452    22053371.352    90304884.2614   22053371.402  
                
  23068338.008   122967219.980                    95641167.642    23068342.043  
  23068337.414  
  20654727.875   108541342.705    20654731.730    84577694.0574                 
                
  23616626.742   124106204.590    23616630.164    96706155.2694                 
                
  23387844.688   125065316.404                    97273024.929    23387849.188  
  23387843.816  
  20363140.508   107009039.331    20363148.953    83383707.9424   20363149.031  
                
  20437148.484   109094901.156                    84851597.913    20437150.473  
  20437146.793  
  23570051.719   126172323.067                    98134024.475    23570056.859  
  23570050.629  
 21  8 14  0 34 50.0000000  0 16G 6R23G17G15R 4G14R13R12G12R14G19G 2
                                R24G24R22R 3
  22398438.195   117704585.621    22398446.863    91717894.8494   22398447.441  
                
  20349495.156   108856095.152                                                  
  20349493.605  
  22762554.555   119618041.194    22762560.301    93208899.2194   22762560.301  
                
  24333813.945   127875069.898    24333821.133    99642941.4234   24333820.969  
                
  22896372.812   122609035.377                    95362579.713    22896375.598  
  22896371.930  
  24380930.641   128122669.828    24380937.141    99835886.3784   24380937.234  
                
  19646732.016   104912467.801                    81598609.755    19646734.219  
  19646730.344  
  20501585.539   109515803.531                    85178959.262    20501588.672  
  20501585.008  
  22048707.883   115866748.290    22048713.879    90285812.7234   22048713.941  
                
  23061878.023   122932784.801                    95614384.720    23061882.074  
  23061877.469  
  20657606.312   108556468.974    20657610.152    84589480.7664                 
                
  23610627.617   124074679.863    23610631.285    96681590.5644                 
                
  23379302.773   125019638.943                    97237498.021    23379307.266  
  23379301.883  
  20362340.375   107004834.615    20362348.820    83380431.5444   20362348.906  
                
  20441139.523   109116205.544                    84868167.990    20441141.488  
  20441137.840  
  23576428.406   126206457.284                    98160573.315    23576433.449  
  23576427.246  
 21  8 14  0 35  0.0000000  0 16G 6R23G17G15R 4G14R13R12G12R14G19G 2
                                R24G24R22R 3
  22393869.961   117680579.362    22393878.684    91699188.6744   22393879.250  
                
  20343665.078   108824908.140                                                  
  20343663.531  
  22767926.477   119646270.783    22767932.246    93230896.2934   22767932.234  
                
  24340017.117   127907667.886    24340024.375    99668342.4654   24340024.180  
                
  22898282.102   122619259.473                    95370531.747    22898284.797  
  22898281.191  
  24386527.523   128152082.001    24386534.102    99858804.9504   24386534.188  
                
  19644303.539   104899499.793                    81588523.520    19644305.707  
  19644301.863  
  20505268.102   109535475.173                    85194259.419    20505271.250  
  20505267.543  
  22044054.469   115842294.522    22044060.477    90266757.8514   22044060.543  
                
  23055418.062   122898349.590                    95587601.786    23055422.105  
  23055417.555  
  20660495.359   108571651.069    20660499.191    84601310.9704                 
                
  23604632.016   124043173.197    23604635.832    96657039.9294                 
                
  23370763.047   124973972.929                    97201980.015    23370767.488  
  23370762.094  
  20361551.656   107000689.892    20361560.102    83377201.8834   20361560.191  
                
  20445145.398   109137589.219                    84884799.742    20445147.371  
  20445143.719  
  23582810.273   126240619.398                    98187143.837    23582815.207  
  23582809.051  
 21  8 14  0 35 10.0000000  0 16G 6R23G17G15R 4G14R13R12G12R14G19G 2
                                R24G24R22R 3
  22389310.602   117656619.815    22389319.426    91680518.9064   22389319.953  
                
  20337847.680   108793788.979                                                  
  20337846.145  
  22773302.719   119674523.082    22773308.512    93252911.0684   22773308.496  
                
  24346221.547   127940272.630    24346228.906    99693748.7424   24346228.684  
                
  22900206.273   122629563.297                    95378545.855    22900208.883  
  22900205.410  
  24392125.727   128181500.811    24392132.320    99881728.6924   24392132.398  
                
  19641883.016   104886574.341                    81578470.400    19641885.168  
  19641881.344  
  20508958.586   109555189.111                    85209592.480    20508961.770  
  20508958.012  
  22039405.320   115817863.149    22039411.312    90247720.4204   22039411.375  
                
  23048958.172   122863914.903                    95560819.240    23048962.207  
  23048957.695  
  20663395.141   108586889.550    20663398.973    84613185.1154                 
                
  23598640.070   124011685.290    23598643.918    96632503.8964                 
                
  23362225.648   124928319.166                    97166471.542    23362229.977  
  23362224.594  
  20360774.484   106996605.841    20360782.930    83374019.5094   20360783.004  
                
  20449166.203   109159052.600                    84901493.497    20449168.180  
  20449164.535  
  23589197.555   126274809.883                    98213736.438    23589202.270  
  23589196.215  
 21  8 14  0 35 20.0000000  0 15G 6R23G17G15R 4G14R13R12G12R14G19G 2
                                R24G24R22
  22384760.109   117632706.799    22384769.016    91661885.4074   22384769.508  
                
  20332042.922   108762737.430                                                  
  20332041.402  
  22778683.227   119702797.823    22778689.035    93274943.3354   22778689.016  
                
  24352427.242   127972883.664    24352434.617    99719159.9424   24352434.371  
                
  22902145.266   122639946.513                    95386621.717    22902147.879  
  22902144.445  
  24397725.188   128210926.026    24397731.754    99904657.4244   24397731.836  
                
  19639470.430   104873691.244                    81568450.214    19639472.562  
  19639468.770  
  20512656.992   109574945.308                    85224958.400    20512660.191  
  20512656.402  
  22034760.359   115793453.772    22034766.293    90228700.1254   22034766.391  
                
  23042498.391   122829480.655                    95534037.079    23042502.422  
  23042497.953  
  20666305.594   108602184.106    20666309.453    84625102.9554                 
                
  23592651.734   123980215.922    23592655.531    96607982.3174                 
                
  23353690.367   124882677.308                    97130972.330    23353694.719  
  23353689.324  
  20360008.820   106992582.231    20360017.266    83370884.2284   20360017.336  
                
  20453201.883   109180595.355                    84918248.968    20453203.863  
  20453200.219  
 21  8 14  0 35 30.0000000  0 15G 6R23G17G15R 4G14R13R12G12R14G19G 2
                                R24G24R22
  22380218.469   117608840.303    22380227.410    91643288.1394   22380227.887  
                
  20326250.805   108731753.507                                                  
  20326249.297  
  22784067.961   119731094.815    22784073.773    93296992.9384   22784073.754  
                
  24358634.117   128005500.746    24358641.469    99744575.8474   24358641.195  
                
  22904099.062   122650409.044                    95394759.190    22904101.641  
  22904098.227  
  24403325.812   128240357.477    24403332.367    99927591.0314   24403332.430  
                
  19637065.758   104860850.448                    81558462.923    19637067.879  
  19637064.078  
  20516363.227   109594743.384                    85240356.902    20516366.445  
  20516362.621  
  22030119.562   115769066.247    22030125.469    90209696.8804   22030125.586  
                
  23036038.703   122795046.690                    95507255.132    23036042.699  
  23036038.250  
  20669226.664   108617534.476    20669230.562    84637064.2764                 
                
  23586666.898   123948765.069    23586670.582    96583475.1504                 
                
  23345157.406   124837047.509                    97095482.502    23345161.703  
  23345156.305  
  20359254.633   106988618.963    20359263.078    83367795.9734   20359263.156  
                
  20457252.414   109202217.321                    84935066.054    20457254.328  
  20457250.762  
 21  8 14  0 35 40.0000000  0 15G 6R23G17G15R 4G14R13R12G12R14G19G 2
                                R24G24R22
  22375685.695   117585020.366    22375694.668    91624727.1504   22375695.117  
                
  20320471.336   108700837.211                                                  
  20320469.801  
  22789456.914   119759413.918    22789462.738    93319059.7704   22789462.707  
                
  24364842.109   128038123.739    24364849.430    99769996.3754   24364849.145  
                
  22906067.656   122660950.664                    95402958.272    22906070.164  
  22906066.832  
  24408927.609   128269795.081    24408934.121    99950529.4174   24408934.195  
                
  19634669.008   104848051.929                    81548508.534    19634671.145  
  19634667.301  
  20520077.336   109614583.509                    85255788.109    20520080.574  
  20520076.742  
  22025482.938   115744700.625    22025488.852    90190710.6884   22025488.961  
                
  23029579.016   122760612.962                    95480473.339    23029583.031  
  23029578.535  
  20672158.336   108632940.528    20672162.293    84649068.9914                 
                
  23580685.609   123917332.843    23580689.078    96558982.4734                 
                
  23336626.719   124791429.686                    97060001.985    23336630.914  
  23336625.570  
  20358511.930   106984715.992    20358520.383    83364754.6884   20358520.457  
                
  20461317.703   109223918.130                    84951944.465    20461319.590  
  20461316.047  
 21  8 14  0 35 50.0000000  0 15G 6R23G17G15R 4G14R13R12G12R14G19G 2
                                R24G24R22
  22371161.805   117561247.186    22371170.809    91606202.5994   22371171.238  
                
  20314704.555   108669988.814                                                  
  20314703.023  
  22794850.078   119787755.185    22794855.918    93341143.8684   22794855.879  
                
  24371051.203   128070752.540    24371058.473    99795421.4344   24371058.199  
                
  22908050.992   122671571.426                    95411218.878    22908053.559  
  22908050.172  
  24414530.617   128299238.897    24414537.062    99973472.6534   24414537.141  
                
  19632280.227   104835296.002                    81538587.243    19632282.344  
  19632278.496  
  20523799.312   109634465.675                    85271252.015    20523802.574  
  20523798.715  
  22020850.484   115720356.993    22020856.410    90171741.6294   22020856.523  
                
  23023119.438   122726179.732                    95453691.960    23023123.441  
  23023118.941  
  20675100.594   108648402.289    20675104.613    84661117.1064                 
                
  23574707.867   123885919.394    23574711.125    96534504.4494                 
                
  23328098.266   124745824.329                    97024531.163    23328102.488  
  23328097.164  
  20357780.711   106980873.455    20357789.168    83361760.5104   20357789.234  
                
  20465397.750   109245697.754                    84968884.183    20465399.617  
  20465396.094  
 21  8 14  0 36  0.0000000  0 15G 6R23G17G15R 4G14R13R12G12R14G19G 2
                                R24G24R22
  22366646.859   117537520.978    22366655.898    91587714.6484   22366656.320  
                
  20308950.508   108639208.510                                                  
  20308948.977  
  22800247.453   119816118.596    22800253.305    93363245.2194   22800253.262  
                
  24377261.297   128103387.255    24377268.652    99820851.0714   24377268.391  
                
  22910049.141   122682271.447                    95419541.072    22910051.797  
  22910048.301  
  24420134.836   128328689.042    24420141.223    99996420.8044   24420141.352  
                
  19629899.453   104822582.779                    81528699.178    19629901.570  
  19629897.707  
  20527529.180   109654389.962                    85286748.661    20527532.465  
  20527528.570  
  22016222.242   115696035.450    22016228.152    90152789.7884   22016228.293  
                
  23016659.922   122691746.985                    95426910.936    23016663.918  
  23016659.434  
  20678053.477   108663919.789    20678057.562    84673208.6714                 
                
  23568733.688   123854524.914    23568736.867    96510041.2064                 
                
  23319572.164   124700231.275                    96989069.905    23319576.375  
  23319571.059  
  20357061.031   106977091.484    20357069.492    83358813.5154   20357069.559  
                
  20469492.594   109267556.282                    84985885.254    20469494.445  
  20469490.902  
 21  8 14  0 36 10.0000000  0 15G 6R23G17G15R 4G14R13R12G12R14G19G 2
                                R24G24R22
  22362140.844   117513841.712    22362149.934    91569263.2904   22362150.348  
                
  20303209.203   108608496.404                                                  
  20303207.699  
  22805649.016   119844503.951    22805654.875    93385363.6764   22805654.828  
                
  24383472.508   128136027.597    24383479.910    99846285.0874   24383479.645  
                
  22912062.023   122693050.328                    95427924.601    22912064.723  
  22912061.207  
  24425740.188   128358145.361    24425746.609   100019373.7684   24425746.711  
                
  19627526.664   104809912.178                    81518844.272    19627528.777  
  19627524.926  
  20531266.914   109674356.247                    85302277.989    20531270.215  
  20531266.316  
  22011598.188   115671735.905    22011604.113    90133855.0804   22011604.230  
                
  23010200.531   122657314.819                    95400130.370    23010204.492  
  23010200.000  
  20681016.922   108679492.786    20681021.059    84685343.4724                 
                
  23562763.039   123823149.398    23562766.238    96485592.7324                 
                
  23311048.414   124654650.954                    96953618.564    23311052.625  
  23311047.355  
  20356352.859   106973370.016    20356361.336    83355913.6684   20356361.383  
                
  20473602.164   109289493.458                    85002947.502    20473603.996  
  20473600.449  
 21  8 14  0 36 20.0000000  0 15G 6R23G17G15R 4G14R13R12G12R14G19G 2
                                R24G24R22
  22357643.797   117490209.539    22357652.945    91550848.6264   22357653.344  
                
  20297480.656   108577852.540                                                  
  20297479.145  
  22811054.750   119872911.254    22811060.605    93407499.2424   22811060.562  
                
  24389684.766   128168673.485    24389692.180    99871723.4514   24389691.918  
                
  22914089.648   122703908.194                    95436369.594    22914092.309  
  22914088.855  
  24431346.727   128387607.892    24431353.172   100042331.5814   24431353.270  
                
  19625161.906   104797284.530                    81509022.763    19625164.012  
  19625160.172  
  20535012.516   109694364.557                    85317840.000    20535015.832  
  20535011.918  
  22006978.328   115647458.454    22006984.289    90114937.6054   22006984.367  
                
  23003741.227   122622883.212                    95373350.254    23003745.191  
  23003740.656  
  20683990.930   108695121.355    20683995.109    84697521.5724                 
                
  23556796.008   123791792.966    23556799.246    96461159.1534                 
                
  23302527.039   124609083.222                    96918176.999    23302531.238  
  23302526.012  
  20355656.203   106969709.069    20355664.691    83353060.9844   20355664.734  
                
  20477726.445   109311509.190                    85020070.860    20477728.309  
  20477724.691  
 21  8 14  0 36 30.0000000  0 15G 6R23G17G15R 4G14R13R12G12R14G19G 2
                                R24G24R22
  22353155.742   117466624.665    22353164.926    91532470.8044   22353165.316  
                
  20291764.922   108547277.170                                                  
  20291763.402  
  22816464.641   119901340.358    22816470.453    93429651.7974   22816470.426  
                
  24395898.102   128201324.869    24395905.488    99897166.0944   24395905.215  
                
  22916132.000   122714844.885                    95444875.938    22916134.562  
  22916131.199  
  24436954.422   128417076.682    24436960.922   100065294.2504   24436961.023  
                
  19622805.156   104784699.624                    81499234.511    19622807.273  
  19622803.430  
  20538766.023   109714415.064                    85333434.847    20538769.355  
  20538765.410  
  22002362.688   115623203.180    22002368.641    90096037.4004   22002368.734  
                
  22997282.078   122588452.332                    95346570.686    22997286.047  
  22997281.492  
  20686975.508   108710805.390    20686979.719    84709742.9014                 
                
  23550832.609   123760455.892    23550835.969    96436740.6484                 
                
  23294008.133   124563528.607                    96882745.653    23294012.320  
  23294007.129  
  20354971.102   106966108.812    20354979.605    83350255.5784   20354979.645  
                
  20481865.422   109333603.371                    85037255.220    20481867.262  
  20481863.648  
 21  8 14  0 36 40.0000000  0 15G 6R23G17G15R 4G14R13R12G12R14G19G 2
                                R24G24R22
  22348676.695   117443087.092    22348685.863    91514129.8424   22348686.250  
                
  20286061.977   108516770.291                                                  
  20286060.445  
  22821878.664   119929791.207    22821884.449    93451821.2934   22821884.422  
                
  24402112.391   128233981.681    24402119.840    99922612.9634   24402119.586  
                
  22918189.078   122725860.413                    95453443.573    22918191.590  
  22918188.289  
  24442563.320   128446551.635    24442569.832   100088261.7414   24442569.949  
                
  19620456.422   104772157.507                    81489479.524    19620458.523  
  19620454.695  
  20542527.383   109734507.605                    85349062.373    20542530.730  
  20542526.766  
  21997751.273   115598970.013    21997757.219    90077154.4234   21997757.309  
                
  22990823.078   122554022.299                    95319791.799    22990827.074  
  22990822.543  
  20689970.617   108726544.782    20689974.859    84722007.3664                 
                
  23544872.852   123729138.283    23544876.469    96412337.3374                 
                
  23285491.625   124517986.718                    96847324.207    23285495.773  
  23285490.605  
  20354297.523   106962569.134    20354306.039    83347497.3914   20354306.062  
                
  20486019.062   109355775.818                    85054500.464    20486020.898  
  20486017.270  
 21  8 14  0 36 50.0000000  0 15G 6R23G17G15R 4G14R13R12G12R14G19G 2
                                R24G24R22
  22344206.664   117419596.899    22344215.793    91495825.7934   22344216.191  
                
  20280371.906   108486332.268                                                  
  20280370.359  
  22827296.805   119958263.686    22827302.574    93474007.6454   22827302.547  
                
  24408327.680   128266643.704    24408335.145    99948063.8834   24408334.922  
                
  22920260.844   122736954.510                    95462072.328    22920263.375  
  22920260.086  
  24448173.430   128476032.724    24448179.918   100111234.0084   24448180.043  
                
  19618115.750   104759658.440                    81479758.036    19618117.836  
  19618114.004  
  20546296.617   109754642.156                    85364722.571    20546299.977  
  20546296.004  
  21993144.055   115574758.924    21993149.980    90058288.6394   21993150.059  
                
  22984364.234   122519592.879                    95293013.358    22984368.199  
  22984363.707  
  20692976.242   108742339.425    20692980.512    84734314.8784                 
                
  23538916.852   123697840.113    23538920.703    96387949.1754                 
                
  23276977.609   124472458.198                    96811913.155    23276981.734  
  23276976.570  
  20353635.484   106959090.080    20353644.016    83344786.4414   20353644.027  
                
  20490187.344   109378026.433                    85071806.488    20490189.211  
  20490185.566  
 21  8 14  0 37  0.0000000  0 15G 6R23G17G15R 4G14R13R12G12R14G19G 2
                                R24G24R22
  22339745.648   117396154.123    22339754.766    91477558.6954   22339755.168  
                
  20274694.656   108455962.872                                                  
  20274693.109  
  22832719.039   119986757.660    22832724.793    93496210.7464   22832724.770  
                
  24414544.023   128299310.743    24414551.441    99973518.7164   24414551.234  
                
  22922347.234   122748127.027                    95470762.039    22922349.785  
  22922346.461  
  24453784.594   128505519.883    24453791.117   100134210.9834   24453791.285  
                
  19615783.070   104747202.142                    81470069.805    19615785.168  
  19615781.316  
  20550073.695   109774818.624                    85380415.371    20550077.047  
  20550073.082  
  21988541.023   115550569.828    21988546.918    90039439.9984   21988547.008  
                
  22977905.500   122485164.188                    95266235.490    22977909.426  
  22977904.961  
  20695992.344   108758189.195    20695996.637    84746665.3484                 
                
  23532964.648   123666561.347    23532968.656    96363576.1304                 
                
  23268465.961   124426942.647                    96776512.186    23268470.051  
  23268464.926  
  20352984.961   106955671.598    20352993.496    83342122.6894   20352993.508  
                
  20494370.195   109400354.927                    85089173.089    20494372.055  
  20494368.430  
 21  8 14  0 37 10.0000000  0 15G 6R23G17G15R 4G14R13R12G12R14G19G 2
                                R24G24R22
  22335293.703   117372758.961    22335302.809    91459328.7114   22335303.211  
                
  20269030.305   108425662.396                                                  
  20269028.773  
  22838145.352   120015273.136    22838151.117    93518430.5954   22838151.086  
                
  24420761.281   128331982.875    24420768.758    99998977.5064   24420768.562  
                
  22924448.305   122759378.184                    95479512.959    22924450.871  
  22924447.477  
  24459396.984   128535013.159    24459403.512   100157192.7444   24459403.695  
                
  19613458.477   104734788.948                    81460415.102    19613460.582  
  19613456.699  
  20553858.641   109795037.090                    85396140.852    20553861.984  
  20553858.035  
  21983942.219   115526402.936    21983948.082    90020608.6614   21983948.180  
                
  22971446.930   122450736.383                    95239458.303    22971450.812  
  22971446.395  
  20699018.961   108774094.155    20699023.266    84759058.8244                 
                
  23527016.281   123635302.241    23527020.367    96339218.4064                 
                
  23259956.844   124381440.505                    96741121.647    23259960.883  
  23259955.797  
  20352346.000   106952313.810    20352354.539    83339506.2324   20352354.551  
                
  20498567.719   109422761.507                    85106600.428    20498569.602  
  20498565.961  
 21  8 14  0 37 20.0000000  0 15G 6R23G17G15R 4G14R13R12G12R14G19G 2
                                R24G24R22
  22330850.773   117349411.281    22330859.852    91441135.7314   22330860.266  
                
  20263378.797   108395430.731                                                  
  20263377.246  
  22843575.688   120043809.776    22843581.473    93540666.9294   22843581.426  
                
  24426979.508   128364659.749    24426986.941   100024440.0064   24426986.754  
                
  22926563.969   122770707.496                    95488324.625    22926566.555  
  22926563.098  
  24465010.508   128564512.311    24465017.023   100180179.0844   24465017.203  
                
  19611141.945   104722418.799                    81450793.864    19611144.043  
  19611140.176  
  20557651.398   109815297.357                    85411898.842    20557654.730  
  20557650.797  
  21979347.602   115502258.138    21979353.457    90001794.5264   21979353.547  
                
  22964988.484   122416309.277                    95212681.666    22964992.336  
  22964987.980  
  20702056.000   108790053.916    20702060.312    84771495.0014                 
                
  23521071.648   123604062.635    23521075.758    96314875.8504                 
                
  23251450.328   124335951.729                    96705741.494    23251454.188  
  23251449.184  
  20351718.547   106949016.534    20351727.090    83336936.9284   20351727.102  
                
  20502779.703   109445245.532                    85124088.006    20502781.645  
  20502777.965  
 21  8 14  0 37 30.0000000  0 15G 6R23G17G15R 4G14R13R12G12R14G19G 2
                                R24G24R22
  22326416.969   117326111.450    22326426.023    91422980.0194   22326426.449  
                
  20257740.242   108365268.268                                                  
  20257738.664  
  22849010.086   120072367.767    22849015.891    93562919.8954   22849015.832  
                
  24433198.625   128397341.435    24433206.059   100049906.2674   24433205.902  
                
  22928694.305   122782115.243                    95497197.282    22928696.922  
  22928693.512  
  24470625.234   128594017.564    24470631.746   100203170.1924   24470631.891  
                
  19608833.477   104710091.774                    81441206.186    19608835.574  
  19608831.715  
  20561452.055   109835599.719                    85427689.563    20561455.379  
  20561451.480  
  21974757.234   115478135.559    21974763.090    89982997.7184   21974763.172  
                
  22958530.219   122381883.127                    95185905.773    22958534.105  
  22958529.746  
  20705103.508   108806068.658    20705107.820    84783974.0204                 
                
  23515130.805   123572842.899    23515134.922    96290548.7914                 
                
  23242946.312   124290476.551                    96670371.913    23242950.047  
  23242945.117  
  20351102.664   106945780.051    20351111.203    83334414.9884   20351111.215  
                
  20507006.242   109467807.146                    85141635.927    20507008.211  
  20507004.500  
 21  8 14  0 37 40.0000000  0 15G 6R23G17G15R 4G14R13R12G12R14G19G 2
                                R24G24R22
  22321992.250   117302859.414    22322001.273    91404861.5454   22322001.723  
                
  20252114.594   108335174.882                                                  
  20252113.027  
  22854448.508   120100946.867    22854454.309    93585189.3334   22854454.258  
                
  24439418.672   128430027.702    24439426.062   100075376.0804   24439425.902  
                
  22930839.203   122793600.997                    95506130.636    22930841.891  
  22930838.461  
  24476241.055   128623528.768    24476247.551   100226165.9374   24476247.664  
                
  19606533.117   104697807.956                    81431652.088    19606535.203  
  19606531.344  
  20565260.547   109855943.989                    85443512.863    20565263.832  
  20565259.980  
  21970171.055   115454035.073    21970176.930    89964218.1284   21970177.004  
                
  22952072.117   122347457.917                    95159130.641    22952076.074  
  22952071.664  
  20708161.430   108822138.131    20708165.738    84796495.6814                 
                
  23509193.727   123541643.011    23509197.812    96266237.1824                 
                
  23234444.672   124245015.013                    96635012.937    23234448.434  
  23234443.559  
  20350498.312   106942604.179    20350506.848    83331940.2844   20350506.859  
                
  20511247.289   109490446.115                    85159244.007    20511249.223  
  20511245.531  
 21  8 14  0 37 50.0000000  0 15G 6R23G17G15R 4G14R13R12G12R14G19G 2
                                R24G24R22
  22317576.680   117279655.420    22317585.668    91386780.5194   22317586.141  
                
  20246501.945   108305150.972                                                  
  20246500.406  
  22859890.969   120129547.224    22859896.742    93607475.3184   22859896.707  
                
  24445639.695   128462718.590    24445646.922   100100849.4954   24445646.750  
                
  22932998.703   122805164.967                    95515124.841    22933001.484  
  22932998.004  
  24481858.078   128653046.058    24481864.523   100249166.4174   24481864.605  
                
  19604240.875   104685567.568                    81422131.794    19604242.988  
  19604239.105  
  20569076.906   109876330.259                    85459368.873    20569080.191  
  20569076.359  
  21965589.125   115429956.925    21965595.031    89945455.9504   21965595.090  
                
  22945614.227   122313033.776                    95132356.328    22945618.211  
  22945613.781  
  20711229.781   108838262.391    20711234.078    84809060.0464                 
                
  23503260.453   123510463.237    23503264.535    96241941.2564                 
                
  23225945.688   124199567.483                    96599664.860    23225949.473  
  23225944.652  
  20349905.547   106939489.172    20349914.074    83329513.0114   20349914.102  
                
  20515502.820   109513162.520                    85176912.314    20515504.758  
  20515501.051  
 21  8 14  0 38  0.0000000  0 15G 6R23G17G15R 4G14R13R12G12R14G19G 2
                                R24G24R22
  22313170.273   117256499.554    22313179.223    91368736.9914   22313179.719  
                
  20240902.312   108275196.666                                                  
  20240900.785  
  22865337.445   120158168.671    22865343.219    93629777.7494   22865343.199  
                
  24451861.492   128495413.847    24451868.566   100126326.3274   24451868.406  
                
  22935172.805   122816807.109                    95524179.854    22935175.609  
  22935172.055  
  24487476.234   128682569.387    24487482.621   100272171.5974   24487482.707  
                
  19601956.797   104673370.650                    81412645.297    19601958.938  
  19601955.023  
  20572901.125   109896758.525                    85475257.520    20572904.398  
  20572900.578  
  21961011.453   115405901.080    21961017.355    89926711.1474   21961017.430  
                
  22939156.570   122278610.786                    95105582.911    22939160.512  
  22939156.141  
  20714308.578   108854441.494    20714312.848    84821667.1414                 
                
  23497330.922   123479303.677    23497335.086    96217661.0814                 
                
  23217449.289   124154133.904                    96564327.654    23217453.156  
  23217448.324  
  20349324.367   106936434.992    20349332.883    83327133.1314   20349332.922  
                
  20519772.883   109535956.310                    85194640.818    20519774.840  
  20519771.094  
 21  8 14  0 38 10.0000000  0 15G 6R23G17G15R 4G14R13R12G12R14G19G 2
                                R24G24R22
  22308773.039   117233391.968    22308781.965    91350731.0764   22308782.465  
                
  20235315.695   108245312.040                                                  
  20235314.164  
  22870787.930   120186811.178    22870793.715    93652096.5864   22870793.703  
                
  24458084.023   128528113.555    24458091.000   100151806.6274   24458090.883  
                
  22937361.461   122828527.236                    95533295.512    22937364.273  
  22937360.742  
  24493095.555   128712098.781    24493101.863   100295181.5084   24493101.953  
                
  19599680.859   104661217.325                    81403192.714    19599682.988  
  19599679.090  
  20576733.227   109917228.879                    85491178.902    20576736.480  
  20576732.672  
  21956438.016   115381867.506    21956443.898    89907983.6874   21956443.996  
                
  22932699.086   122244189.038                    95078810.432    22932703.016  
  22932698.672  
  20717397.781   108870675.315    20717402.008    84834316.8754                 
                
  23491405.203   123448164.483    23491409.504    96193396.7794                 
                
  23208955.609   124108714.594                    96529001.545    23208959.512  
  23208954.668  
  20348754.766   106933441.739    20348763.266    83324800.7244   20348763.324  
                
  20524057.398   109558827.332                    85212429.388    20524059.324  
  20524055.621  
 21  8 14  0 38 20.0000000  0 15G 6R23G17G15R 4G14R13R12G12R14G19G 2
                                R24G24R22
  22304385.000   117210332.749    22304393.941    91332762.8604   22304394.426  
                
  20229742.141   108215497.306                                                  
  20229740.582  
  22876242.398   120215474.697    22876248.184    93674431.7874   22876248.172  
                
  24464307.320   128560817.661    24464314.285   100177290.3554   24464314.195  
                
  22939564.656   122840325.304                    95542471.761    22939567.512  
  22939563.945  
  24498716.039   128741634.210    24498722.312   100318196.1514   24498722.367  
                
  19597413.141   104649107.840                    81393774.228    19597415.289  
  19597411.359  
  20580573.188   109937741.258                    85507132.982    20580576.422  
  20580572.621  
  21951868.836   115357856.370    21951874.715    89889273.7154   21951874.824  
                
  22926241.836   122209768.566                    95052038.961    22926245.762  
  22926241.426  
  20720497.398   108886963.825    20720501.582    84847009.2234                 
                
  23485483.375   123417045.691    23485487.734    96169148.3764                 
                
  23200464.555   124063309.533                    96493686.519    23200468.508  
  23200463.641  
  20348196.758   106930509.417    20348205.246    83322515.8044   20348205.324  
                
  20528356.297   109581775.084                    85230277.658    20528358.180  
  20528354.500  
 21  8 14  0 38 30.0000000  0 15G 6R23G17G15R 4G14R13R12G12R14G19G 2
                                R24G24R22
  22300006.195   117187321.993    22300015.176    91314832.4154   22300015.648  
                
  20224181.656   108185752.469                                                  
  20224180.102  
  22881700.859   120244159.135    22881706.641    93696783.2904   22881706.633  
                
  24470531.469   128593526.090    24470538.461   100202777.4484   24470538.367  
                
  22941782.406   122852201.263                    95551708.604    22941785.340  
  22941781.684  
  24504337.617   128771175.699    24504343.906   100341215.4784   24504343.949  
                
  19595153.602   104637042.029                    81384389.715    19595155.742  
  19595151.832  
  20584421.008   109958295.699                    85523119.768    20584424.234  
  20584420.426  
  21947303.961   115333867.775    21947309.816    89870581.3094   21947309.934  
                
  22919784.867   122175349.412                    95025268.526    22919788.793  
  22919784.473  
  20723607.398   108903306.944    20723611.539    84859744.1264                 
                
  23479565.508   123385947.483    23479569.867    96144915.9924                 
                
  23191976.359   124017919.164                    96458382.930    23191980.262  
  23191975.355  
  20347650.359   106927638.059    20347658.844    83320278.3804   20347658.926  
                
  20532669.625   109604800.005                    85248185.931    20532671.508  
  20532667.824  
 21  8 14  0 38 40.0000000  0 15G 6R23G17G15R 4G14R13R12G12R14G19G 2
                                R24G24R22
  22295636.602   117164359.623    22295645.605    91296939.6574   22295646.062  
                
  20218634.227   108156077.498                                                  
  20218632.680  
  22887163.242   120272864.166    22887169.039    93719150.8494   22887169.008  
                
  24476756.375   128626238.470    24476763.367   100228267.6204   24476763.238  
                
  22944014.648   122864154.843                    95561005.795    22944017.656  
  22944013.922  
  24509960.266   128800723.020    24509966.613   100364239.3364   24509966.660  
                
  19592902.219   104625019.787                    81375039.080    19592904.371  
  19592900.445  
  20588276.664   109978891.874                    85539139.013    20588279.852  
  20588276.094  
  21942743.305   115309901.414    21942749.113    89851906.2264   21942749.246  
                
  22913328.172   122140931.520                    94998499.043    22913332.059  
  22913327.789  
  20726727.711   108919704.305    20726731.801    84872521.2944                 
                
  23473651.547   123354869.715    23473655.902    96120699.5634                 
                
  23183490.820   123972542.990                    96423090.366    23183494.660  
  23183489.754  
  20347115.531   106924827.500    20347124.008    83318088.3314   20347124.094  
                
  20536997.328   109627901.545                    85266153.797    20536999.230  
  20536995.559  
 21  8 14  0 38 50.0000000  0 15G 6R23G17G15R 4G14R13R12G12R14G19G 2
                                R24G24R22
  22291276.273   117141445.975    22291285.289    91279084.8774   22291285.742  
                
  20213099.953   108126472.769                                                  
  20213098.418  
  22892629.594   120301590.034    22892635.406    93741534.6414   22892635.355  
                
  24482982.133   128658954.832    24482989.016   100253760.9004   24482988.883  
                
  22946261.445   122876186.202                    95570363.502    22946264.508  
  22946260.797  
  24515584.078   128830276.353    24515590.461   100387267.8964   24515590.516  
                
  19590659.023   104613041.200                    81365722.403    19590661.172  
  19590657.242  
  20592140.188   109999530.143                    85555190.998    20592143.383  
  20592139.621  
  21938186.945   115285957.617    21938192.699    89833248.7274   21938192.863  
                
  22906871.734   122106515.136                    94971730.774    22906875.660  
  22906871.352  
  20729858.406   108936156.146    20729862.434    84885340.9134                 
                
  23467741.633   123323812.786    23467745.945    96096499.3634                 
                
  23175008.031   123927181.940                    96387809.553    23175011.879  
  23175007.020  
  20346592.328   106922077.987    20346600.805    83315945.8554   20346600.895  
                
  20541339.383   109651079.705                    85284181.253    20541341.254  
  20541337.613  
 21  8 14  0 39  0.0000000  0 15G 6R23G17G15R 4G14R13R12G12R14G19G 2
                                R24G24R22
  22286925.195   117118580.976    22286934.191    91261267.9854   22286934.656  
                
  20207578.781   108096938.257                                                  
  20207577.238  
  22898099.844   120330336.446    22898105.629    93763934.4414   22898105.594  
                
  24489208.609   128691674.961    24489215.406   100279257.1194   24489215.285  
                
  22948522.688   122888294.985                    95579781.474    22948525.734  
  22948522.090  
  24521208.969   128859835.564    24521215.418   100410301.0554   24521215.496  
                
  19588424.062   104601106.642                    81356439.962    19588426.230  
  19588422.293  
  20596011.570   110020210.342                    85571275.589    20596014.754  
  20596011.016  
  21933634.836   115262036.154    21933640.551    89814608.6264   21933640.738  
                
  22900415.562   122072100.152                    94944963.560    22900419.469  
  22900415.141  
  20732999.406   108952662.201    20733003.379    84898202.7744                 
                
  23461835.648   123292776.558    23461839.941    96072315.2904                 
                
  23166527.914   123881835.486                    96352540.118    23166531.844  
  23166526.984  
  20346080.703   106919389.399    20346089.184    83313850.8514   20346089.262  
                
  20545695.766   109674334.329                    85302268.183    20545697.629  
  20545694.016  
 21  8 14  0 39 10.0000000  0 15G 6R23G17G15R 4G14R13R12G12R14G19G 2
                                R24G24R22
  22282583.422   117095764.909    22282592.375    91243489.2274   22282592.871  
                
  20202070.758   108067474.113                                                  
  20202069.211  
  22903574.016   120359103.464    22903579.777    93786350.2914   22903579.766  
                
  24495435.727   128724398.968    24495442.566   100304756.3484   24495442.449  
                
  22950798.406   122900481.342                    95589259.755    22950801.457  
  22950797.824  
  24526835.023   128889400.815    24526841.531   100433338.8834   24526841.613  
                
  19586197.320   104589215.968                    81347191.662    19586199.492  
  19586195.559  
  20599890.812   110040932.544                    85587392.860    20599893.980  
  20599890.270  
  21929087.023   115238137.315    21929092.703    89795986.1594   21929092.898  
                
  22893959.656   122037686.611                    94918197.495    22893963.562  
  22893959.219  
  20736150.727   108969222.530    20736154.656    84911106.9284                 
                
  23455933.648   123261761.236    23455937.926    96048147.4994                 
                
  23158050.570   123836503.967                    96317282.287    23158054.594  
  23158049.734  
  20345580.703   106916761.914    20345589.188    83311803.4624   20345589.250  
                
  20550066.430   109697665.208                    85320414.421    20550068.246  
  20550064.703  
 21  8 14  0 39 20.0000000  0 15G 6R23G17G15R 4G14R13R12G12R14G19G 2
                                R24G24R22
  22278250.961   117072997.735    22278259.883    91225748.5824   22278260.402  
                
  20196575.945   108038080.565                                                  
  20196574.391  
  22909052.086   120387890.869    22909057.844    93808782.0334   22909057.844  
                
  24501663.445   128757126.347    24501670.410   100330258.1924   24501670.254  
                
  22953088.570   122912745.159                    95598798.282    22953091.680  
  22953087.938  
  24532462.188   128918971.967    24532468.777   100456381.3254   24532468.836  
                
  19583978.844   104577369.353                    81337977.629    19583981.020  
  19583977.082  
  20603777.914   110061696.719                    85603542.767    20603781.070  
  20603777.375  
  21924543.500   115214260.985    21924549.168    89777381.2454   21924549.367  
                
  22887504.055   122003274.734                    94891432.679    22887507.984  
  22887503.656  
  20739312.352   108985836.978    20739316.234    84924053.2564                 
                
  23450035.688   123230766.948    23450039.918    96023996.1024                 
                
  23149576.188   123791187.803                    96282036.397    23149580.219  
  23149575.363  
  20345092.328   106914195.476    20345100.809    83309803.6394   20345100.867  
                
  20554451.367   109721072.337                    85338619.976    20554453.176  
  20554449.672  
 21  8 14  0 39 30.0000000  0 15G 6R23G17G15R 4G14R13R12G12R14G19G 2
                                R24G24R22
  22273927.836   117050279.630    22273936.750    91208046.1584   22273937.277  
                
  20191094.336   108008757.717                                                  
  20191092.801  
  22914534.023   120416698.694    22914539.801    93831229.6924   22914539.789  
                
  24507891.836   128789857.398    24507898.898   100355762.8804   24507898.742  
                
  22955393.148   122925086.183                    95608396.826    22955396.277  
  22955392.480  
  24538090.484   128948549.027    24538097.129   100479428.3684   24538097.164  
                
  19581768.578   104565566.701                    81328797.793    19581770.797  
  19581766.824  
  20607672.859   110082502.814                    85619725.271    20607676.000  
  20607672.309  
  21920004.227   115190407.042    21920009.883    89758793.7614   21920010.074  
                
  22881048.789   121968864.458                    94864669.134    22881052.707  
  22881048.395  
  20742484.266   109002505.524    20742488.113    84937041.7354                 
                
  23444141.789   123199793.819    23444145.945    95999861.1844                 
                
  23141104.680   123745886.691                    96246802.202    23141108.668  
  23141103.809  
  20344615.578   106911690.123    20344624.055    83307851.4104   20344624.113  
                
  20558850.570   109744555.598                    85356884.735    20558852.395  
  20558848.871  
 21  8 14  0 39 40.0000000  0 15G 6R23G17G15R 4G14R13R12G12R14G19G 2
                                R24G24R22
  22269614.078   117027610.694    22269623.004    91190382.0544   22269623.535  
                
  20185625.961   107979505.581                                                  
  20185624.422  
  22920019.844   120445526.923    22920025.645    93853693.2344   22920025.617  
                
  24514120.969   128822591.937    24514128.016   100381270.3354   24514127.914  
                
  22957712.195   122937504.498                    95618055.493    22957715.355  
  22957711.531  
  24543719.961   128978131.977    24543726.652   100502480.0084   24543726.656  
                
  19579566.625   104553808.350                    81319652.408    19579568.855  
  19579564.863  
  20611575.680   110103350.954                    85635940.504    20611578.816  
  20611575.121  
  21915469.273   115166575.694    21915474.934    89740223.8954   21915475.105  
                
  22874593.820   121934455.869                    94837906.911    22874597.770  
  22874593.422  
  20745666.461   109019228.058    20745670.277    84950072.2814                 
                
  23438251.930   123168841.929    23438256.043    95975742.8294                 
                
  23132635.930   123700601.057                    96211580.071    23132640.039  
  23132635.148  
  20344150.461   106909245.899    20344158.926    83305946.8214   20344158.996  
                
  20563264.000   109768114.752                    85375208.515    20563265.836  
  20563262.293  
 21  8 14  0 39 50.0000000  0 15G 6R23G17G15R 4G14R13R12G12R14G19G 2
                                R24G24R22
  22265309.656   117004990.867    22265318.605    91172756.2134   22265319.129  
                
  20180170.812   107950324.223                                                  
  20180169.242  
  22925509.492   120474375.255    22925515.289    93876172.4484   22925515.258  
                
  24520350.820   128855329.541    24520357.715   100406780.1664   24520357.660  
                
  22960045.625   122949999.738                    95627773.998    22960048.809  
  22960045.035  
  24549350.469   129007720.674    24549357.254   100525536.1234   24549357.227  
                
  19577372.930   104542094.148                    81310541.372    19577375.168  
  19577371.164  
  20615486.320   110124240.895                    85652188.229    20615489.457  
  20615485.762  
  21910938.617   115142766.963    21910944.277    89721671.6294   21910944.445  
                
  22868139.148   121900048.889                    94811145.962    22868143.082  
  22868138.723  
  20748858.883   109036004.336    20748862.680    84963144.7084                 
                
  23432366.055   123137911.235    23432370.156    95951640.9834                 
                
  23124170.016   123655330.774                    96176369.848    23124174.246  
  23124169.340  
  20343696.953   106906862.694    20343705.410    83304089.7754   20343705.477  
                
  20567691.625   109791749.658                    85393591.230    20567693.492  
  20567689.910  
 21  8 14  0 40  0.0000000  0 15G 6R23G17G15R 4G14R13R12G12R14G19G 2
                                R24G24R22
  22261014.578   116982420.168    22261023.582    91155168.6604   22261024.098  
                
  20174728.914   107921213.737                                                  
  20174727.340  
  22931002.945   120503243.518    22931008.754    93898667.2004   22931008.703  
                
  24526581.281   128888070.206    24526588.031   100432292.3874   24526588.043  
                
  22962393.414   122962571.908                    95637552.352    22962396.605  
  22962392.867  
  24554982.070   129037315.014    24554988.898   100548596.6354   24554988.863  
                
  19575187.484   104530424.014                    81301464.601    19575189.734  
  19575185.695  
  20619404.781   110145172.590                    85668468.436    20619407.914  
  20619404.219  
  21906412.227   115118980.662    21906417.902    89703136.8534   21906418.059  
                
  22861684.742   121865643.515                    94784386.232    22861688.727  
  22861684.324  
  20752061.500   109052834.253    20752065.277    84976258.9254                 
                
  23426484.156   123107001.743    23426488.301    95927555.6644                 
                
  23115707.094   123610076.012                    96141171.722    23115711.367  
  23115706.430  
  20343255.039   106904540.436    20343263.488    83302280.2214   20343263.562  
                
  20572133.391   109815460.083                    85412032.665    20572135.254  
  20572131.672  
 21  8 14  0 40 10.0000000  0 15G 6R23G17G15R 4G14R13R12G12R14G19G 2
                                R24G24R22
  22256728.906   116959898.916    22256737.984    91137619.6454   22256738.477  
                
  20169300.297   107892174.301                                                  
  20169298.723  
  22936500.211   120532131.840    22936506.055    93921177.5854   22936505.980  
                
  24532812.242   128920814.060    24532819.000   100457807.0734   24532819.043  
                
  22964755.562   122975221.047                    95647390.556    22964758.738  
  22964755.008  
  24560614.734   129066915.199    24560621.633   100571661.6854   24560621.594  
                
  19573010.398   104518798.532                    81292422.569    19573012.660  
  19573008.578  
  20623331.070   110166146.126                    85684781.188    20623334.203  
  20623330.520  
  21901890.148   115095217.033    21901895.816    89684619.7554   21901895.984  
                
  22855230.734   121831239.957                    94757627.891    22855234.691  
  22855230.305  
  20755274.352   109069717.876    20755278.121    84989414.9974                 
                
  23420606.297   123076113.790    23420610.555    95903487.1264                 
                
  23107247.195   123564837.040                    96105985.870    23107251.457  
  23107246.453  
  20342824.766   106902279.339    20342833.223    83300518.3294   20342833.293  
                
  20576589.297   109839245.980                    85430532.810    20576591.141  
  20576587.566  
 21  8 14  0 40 20.0000000  0 15G 6R23G17G15R 4G14R13R12G12R14G19G 2
                                R24G24R22
  22252452.680   116937427.350    22252461.785    91120109.3344   22252462.270  
                
  20163885.016   107863206.236                                                  
  20163883.461  
  22942001.312   120561040.368    22942007.188    93943703.7044   22942007.086  
                
  24539043.648   128953560.950    24539050.508   100483324.1134   24539050.547  
                
  22967132.070   122987947.120                    95657288.641    22967135.219  
  22967131.453  
  24566248.500   129096521.327    24566255.480   100594731.3874   24566255.441  
                
  19570841.672   104507217.710                    81283415.253    19570843.945  
  19570839.848  
  20627265.234   110187161.756                    85701126.693    20627268.379  
  20627264.656  
  21897372.414   115071476.218    21897378.055    89666120.4154   21897378.215  
                
  22848777.094   121796838.553                    94730871.261    22848781.066  
  22848776.668  
  20758497.445   109086655.376    20758501.211    85002613.0504                 
                
  23414732.531   123045247.637    23414736.938    95879435.5864                 
                
  23098790.141   123519613.915                    96070812.346    23098794.477  
  23098789.402  
  20342406.164   106900079.621    20342414.625    83298804.2584   20342414.695  
                
  20581059.367   109863107.511                    85449091.786    20581061.172  
  20581057.641  
 21  8 14  0 40 30.0000000  0 15G 6R23G17G15R 4G14R13R12G12R14G19G 2
                                R24G24R22
  22248185.914   116915005.440    22248194.988    91102637.7114   22248195.512  
                
  20158483.078   107834309.535                                                  
  20158481.543  
  22947506.203   120589968.828    22947512.109    93966245.3594   22947512.004  
                
  24545275.758   128986310.911    24545282.641   100508843.5594   24545282.656  
                
  22969522.938   123000750.019                    95667246.466    22969526.078  
  22969522.301  
  24571883.508   129126133.268    24571890.430   100617805.6154   24571890.391  
                
  19568681.273   104495681.322                    81274442.511    19568683.547  
  19568679.434  
  20631207.266   110208219.370                    85717504.826    20631210.426  
  20631206.680  
  21892858.992   115047758.021    21892864.641    89647638.7104   21892864.801  
                
  22842323.812   121762439.049                    94704116.123    22842327.805  
  22842323.379  
  20761730.734   109103646.471    20761734.508    85015852.8674                 
                
  23408862.906   123014403.386    23408867.512    95855401.1454                 
                
  23090336.234   123474407.054                    96035651.478    23090340.566  
  23090335.453  
  20341999.227   106897941.125    20342007.691    83297137.8994   20342007.754  
                
  20585543.555   109887044.390                    85467709.361    20585545.348  
  20585541.820  
 21  8 14  0 40 40.0000000  0 15G 6R23G17G15R 4G14R13R12G12R14G19G 2
                                R24G24R22
  22243928.555   116892633.042    22243937.637    91085204.6784   22243938.184  
                
  20153094.477   107805484.144                                                  
  20153092.949  
  22953014.828   120618916.884    22953020.793    93988802.2794   22953020.652  
                
  24551508.500   129019063.540    24551515.293   100534365.1034   24551515.293  
                
  22971928.062   123013629.407                    95677263.748    22971931.234  
  22971927.391  
  24577519.570   129155750.780    24577526.414   100640884.1984   24577526.398  
                
  19566529.203   104484189.356                    81265504.317    19566531.473  
  19566527.359  
  20635157.086   110229318.612                    85733915.336    20635160.242  
  20635156.488  
  21888349.859   115024062.354    21888355.504    89629174.5634   21888355.664  
                
  22835870.898   121728041.382                    94677362.376    22835874.867  
  22835870.508  
  20764974.180   109120690.915    20764977.961    85029134.2514                 
                
  23402997.477   122983580.741    23403002.191    95831383.5194                 
                
  23081885.289   123429216.099                    96000502.979    23081889.641  
  23081884.500  
  20341603.914   106895863.702    20341612.371    83295519.1264   20341612.441  
                
  20590041.758   109911056.206                    85486385.211    20590043.582  
  20590040.012  
 21  8 14  0 40 50.0000000  0 15G 6R23G17G15R 4G14R13R12G12R14G19G 2
                                R24G24R22
  22239680.672   116870310.374    22239689.805    91067810.4014   22239690.328  
                
  20147719.203   107776730.077                                                  
  20147717.684  
  22958527.203   120647884.616    22958533.184    94011374.5394   22958533.039  
                
  24557741.664   129051818.736    24557748.434   100559888.6394   24557748.426  
                
  22974347.484   123026585.300                    95687340.533    22974350.656  
  22974346.754  
  24583156.680   129185373.929    24583163.469   100663967.1804   24583163.484  
                
  19564385.492   104472742.026                    81256600.832    19564387.758  
  19564383.645  
  20639114.734   110250459.670                    85750358.380    20639117.902  
  20639114.133  
  21883845.023   115000389.323    21883850.664    89610728.0524   21883850.840  
                
  22829418.312   121693645.563                    94650610.079    22829422.281  
  22829417.992  
  20768227.758   109137788.623    20768231.555    85042457.1444                 
                
  23397136.281   122952779.938    23397141.004    95807382.8834                 
                
  23073437.422   123384041.343                    95965367.068    23073441.719  
  23073436.582  
  20341220.234   106893847.412    20341228.684    83293947.9964   20341228.758  
                
  20594554.000   109935142.822                    85505119.262    20594555.840  
  20594552.242  
 21  8 14  0 41  0.0000000  0 15G 6R23G17G15R 4G14R13R12G12R14G19G 2
                                R24G24R22
  22235442.297   116848037.613    22235451.449    91050455.0094   22235451.953  
                
  20142357.344   107748047.729                                                  
  20142355.832  
  22964043.320   120676872.027    22964049.293    94033962.1274   22964049.160  
                
  24563975.297   129084576.483    24563982.023   100585414.1664   24563982.027  
                
  22976781.172   123039617.554                    95697476.741    22976784.336  
  22976780.430  
  24588794.891   129215002.827    24588801.594   100687054.6094   24588801.676  
                
  19562250.125   104461339.281                    81247732.036    19562252.387  
  19562248.285  
  20643080.219   110271642.566                    85766833.955    20643083.395  
  20643079.625  
  21879344.516   114976739.066    21879350.164    89592299.2874   21879350.332  
                
  22822966.133   121659251.957                    94623859.479    22822970.094  
  22822965.898  
  20771491.492   109154939.690    20771495.297    85055821.6114                 
                
  23391279.375   122922001.059    23391283.973    95783399.3424                 
                
  23064992.586   123338882.969                    95930243.898    23064996.863  
  23064991.734  
  20340848.211   106891892.396    20340856.652    83292424.6074   20340856.734  
                
  20599080.273   109959304.370                    85523911.581    20599082.109  
  20599078.516  
 21  8 14  0 41 10.0000000  0 15G 6R23G17G15R 4G14R13R12G12R14G19G 2
                                R24G24R22
  22231213.438   116825814.829    22231222.586    91033138.5584   22231223.094  
                
  20137008.906   107719437.188                                                  
  20137007.402  
  22969563.148   120705878.964    22969569.133    94056564.9314   22969568.996  
                
  24570209.383   129117336.633    24570216.070   100610941.5714   24570216.070  
                
  22979229.125   123052726.193                    95707672.321    22979232.285  
  22979228.371  
  24594434.148   129244637.399    24594440.828   100710146.4634   24594440.918  
                
  19560123.148   104449981.337                    81238898.078    19560125.418  
  19560121.301  
  20647053.531   110292867.267                    85783342.062    20647056.738  
  20647052.945  
  21874848.336   114953111.518    21874853.992    89573888.2114   21874854.145  
                
  22816514.281   121624860.203                    94597110.376    22816518.297  
  22816514.078  
  20774765.352   109172143.927    20774769.168    85069227.5124                 
                
  23385426.656   122891244.252    23385431.156    95759432.9954                 
                
  23056550.875   123293740.984                    95895133.483    23056555.070  
  23056549.945  
  20340487.844   106889998.630    20340496.270    83290948.9464   20340496.355  
                
  20603620.523   109983540.548                    85542761.932    20603622.383  
  20603618.766  
 21  8 14  0 41 20.0000000  0 15G 6R23G17G15R 4G14R13R12G12R14G19G 2
                                R24G24R22
  22226994.102   116803642.178    22227003.273    91015861.1514   22227003.773  
                
  20131673.898   107690898.542                                                  
  20131672.414  
  22975086.688   120734905.370    22975092.688    94079182.9144   22975092.531  
                
  24576443.859   129150099.133    24576450.578   100636470.7704   24576450.570  
                
  22981691.320   123065911.131                    95717927.263    22981694.492  
  22981690.559  
  24600074.531   129274277.647    24600081.168   100733242.7654   24600081.250  
                
  19558004.586   104438668.373                    81230099.099    19558006.859  
  19558002.754  
  20651034.680   110314133.863                    85799882.730    20651037.906  
  20651034.094  
  21870356.500   114929506.803    21870362.195    89555494.9384   21870362.336  
                
  22810062.938   121590470.892                    94570363.157    22810066.969  
  22810062.734  
  20778049.320   109189401.284    20778053.137    85082674.8024                 
                
  23379578.203   122860509.663    23379582.555    95735483.9564                 
                
  23048112.336   123248615.901                    95860036.190    23048116.438  
  23048111.312  
  20340139.148   106888166.217    20340147.559    83289521.0914   20340147.648  
                
  20608174.734   110007851.329                    85561670.335    20608176.629  
  20608173.012  
 21  8 14  0 41 30.0000000  0 15G 6R23G17G15R 4G14R13R12G12R14G19G 2
                                R24G24R22
  22222784.352   116781519.806    22222793.574    90998622.9554   22222794.023  
                
  20126352.406   107662432.076                                                  
  20126350.945  
  22980613.945   120763951.279    22980619.969    94101816.0924   22980619.785  
                
  24582678.805   129182863.830    24582685.523   100662001.6954   24582685.523  
                
  22984167.773   123079172.368                    95728241.535    22984170.953  
  22984166.984  
  24605716.023   129303923.701    24605722.633   100756343.5304   24605722.715  
                
  19555894.438   104427400.250                    81221335.019    19555896.738  
  19555892.582  
  20655023.711   110335442.515                    85816456.127    20655026.945  
  20655023.117  
  21865869.031   114905925.021    21865874.773    89537119.5314   21865874.902  
                
  22803612.039   121556083.930                    94543617.725    22803616.051  
  22803611.828  
  20781343.414   109206711.832    20781347.227    85096163.5454                 
                
  23373734.016   122829797.566    23373738.266    95711552.4464                 
                
  23039676.820   123203507.598                    95824951.979    23039680.984  
  23039675.812  
  20339802.148   106886395.226    20339810.559    83288141.0964   20339810.652  
                
  20612742.953   110032236.736                    85580636.761    20612744.867  
  20612741.227  
 21  8 14  0 41 40.0000000  0 15G 6R23G17G15R 4G14R13R12G12R14G19G 2
                                R24G24R22
  22218584.383   116759448.859    22218593.641    90981424.8144   22218594.051  
                
  20121044.594   107634038.868                                                  
  20121043.145  
  22986145.078   120793017.572    22986151.137    94124465.1524   22986150.918  
                
  24588914.383   129215631.709    24588921.078   100687535.1084   24588921.066  
                
  22986658.625   123092510.808                    95738615.890    22986661.797  
  22986657.797  
  24611358.742   129333576.529    24611365.406   100779449.6184   24611365.410  
                
  19553792.898   104416178.196                    81212606.750    19553795.211  
  19553791.047  
  20659020.758   110356794.065                    85833062.880    20659023.988  
  20659020.180  
  21861386.125   114882367.208    21861391.895    89518762.8034   21861392.031  
                
  22797161.781   121521700.361                    94516874.976    22797165.781  
  22797161.551  
  20784647.797   109224076.479    20784651.609    85109694.4444                 
                
  23367894.211   122799109.047    23367898.465    95687639.3084                 
                
  23031244.656   123158417.368                    95789881.827    23031248.883  
  23031243.688  
  20339477.031   106884686.719    20339485.430    83286809.7944   20339485.531  
                
  20617325.266   110056697.461                    85599661.780    20617327.203  
  20617323.539  
 21  8 14  0 41 50.0000000  0 15G 6R23G17G15R 4G14R13R12G12R14G19G 2
                                R24G24R22
  22214393.672   116737426.548    22214402.918    90964264.5664   22214403.336  
                
  20115749.977   107605716.193                                                  
  20115748.527  
  22991679.547   120822101.450    22991685.621    94147127.9074   22991685.398  
                
  24595149.977   129248399.786    24595156.684   100713068.6584   24595156.617  
                
  22989163.320   123105923.419                    95749047.883    22989166.512  
  22989162.496  
  24617002.227   129363233.203    24617008.898   100802558.7014   24617008.879  
                
  19551699.531   104404999.710                    81203912.377    19551701.820  
  19551697.691  
  20663025.312   110378185.641                    85849700.779    20663028.543  
  20663024.746  
  21856907.219   114858830.444    21856913.012    89500422.4744   21856913.137  
                
  22790711.648   121487317.472                    94490132.709    22790715.629  
  22790711.434  
  20787961.922   109241492.314    20787965.734    85123265.2224                 
                
  23362058.320   122768441.287    23362062.605    95663742.3514                 
                
  23022815.445   123113342.522                    95754823.631    23022819.656  
  23022814.492  
  20339163.266   106883037.816    20339171.652    83285524.9324   20339171.746  
                
  20621921.141   110081230.565                    85618743.070    20621923.051  
  20621919.395  
 21  8 14  0 42  0.0000000  0 15G 6R23G17G15R 4G14R13R12G12R14G19G 2
                                R24G24R22
  22210212.664   116715455.197    22210221.895    90947144.0454   22210222.324  
                
  20110468.977   107577466.358                                                  
  20110467.531  
  22997217.773   120851205.004    22997223.832    94169806.0094   22997223.629  
                
  24601386.070   129281170.390    24601392.766   100738604.1874   24601392.660  
                
  22991682.305   123119412.525                    95759539.425    22991685.441  
  22991681.469  
  24622646.891   129392896.002    24622653.523   100825672.5634   24622653.520  
                
  19549614.727   104393866.934                    81195253.554    19549617.023  
  19549612.887  
  20667037.789   110399619.545                    85866371.602    20667041.020  
  20667037.219  
  21852432.789   114835317.130    21852438.617    89482100.4194   21852438.730  
                
  22784262.039   121452937.385                    94463392.630    22784265.992  
  22784261.801  
  20791286.203   109258961.496    20791290.020    85136877.5804                 
                
  23356226.820   122737796.603    23356231.156    95639863.3874                 
                
  23014389.578   123068285.226                    95719779.083    23014393.727  
  23014388.570  
  20338861.281   106881450.805    20338869.656    83284288.3064   20338869.754  
                
  20626531.000   110105838.330                    85637882.445    20626532.945  
  20626529.258  
 21  8 14  0 42 10.0000000  0 15G 6R23G17G15R 4G14R13R12G12R14G19G 2
                                R24G24R22
  22206041.297   116693534.582    22206050.543    90930063.0594   22206050.984  
                
  20105201.562   107549289.189                                                  
  20105200.113  
  23002759.656   120880327.831    23002765.715    94192499.1204   23002765.508  
                
  24607622.492   129313943.058    24607629.215   100764141.3314   24607629.109  
                
  22994215.477   123132977.549                    95770089.993    22994218.570  
  22994214.656  
  24628292.633   129422564.549    24628299.234   100848790.9034   24628299.273  
                
  19547538.359   104382779.278                    81186629.822    19547540.656  
  19547536.523  
  20671058.102   110421095.341                    85883074.984    20671061.332  
  20671057.539  
  21847962.734   114811826.872    21847968.590    89463796.3314   21847968.691  
                
  22777812.914   121418559.949                    94436654.674    22777816.891  
  22777812.641  
  20794620.547   109276483.588    20794624.371    85150531.1644                 
                
  23350399.633   122707174.789    23350404.016    95616002.2324                 
                
  23005966.891   123023245.519                    95684748.205    23005971.070  
  23005965.910  
  20338571.000   106879925.382    20338579.359    83283099.6624   20338579.469  
                
  20631154.711   110130520.033                    85657079.323    20631156.691  
  20631152.977  
 21  8 14  0 42 20.0000000  0 15G 6R23G17G15R 4G14R13R12G12R14G19G 2
                                R24G24R22
  22201879.609   116671664.739    22201888.883    90913021.6284   22201889.320  
                
  20099947.703   107521184.605                                                  
  20099946.242  
  23008305.172   120909469.756    23008311.246    94215207.1034   23008311.035  
                
  24613859.258   129346717.497    24613865.965   100789679.8594   24613865.875  
                
  22996762.789   123146618.255                    95780699.456    22996765.816  
  22996761.961  
  24633939.453   129452238.724    24633946.023   100871913.6354   24633946.066  
                
  19545470.492   104371736.988                    81178041.369    19545472.797  
  19545468.664  
  20675086.258   110442613.038                    85899810.969    20675089.480  
  20675085.688  
  21843497.039   114788359.529    21843502.871    89445510.0984   21843502.988  
                
  22771364.297   121384185.173                    94409918.742    22771368.242  
  22771364.016  
  20797964.938   109294058.459    20797968.762    85164225.8644                 
                
  23344576.742   122676575.843    23344581.230    95592158.9054                 
                
  22997547.539   122978223.333                    95649730.947    22997551.691  
  22997546.559  
  20338292.430   106878461.447    20338300.762    83281958.9354   20338300.879  
                
  20635792.258   110155275.620                    85676333.678    20635794.246  
  20635790.539  
 21  8 14  0 42 30.0000000  0 15G 6R23G17G15R 4G14R13R12G12R14G19G 2
                                R24G24R22
  22197727.594   116649845.772    22197736.863    90896019.8344   22197737.312  
                
  20094707.469   107493152.864                                                  
  20094705.996  
  23013854.320   120938630.723    23013860.387    94237929.9384   23013860.164  
                
  24620096.352   129379493.498    24620103.035   100815219.6024   24620102.934  
                
  22999324.273   123160334.815                    95791367.896    22999327.277  
  22999323.453  
  24639587.375   129481918.569    24639593.836   100895040.7864   24639593.910  
                
  19543411.180   104360740.379                    81169488.447    19543413.469  
  19543409.340  
  20679122.250   110464172.616                    85916579.541    20679125.496  
  20679121.660  
  21839035.711   114764915.091    21839041.508    89427241.7074   21839041.621  
                
  22764916.180   121349813.101                    94383184.890    22764920.074  
  22764915.895  
  20801319.328   109311685.924    20801323.156    85177961.5504                 
                
  23338758.242   122645999.888    23338762.809    95568333.4854                 
                
  22989131.508   122933218.747                    95614727.384    22989135.578  
  22989130.484  
  20338025.570   106877059.071    20338033.875    83280866.1714   20338034.000  
                
  20640443.602   110180104.877                    85695645.309    20640445.602  
  20640441.875  
 21  8 14  0 42 40.0000000  0 15G 6R23G17G15R 4G14R13R12G12R14G19G 2
                                R24G24R22
  22193585.266   116628077.697    22193594.477    90879057.7134   22193594.961  
                
  20089480.875   107465194.114                                                  
  20089479.410  
  23019407.070   120967810.596    23019413.129    94260667.5124   23019412.898  
                
  24626333.758   129412270.967    24626340.398   100840760.4904   24626340.266  
                
  23001899.852   123174126.806                    95802094.995    23001902.859  
  23001899.078  
  24645236.352   129511604.023    24645242.734   100918172.3054   24645242.848  
                
  19541360.375   104349789.244                    81160970.901    19541362.668  
  19541358.527  
  20683166.078   110485773.983                    85933380.587    20683169.324  
  20683165.469  
  21834578.789   114741493.806    21834584.590    89408991.3584   21834584.699  
                
  22758468.531   121315443.678                    94356453.149    22758472.410  
  22758468.262  
  20804683.711   109329365.887    20804687.547    85191738.1454                 
                
  23332944.172   122615447.086    23332948.852    95544526.1154                 
                
  22980718.758   122888232.058                    95579737.745    22980722.820  
  22980717.758  
  20337770.430   106875718.248    20337778.707    83279821.3784   20337778.848  
                
  20645108.734   110205007.759                    85715014.222    20645110.766  
  20645106.984  
 21  8 14  0 42 50.0000000  0 15G 6R23G17G15R 4G14R13R12G12R14G19G 2
                                R24G24R22
  22189452.594   116606360.403    22189461.746    90862135.1444   22189462.258  
                
  20084267.844   107437307.942                                                  
  20084266.379  
  23024963.344   120997009.054    23024969.375    94283419.5554   23024969.180  
                
  24632571.352   129445049.641    24632578.027   100866302.3094   24632577.871  
                
  23004489.461   123187994.038                    95812880.581    23004492.461  
  23004488.664  
  24650886.406   129541294.803    24650892.648   100941307.9884   24650892.773  
                
  19539318.031   104338883.227                    81152488.433    19539320.320  
  19539316.176  
  20687217.688   110507416.948                    85950214.006    20687220.938  
  20687217.070  
  21830126.195   114718095.311    21830131.996    89390758.7744   21830132.102  
                
  22752021.352   121281076.737                    94329723.317    22752025.211  
  22752021.090  
  20808058.023   109347098.041    20808061.859    85205555.4144                 
                
  23327134.492   122584917.179    23327139.266    95520736.5884                 
                
  22972309.297   122843262.901                    95544761.730    22972313.348  
  22972308.273  
  20337526.930   106874438.696    20337535.184    83278824.3204   20337535.340  
                
  20649787.562   110229983.773                    85734440.002    20649789.641  
  20649785.777  
 21  8 14  0 43  0.0000000  0 15G 6R23G17G15R 4G14R13R12G12R14G19G 2
                                R24G24R22
  22185329.672   116584694.217    22185338.789    90845252.3954   22185339.293  
                
  20079068.477   107409494.840                                                  
  20079067.016  
  23030523.180   121026226.236    23030529.195    94306186.1934   23030529.020  
                
  24638809.188   129477829.594    24638815.941   100891845.1204   24638815.711  
                
  23007093.148   123201936.660                    95823724.851    23007096.102  
  23007092.363  
  24656537.492   129570991.137    24656543.660   100964447.9984   24656543.770  
                
  19537284.195   104328022.707                    81144041.367    19537286.500  
  19537282.344  
  20691277.125   110529101.768                    85967079.971    20691280.387  
  20691276.496  
  21825678.008   114694719.960    21825683.785    89372544.2054   21825683.902  
                
  22745574.742   121246712.660                    94302995.692    22745578.570  
  22745574.465  
  20811442.305   109364882.587    20811446.129    85219413.4954                 
                
  23321329.281   122554410.594    23321334.109    95496965.2324                 
                
  22963903.055   122798311.887                    95509799.845    22963907.270  
  22963902.156  
  20337295.156   106873220.695    20337303.383    83277875.2284   20337303.555  
                
  20654480.141   110255033.074                    85753922.787    20654482.180  
  20654478.336  
 21  8 14  0 43 10.0000000  0 15G 6R23G17G15R 4G14R13R12G12R14G19G 2
                                R24G24R22
  22181216.531   116563079.464    22181225.633    90828409.7294   22181226.125  
                
  20073882.859   107381755.256                                                  
  20073881.391  
  23036086.617   121055462.342    23036092.652    94328967.5684   23036092.461  
                
  24645047.281   129510611.037    24645054.117   100917389.1014   24645053.848  
                
  23009710.938   123215954.755                    95834627.823    23009713.832  
  23009710.199  
  24662189.656   129600693.275    24662195.816   100987592.5054   24662195.898  
                
  19535258.992   104317208.234                    81135630.115    19535261.305  
  19535257.145  
  20695344.430   110550828.541                    85983978.576    20695347.691  
  20695343.816  
  21821234.258   114671367.925    21821240.059    89354347.8284   21821240.148  
                
  22739128.703   121212351.657                    94276270.475    22739132.535  
  22739128.445  
  20814836.594   109382719.690    20814840.395    85233312.5454                 
                
  23315528.609   122523927.720    23315533.477    95473212.3454                 
                
  22955500.289   122753379.078                    95474852.124    22955504.629  
  22955499.453  
  20337075.141   106872064.507    20337083.348    83276974.3014   20337083.527  
                
  20659186.477   110280155.780                    85773462.677    20659188.531  
  20659184.645  
 21  8 14  0 43 20.0000000  0 15G 6R23G17G15R 4G14R13R12G12R14G19G 2
                                R24G24R22
  22177113.148   116541515.990    22177122.262    90811607.0274   22177122.727  
                
  20068710.930   107354088.920                                                  
  20068709.441  
  23041653.586   121084717.002    23041659.625    94351763.4004   23041659.426  
                
  24651285.555   129543393.576    24651292.461   100942933.9284   24651292.168  
                
  23012342.742   123230047.972                    95845589.212    23012345.609  
  23012342.020  
  24667842.852   129630400.893    24667849.035   101010741.2634   24667849.086  
                
  19533242.359   104306439.495                    81127254.430    19533244.668  
  19533240.523  
  20699419.547   110572597.068                    86000909.640    20699422.797  
  20699418.961  
  21816794.914   114648039.004    21816800.762    89336169.4584   21816800.812  
                
  22732683.180   121177993.458                    94249547.426    22732687.031  
  22732682.902  
  20818240.820   109400609.019    20818244.602    85247252.2804                 
                
  23309732.484   122493468.243    23309737.297    95449477.6914                 
                
  22947101.070   122708464.729                    95439918.765    22947105.422  
  22947100.176  
  20336866.844   106870969.900    20336875.035    83276121.3584   20336875.223  
                
  20663906.461   110305351.345                    85793059.227    20663908.566  
  20663904.621  
 21  8 14  0 43 30.0000000  0 15G 6R23G17G15R 4G14R13R12G12R14G19G 2
                                R24G24R22
  22173019.492   116520003.656    22173028.617    90794844.1784   22173029.055  
                
  20063552.680   107326495.782                                                  
  20063551.199  
  23047224.031   121113989.929    23047230.012    94374573.4764   23047229.863  
                
  24657524.031   129576176.815    24657530.895   100968479.3044   24657530.605  
                
  23014988.531   123244216.093                    95856608.860    23014991.355  
  23014987.750  
  24673497.023   129660113.779    24673503.242   101033894.1534   24673503.250  
                
  19531234.273   104295716.406                    81118914.257    19531236.582  
  19531232.438  
  20703502.422   110594407.026                    86017872.938    20703505.676  
  20703501.848  
  21812359.938   114624732.993    21812365.801    89318008.9294   21812365.840  
                
  22726238.203   121143638.119                    94222826.610    22726242.047  
  22726237.910  
  20821654.930   109418550.298    20821658.695    85261232.5014                 
                
  23303940.789   122463032.100    23303945.520    95425761.2214                 
                
  22938705.250   122663568.452                    95404999.451    22938709.602  
  22938704.312  
  20336670.219   106869936.661    20336678.406    83275316.2364   20336678.598  
                
  20668640.031   110330619.441                    85812712.172    20668642.199  
  20668638.164  
 21  8 14  0 43 40.0000000  0 15G 6R23G17G15R 4G14R13R12G12R14G19G 2
                                R24G24R22
  22168935.688   116498543.045    22168944.812    90778121.6264   22168945.230  
                
  20058408.250   107298976.479                                                  
  20058406.777  
  23052798.047   121143281.523    23052803.941    94397398.1044   23052803.840  
                
  24663762.711   129608961.119    24663769.469   100994025.5324   24663769.215  
                
  23017648.328   123258459.228                    95867686.848    23017651.156  
  23017647.543  
  24679152.242   129689832.402    24679158.492   101057051.4904   24679158.508  
                
  19529234.789   104285039.234                    81110609.790    19529237.094  
  19529232.980  
  20707593.188   110616259.102                    86034869.000    20707596.449  
  20707592.633  
  21807929.391   114601450.371    21807935.258    89299866.6364   21807935.309  
                
  22719793.836   121109285.977                    94196108.280    22719797.695  
  22719793.547  
  20825078.984   109436543.826    20825082.738    85275253.4384                 
                
  23298153.531   122432619.860    23298158.223    95402063.3604                 
                
  22930312.914   122618690.992                    95370094.770    22930317.262  
  22930311.945  
  20336485.375   106868965.289    20336493.566    83274559.3284   20336493.746  
                
  20673387.242   110355960.435                    85832421.840    20673389.438  
  20673385.395  
 21  8 14  0 43 50.0000000  0 14G 6R23G17G15R 4R13R12G12R14G19G 2R24
                                G24R22
  22164861.727   116477134.184    22164870.844    90761439.3924   22164871.250  
                
  20053277.594   107271530.923                                                  
  20053276.109  
  23058375.578   121172591.634    23058381.453    94420237.1534   23058381.363  
                
  24670001.547   129641746.459    24670008.250   101019572.5604   24670008.012  
                
  23020322.188   123272777.559                    95878823.322    23020325.023  
  23020321.406  
  19527243.922   104274408.118                    81102341.152    19527246.250  
  19527242.105  
  20711691.773   110638153.002                    86051897.591    20711695.020  
  20711691.227  
  21803503.297   114578191.112    21803509.180    89281742.5404   21803509.223  
                
  22713350.070   121074937.095                    94169392.491    22713353.926  
  22713349.777  
  20828512.961   109454589.521    20828516.684    85289315.0224                 
                
  23292370.828   122402231.612    23292375.410    95378384.1954                 
                
  22921924.195   122573832.478                    95335204.818    22921928.480  
  22921923.117  
  20336312.289   106868055.726    20336320.480    83273850.5774   20336320.652  
                
  20678148.125   110381374.307                    85852188.181    20678150.320  
  20678146.301  
 21  8 14  0 44  0.0000000  0 14G 6R23G17G15R 4R13R12G12R14G19G 2R24
                                G24R22
  22160797.648   116455777.303    22160806.758    90744797.6704   22160807.188  
                
  20048160.773   107244159.417                                                  
  20048159.281  
  23063956.648   121201920.341    23063962.551    94443090.6754   23063962.445  
                
  24676240.625   129674532.846    24676247.277   101045120.4074   24676247.020  
                
  23023010.039   123287170.853                    95890018.087    23023012.906  
  23023009.234  
  19525261.789   104263823.679                    81094108.809    19525264.125  
  19525259.953  
  20715798.242   110660088.960                    86068958.881    20715801.461  
  20715797.730  
  21799081.680   114554955.397    21799087.598    89263636.8014   21799087.609  
                
  22706906.930   121040591.623                    94142679.371    22706910.762  
  22706906.652  
  20831956.875   109472687.419    20831960.562    85303417.2754                 
                
  23286592.812   122371867.622    23286597.211    95354723.9194                 
                
  22913538.875   122528992.840                    95300329.557    22913543.227  
  22913537.875  
  20336150.992   106867208.155    20336159.188    83273190.1344   20336159.352  
                
  20682922.609   110406860.857                    85872011.050    20682924.793  
  20682920.812  
 21  8 14  0 44 10.0000000  0 14G 6R23G17G15R 4R13R12G12R14G19G 2R24
                                G24R22
  22156743.367   116434471.908    22156752.461    90728196.0674   22156752.906  
                
  20043057.719   107216861.514                                                  
  20043056.223  
  23069541.133   121231266.942    23069547.043    94465958.1574   23069546.926  
                
  24682479.719   129707319.483    24682486.398   101070668.4364   24682486.121  
                
  23025711.773   123301638.536                    95901270.714    23025714.699  
  23025710.934  
  19523288.203   104253284.810                    81085911.909    19523290.527  
  19523286.387  
  20719912.469   110682066.358                    86086052.423    20719915.664  
  20719911.984  
  21794664.445   114531742.665    21794670.375    89245548.9584   21794670.371  
                
  22700464.391   121006249.075                    94115968.509    22700468.168  
  22700464.094  
  20835410.578   109490836.763    20835414.230    85317559.6264                 
                
  23280819.305   122341527.349    23280823.559    95331082.1504                 
                
  22905157.211   122484172.158                    95265469.049    22905161.531  
  22905156.152  
  20336001.398   106866421.996    20336009.598    83272577.5354   20336009.750  
                
  20687710.594   110432419.444                    85891889.953    20687712.766  
  20687708.801  
 21  8 14  0 44 20.0000000  0 14G 6R23G17G15R 4R13R12G12R14G19G 2R24
                                G24R22
  22152698.938   116413218.250    22152708.039    90711634.7774   22152708.500  
                
  20037968.461   107189637.465                                                  
  20037966.957  
  23075129.047   121260631.574    23075134.934    94488839.6934   23075134.836  
                
  24688718.852   129740106.402    24688725.590   101096216.6934   24688725.301  
                
  23028427.430   123316180.657                    95912581.241    23028430.363  
  23028426.645  
  19521323.227   104242791.933                    81077750.774    19521325.566  
  19521321.402  
  20724034.484   110704085.342                    86103178.299    20724037.672  
  20724034.012  
  21790251.562   114508552.874    21790257.473    89227478.9904   21790257.480  
                
  22694022.398   120971909.642                    94089260.059    22694026.172  
  22694022.102  
  20838874.102   109509037.730    20838877.738    85331742.2024                 
                
  23275050.266   122311211.042    23275054.500    95307459.0524                 
                
  22896779.070   122439370.294                    95230623.163    22896783.375  
  22896777.953  
  20335863.508   106865697.414    20335871.707    83272012.9294   20335871.852  
                
  20692512.070   110458049.980                    85911824.823    20692514.219  
  20692510.328  
 21  8 14  0 44 30.0000000  0 14G 6R23G17G15R 4R13R12G12R14G19G 2R24
                                G24R22
  22148664.375   116392016.490    22148673.512    90695113.9384   22148673.973  
                
  20032893.039   107162487.453                                                  
  20032891.520  
  23080720.375   121290014.159    23080726.242    94511735.2164   23080726.160  
                
  24694958.031   129772893.662    24694964.844   101121765.1944   24694964.551  
                
  23031156.969   123330797.203                    95923949.663    23031159.906  
  23031156.215  
  19519366.961   104232345.616                    81069625.868    19519369.293  
  19519365.125  
  20728164.281   110726145.939                    86120336.530    20728167.461  
  20728163.836  
  21785843.117   114485386.354    21785849.004    89209427.1684   21785849.023  
                
  22687581.008   120937573.499                    94062554.195    22687584.785  
  22687580.668  
  20842347.438   109527290.272    20842351.062    85345964.9534                 
                
  23269285.797   122280918.822    23269290.055    95283854.7424                 
                
  22888404.484   122394587.775                    95195792.321    22888408.816  
  22888403.375  
  20335737.352   106865034.473    20335745.555    83271496.3514   20335745.695  
                
  20697327.000   110483752.366                    85931815.572    20697329.125  
  20697325.297  
 21  8 14  0 44 40.0000000  0 14G 6R23G17G15R 4R13R12G12R14G19G 2R24
                                G24R22
  22144639.734   116370866.800    22144648.914    90678633.6604   22144649.363  
                
  20027831.500   107135411.617                                                  
  20027829.969  
  23086315.133   121319414.704    23086320.984    94534644.7404   23086320.926  
                
  24701197.289   129805681.177    24701204.133   101147313.9034   24701203.832  
                
  23033900.398   123345488.092                    95935375.898    23033903.355  
  23033899.641  
  19517419.336   104221945.438                    81061536.842    19517421.699  
  19517417.492  
  20732301.891   110748248.223                    86137527.195    20732305.070  
  20732301.445  
  21781439.109   114462243.186    21781444.973    89191393.5254   21781445.008  
                
  22681140.266   120903240.742                    94035850.956    22681144.012  
  22681139.918  
  20845830.586   109545594.371    20845834.223    85360227.8904                 
                
  23263525.984   122250650.893    23263530.262    95260269.3434                 
                
  22880033.594   122349824.415                    95160976.367    22880037.859  
  22880032.426  
  20335622.953   106864433.296    20335631.152    83271027.9004   20335631.289  
                
  20702155.398   110509526.627                    85951862.210    20702157.520  
  20702153.738  
 21  8 14  0 44 50.0000000  0 14G 6R23G17G15R 4R13R12G12R14G19G 2R24
                                G24R22
  22140624.984   116349769.235    22140634.215    90662194.0164   22140634.652  
                
  20022783.836   107108410.108                                                  
  20022782.277  
  23091913.281   121348833.126    23091919.145    94557568.1844   23091919.105  
                
  24707436.539   129838468.790    24707443.391   101172862.6974   24707443.117  
                
  23036657.695   123360253.217                    95946859.871    23036660.648  
  23036656.957  
  19515480.359   104211591.451                    81053483.740    19515482.719  
  19515478.496  
  20736447.266   110770392.108                    86154750.210    20736450.438  
  20736446.820  
  21777039.531   114439123.327    21777045.375    89173378.0644   21777045.422  
                
  22674700.164   120868911.388                    94009150.344    22674703.895  
  22674699.785  
  20849323.523   109563949.913    20849327.180    85374530.9104                 
                
  23257770.812   122220407.312    23257775.133    95236702.9254                 
                
  22871666.273   122305080.717                    95126175.723    22871670.559  
  22871665.129  
  20335520.297   106863893.866    20335528.496    83270607.5664   20335528.637  
                
  20706997.219   110535372.595                    85971964.626    20706999.309  
  20706995.586  
 21  8 14  0 45  0.0000000  0 14G 6R23G17G15R 4R13R12G12R14G19G 2R24
                                G24R22
  22136620.234   116328724.104    22136629.496    90645795.2234   22136629.930  
                
  20017750.148   107081483.269                                                  
  20017748.578  
  23097514.852   121378269.508    23097520.734    94580505.6224   23097520.715  
                
  24713675.797   129871256.627    24713682.684   101198411.6634   24713682.441  
                
  23039428.883   123375092.579                    95958401.616    23039431.824  
  23039428.184  
  19513550.141   104201284.162                    81045466.958    19513552.512  
  19513548.273  
  20740600.508   110792577.900                    86172005.825    20740603.688  
  20740600.039  
  21772644.453   114416027.094    21772650.293    89155381.0164   21772650.340  
                
  22668260.750   120834585.807                    93982452.674    22668264.480  
  22668260.332  
  20852826.289   109582357.059    20852829.977    85388874.1434                 
                
  23252020.336   122190188.486    23252024.715    95213155.7834                 
                
  22863302.656   122260356.709                    95091390.392    22863306.992  
  22863301.508  
  20335429.445   106863416.412    20335437.652    83270235.5234   20335437.785  
                
  20711852.523   110561290.424                    85992122.941    20711854.613  
  20711850.910  
 21  8 14  0 45 10.0000000  0 14G 6R23G17G15R 4R13R12G12R14G19G 2R24
                                G24R22
  22132625.430   116307731.236    22132634.707    90629437.1494   22132635.129  
                
  20012730.359   107054630.822                                                  
  20012728.773  
  23103119.781   121407723.587    23103125.664    94603456.8474   23103125.664  
                
  24719915.023   129904044.275    24719921.957   101223960.4724   24719921.723  
                
  23042213.828   123390005.890                    95970000.851    23042216.730  
  23042213.133  
  19511628.648   104191023.534                    81037486.469    19511631.047  
  19511626.770  
  20744761.531   110814805.296                    86189293.788    20744764.711  
  20744761.078  
  21768253.820   114392954.192    21768259.676    89137402.1344   21768259.719  
                
  22661821.977   120800263.662                    93955757.695    22661825.742  
  22661821.547  
  20856338.805   109600815.468    20856342.535    85403257.3224                 
                
  23246274.500   122159994.135    23246278.957    95189627.7334                 
                
  22854942.805   122215652.304                    95056620.331    22854947.117  
  22854941.559  
  20335350.328   106863000.653    20335358.535    83269911.5564   20335358.672  
                
  20716721.180   110587279.542                    86012336.699    20716723.234  
  20716719.602  
 21  8 14  0 45 20.0000000  0 14G 6R23G17G15R 4R13R12G12R14G19G 2R24
                                G24R22
  22128640.586   116286790.760    22128649.859    90613119.8904   22128650.281  
                
  20007724.508   107027852.905                                                  
  20007722.902  
  23108728.078   121437195.301    23108733.965    94626421.8224   23108733.969  
                
  24726154.172   129936831.526    24726161.168   101249508.9924   24726160.934  
                
  23045012.609   123404993.195                    95981657.668    23045015.492  
  23045011.953  
  19509715.859   104180809.408                    81029542.152    19509718.270  
  19509713.988  
  20748930.328   110837074.242                    86206614.078    20748933.508  
  20748929.887  
  21763867.648   114369904.739    21763873.520    89119441.5304   21763873.555  
                
  22655383.883   120765945.030                    93929065.430    22655387.648  
  22655383.445  
  20859861.062   109619325.059    20859864.840    85417680.3804                 
                
  23240533.359   122129824.431    23240537.898    95166118.8784                 
                
  22846586.594   122170967.748                    95021865.683    22846590.910  
  22846585.324  
  20335282.961   106862646.676    20335291.164    83269635.7264   20335291.301  
                
  20721603.188   110613339.914                    86032605.878    20721605.207  
  20721601.629  
 21  8 14  0 45 30.0000000  0 14G 6R23G17G15R 4R13R12G12R14G19G 2R24
                                G24R22
  22124665.734   116265902.776    22124674.977    90596843.5484   22124675.434  
                
  20002732.617   107001149.714                                                  
  20002730.992  
  23114339.711   121466684.574    23114345.629    94649400.4764   23114345.617  
                
  24732393.266   129969618.516    24732400.348   101275057.2884   24732400.086  
                
  23047825.156   123420054.226                    95993371.775    23047828.113  
  23047824.496  
  19507811.766   104170641.794                    81021634.019    19507814.184  
  19507809.898  
  20753106.914   110859384.782                    86223966.731    20753110.121  
  20753106.473  
  21759485.930   114346878.700    21759491.801    89101499.1684   21759491.832  
                
  22648946.500   120731630.111                    93902376.036    22648950.230  
  22648946.086  
  20863393.062   109637885.846    20863396.887    85432143.3364                 
                
  23234797.000   122099679.556    23234801.539    95142629.3704                 
                
  22838234.102   122126303.264                    94987126.636    22838238.438  
  22838232.859  
  20335227.359   106862354.499    20335235.559    83269408.0604   20335235.695  
                
  20726498.523   110639471.464                    86052930.427    20726500.477  
  20726496.980  
 21  8 14  0 45 40.0000000  0 14G 6R23G17G15R 4R13R12G12R14G19G 2R24
                                G24R22
  22120700.945   116245067.615    22120710.152    90580608.3564   22120710.633  
                
  19997754.773   106974521.596                                                  
  19997753.129  
  23119954.703   121496191.481    23119960.629    94672392.8674   23119960.605  
                
  24738632.344   130002405.351    24738639.520   101300605.4794   24738639.250  
                
  23050651.531   123435189.257                    96005143.467    23050654.539  
  23050650.898  
  19505916.516   104160521.221                    81013762.460    19505918.922  
  19505914.652  
  20757291.344   110881737.216                    86241351.938    20757294.551  
  20757290.895  
  21755108.734   114323876.336    21755114.574    89083575.2404   21755114.605  
                
  22642509.852   120697319.122                    93875689.712    22642513.602  
  22642509.430  
  20866934.766   109656497.634    20866938.645    85446646.0264                 
                
  23229065.477   122069559.821    23229069.949    95119159.4534                 
                
  22829885.469   122081659.164                    94952403.447    22829889.773  
  22829884.211  
  20335183.570   106862124.373    20335191.758    83269228.7334   20335191.902  
                
  20731407.180   110665674.089                    86073310.256    20731409.105  
  20731405.664  
 21  8 14  0 45 50.0000000  0 14G 6R23G17G15R 4R13R12G12R14G19G 2R24
                                G24R22
  22116746.141   116224285.022    22116755.363    90564414.1304   22116755.848  
                
  19992790.898   106947968.265                                                  
  19992789.258  
  23125572.984   121525715.681    23125578.895    94695398.7374   23125578.867  
                
  24744871.328   130035191.586    24744878.582   101326153.1874   24744878.281  
                
  23053491.594   123450397.650                    96016972.197    23053494.633  
  23053490.941  
  19504029.945   104150447.046                    81005926.987    19504032.348  
  19504028.086  
  20761483.508   110904131.027                    86258769.350    20761486.715  
  20761483.051  
  21750735.938   114300897.241    21750741.762    89065669.4564   21750741.809  
                
  22636073.836   120663011.688                    93849006.187    22636077.641  
  22636073.375  
  20870486.125   109675160.221    20870490.051    85461188.3024                 
                
  23223338.625   122039464.946    23223343.023    95095708.8794                 
                
  22821540.586   122037035.254                    94917695.958    22821544.855  
  22821539.332  
  20335151.516   106861955.956    20335159.699    83269097.5014   20335159.848  
                
  20736329.094   110691947.646                    86093745.237    20736330.996  
  20736327.586  
 21  8 14  0 46  0.0000000  0 14G 6R23G17G15R 4R13R12G12R14G19G 2R24
                                G24R22
  22112801.414   116203555.349    22112810.656    90548261.1424   22112811.125  
                
  19987841.070   106921490.020                                                  
  19987839.422  
  23131194.594   121555257.407    23131200.473    94718418.2564   23131200.453  
                
  24751110.203   130067977.374    24751117.551   101351700.5214   24751117.234  
                
  23056345.445   123465679.815                    96028858.337    23056348.516  
  23056344.785  
  19502152.195   104140419.932                    80998128.121    19502154.582  
  19502150.336  
  20765683.500   110926566.608                    86276219.253    20765686.703  
  20765683.047  
  21746367.641   114277941.712    21746373.453    89047782.0444   21746373.496  
                
  22629638.625   120628708.394                    93822325.859    22629642.438  
  22629638.094  
  20874047.234   109693873.966    20874051.207    85475770.4364                 
                
  23217616.578   122009395.274    23217620.918    95072277.9614                 
                
  22813199.422   121992431.776                    94883004.376    22813203.766  
  22813198.266  
  20335131.266   106861849.525    20335139.449    83269014.5684   20335139.602  
                
  20741264.281   110718291.900                    86114235.223    20741266.156  
  20741262.785  
 21  8 14  0 46 10.0000000  0 14G 6R23G17G15R 4R13R12G12R14G19G 2R24
                                G24R22
  22108866.828   116182878.934    22108876.059    90532149.6564   22108876.523  
                
  19982905.391   106895087.472                                                  
  19982903.758  
  23136819.570   121584816.798    23136825.418    94741451.5434   23136825.387  
                
  24757349.086   130100762.838    24757356.418   101377247.6414   24757356.117  
                
  23059213.078   123481035.800                    96040801.871    23059216.129  
  23059212.336  
  19500283.336   104130440.307                    80990366.187    19500285.695  
  19500281.477  
  20769891.336   110949044.079                    86293701.716    20769894.516  
  20769890.902  
  21742003.898   114255010.180    21742009.688    89029913.3204   21742009.734  
                
  22623204.219   120594409.322                    93795648.794    22623208.027  
  22623203.699  
  20877618.078   109712638.917    20877622.105    85490392.4754                 
                
  23211899.375   121979351.142    23211903.703    95048866.9424                 
                
  22804862.117   121947849.270                    94848329.120    22804866.621  
  22804861.078  
  20335122.867   106861805.373    20335131.055    83268980.1634   20335131.211  
                
  20746212.750   110744707.126                    86134780.386    20746214.582  
  20746211.262  
 21  8 14  0 46 20.0000000  0 14G 6R23G17G15R 4R13R12G12R14G19G 2R24
                                G24R22
  22104942.391   116162255.923    22104951.602    90516079.7844   22104952.070  
                
  19977983.867   106868760.641                                                  
  19977982.250  
  23142447.898   121614393.794    23142453.711    94764498.5634   23142453.684  
                
  24763587.914   130133547.917    24763595.148   101402794.4704   24763594.879  
                
  23062094.461   123496465.529                    96052802.777    23062097.535  
  23062093.699  
  19498423.375   104120508.192                    80982641.211    19498425.711  
  19498421.527  
  20774107.039   110971563.625                    86311216.917    20774110.211  
  20774106.570  
  21737644.734   114232102.665    21737650.508    89012063.3204   21737650.590  
                
  22616770.648   120560114.702                    93768975.214    22616774.457  
  22616770.176  
  20881198.656   109731455.009    20881202.734    85505054.3534                 
                
  23206187.047   121949332.808    23206191.430    95025476.0474                 
                
  22796528.734   121903287.770                    94813670.201    22796533.414  
  22796527.797  
  20335126.312   106861823.480    20335134.512    83268994.2754   20335134.672  
                
  20751174.508   110771193.208                    86155380.687    20751176.316  
  20751173.020  
 21  8 14  0 46 30.0000000  0 14G 6R23G17G15R 4R13R12G12R14G19G 2R24
                                G24R22
  22101027.938   116141685.294    22101037.129    90500050.7134   22101037.594  
                
  19973076.312   106842508.445                                                  
  19973074.711  
  23148079.352   121643987.160    23148085.141    94787558.3414   23148085.117  
                
  24769826.461   130166331.397    24769833.598   101428340.0564   24769833.336  
                
  23064989.375   123511967.708                    96064859.998    23064992.488  
  23064988.625  
  19496572.094   104110622.451                    80974952.302    19496574.426  
  19496570.270  
  20778330.383   110994123.946                    86328763.839    20778333.562  
  20778329.883  
  21733289.945   114209218.067    21733295.715    88994231.1754   21733295.789  
                
  22610337.672   120525823.321                    93742304.149    22610341.465  
  22610337.246  
  20884788.758   109750321.062    20884792.871    85519755.1824                 
                
  23200479.508   121919339.249    23200483.891    95002104.4504                 
                
  22788199.133   121858746.387                    94779026.917    22788203.938  
  22788198.293  
  20335141.414   106861902.839    20335149.625    83269056.1114   20335149.773  
                
  20756149.273   110797748.848                    86176035.088    20756151.066  
  20756147.777  
 21  8 14  0 46 40.0000000  0 14G 6R23G17G15R 4R13R12G12R14G19G 2R24
                                G24R22
  22097123.523   116121167.510    22097132.719    90484062.8344   22097133.172  
                
  19968182.797   106816331.428                                                  
  19968181.188  
  23153713.984   121673597.314    23153719.801    94810631.1744   23153719.766  
                
  24776064.703   130199113.566    24776071.809   101453884.6024   24776071.562  
                
  23067897.898   123527542.619                    96076973.844    23067901.043  
  23067897.172  
  19494729.570   104100783.478                    80967299.760    19494731.883  
  19494727.754  
  20782561.438   111016725.540                    86346342.839    20782564.617  
  20782560.918  
  21728939.586   114186356.762    21728945.379    88976417.1724   21728945.418  
                
  22603905.422   120491535.813                    93715636.114    22603909.207  
  22603905.004  
  20888388.422   109769237.441    20888392.555    85534495.2174                 
                
  23194776.719   121889370.884    23194781.133    94978752.4774                 
                
  22779873.477   121814225.659                    94744399.703    22779878.297  
  22779872.645  
  20335168.234   106862043.804    20335176.457    83269165.9524   20335176.594  
                
  20761137.125   110824374.332                    86196743.797    20761138.852  
  20761135.625  
 21  8 14  0 46 50.0000000  0 14G 6R23G17G15R 4R13R12G12R14G19G 2R24
                                G24R22
  22093229.273   116100703.107    22093238.469    90468116.5544   22093238.930  
                
  19963303.422   106790230.087                                                  
  19963301.801  
  23159351.852   121703224.479    23159357.742    94833717.2684   23159357.680  
                
  24782302.625   130231894.709    24782309.848   101479428.3374   24782309.582  
                
  23070820.062   123543190.689                    96089144.554    23070823.238  
  23070819.316  
  19492895.875   104090991.645                    80959683.891    19492898.160  
  19492894.066  
  20786800.289   111039368.712                    86363954.206    20786803.477  
  20786799.750  
  21724593.742   114163519.211    21724599.555    88958621.6894   21724599.594  
                
  22597473.984   120457252.493                    93688971.298    22597477.719  
  22597473.578  
  20891997.703   109788204.339    20892001.863    85549274.6204                 
                
  23189078.836   121859428.193    23189083.258    94955420.5224                 
                
  22771551.812   121769726.195                    94709789.012    22771556.656  
  22771550.992  
  20335206.883   106862246.855    20335215.117    83269324.1744   20335215.250  
                
  20766138.141   110851070.042                    86217507.138    20766139.824  
  20766136.617  
 21  8 14  0 47  0.0000000  0 14G 6R23G17G15R 4R13R12G12R14G19G 2R24
                                G24R22
  22089345.195   116080292.173    22089354.367    90452211.9394   22089354.848  
                
  19958438.227   106764204.619                                                  
  19958436.598  
  23164992.938   121732868.615    23164998.883    94856816.5844   23164998.809  
                
  24788540.414   130264674.742    24788547.691   101504971.2174   24788547.422  
                
  23073755.852   123558911.808                    96101372.071    23073759.066  
  23073755.074  
  19491071.109   104081247.498                    80952105.119    19491073.406  
  19491069.293  
  20791046.938   111062053.608                    86381597.999    20791050.121  
  20791046.379  
  21720252.414   114140705.404    21720258.211    88940844.7084   21720258.270  
                
  22591043.328   120422973.487                    93662309.840    22591047.008  
  22591042.941  
  20895616.602   109807221.723    20895620.793    85564093.3654                 
                
  23183385.898   121829511.336    23183390.270    94932108.6874                 
                
  22763234.172   121725247.950                    94675194.819    22763238.965  
  22763233.355  
  20335257.328   106862511.975    20335265.582    83269530.7614   20335265.699  
                
  20771152.258   110877835.774                    86238324.921    20771153.922  
  20771150.703  
 21  8 14  0 47 10.0000000  0 14G 6R23G17G15R 4R13R12G12R14G19G 2R24
                                G24R22
  22085471.273   116059934.592    22085480.379    90436348.8884   22085480.902  
                
  19953587.172   106738254.821                                                  
  19953585.531  
  23170637.203   121762529.491    23170643.180    94879928.9484   23170643.098  
                
  24794777.938   130297453.337    24794785.242   101530512.9724   24794784.965  
                
  23076705.227   123574705.574                    96113656.058    23076708.488  
  23076704.449  
  19489255.219   104071550.716                    80944563.166    19489257.500  
  19489253.395  
  20795301.336   111084779.861                    86399273.958    20795304.508  
  20795300.762  
  21715915.578   114117915.209    21715921.348    88923086.1134   21715921.414  
                
  22584613.484   120388698.732                    93635651.704    22584617.133  
  22584613.105  
  20899245.039   109826289.334    20899249.270    85578951.2414                 
                
  23177697.875   121799620.217    23177702.160    94908816.9034                 
                
  22754920.539   121680790.964                    94640617.150    22754925.242  
  22754919.703  
  20335319.555   106862838.977    20335327.824    83269785.5694   20335327.930  
                
  20776179.383   110904670.998                    86259196.763    20776181.039  
  20776177.797  
 21  8 14  0 47 20.0000000  0 15G 6R23G17G15R 4R13R12G12R14G19G 2R24
                                G24R22G25
  22081607.508   116039630.365    22081616.531    90420527.4064   22081617.098  
                
  19948750.266   106712380.688                                                  
  19948748.602  
  23176284.641   121792206.941    23176290.598    94903054.2374   23176290.543  
                
  24801015.219   130330230.315    24801022.445   101556053.4814   24801022.176  
                
  23079668.148   123590571.834                    96125996.508    23079671.414  
  23079667.383  
  19487448.148   104061901.087                    80937057.898    19487450.434  
  19487446.332  
  20799563.461   111107547.428                    86416982.067    20799566.629  
  20799562.879  
  21711583.227   114095148.549    21711588.973    88905345.8694   21711589.059  
                
  22578184.398   120354428.051                    93608996.758    22578188.035  
  22578183.996  
  20902883.008   109845406.994    20902887.273    85593848.1184                 
                
  23172014.688   121769754.865    23172018.930    94885545.2034                 
                
  22746610.891   121636355.173                    94606055.971    22746615.480  
  22746610.031  
  20335393.547   106863227.778    20335401.836    83270088.5284   20335401.930  
                
  20781219.523   110931575.623                    86280122.588    20781221.152  
  20781217.902  
  24372355.172   128077576.536    24372363.398    99800749.4014   24372363.852  
                
 21  8 14  0 47 30.0000000  0 15G 6R23G17G15R 4R13R12G12R14G19G 2R24
                                G24R22G25
  22077753.312   116019376.415    22077762.297    90404745.1104   22077762.879  
                
  19943926.938   106686579.167                                                  
  19943925.250  
  23181934.625   121821897.741    23181940.562    94926189.9274   23181940.520  
                
  24807251.562   130363002.427    24807258.688   101581590.2054   24807258.461  
                
  23082643.969   123606507.196                    96138390.649    23082647.227  
  23082643.180  
  19485649.320   104052295.373                    80929586.787    19485651.570  
  19485647.508  
  20803832.742   111130353.071                    86434719.797    20803835.906  
  20803832.164  
  21707254.750   114072402.262    21707260.453    88887621.4874   21707260.555  
                
  22571755.484   120320158.370                    93582342.554    22571759.090  
  22571755.105  
  20906529.883   109864571.455    20906534.176    85608781.4594                 
                
  23166335.820   121739912.180    23166340.027    94862291.1734                 
                
  22738304.672   121591937.605                    94571508.991    22738309.148  
  22738303.758  
  20335478.695   106863675.229    20335487.008    83270437.1904   20335487.082  
                
  20786272.031   110958546.302                    86301099.787    20786273.660  
  20786270.398  
  24366347.742   128046007.212    24366355.883    99776149.8834   24366356.258  
                
 21  8 14  0 47 40.0000000  0 15G 6R23G17G15R 4R13R12G12R14G19G 2R24
                                G24R22G25
  22073909.742   115999178.363    22073918.734    90389006.3744   22073919.316  
                
  19939118.250   106660855.995                                                  
  19939116.551  
  23187588.180   121851607.335    23187594.098    94949340.2684   23187594.059  
                
  24813487.977   130395775.096    24813495.039   101607127.3484   24813494.840  
                
  23085633.727   123622517.263                    96150842.883    23085637.023  
  23085632.887  
  19483859.844   104042739.693                    80922154.600    19483862.090  
  19483858.059  
  20808110.195   111153202.444                    86452491.532    20808113.355  
  20808109.637  
  21702931.211   114049681.916    21702936.895    88869917.3234   21702937.012  
                
  22565327.805   120285895.329                    93555693.493    22565331.438  
  22565327.461  
  20910186.688   109883788.123    20910190.992    85623755.4844                 
                
  23160662.320   121710097.743    23160666.496    94839059.1364                 
                
  22730002.820   121547544.119                    94536980.752    22730007.352  
  22730001.910  
  20335576.062   106864186.881    20335584.395    83270835.8794   20335584.457  
                
  20791337.953   110985588.520                    86322132.629    20791339.594  
  20791336.301  
  24360341.781   128014445.517    24360349.891    99751556.3914   24360350.297  
                
 21  8 14  0 47 50.0000000  0 15G 6R23G17G15R 4R13R12G12R14G19G 2R24
                                G24R22G25
  22070076.617   115979035.179    22070085.641    90373310.3934   22070086.199  
                
  19934324.016   106635210.140                                                  
  19934322.293  
  23193245.078   121881334.419    23193250.977    94972504.2374   23193250.953  
                
  24819724.164   130428547.091    24819731.305   101632663.9644   24819731.125  
                
  23088637.219   123638600.733                    96163352.286    23088640.465  
  23088636.395  
  19482079.453   104033232.496                    80914760.119    19482081.723  
  19482077.648  
  20812395.609   111176094.376                    86470296.365    20812398.781  
  20812395.027  
  21698612.406   114026986.483    21698618.090    88852232.5764   21698618.207  
                
  22558901.211   120251637.998                    93529048.924    22558904.867  
  22558900.871  
  20913853.211   109903055.830    20913857.500    85638769.2784                 
                
  23154994.094   121680310.612    23154998.176    94815848.3874                 
                
  22721705.273   121503173.521                    94502470.303    22721709.805  
  22721704.352  
  20335685.438   106864761.648    20335693.789    83271283.7504   20335693.832  
                
  20796417.016   111012700.968                    86343220.081    20796418.645  
  20796415.344  
  24354337.047   127982890.333    24354345.141    99726967.9604   24354345.594  
                
 21  8 14  0 48  0.0000000  0 15G 6R23G17G15R 4R13R12G12R14G19G 2R24
                                G24R22G25
  22066253.820   115958946.264    22066262.855    90357656.6984   22066263.395  
                
  19929544.109   106609640.891                                                  
  19929542.395  
  23198905.133   121911078.173    23198911.016    94995681.1834   23198911.000  
                
  24825960.055   130461317.563    24825967.320   101658199.3984   24825967.121  
                
  23091654.266   123654756.910                    96175918.189    23091657.520  
  23091653.406  
  19480308.055   104023773.340                    80907402.988    19480310.328  
  19480306.273  
  20816688.844   111199028.034                    86488133.637    20816692.012  
  20816688.270  
  21694298.211   114004315.285    21694303.887    88834566.7144   21694304.008  
                
  22552475.523   120217385.521                    93502408.168    22552479.199  
  22552475.184  
  20917529.289   109922373.740    20917533.543    85653822.1974                 
                
  23149331.016   121650550.185    23149334.969    94792658.4464                 
                
  22713411.922   121458825.350                    94467977.287    22713416.422  
  22713411.012  
  20335806.672   106865398.777    20335815.043    83271780.2144   20335815.078  
                
  20801509.062   111039882.775                    86364361.485    20801510.688  
  20801507.359  
  24348333.383   127951341.038    24348341.430    99702384.0484   24348341.926  
                
 21  8 14  0 48 10.0000000  0 15G 6R23G17G15R 4R13R12G12R14G19G 2R24
                                G24R22G25
  22062441.297   115938911.354    22062450.320    90342045.0894   22062450.852  
                
  19924778.500   106584148.095                                                  
  19924776.773  
  23204568.328   121940838.430    23204574.227    95018870.9934   23204574.199  
                
  24832195.680   130494086.138    24832202.945   101683733.3344   24832202.730  
                
  23094684.781   123670985.209                    96188540.152    23094688.004  
  23094683.934  
  19478545.688   104014362.384                    80900083.356    19478547.957  
  19478543.926  
  20820989.844   111222003.178                    86506003.182    20820993.027  
  20820989.297  
  21689988.562   113981667.942    21689994.219    88816919.4334   21689994.344  
                
  22546050.727   120183137.732                    93475770.973    22546054.328  
  22546050.363  
  20921214.836   109941741.423    20921219.039    85668913.9044                 
                
  23143672.953   121620816.222    23143676.844    94769489.1224                 
                
  22705122.906   121414499.310                    94433501.462    22705127.203  
  22705121.855  
  20335939.742   106866098.016    20335948.129    83272325.0724   20335948.145  
                
  20806614.031   111067133.545                    86385556.536    20806615.715  
  20806612.301  
  24342330.773   127919797.237    24342338.863    99677804.4954   24342339.352  
                
 21  8 14  0 48 20.0000000  0 15G 6R23G17G15R 4R13R12G12R14G19G 2R24
                                G24R22G25
  22058639.086   115918930.567    22058648.094    90326475.6474   22058648.609  
                
  19920027.227   106558731.970                                                  
  19920025.500  
  23210234.625   121970615.053    23210240.551    95042073.5484   23210240.496  
                
  24838431.102   130526852.670    24838438.199   101709265.6944   24838437.977  
                
  23097728.758   123687285.473                    96201218.200    23097731.836  
  23097727.930  
  19476792.266   104004999.193                    80892800.879    19476794.551  
  19476790.512  
  20825298.602   111245019.728                    86523904.950    20825301.793  
  20825298.059  
  21685683.453   113959044.472    21685689.102    88799290.7684   21685689.234  
                
  22539626.781   120148894.692                    93449137.504    22539630.395  
  22539626.391  
  20924909.867   109961158.900    20924914.012    85684044.4104                 
                
  23138019.828   121591108.793    23138023.777    94746340.4704                 
                
  22696838.000   121370195.485                    94399042.927    22696842.141  
  22696836.855  
  20336084.617   106866859.330    20336093.016    83272918.3094   20336093.020  
                
  20811731.914   111094453.077                    86406805.051    20811733.586  
  20811730.133  
  24336329.156   127888258.967    24336337.336    99653229.2824   24336337.844  
                
 21  8 14  0 48 30.0000000  0 15G 6R23G17G15R 4R13R12G12R14G19G 2R24
                                G24R22G25
  22054847.141   115899003.798    22054856.145    90310948.2934   22054856.652  
                
  19915290.234   106533392.259                                                  
  19915288.531  
  23215903.984   122000407.771    23215909.934    95065288.6474   23215909.863  
                
  24844666.086   130559616.905    24844673.000   101734796.2884   24844672.785  
                
  23100786.125   123703657.611                    96213952.060    23100789.113  
  23100785.293  
  19475047.773   103995683.685                    80885555.476    19475050.039  
  19475046.020  
  20829615.078   111268077.519                    86541838.791    20829618.277  
  20829614.559  
  21681382.875   113936444.768    21681388.516    88781680.6164   21681388.652  
                
  22533203.711   120114656.184                    93422507.564    22533207.340  
  22533203.281  
  20928614.312   109980625.900    20928618.398    85699213.5064                 
                
  23132371.734   121561427.776    23132375.746    94723212.4144                 
                
  22688557.211   121325914.048                    94364601.823    22688561.285  
  22688556.023  
  20336241.281   106867682.591    20336249.699    83273559.8034   20336249.695  
                
  20816862.578   111121840.948                    86428106.726    20816864.277  
  20816860.750  
  24330328.664   127856726.144    24330336.812    99628658.2294   24330337.316  
                
 21  8 14  0 48 40.0000000  0 15G 6R23G17G15R 4R13R12G12R14G19G 2R24
                                G24R22G25
  22051065.531   115879131.275    22051074.516    90295463.2094   22051075.023  
                
  19910567.586   106508129.265                                                  
  19910565.898  
  23221576.398   122030216.547    23221582.348    95088516.2624   23221582.281  
                
  24850900.547   130592378.891    24850907.379   101760325.1264   24850907.145  
                
  23103856.883   123720101.446                    96226741.702    23103859.836  
  23103856.031  
  19473312.297   103986416.336                    80878347.540    19473314.562  
  19473310.520  
  20833939.312   111291176.734                    86559804.837    20833942.516  
  20833938.801  
  21677086.828   113913868.922    21677092.465    88764089.0504   21677092.613  
                
  22526781.555   120080422.566                    93395881.439    22526785.227  
  22526781.090  
  20932328.188   110000142.402    20932332.223    85714421.1794                 
                
  23126728.664   121531773.501    23126732.801    94700105.1974                 
                
  22680280.547   121281655.083                    94330178.196    22680284.641  
  22680279.398  
  20336409.750   106868567.897    20336418.184    83274249.6534   20336418.172  
                
  20822006.078   111149297.314                    86449461.679    20822007.848  
  20822004.207  
  24324329.203   127825198.809    24324337.359    99604091.4964   24324337.859  
                
 21  8 14  0 48 50.0000000  0 15G 6R23G17G15R 4R13R12G12R14G19G 2R24
                                G24R22G25
  22047294.281   115859313.262    22047303.258    90280020.6124   22047303.773  
                
  19905859.328   106482943.259                                                  
  19905857.672  
  23227251.891   122060041.563    23227257.855    95111756.5354   23227257.777  
                
  24857134.508   130625138.680    24857141.324   101785852.2394   24857141.125  
                
  23106941.055   123736617.192                    96239587.254    23106944.055  
  23106940.141  
  19471585.836   103977197.133                    80871177.044    19471588.066  
  19471584.066  
  20838271.320   111314317.473                    86577803.197    20838274.516  
  20838270.824  
  21672795.367   113891317.186    21672801.000    88746516.2784   21672801.160  
                
  22520360.383   120046194.208                    93369259.392    22520364.102  
  22520359.914  
  20936051.508   110019708.553    20936055.500    85729667.5304                 
                
  23121090.703   121502146.281    23121094.941    94677019.0664                 
                
  22672008.242   121237418.942                    94295772.301    22672012.242  
  22672007.035  
  20336590.070   106869515.506    20336598.523    83274988.0554   20336598.508  
                
  20827162.367   111176822.034                    86470869.789    20827164.188  
  20827160.465  
  24318330.898   127793677.351    24318339.055    99579529.3264   24318339.551  
                
 21  8 14  0 49  0.0000000  0 15G 6R23G17G15R 4R13R12G12R14G19G 2R24
                                G24R22G25
  22043533.438   115839549.898    22043542.449    90264620.5974   22043542.965  
                
  19901165.500   106457834.383                                                  
  19901163.871  
  23232930.469   122089882.763    23232936.473    95135009.4054   23232936.379  
                
  24863367.961   130657896.150    24863374.898   101811377.5284   24863374.703  
                
  23110038.656   123753204.632                    96252488.575    23110041.699  
  23110037.797  
  19469868.438   103968026.276                    80864044.165    19469870.652  
  19469866.680  
  20842611.117   111337499.779                    86595833.896    20842614.309  
  20842610.629  
  21668508.516   113868789.639    21668514.152    88728962.3544   21668514.305  
                
  22513940.172   120011970.898                    93342641.263    22513943.902  
  22513939.703  
  20939784.227   110039324.104    20939788.191    85744952.3834                 
                
  23115457.938   121472546.187    23115462.227    94653954.0564                 
                
  22663740.133   121193205.851                    94261384.353    22663744.191  
  22663738.945  
  20336782.258   106870525.417    20336790.734    83275774.9964   20336790.703  
                
  20832331.469   111204415.114                    86492331.072    20832333.312  
  20832329.555  
  24312333.531   127762161.617    24312341.836    99554971.6514   24312342.316  
                
 21  8 14  0 49 10.0000000  0 15G 6R23G17G15R 4R13R12G12R14G19G 2R24
                                G24R22G25
  22039782.992   115819841.212    22039792.035    90249263.1824   22039792.543  
                
  19896486.102   106432802.784                                                  
  19896484.512  
  23238612.102   122119739.998    23238618.137    95158274.7714   23238618.023  
                
  24869600.961   130690651.228    24869608.055   101836900.9524   24869607.832  
                
  23113149.609   123769863.642                    96265445.583    23113152.621  
  23113148.785  
  19468160.039   103958903.551                    80856948.698    19468162.230  
  19468158.281  
  20846958.648   111360723.518                    86613896.797    20846961.828  
  20846958.176  
  21664226.258   113846286.245    21664231.906    88711427.2424   21664232.051  
                
  22507520.898   119977752.685                    93316027.134    22507524.652  
  22507520.379  
  20943526.352   110058989.115    20943530.301    85760275.7664                 
                
  23109830.398   121442973.216    23109834.656    94630910.1784                 
                
  22655476.180   121149015.672                    94227014.229    22655480.414  
  22655475.133  
  20336986.281   106871597.615    20336994.781    83276610.4744   20336994.730  
                
  20837513.312   111232076.231                    86513845.274    20837515.180  
  20837511.398  
  24306337.398   127730651.751    24306345.676    99530418.5044   24306346.156  
                
 21  8 14  0 49 20.0000000  0 15G 6R23G17G15R 4R13R12G12R14G19G 2R24
                                G24R22G25
  22036042.938   115800187.095    22036051.953    90233948.2934   22036052.492  
                
  19891821.109   106407848.202                                                  
  19891819.543  
  23244296.727   122149613.005    23244302.789    95181552.4444   23244302.668  
                
  24875833.516   130723403.553    24875840.688   101862422.2404   24875840.422  
                
  23116273.883   123786593.980                    96278458.079    23116276.836  
  23116273.090  
  19466460.719   103949829.224                    80849890.897    19466462.902  
  19466458.977  
  20851313.930   111383988.618                    86631991.869    20851317.113  
  20851313.469  
  21659948.570   113823806.852    21659954.219    88693910.8434   21659954.359  
                
  22501102.656   119943539.645                    93289416.974    22501106.367  
  22501102.160  
  20947277.852   110078703.368    20947281.793    85775637.5244                 
                
  23104207.992   121413427.244    23104212.211    94607887.3444                 
                
  22647216.656   121104848.585                    94192662.051    22647220.938  
  22647215.684  
  20337202.133   106872731.889    20337210.656    83277494.3234   20337210.590  
                
  20842707.891   111259805.300                    86535412.329    20842709.781  
  20842705.984  
  24300342.289   127699147.476    24300350.574    99505869.7324   24300351.090  
                
 21  8 14  0 49 30.0000000  0 15G 6R23G17G15R 4R13R12G12R14G19G 2R24
                                G24R22G25
  22032313.289   115780587.656    22032322.285    90218676.0084   22032322.852  
                
  19887170.547   106382970.757                                                  
  19887168.996  
  23249984.359   122179501.757    23249990.434    95204842.3704   23249990.320  
                
  24882065.633   130756153.040    24882072.785   101887941.3224   24882072.477  
                
  23119411.492   123803395.626                    96291526.017    23119414.445  
  23119410.723  
  19464770.461   103940803.290                    80842870.723    19464772.629  
  19464768.727  
  20855676.945   111407295.003                    86650119.049    20855680.137  
  20855676.480  
  21655675.477   113801351.557    21655681.113    88676413.2084   21655681.262  
                
  22494685.305   119909331.591                    93262810.710    22494689.031  
  22494684.855  
  20951038.695   110098466.719    20951042.648    85791037.5384                 
                
  23098590.797   121383908.544    23098594.949    94584885.7624                 
                
  22638961.570   121060704.635                    94158327.870    22638965.793  
  22638960.547  
  20337429.805   106873928.291    20337438.344    83278426.5874   20337438.266  
                
  20847915.164   111287601.948                    86557031.945    20847917.023  
  20847913.266  
  24294348.312   127667648.813    24294356.508    99481325.3284   24294357.043  
                
 21  8 14  0 49 40.0000000  0 15G 6R23G17G15R 4R13R12G12R14G19G 2R24
                                G24R22G25
  22028594.008   115761042.706    22028603.004    90203446.1824   22028603.578  
                
  19882534.391   106358170.475                                                  
  19882532.852  
  23255674.898   122209405.844    23255680.953    95228144.2474   23255680.859  
                
  24888297.109   130788899.306    24888304.211   101913457.9044   24888303.879  
                
  23122562.328   123820268.029                    96304649.022    23122565.250  
  23122561.641  
  19463089.227   103931825.602                    80835888.079    19463091.395  
  19463087.488  
  20860047.617   111430642.376                    86668278.104    20860050.805  
  20860047.148  
  21651406.898   113778920.051    21651412.523    88658934.1134   21651412.680  
                
  22488268.898   119875128.602                    93236208.410    22488272.605  
  22488268.441  
  20954808.805   110118278.846    20954812.777    85806475.5654                 
                
  23092978.734   121354416.863    23092982.828    94561905.2294                 
                
  22630710.742   121016583.660                    94124011.561    22630714.957  
  22630709.688  
  20337669.234   106875186.530    20337677.785    83279407.0314   20337677.703  
                
  20853135.016   111315465.883                    86578703.889    20853136.883  
  20853133.094  
  24288355.500   127636155.642    24288363.570    99456785.2334   24288364.094  
                
 21  8 14  0 49 50.0000000  0 15G 6R23G17G15R 4R13R12G12R14G19G 2R24
                                G24R22G25
  22024885.188   115741552.739    22024894.184    90188259.2034   22024894.770  
                
  19877912.719   106333447.634                                                  
  19877911.184  
  23261368.438   122239325.634    23261374.461    95251458.3644   23261374.402  
                
  24894527.977   130821642.773    24894535.109   101938972.3014   24894534.762  
                
  23125726.438   123837211.686                    96317827.419    23125729.301  
  23125725.715  
  19461417.062   103922896.346                    80828943.104    19461419.219  
  19461415.324  
  20864426.047   111454031.139                    86686469.372    20864429.230  
  20864425.570  
  21647142.898   113756512.628    21647148.508    88641473.7984   21647148.680  
                
  22481853.484   119840930.917                    93209610.196    22481857.199  
  22481853.031  
  20958588.273   110138140.111    20958592.266    85821951.8774                 
                
  23087371.891   121324952.779    23087375.949    94538946.2104                 
                
  22622464.312   120972486.400                    94089713.717    22622468.574  
  22622463.262  
  20337920.523   106876507.061    20337929.086    83280436.0154   20337929.000  
                
  20858367.492   111343397.274                    86600428.304    20858369.406  
  20858365.574  
  24282363.695   127604668.304    24282371.770    99432249.6544   24282372.293  
                
 21  8 14  0 50  0.0000000  0 15G 6R23G17G15R 4R13R12G12R14G19G 2R24
                                G24R22G25
  22021186.898   115722118.108    22021195.914    90173115.3374   22021196.508  
                
  19873305.602   106308802.631                                                  
  19873304.062  
  23267064.992   122269261.286    23267071.004    95274784.8394   23267070.961  
                
  24900758.320   130854383.522    24900765.512   101964484.5774   24900765.188  
                
  23128903.859   123854226.493                    96331061.200    23128906.703  
  23128903.164  
  19459754.023   103914015.845                    80822036.042    19459756.180  
  19459752.297  
  20868812.273   111477461.492                    86704692.977    20868815.461  
  20868811.793  
  21642883.602   113734129.832    21642889.184    88624032.6564   21642889.387  
                
  22475439.156   119806738.889                    93183016.411    22475442.855  
  22475438.742  
  20962377.102   110158050.514    20962381.109    85837466.4734                 
                
  23081770.391   121295516.616    23081774.398    94516008.9374                 
                
  22614222.445   120928413.115                    94055434.519    22614226.719  
  22614221.352  
  20338183.719   106877890.123    20338192.289    83281513.7294   20338192.203  
                
  20863612.664   111371396.360                    86622205.364    20863614.625  
  20863610.762  
  24276372.906   127573187.050    24276381.086    99407718.7704   24276381.605  
                
 21  8 14  0 50 10.0000000  0 15G 6R23G17G15R 4R13R12G12R14G19G 2R24
                                G24R22G25
  22017499.086   115702738.534    22017508.141    90158014.3874   22017508.719  
                
  19868712.992   106284235.265                                                  
  19868711.445  
  23272764.508   122299212.391    23272770.520    95298123.3604   23272770.480  
                
  24906988.086   130887121.082    24906995.305   101989994.3574   24906994.945  
                
  23132094.477   123871312.057                    96344349.954    23132097.371  
  23132093.770  
  19458100.102   103905183.942                    80815166.786    19458102.234  
  19458098.379  
  20873206.219   111500933.166                    86722948.719    20873209.402  
  20873205.727  
  21638628.906   113711771.261    21638634.484    88606610.4034   21638634.688  
                
  22469025.852   119772552.291                    93156426.841    22469029.566  
  22469025.434  
  20966175.195   110178009.677    20966179.227    85853019.0774                 
                
  23076174.156   121266108.126    23076178.129    94493093.2324                 
                
  22605984.953   120884363.589                    94021173.792    22605989.258  
  22605983.875  
  20338458.742   106879335.370    20338467.324    83282639.8944   20338467.223  
                
  20868870.406   111399462.537                    86644034.628    20868872.391  
  20868868.527  
  24270383.312   127541711.560    24270391.527    99383192.4844   24270392.059  
                
 21  8 14  0 50 20.0000000  0 15G 6R23G17G15R 4R13R12G12R14G19G 2R24
                                G24R22G25
  22013821.742   115683414.003    22013830.809    90142956.3184   22013831.402  
                
  19864134.914   106259745.612                                                  
  19864133.352  
  23278466.945   122329178.872    23278472.977    95321473.8544   23278472.945  
                
  24913217.188   130919855.244    24913224.438   102015501.4894   24913224.051  
                
  23135298.289   123888468.220                    96357693.610    23135301.219  
  23135297.629  
  19456455.297   103896400.732                    80808335.409    19456457.426  
  19456453.578  
  20877607.859   111524445.921                    86741236.408    20877611.059  
  20877607.352  
  21634378.789   113689436.745    21634384.359    88589206.8864   21634384.574  
                
  22462613.539   119738371.069                    93129841.441    22462617.285  
  22462613.152  
  20969982.555   110198017.484    20969986.609    85868609.5714                 
                
  23070583.164   121236727.264    23070587.098    94470199.0464                 
                
  22597751.969   120840337.868                    93986931.571    22597756.242  
  22597750.863  
  20338745.578   106880842.707    20338754.172    83283814.4414   20338754.062  
                
  20874140.672   111427595.623                    86665915.912    20874142.707  
  20874138.762  
  24264394.930   127510241.851    24264403.090    99358670.6154   24264403.586  
                
 21  8 14  0 50 30.0000000  0 15G 6R23G17G15R 4R13R12G12R14G19G 2R24
                                G24R22G25
  22010154.922   115664144.713    22010163.984    90127941.2884   22010164.582  
                
  19859571.375   106235333.739                                                  
  19859569.812  
  23284172.312   122359160.670    23284178.391    95344836.2934   23284178.328  
                
  24919445.609   130952586.063    24919452.914   102041006.0174   24919452.508  
                
  23138515.297   123905694.961                    96371092.211    23138518.215  
  23138514.672  
  19454819.641   103887666.407                    80801542.037    19454821.770  
  19454817.926  
  20882017.227   111547999.938                    86759556.208    20882020.422  
  20882016.719  
  21630133.281   113667126.478    21630138.871    88571822.2664   21630139.062  
                
  22456202.305   119704195.461                    93103260.422    22456206.066  
  22456201.906  
  20973799.172   110218073.981    20973803.242    85884238.0084                 
                
  23064997.469   121207374.234    23065001.383    94447326.5514                 
                
  22589523.516   120796336.083                    93952707.945    22589527.680  
  22589522.352  
  20339044.258   106882412.246    20339052.863    83285037.4584   20339052.750  
                
  20879423.453   111455795.433                    86687849.088    20879425.574  
  20879421.547  
  24258407.547   127478777.937    24258415.727    99334153.2764   24258416.195  
                
 21  8 14  0 50 40.0000000  0 15G 6R23G17G15R 4R13R12G12R14G19G 2R24
                                G24R22G25
  22006498.617   115644930.722    22006507.664    90112969.3444   22006508.277  
                
  19855022.383   106210999.741                                                  
  19855020.820  
  23289880.547   122389157.670    23289886.652    95368210.5654   23289886.562  
                
  24925673.406   130985313.367    24925680.668   102066507.8304   24925680.301  
                
  23141745.438   123922992.273                    96384545.624    23141748.410  
  23141744.770  
  19453193.148   103878981.026                    80794786.740    19453195.277  
  19453191.438  
  20886434.289   111571595.138                    86777908.036    20886437.496  
  20886433.793  
  21625892.367   113644840.406    21625897.980    88554456.5024   21625898.160  
                
  22449792.070   119670025.394                    93076683.726    22449795.848  
  22449791.660  
  20977625.008   110238178.934    20977629.090    85899904.2144                 
                
  23059417.055   121178049.111    23059420.965    94424475.8104                 
                
  22581299.555   120752358.494                    93918503.146    22581303.637  
  22581298.340  
  20339354.766   106884043.980    20339363.379    83286308.9424   20339363.250  
                
  20884718.727   111484061.989                    86709834.197    20884720.891  
  20884716.848  
  24252421.320   127447319.857    24252429.559    99309640.5524   24252430.004  
                
 21  8 14  0 50 50.0000000  0 15G 6R23G17G15R 4R13R12G12R14G19G 2R24
                                G24R22G25
  22002852.844   115625772.056    22002861.859    90098040.5194   22002862.484  
                
  19850487.969   106186743.669                                                  
  19850486.395  
  23295591.656   122419169.746    23295597.758    95391596.5944   23295597.668  
                
  24931900.578   131018037.006    24931907.746   102092006.7864   24931907.418  
                
  23144988.742   123940359.753                    96398053.676    23144991.707  
  23144988.129  
  19451575.766   103870344.253                    80788069.261    19451577.891  
  19451574.039  
  20890859.078   111595231.530                    86796291.893    20890862.293  
  20890858.574  
  21621656.070   113622578.534    21621661.695    88537109.6044   21621661.887  
                
  22443382.922   119635860.967                    93050111.399    22443386.656  
  22443382.500  
  20981460.055   110258332.239    20981464.164    85915608.0864                 
                
  23053841.969   121148751.904    23053845.840    94401646.8314                 
                
  22573080.164   120708405.046                    93884317.135    22573084.129  
  22573078.855  
  20339677.109   106885737.858    20339685.723    83287628.8484   20339685.598  
                
  20890026.461   111512394.993                    86731870.977    20890028.598  
  20890024.602  
  24246436.156   127415867.568    24246444.426    99285132.2444   24246444.863  
                
 21  8 14  0 51  0.0000000  0 15G 6R23G17G15R 4R13R12G12R14G19G 2R24
                                G24R22G25
  21999217.617   115606668.821    21999226.609    90083154.8814   21999227.238  
                
  19845968.148   106162565.688                                                  
  19845966.582  
  23301305.641   122449196.850    23301311.715    95414994.3354   23301311.648  
                
  24938127.016   131050756.837    24938134.109   102117502.7594   24938133.805  
                
  23148245.086   123957797.222                    96411616.167    23148248.059  
  23148244.473  
  19449967.516   103861756.273                    80781389.713    19449969.645  
  19449965.793  
  20895291.523   111618908.835                    86814707.568    20895294.762  
  20895291.012  
  21617424.391   113600340.901    21617430.020    88519781.5794   21617430.195  
                
  22436974.828   119601702.168                    93023543.424    22436978.531  
  22436974.418  
  20985304.281   110278533.841    20985308.434    85931349.5944                 
                
  23048272.234   121119482.779    23048276.023    94378839.7074                 
                
  22564865.195   120664475.796                    93850149.971    22564869.133  
  22564863.852  
  20340011.273   106887493.904    20340019.875    83288997.1944   20340019.754  
                
  20895346.578   111540794.184                    86753959.226    20895348.668  
  20895344.746  
  24240452.133   127384421.139    24240460.395    99260628.5344   24240460.828  
                
 21  8 14  0 51 10.0000000  0 15G 6R23G17G15R 4R13R12G12R14G19G 2R24
                                G24R22G25
  21995593.016   115587621.479    21995601.984    90068312.8024   21995602.613  
                
  19841462.992   106138466.182                                                  
  19841461.426  
  23307022.531   122479239.246    23307028.578    95438403.9874   23307028.516  
                
  24944352.719   131083473.135    24944359.828   102142995.9834   24944359.527  
                
  23151514.578   123975305.205                    96425233.455    23151517.617  
  23151513.973  
  19448368.531   103853217.789                    80774748.673    19448370.688  
  19448366.797  
  20899731.750   111642627.718                    86833155.578    20899734.988  
  20899731.238  
  21613197.375   113578127.833    21613203.008    88502472.7054   21613203.176  
                
  22430567.867   119567549.491                    92996980.266    22430571.590  
  22430567.418  
  20989157.758   110298784.036    20989161.969    85947128.9654                 
                
  23042707.961   121090242.164    23042711.645    94356054.8104                 
                
  22556654.812   120620571.397                    93816002.120    22556658.766  
  22556653.492  
  20340357.336   106889312.486    20340365.926    83290414.2704   20340365.812  
                
  20900679.211   111569260.100                    86776099.391    20900681.332  
  20900677.422  
  24234469.234   127352980.891    24234477.574    99236129.6654   24234477.984  
                
 21  8 14  0 51 20.0000000  0 15G 6R23G17G15R 4R13R12G12R14G19G 2R24
                                G24R22G25
  21991979.047   115568629.963    21991987.984    90053514.2244   21991988.621  
                
  19836972.516   106114445.170                                                  
  19836970.938  
  23312742.305   122509296.723    23312748.328    95461825.4084   23312748.242  
                
  24950577.750   131116185.676    24950584.832   102168486.2744   24950584.531  
                
  23154797.156   123992883.351                    96438905.361    23154800.234  
  23154796.543  
  19446778.828   103844728.825                    80768146.145    19446780.988  
  19446777.074  
  20904179.711   111666387.956                    86851635.761    20904182.984  
  20904179.188  
  21608975.031   113555939.282    21608980.652    88485182.9264   21608980.816  
                
  22424162.016   119533402.796                    92970421.728    22424165.758  
  22424161.547  
  20993020.430   110319082.542    20993024.703    85962945.9854                 
                
  23037149.125   121061030.085    23037152.715    94333292.1474                 
                
  22548449.078   120576691.760                    93781873.505    22548452.984  
  22548447.789  
  20340715.289   106891193.506    20340723.863    83291879.9924   20340723.758  
                
  20906024.219   111597792.115                    86798290.945    20906026.352  
  20906022.461  
  24228487.484   127321546.777    24228495.855    99211635.5424   24228496.266  
                
 21  8 14  0 51 30.0000000  0 15G 6R23G17G15R 4R13R12G12R14G19G 2R24
                                G24R22G25
  21988375.695   115549694.252    21988384.586    90038759.1314   21988385.246  
                
  19832496.695   106090502.575                                                  
  19832495.098  
  23318464.906   122539369.172    23318470.887    95485258.4794   23318470.809  
                
  24956802.023   131148894.263    24956809.066   102193973.4984   24956808.773  
                
  23158092.828   124010531.404                    96452631.618    23158095.848  
  23158092.180  
  19445198.289   103836288.906                    80761581.766    19445200.469  
  19445196.535  
  20908635.383   111690189.336                    86870147.942    20908638.676  
  20908634.852  
  21604757.312   113533775.077    21604762.953    88467912.1204   21604763.113  
                
  22417757.297   119499262.144                    92943867.904    22417761.055  
  22417756.828  
  20996892.258   110339429.151    20996896.578    85978800.4854                 
                
  23031595.656   121031846.487    23031599.258    94310551.6874                 
                
  22540248.102   120532837.043                    93747764.281    22540251.883  
  22540246.773  
  20341085.086   106893136.803    20341093.656    83293394.2514   20341093.559  
                
  20911381.586   111626390.158                    86820533.873    20911383.723  
  20911379.824  
  24222506.875   127290118.679    24222515.289    99187146.1214   24222515.695  
                
 21  8 14  0 51 40.0000000  0 15G 6R23G17G15R 4R13R12G12R14G19G 2R24
                                G24R22G25
  21984782.992   115530814.518    21984791.836    90024047.6634   21984792.527  
                
  19828035.570   106066638.583                                                  
  19828033.977  
  23324190.391   122569456.632    23324196.305    95508703.2624   23324196.246  
                
  24963025.531   131181598.986    24963032.531   102219457.7044   24963032.273  
                
  23161401.562   124028249.337                    96466412.222    23161404.562  
  23161400.828  
  19443626.984   103827898.190                    80755055.650    19443629.164  
  19443625.230  
  20913098.789   111714032.053                    86888692.281    20913102.109  
  20913098.266  
  21600544.273   113511635.445    21600549.941    88450660.4684   21600550.070  
                
  22411353.758   119465127.590                    92917318.822    22411357.500  
  22411353.305  
  21000773.250   110359823.932    21000777.609    85994692.5214                 
                
  23026047.641   121002691.499    23026051.242    94287833.5194                 
                
  22532051.781   120489007.482                    93713674.619    22532055.488  
  22532050.449  
  20341466.766   106895142.523    20341475.336    83294957.1494   20341475.234  
                
  20916751.312   111655054.155                    86842828.098    20916753.438  
  20916749.559  
  24216527.359   127258696.679    24216535.922    99162661.4924   24216536.301  
                
 21  8 14  0 51 50.0000000  0 15G 6R23G17G15R 4R13R12G12R14G19G 2R24
                                G24R22G25
  21981200.898   115511990.543    21981209.715    90009379.6254   21981210.402  
                
  19823589.102   106042853.009                                                  
  19823587.523  
  23329918.617   122599558.633    23329924.477    95532159.3644   23329924.430  
                
  24969248.203   131214299.312    24969255.184   102244938.4864   24969254.938  
                
  23164723.203   124046036.739                    96480246.851    23164726.227  
  23164722.418  
  19442064.891   103819556.715                    80748567.825    19442067.051  
  19442063.141  
  20917569.844   111737915.650                    86907268.411    20917573.195  
  20917569.316  
  21596335.867   113489520.169    21596341.535    88433427.7944   21596341.668  
                
  22404951.289   119430998.873                    92890774.290    22404955.023  
  22404950.809  
  21004663.328   110380266.413    21004667.711    86010621.7314                 
                
  23020505.039   120973564.987    23020508.645    94265137.5284                 
                
  22523859.969   120445202.732                    93679604.272    22523863.762  
  22523858.727  
  20341860.250   106897210.314    20341868.816    83296568.4104   20341868.715  
                
  20922133.320   111683783.575                    86865173.220    20922135.398  
  20922131.590  
  24210549.141   127227280.595    24210557.680    99138181.4194   24210558.016  
                
 21  8 14  0 52  0.0000000  0 15G 6R23G17G15R 4R13R12G12R14G19G 2R24
                                G24R22G25
  21977629.492   115493222.710    21977638.309    89994755.3454   21977638.980  
                
  19819157.375   106019146.305                                                  
  19819155.801  
  23335649.625   122629675.295    23335655.434    95555626.8904   23335655.414  
                
  24975470.125   131246995.446    24975477.090   102270416.0034   24975476.852  
                
  23168057.883   124063893.839                    96494135.703    23168060.914  
  23168057.074  
  19440512.055   103811264.672                    80742118.464    19440514.234  
  19440510.293  
  20922048.617   111761840.438                    86925876.565    20922051.996  
  20922048.078  
  21592132.148   113467429.502    21592137.816    88416214.2954   21592137.953  
                
  22398550.000   119396876.495                    92864234.674    22398553.754  
  22398549.484  
  21008562.531   110400756.888    21008566.941    86026588.3364                 
                
  23014967.922   120944467.296    23014971.555    94242464.0164                 
                
  22515672.805   120401423.366                    93645553.644    22515676.781  
  22515671.746  
  20342265.617   106899340.529    20342274.176    83298228.3174   20342274.078  
                
  20927527.594   111712578.632                    86887569.365    20927529.684  
  20927525.844  
  24204572.055   127195870.665    24204580.605    99113706.1474   24204580.887  
                
 21  8 14  0 52 10.0000000  0 15G 6R23G17G15R 4R13R12G12R14G19G 2R24
                                G24R22G25
  21974068.789   115474511.094    21974077.625    89980174.8724   21974078.273  
                
  19814740.391   105995518.472                                                  
  19814738.809  
  23341383.430   122659806.657    23341389.176    95579105.8654   23341389.191  
                
  24981691.164   131279687.267    24981698.203   102295890.1434   24981697.949  
                
  23171405.531   124081820.437                    96508078.576    23171408.652  
  23171404.730  
  19438968.539   103803022.371                    80735707.789    19438970.711  
  19438966.770  
  20926535.102   111785806.446                    86944516.794    20926538.496  
  20926534.551  
  21587933.094   113445363.361    21587938.770    88399019.9044   21587938.918  
                
  22392149.883   119362760.395                    92837699.940    22392153.621  
  22392149.379  
  21012470.852   110421295.244    21012475.285    86042592.2524                 
                
  23009436.336   120915398.662    23009439.984    94219813.1414                 
                
  22507490.414   120357669.420                    93611522.820    22507494.547  
  22507489.512  
  20342682.859   106901533.158    20342691.410    83299936.8594   20342691.312  
                
  20932934.133   111741439.115                    86910016.407    20932936.184  
  20932932.359  
  24198596.008   127164466.906    24198604.695    99089235.6864   24198604.938  
                
 21  8 14  0 52 20.0000000  0 15G 6R23G17G15R 4R13R12G12R14G19G 2R24
                                G24R22G25
  21970518.797   115455855.808    21970527.668    89965638.2944   21970528.285  
                
  19810338.180   105971969.630                                                  
  19810336.574  
  23347120.016   122689952.627    23347125.727    95602596.2394   23347125.727  
                
  24987911.367   131312374.722    24987918.465   102321360.8824   24987918.203  
                
  23174766.180   124099816.434                    96522075.471    23174769.324  
  23174765.391  
  19437434.312   103794829.696                    80729335.699    19437436.473  
  19437432.555  
  20931029.305   111809813.635                    86963189.046    20931032.723  
  20931028.758  
  21583738.742   113423321.913    21583744.422    88381844.7474   21583744.566  
                
  22385751.008   119328650.825                    92811170.266    22385754.727  
  22385750.566  
  21016388.250   110441881.278    21016392.691    86058633.3174                 
                
  23003910.273   120886359.143    23003913.941    94197184.9364                 
                
  22499312.898   120313941.032                    93577511.878    22499317.129  
  22499312.031  
  20343111.992   106903788.206    20343120.535    83301694.0414   20343120.449  
                
  20938352.914   111770364.972                    86932514.303    20938354.965  
  20938351.145  
  24192621.195   127133069.400    24192629.988    99064770.1074   24192630.184  
                
 21  8 14  0 52 30.0000000  0 15G 6R23G17G15R 4R13R12G12R14G19G 2R24
                                G24R22G25
  21966979.523   115437256.829    21966988.430    89951145.5944   21966989.023  
                
  19805950.742   105948499.806                                                  
  19805949.117  
  23352859.352   122720113.047    23352865.043    95626097.8744   23352865.027  
                
  24994130.742   131345057.635    24994137.867   102346828.0854   24994137.602  
                
  23178139.703   124117881.715                    96536126.242    23178142.898  
  23178138.859  
  19435909.383   103786686.643                    80723002.221    19435911.547  
  19435907.609  
  20935531.195   111833861.868                    86981893.216    20935534.621  
  20935530.660  
  21579549.078   113401305.085    21579554.746    88364688.7794   21579554.898  
                
  22379353.344   119294547.568                    92784645.509    22379357.027  
  22379352.918  
  21020314.727   110462515.018    21020319.156    86074711.5544                 
                
  22998389.758   120857348.655    22998393.453    94174579.3694                 
                
  22491140.352   120270238.311                    93543520.876    22491144.500  
  22491139.402  
  20343552.977   106906105.593    20343561.516    83303499.7924   20343561.430  
                
  20943783.891   111799355.954                    86955062.852    20943785.934  
  20943782.117  
  24186647.531   127101678.034    24186656.500    99040309.3584   24186656.652  
                
 21  8 14  0 52 40.0000000  0 15G 6R23G17G15R 4R13R12G12R14G19G 2R24
                                G24R22G25
  21963450.969   115418714.140    21963459.859    89936696.7464   21963460.453  
                
  19801578.070   105925109.020                                                  
  19801576.438  
  23358601.422   122750287.822    23358607.113    95649610.6814   23358607.105  
                
  25000349.195   131377735.686    25000356.320   102372291.5184   25000356.059  
                
  23181526.141   124136015.903                    96550230.540    23181529.391  
  23181525.258  
  19434393.719   103778593.134                    80716707.272    19434395.918  
  19434391.953  
  20940040.742   111857951.049                    87000629.246    20940044.188  
  20940040.207  
  21575364.039   113379312.608    21575369.688    88347551.7924   21575369.852  
                
  22372956.820   119260450.545                    92758125.615    22372960.473  
  22372956.379  
  21024250.211   110483196.170    21024254.613    86090826.7394                 
                
  22992874.781   120828367.172    22992878.512    94151996.4014                 
                
  22482972.625   120226561.364                    93509549.918    22482976.641  
  22482971.602  
  20344005.805   106908485.217    20344014.344    83305354.0494   20344014.258  
                
  20949227.039   111828411.723                    86977661.772    20949229.016  
  20949225.258  
  24180675.156   127070292.747    24180684.102    99015853.2724   24180684.227  
                
 21  8 14  0 52 50.0000000  0 15G 6R23G17G15R 4R13R12G12R14G19G 2R24
                                G24R22G25
  21959933.133   115400227.793    21959941.957    89922291.7934   21959942.590  
                
  19797220.180   105901797.240                                                  
  19797218.535  
  23364346.180   122780476.773    23364351.895    95673134.5224   23364351.895  
                
  25006566.711   131410408.909    25006573.789   102397751.1754   25006573.527  
                
  23184925.414   124154218.932                    96564388.439    23184928.723  
  23184924.504  
  19432887.367   103770549.276                    80710450.940    19432889.570  
  19432885.598  
  20944557.961   111882081.189                    87019397.127    20944561.418  
  20944557.430  
  21571183.656   113357344.571    21571189.285    88330433.8374   21571189.453  
                
  22366561.508   119226359.932                    92731610.691    22366565.125  
  22366561.055  
  21028194.711   110503924.665    21028199.078    86106978.8144                 
                
  22987365.359   120799414.854    22987369.098    94129436.1554                 
                
  22474809.648   120182910.051                    93475598.885    22474813.605  
  22474808.598  
  20344470.477   106910927.060    20344479.012    83307256.7754   20344478.922  
                
  20954682.297   111857532.204                    87000311.043    20954684.246  
  20954680.527  
  24174703.945   127038913.549    24174712.867    98991401.9524   24174712.996  
                
 21  8 14  0 53  0.0000000  0 15G 6R23G17G15R 4R13R12G12R14G19G 2R24
                                G24R22G25
  21956426.055   115381798.027    21956434.844    89907930.9424   21956435.504  
                
  19792877.109   105878564.772                                                  
  19792875.461  
  23370093.641   122810679.978    23370099.367    95696669.4844   23370099.352  
                
  25012783.250   131443077.314    25012790.305   102423207.0744   25012790.102  
                
  23188337.586   124172490.801                    96578599.884    23188340.863  
  23188336.695  
  19431390.391   103762555.529                    80704233.580    19431392.602  
  19431388.594  
  20949082.859   111906252.353                    87038196.929    20949086.336  
  20949082.344  
  21567007.992   113335401.364    21567013.586    88313335.2354   21567013.762  
                
  22360167.398   119192275.863                    92705100.847    22360170.973  
  22360166.930  
  21032148.250   110524700.615    21032152.582    86123167.8694                 
                
  22981861.539   120770491.935    22981865.266    94106898.8084                 
                
  22466651.492   120139284.960                    93441668.266    22466655.496  
  22466650.469  
  20344947.008   106913431.291    20344955.543    83309208.1294   20344955.449  
                
  20960149.633   111886717.193                    87023010.491    20960151.551  
  20960147.902  
  24168733.891   127007540.620    24168742.855    98966955.5054   24168742.957  
                
 21  8 14  0 53 10.0000000  0 14G 6R23G17R 4R13R12G12R14G19G 2R24G24
                                R22G25
  21952929.766   115363424.913    21952938.566    89893614.2284   21952939.207  
                
  19788548.867   105855411.618                                                  
  19788547.230  
  23375843.820   122840897.343    23375849.543    95720215.4864   23375849.543  
                
  23191762.570   124190831.352                    96592864.772    23191765.855  
  23191761.711  
  19429902.727   103754611.504                    80698054.894    19429904.934  
  19429900.918  
  20953615.438   111930464.604                    87057028.662    20953618.914  
  20953614.914  
  21562837.047   113313482.884    21562842.617    88296255.9074   21562842.789  
                
  22353774.555   119158198.415                    92678596.199    22353778.152  
  22353774.078  
  21036110.766   110545523.781    21036115.070    86139393.7184                 
                
  22976363.359   120741598.471    22976367.051    94084384.4174                 
                
  22458498.195   120095685.746                    93407757.770    22458502.242  
  22458497.195  
  20345435.406   106915997.849    20345443.938    83311208.0434   20345443.844  
                
  20965629.055   111915966.748                    87045760.131    20965630.980  
  20965627.328  
  24162764.898   126976173.888    24162774.012    98942513.9454   24162774.129  
                
 21  8 14  0 53 20.0000000  0 14G 6R23G17R 4R13R12G12R14G19G 2R24G24
                                R22G25
  21949443.914   115345106.633    21949452.742    89879340.2464   21949453.348  
                
  19784235.141   105832336.082                                                  
  19784233.504  
  23381596.312   122871126.912    23381602.047    95743770.9934   23381602.031  
                
  23195200.008   124209238.595                    96607181.498    23195203.289  
  23195199.215  
  19428424.094   103746715.731                    80691913.737    19428426.305  
  19428422.277  
  20958155.336   111954715.900                    87075890.783    20958158.812  
  20958154.805  
  21558670.445   113291587.283    21558676.023    88279194.3964   21558676.188  
                
  22347382.602   119124125.738                    92652095.212    22347386.184  
  22347382.141  
  21040081.898   110566392.184    21040086.191    86155654.8154                 
                
  22970870.430   120712732.693    22970874.109    94061891.5954                 
                
  22450349.516   120052111.166                    93373866.442    22450353.598  
  22450348.539  
  20345935.328   106918624.901    20345943.852    83313255.0964   20345943.758  
                
  20971120.156   111945278.614                    87068558.252    20971122.074  
  20971118.457  
  24156796.805   126944811.545    24156805.984    98918075.7674   24156806.105  
                
 21  8 14  0 53 30.0000000  0 14G 6R23G17R 4R13R12G12R14G19G 2R24G24
                                R22G25
  21945969.125   115326846.531    21945977.988    89865111.6104   21945978.559  
                
  19779936.531   105809341.411                                                  
  19779934.902  
  23387351.750   122901371.915    23387357.488    95767338.5244   23387357.457  
                
  23198650.523   124227715.855                    96621552.720    23198653.746  
  23198649.773  
  19426955.055   103738871.163                    80685812.398    19426957.250  
  19426953.207  
  20962703.156   111979009.520                    87094785.801    20962706.621  
  20962702.633  
  21554508.812   113269717.782    21554514.398    88262153.2444   21554514.547  
                
  22340992.172   119090061.297                    92625600.664    22340995.770  
  22340991.695  
  21044062.258   110587309.103    21044066.535    86171953.7184                 
                
  22965383.336   120683897.971    22965387.047    94039422.9774                 
                
  22442206.016   120008564.420                    93339996.775    22442210.168  
  22442205.055  
  20346447.367   106921315.696    20346455.879    83315351.8204   20346455.793  
                
  20976623.570   111974656.229                    87091407.496    20976625.508  
  20976621.836  
  24150830.273   126913456.922    24150839.430    98893643.6144   24150839.551  
                
 21  8 14  0 53 40.0000000  0 14G 6R23G17R 4R13R12G12R14G19G 2R24G24
                                R22G25
  21942505.250   115308643.779    21942514.145    89850927.6574   21942514.691  
                
  19775652.906   105786426.899                                                  
  19775651.301  
  23393109.922   122931631.310    23393115.648    95790917.2724   23393115.605  
                
  23202113.875   124246261.863                    96635977.398    23202117.062  
  23202113.121  
  19425495.445   103731076.917                    80679750.216    19425497.629  
  19425493.590  
  20967258.727   112003344.516                    87113713.021    20967262.176  
  20967258.238  
  21550351.984   113247873.489    21550357.574    88245131.7074   21550357.727  
                
  22334603.133   119056004.203                    92599111.807    22334606.723  
  22334602.637  
  21048051.648   110608273.501    21048055.914    86188289.6114                 
                
  22959901.961   120655093.449    22959905.730    94016977.9154                 
                
  22434067.633   119965044.670                    93306148.077    22434071.805  
  22434066.648  
  20346971.367   106924069.326    20346979.867    83317497.5044   20346979.781  
                
  20982139.062   112004098.358                    87114306.920    20982141.008  
  20982137.324  
  24144864.984   126882109.046    24144874.137    98869216.6994   24144874.262  
                
 21  8 14  0 53 50.0000000  0 14G 6R23G17R 4R13R12G12R14G19G 2R24G24
                                R22G25
  21939052.273   115290498.218    21939061.172    89836788.2604   21939061.703  
                
  19771384.219   105763592.240                                                  
  19771382.625  
  23398870.781   122961904.777    23398876.484    95814506.9894   23398876.453  
                
  23205590.016   124264876.346                    96650455.326    23205593.145  
  23205589.227  
  19424045.297   103723333.201                    80673727.319    19424047.473  
  19424043.465  
  20971822.008   112027720.674                    87132672.268    20971825.441  
  20971821.535  
  21546199.898   113226054.199    21546205.535    88228129.6664   21546205.664  
                
  22328215.461   119021954.234                    92572628.505    22328219.055  
  22328214.988  
  21052050.023   110629285.082    21052054.289    86204662.2694                 
                
  22954426.328   120626319.036    22954430.172    93994556.3014                 
                
  22425934.250   119921551.648                    93272320.174    22425938.430  
  22425933.242  
  20347507.273   106926885.517    20347515.758    83319691.9404   20347515.684  
                
  20987666.586   112033604.635                    87137256.258    20987668.520  
  20987664.891  
  24138901.008   126850767.760    24138910.121    98844794.9464   24138910.250  
                
 21  8 14  0 54  0.0000000  0 14G 6R23G17R 4R13R12G12R14G19G 2R24G24
                                R22G25
  21935610.141   115272409.741    21935619.023    89822693.3584   21935619.559  
                
  19767130.445   105740837.416                                                  
  19767128.863  
  23404634.281   122992192.088    23404639.965    95838107.4934   23404639.938  
                
  23209078.852   124283558.947                    96664986.267    23209081.910  
  23209078.016  
  19422604.602   103715639.940                    80667743.672    19422606.746  
  19422602.766  
  20976392.969   112052137.836                    87151663.382    20976396.359  
  20976392.504  
  21542052.555   113204259.749    21542058.234    88211146.9864   21542058.340  
                
  22321829.086   118987911.240                    92546150.616    22321832.688  
  22321828.641  
  21056057.305   110650343.486    21056061.574    86221071.4144                 
                
  22948956.398   120597574.585    22948960.293    93972158.0354                 
                
  22417805.797   119878085.674                    93238513.310    22417810.117  
  22417804.922  
  20348055.062   106929764.141    20348063.527    83321935.0184   20348063.465  
                
  20993206.055   112063174.677                    87160255.178    20993207.992  
  20993204.352  
  24132938.086   126819432.836    24132947.312    98820378.1384   24132947.480  
                
 21  8 14  0 54 10.0000000  0 14G 6R23G17R 4R13R12G12R14G19G 2R24G24
                                R22G25
  21932178.938   115254378.581    21932187.805    89808643.0864   21932188.336  
                
  19762891.648   105718162.690                                                  
  19762890.066  
  23410400.430   123022493.311    23410406.082    95861718.8244   23410406.090  
                
  23212580.422   124302309.696                    96679570.172    23212583.410  
  23212579.605  
  19421173.320   103707996.996                    80661799.171    19421175.457  
  19421171.492  
  20980971.609   112076596.012                    87170686.415    20980974.977  
  20980971.152  
  21537909.961   113182490.349    21537915.652    88194183.8194   21537915.762  
                
  22315444.031   118953875.378                    92519678.282    22315447.660  
  22315443.590  
  21060073.500   110671448.780    21060077.762    86237517.0984                 
                
  22943492.258   120568860.334    22943496.156    93949783.2914                 
                
  22409682.391   119834646.697                    93204727.452    22409686.793  
  22409681.602  
  20348614.742   106932705.275    20348623.184    83324226.8134   20348623.133  
                
  20998757.398   112092808.263                    87183303.521    20998759.355  
  20998755.719  
  24126976.484   126788104.491    24126985.656    98795966.4134   24126985.859  
                
 21  8 14  0 54 20.0000000  0 14G 6R23G17R 4R13R12G12R14G19G 2R24G24
                                R22G25
  21928758.594   115236404.587    21928767.465    89794637.3894   21928768.000  
                
  19758667.797   105695567.900                                                  
  19758666.203  
  23416169.180   123052808.161    23416174.828    95885340.7884   23416174.820  
                
  23216094.672   124321128.346                    96694206.879    23216097.695  
  23216093.793  
  19419751.492   103700404.514                    80655893.903    19419753.629  
  19419749.648  
  20985557.875   112101094.950                    87189741.148    20985561.230  
  20985557.422  
  21533772.078   113160745.704    21533777.785    88177239.9454   21533777.895  
                
  22309060.266   118919846.521                    92493211.439    22309063.945  
  22309059.785  
  21064098.578   110692600.681    21064102.824    86253999.1014                 
                
  22938033.867   120540176.219    22938037.730    93927432.0314                 
                
  22401564.008   119791234.703                    93170962.607    22401568.555  
  22401563.242  
  20349186.297   106935708.792    20349194.715    83326567.2114   20349194.688  
                
  21004320.680   112122505.483                    87206401.350    21004322.664  
  21004318.977  
  24121016.117   126756782.556    24121025.262    98771559.7594   24121025.508  
                
 21  8 14  0 54 30.0000000  0 14G 6R23G17R 4R13R12G12R14G19G 2R24G24
                                R22G25
  21925349.148   115218487.860    21925358.016    89780676.3064   21925358.547  
                
  19754458.906   105673053.192                                                  
  19754457.316  
  23421940.508   123083136.620    23421946.156    95908973.3494   23421946.125  
                
  23219621.539   124340014.678                    96708896.267    23219624.602  
  23219620.629  
  19418339.086   103692862.342                    80650027.764    19418341.207  
  19418337.234  
  20990151.789   112125634.808                    87208827.714    20990155.129  
  20990151.355  
  21529638.930   113139025.897    21529644.672    88160315.4254   21529644.777  
                
  22302677.867   118885824.801                    92466750.094    22302681.520  
  22302677.391  
  21068132.492   110713799.108    21068136.734    86270517.3524                 
                
  22932581.227   120511522.316    22932585.035    93905104.3044                 
                
  22393450.797   119747849.999                    93137218.946    22393455.359  
  22393450.020  
  20349769.703   106938774.628    20349778.102    83328956.1744   20349778.082  
                
  21009895.789   112152265.842                    87229548.297    21009897.785  
  21009894.078  
  24115056.852   126725466.927    24115066.023    98747157.9844   24115066.250  
                
 21  8 14  0 54 40.0000000  0 14G 6R23G17R 4R13R12G12R14G19G 2R24G24
                                R22G25
  21921950.625   115200628.533    21921959.523    89766759.9614   21921960.047  
                
  19750265.031   105650618.763                                                  
  19750263.445  
  23427714.430   123113478.677    23427720.039    95932616.5084   23427720.012  
                
  23223161.055   124358968.727                    96723638.266    23223164.137  
  23223160.066  
  19416936.125   103685370.598                    80644200.850    19416938.238  
  19416934.281  
  20994753.336   112150215.404                    87227945.942    20994756.664  
  20994752.891  
  21525510.516   113117330.990    21525516.277    88143410.3114   21525516.367  
                
  22296296.852   118851810.495                    92440294.534    22296300.504  
  22296296.359  
  21072175.258   110735044.019    21072179.508    86287071.8284                 
                
  22927134.320   120482898.770    22927138.133    93882800.2354                 
                
  22385342.805   119704492.738                    93103496.618    22385347.277  
  22385341.969  
  20350364.992   106941902.892    20350373.367    83331393.7824   20350373.363  
                
  21015482.742   112182089.353                    87252744.358    21015484.758  
  21015481.023  
  24109098.906   126694157.849    24109108.039    98722761.3014   24109108.289  
                
 21  8 14  0 54 50.0000000  0 14G 6R23G17R 4R13R12G12R14G19G 2R24G24
                                R22G25
  21918563.047   115182826.669    21918571.969    89752888.3844   21918572.488  
                
  19746086.133   105628264.474                                                  
  19746084.562  
  23433490.898   123143834.138    23433496.449    95956270.1204   23433496.441  
                
  23226713.203   124377990.270                    96738432.779    23226716.289  
  23226712.219  
  19415542.648   103677929.482                    80638413.313    19415544.766  
  19415540.801  
  20999362.523   112174836.823                    87247095.927    20999365.828  
  20999362.082  
  21521386.844   113095661.012    21521392.609    88126524.6244   21521392.715  
                
  22289917.211   118817803.455                    92413844.620    22289920.867  
  22289916.707  
  21076226.859   110756335.355    21076231.137    86303662.4864                 
                
  22921693.203   120454305.623    22921697.078    93860519.8694                 
                
  22377239.945   119661162.743                    93069795.508    22377244.316  
  22377239.078  
  20350972.156   106945093.525    20350980.504    83333879.9894   20350980.512  
                
  21021081.484   112211975.872                    87275989.435    21021083.465  
  21021079.766  
  24103142.164   126662855.239    24103151.324    98698369.6594   24103151.551  
                
 21  8 14  0 55  0.0000000  0 14G 6R23G17R 4R13R12G12R14G19G 2R24G24
                                R22G25
  21915186.414   115165082.376    21915195.320    89739061.6544   21915195.836  
                
  19741922.266   105605990.557                                                  
  19741920.715  
  23439269.922   123174203.132    23439275.410    95979934.2794   23439275.438  
                
  23230277.945   124397079.097                    96753279.656    23230280.969  
  23230277.000  
  19414158.648   103670539.026                    80632665.184    19414160.754  
  19414156.809  
  21003979.359   112199499.153                    87266277.728    21003982.652  
  21003978.895  
  21517267.945   113074016.090    21517273.719    88109658.4554   21517273.832  
                
  22283538.945   118783803.673                    92387400.345    22283542.609  
  22283538.434  
  21080287.281   110777673.022    21080291.570    86320289.2374                 
                
  22916257.914   120425743.023    22916261.863    93838263.3024                 
                
  22369142.219   119617860.424                    93036115.941    22369146.559  
  22369141.348  
  20351591.188   106948346.564    20351599.516    83336414.8234   20351599.539  
                
  21026692.000   112241925.230                    87299283.382    21026693.926  
  21026690.285  
  24097186.852   126631559.169    24097195.887    98673983.1444   24097196.109  
                
 21  8 14  0 55 10.0000000  0 14G 6R23G17R 4R13R12G12R14G19G 2R24G24
                                R22G25
  21911820.703   115147395.467    21911829.594    89725279.6584   21911830.133  
                
  19737773.383   105583796.830                                                  
  19737771.832  
  23445051.406   123204585.044    23445056.840    96003608.5014   23445056.902  
                
  23233855.164   124416235.007                    96768178.706    23233858.145  
  23233854.230  
  19412784.125   103663199.153                    80626956.401    19412786.227  
  19412782.270  
  21008603.805   112224202.080                    87285491.121    21008607.086  
  21008603.328  
  21513153.781   113052396.024    21513159.543    88092811.6614   21513159.652  
                
  22277162.062   118749811.291                    92360961.832    22277165.715  
  22277161.531  
  21084356.453   110799056.695    21084360.762    86336951.8384                 
                
  22910828.438   120397210.901    22910832.422    93816030.4944                 
                
  22361049.664   119574585.776                    93002457.888    22361053.965  
  22361048.781  
  20352222.055   106951661.777    20352230.367    83338998.1094   20352230.391  
                
  21032314.180   112271936.815                    87322625.744    21032316.066  
  21032312.473  
  24091232.672   126600269.443    24091241.664    98649601.5114   24091241.840  
                
 21  8 14  0 55 20.0000000  0 14G 6R23G17R 4R13R12G12R14G19G 2R24G24
                                R22G25
  21908466.016   115129766.481    21908474.902    89711542.7934   21908475.453  
                
  19733639.586   105561683.765                                                  
  19733638.027  
  23450835.438   123234980.325    23450840.836    96027293.1424   23450840.926  
                
  23237444.992   124435458.288                    96783130.163    23237447.906  
  23237444.105  
  19411419.156   103655910.276                    80621287.266    19411421.277  
  19411417.289  
  21013235.898   112248945.899                    87304736.317    21013239.176  
  21013235.422  
  21509044.422   113030801.186    21509050.160    88075984.5164   21509050.281  
                
  22270786.594   118715826.441                    92334529.173    22270790.238  
  22270786.070  
  21088434.438   110820486.664    21088438.766    86353650.5154                 
                
  22905404.867   120368709.758    22905408.871    93793821.8124                 
                
  22352962.328   119531339.035                    92968821.550    22352966.602  
  22352961.418  
  20352864.844   106955039.596    20352873.137    83341630.1714   20352873.172  
                
  21037948.172   112302011.323                    87346017.015    21037950.008  
  21037946.469  
  24085279.758   126568986.453    24085288.711    98625225.1794   24085288.875  
                
 21  8 14  0 55 30.0000000  0 14G 6R23G17R 4R13R12G12R14G19G 2R24G24
                                R22G25
  21905122.312   115112195.243    21905131.227    89697850.9224   21905131.750  
                
  19729520.852   105539651.321                                                  
  19729519.285  
  23456621.938   123265388.639    23456627.332    96050987.9214   23456627.438  
                
  23241047.305   124454748.443                    96798133.658    23241050.203  
  23241046.465  
  19410063.664   103648672.065                    80615657.547    19410065.777  
  19410061.805  
  21017875.602   112273730.374                    87324013.140    21017878.871  
  21017875.121  
  21504939.805   113009231.257    21504945.555    88059176.7794   21504945.672  
                
  22264412.578   118681849.350                    92308102.558    22264416.281  
  22264412.082  
  21092521.180   110841962.612    21092525.527    86370385.0284                 
                
  22899987.148   120340239.449    22899991.172    93771637.1624                 
                
  22344880.273   119488120.392                    92935207.061    22344884.480  
  22344879.297  
  20353519.477   106958479.741    20353527.754    83344310.8064   20353527.797  
                
  21043593.820   112332148.106                    87369456.734    21043595.621  
  21043592.090  
  24079328.109   126537710.048    24079337.043    98600853.9644   24079337.203  
                
 21  8 14  0 55 40.0000000  0 14G 6R23G17R 4R13R12G12R14G19G 2R24G24
                                R22G25
  21901789.609   115094681.837    21901798.562    89684204.1174   21901799.070  
                
  19725417.188   105517699.493                                                  
  19725415.617  
  23462410.914   123295809.999    23462416.316    96074692.8714   23462416.430  
                
  23244662.109   124474105.561                    96813189.181    23244665.016  
  23244661.234  
  19408717.703   103641484.693                    80610067.367    19408719.824  
  19408715.840  
  21022522.945   112298555.640                    87343321.683    21022526.203  
  21022522.461  
  21500839.930   112987686.321    21500845.680    88042388.5184   21500845.777  
                
  22258039.961   118647879.788                    92281681.792    22258043.699  
  22258039.461  
  21096616.648   110863484.462    21096621.012    86387155.3024                 
                
  22894575.336   120311800.073    22894579.344    93749476.6184                 
                
  22336803.539   119444929.745                    92901614.343    22336807.594  
  22336802.426  
  20354185.984   106961982.283    20354194.242    83347040.0594   20354194.285  
                
  21049251.125   112362347.158                    87392944.881    21049252.887  
  21049249.402  
  24073377.773   126506440.230    24073386.574    98576487.8374   24073386.719  
                
 21  8 14  0 55 50.0000000  0 14G 6R23G17R 4R13R12G12R14G19G 2R24G24
                                R22G25
  21898467.961   115077226.473    21898476.953    89670602.5484   21898477.441  
                
  19721328.625   105495828.434                                                  
  19721327.051  
  23468202.391   123326244.400    23468207.781    96098407.9924   23468207.918  
                
  23248289.453   124493529.608                    96828296.784    23248292.344  
  23248288.539  
  19407381.305   103634348.396                    80604516.914    19407383.418  
  19407379.441  
  21027177.922   112323421.684                    87362661.941    21027181.172  
  21027177.438  
  21496744.883   112966166.665    21496750.609    88025619.9574   21496750.730  
                
  22251668.820   118613918.040                    92255267.108    22251672.598  
  22251668.332  
  21100720.883   110885052.322    21100725.262    86403961.4264                 
                
  22889169.477   120283391.918    22889173.418    93727340.3924                 
                
  22328732.008   119401767.546                    92868043.752    22328736.023  
  22328730.867  
  20354864.398   106965547.312    20354872.629    83349818.0064   20354872.688  
                
  21054920.078   112392608.289                    87416481.329    21054921.824  
  21054918.352  
  24067428.625   126475177.117    24067437.438    98552126.9974   24067437.609  
                
 21  8 14  0 56  0.0000000  0 14G 6R23G17R 4R13R12G12R14G19G 2R24G24
                                R22G25
  21895157.383   115059829.310    21895166.410    89657046.3174   21895166.883  
                
  19717255.227   105474038.500                                                  
  19717253.660  
  23473996.352   123356691.947    23474001.746    96122133.3574   23474001.887  
                
  23251929.195   124513020.257                    96843456.185    23251932.148  
  23251928.242  
  19406054.523   103627263.494                    80599006.432    19406056.656  
  19406052.652  
  21031840.531   112348328.532                    87382033.925    21031843.785  
  21031840.047  
  21492654.641   112944672.324    21492660.352    88008871.1224   21492660.461  
                
  22245299.133   118579964.166                    92228858.568    22245302.938  
  22245298.656  
  21104833.859   110906666.145    21104838.258    86420803.3644                 
                
  22883769.539   120255015.041    22883773.410    93705228.5384                 
                
  22320665.812   119358633.931                    92834495.376    22320669.773  
  22320664.688  
  20355554.703   106969174.918    20355562.895    83352644.7104   20355562.977  
                
  21060600.641   112422931.520                    87440066.068    21060602.379  
  21060598.938  
  24061480.773   126443920.857    24061489.586    98527771.4604   24061489.754  
                
 21  8 14  0 56 10.0000000  0 14G 6R23G17R 4R13R12G12R14G19G 2R24G24
                                R22G25
  21891857.875   115042490.337    21891866.918    89643535.4424   21891867.383  
                
  19713196.961   105452329.545                                                  
  19713195.383  
  23479792.789   123387152.473    23479798.203    96145868.8404   23479798.332  
                
  23255581.344   124532577.777                    96858667.510    23255584.449  
  23255580.340  
  19404737.320   103620229.661                    80593535.673    19404739.469  
  19404735.445  
  21036510.773   112373276.142                    87401437.621    21036514.043  
  21036510.285  
  21488569.219   112923203.293    21488574.922    87992142.0064   21488575.000  
                
  22238930.969   118546018.339                    92202456.266    22238934.766  
  22238930.504  
  21108955.547   110928325.769    21108959.969    86437680.9904                 
                
  22878375.578   120226669.496    22878379.387    93683141.0884                 
                
  22312604.953   119315529.053                    92800969.371    22312608.910  
  22312603.883  
  20356256.914   106972865.020    20356265.066    83355520.1144   20356265.172  
                
  21066292.797   112453316.596                    87463698.903    21066294.520  
  21066291.098  
  24055534.055   126412671.341    24055542.992    98503421.1984   24055543.148  
                
 21  8 14  0 56 20.0000000  0 14G 6R23G17R 4R13R12G12R14G19G 2R24G24
                                R22G25
  21888569.484   115025209.782    21888578.508    89630070.0744   21888578.996  
                
  19709153.898   105430701.864                                                  
  19709152.305  
  23485591.703   123417626.016    23485597.168    96169614.4584   23485597.254  
                
  23259245.992   124552201.768                    96873930.608    23259249.137  
  23259244.988  
  19403429.750   103613247.325                    80588104.966    19403431.918  
  19403427.859  
  21041188.656   112398264.538                    87420873.052    21041191.934  
  21041188.160  
  21484488.633   112901759.681    21484494.320    87975432.6964   21484494.398  
                
  22232564.344   118512080.609                    92176060.255    22232568.109  
  22232563.918  
  21113085.961   110950031.247    21113090.387    86454594.3534                 
                
  22872987.594   120198355.489    22872991.402    93661078.2274                 
                
  22304549.398   119272452.997                    92767465.787    22304553.438  
  22304548.449  
  20356971.031   106976617.729    20356979.141    83358444.3024   20356979.277  
                
  21071996.516   112483763.519                    87487379.845    21071998.250  
  21071994.812  
  24049588.758   126381428.820    24049597.801    98479076.3954   24049597.980  
                
 21  8 14  0 56 30.0000000  0 14G 6R23G17R 4R13R12G12R14G19G 2R24G24
                                R22G25
  21885292.195   115007987.559    21885301.242    89616650.1704   21885301.734  
                
  19705125.992   105409155.320                                                  
  19705124.395  
  23491393.055   123448112.345    23491398.582    96193370.0414   23491398.641  
                
  23262923.023   124571892.042                    96889245.269    23262926.156  
  23262922.031  
  19402131.781   103606316.227                    80582714.111    19402133.938  
  19402129.898  
  21045874.164   112423293.702                    87440340.172    21045877.461  
  21045873.641  
  21480412.867   112880341.377    21480418.551    87958743.1204   21480418.621  
                
  22226199.234   118478150.953                    92149670.506    22226202.969  
  22226198.836  
  21117225.062   110971782.333    21117229.484    86471543.2554                 
                
  22867605.586   120170072.905    22867609.414    93639039.8544                 
                
  22296499.336   119229405.826                    92733984.648    22296503.355  
  22296498.418  
  20357697.031   106980432.892    20357705.102    83361417.1574   20357705.262  
                
  21077711.789   112514272.003                    87511108.660    21077713.500  
  21077710.074  
  24043644.477   126350193.001    24043653.785    98454736.8184   24043653.992  
                
 21  8 14  0 56 40.0000000  0 14G 6R23G17R 4R13R12G12R14G19G 2R24G24
                                R22G25
  21882026.039   114990823.805    21882035.152    89603275.8264   21882035.617  
                
  19701113.297   105387690.109                                                  
  19701111.695  
  23497196.852   123478611.495    23497202.453    96217135.6054   23497202.484  
                
  23266612.422   124591648.598                    96904611.460    23266615.609  
  23266611.410  
  19400843.414   103599436.480                    80577363.197    19400845.574  
  19400841.531  
  21050567.305   112448363.645                    87459839.004    21050570.617  
  21050566.766  
  21476341.938   112858948.481    21476347.621    87942073.3304   21476347.684  
                
  22219835.656   118444229.542                    92123287.203    22219839.410  
  22219835.250  
  21121372.820   110993578.944    21121377.230    86488527.6274                 
                
  22862229.578   120141821.980    22862233.449    93617026.1584                 
                
  22288454.734   119186387.709                    92700526.116    22288458.719  
  22288453.824  
  20358434.938   106984310.611    20358442.973    83364438.7544   20358443.156  
                
  21083438.562   112544841.944                    87534885.288    21083440.277  
  21083436.855  
  24037701.844   126318964.163    24037711.098    98430402.6704   24037711.352  
                
 21  8 14  0 56 50.0000000  0 14G 6R23G17R 4R13R12G12R14G19G 2R24G24
                                R22G25
  21878771.000   114973718.538    21878780.172    89589947.0624   21878780.625  
                
  19697115.812   105366306.276                                                  
  19697114.207  
  23503003.039   123509123.259    23503008.711    96240911.0114   23503008.738  
                
  23270314.148   124611471.230                    96920029.060    23270317.383  
  23270313.133  
  19399564.703   103592608.267                    80572052.371    19399566.859  
  19399562.828  
  21055268.062   112473474.213                    87479369.464    21055271.398  
  21055267.520  
  21472275.789   112837580.773    21472281.461    87925423.1784   21472281.523  
                
  22213473.609   118410316.360                    92096910.288    22213477.363  
  22213473.227  
  21125529.219   111015420.963    21125533.617    86505547.3884                 
                
  22856859.609   120113602.717    22856863.504    93595037.1344                 
                
  22280415.547   119143398.712                    92667090.248    22280419.523  
  22280414.656  
  20359184.727   106988250.782    20359192.727    83367509.0204   20359192.938  
                
  21089176.844   112575473.187                    87558709.586    21089178.613  
  21089175.121  
  24031760.203   126287742.096    24031769.727    98406073.8264   24031770.027  
                
 21  8 14  0 57  0.0000000  0 14G 6R23G17R 4R13R12G12R14G19G 2R24G24
                                R22G25
  21875527.125   114956671.851    21875536.309    89576663.9264   21875536.766  
                
  19693133.531   105345003.744                                                  
  19693131.902  
  23508811.625   123539647.544    23508817.383    96264696.1684   23508817.379  
                
  23274028.211   124631359.837                    96935497.969    23274031.445  
  23274027.148  
  19398295.656   103585831.620                    80566781.643    19398297.805  
  19398293.766  
  21059976.406   112498625.349                    87498931.447    21059979.762  
  21059975.852  
  21468214.469   112816238.408    21468220.102    87908792.7584   21468220.184  
                
  22207113.109   118376411.365                    92070539.736    22207116.863  
  22207112.734  
  21129694.242   111037308.279    21129698.633    86522602.4354                 
                
  22851495.719   120085415.228    22851499.625    93573072.8624                 
                
  22272381.891   119100439.094                    92633677.215    22272385.840  
  22272380.969  
  20359946.398   106992253.405    20359954.363    83370627.9444   20359954.598  
                
  21094926.523   112606165.328                    87582581.253    21094928.277  
  21094924.785  
  24025819.977   126256526.929    24025829.641    98381750.3144   24025830.004  
                
 21  8 14  0 57 10.0000000  0 14G 6R23G17R 4R13R12G12R14G19G 2R24G24
                                R22G25
  21872294.375   114939683.722    21872303.559    89563426.4344   21872304.027  
                
  19689166.461   105323782.645                                                  
  19689164.816  
  23514622.570   123570184.315    23514628.430    96288491.0434   23514628.391  
                
  23277754.508   124651314.144                    96951018.002    23277757.738  
  23277753.434  
  19397036.227   103579106.347                    80561550.878    19397038.355  
  19397034.336  
  21064692.344   112523817.030                    87518524.982    21064695.715  
  21064691.797  
  21464157.969   112794921.415    21464163.594    87892182.1214   21464163.695  
                
  22200754.195   118342514.795                    92044175.745    22200757.977  
  22200753.797  
  21133867.844   111059240.762    21133872.219    86539692.6774                 
                
  22846137.875   120057259.552    22846141.801    93551133.3764                 
                
  22264353.773   119057508.552                    92600286.793    22264357.586  
  22264352.727  
  20360719.953   106996318.441    20360727.879    83373795.5034   20360728.137  
                
  21100687.609   112636918.397                    87606500.305    21100689.383  
  21100685.848  
  24019881.180   126225318.620    24019890.898    98357432.1864   24019891.270  
                
 21  8 14  0 57 20.0000000  0 14G 6R23G17R 4R13R12G12R14G19G 2R24G24
                                R22G25
  21869072.773   114922754.055    21869081.945    89550234.4894   21869082.430  
                
  19685214.609   105302642.883                                                  
  19685212.969  
  23520435.820   123600733.172    23520441.730    96312295.3514   23520441.684  
                
  23281493.016   124671333.926                    96966588.937    23281496.340  
  23281491.988  
  19395786.445   103572432.588                    80556360.173    19395788.562  
  19395784.562  
  21069415.852   112549049.087                    87538149.918    21069419.227  
  21069415.312  
  21460106.281   112773629.604    21460111.895    87875591.1074   21460111.992  
                
  22194396.789   118308626.278                    92017818.039    22194400.609  
  22194396.340  
  21138049.977   111081218.025    21138054.324    86556817.8204                 
                
  22840786.086   120029135.515    22840789.973    93529218.5444                 
                
  22256331.008   119014607.492                    92566919.299    22256334.871  
  22256329.988  
  20361505.336   107000445.662    20361513.230    83377011.5214   20361513.516  
                
  21106460.031   112667732.010                    87630466.449    21106461.828  
  21106458.297  
  24013943.672   126194116.949    24013953.469    98333119.2494   24013953.828  
                
 21  8 14  0 57 30.0000000  0 14G 6R23G17R 4R13R12G12R14G19G 2R24G24
                                R22G25
  21865862.469   114905883.846    21865871.617    89537088.8694   21865872.113  
                
  19681278.156   105281585.517                                                  
  19681276.523  
  23526251.539   123631295.060    23526257.449    96336109.8094   23526257.422  
                
  23285243.914   124691419.920                    96982211.347    23285247.270  
  23285242.902  
  19394546.508   103565811.349                    80551210.323    19394548.598  
  19394544.613  
  21074147.055   112574322.329                    87557806.872    21074150.434  
  21074146.527  
  21456059.555   112752363.964    21456065.168    87859020.4814   21456065.262  
                
  22188041.125   118274747.031                    91991467.522    22188044.945  
  22188040.645  
  21142240.797   111103240.950    21142245.090    86573978.5354                 
                
  22835440.531   120001044.211    22835444.363    93507329.2054                 
                
  22248313.977   118971736.723                    92533575.372    22248317.840  
  22248312.922  
  20362302.734   107004635.997    20362310.605    83380276.7134   20362310.902  
                
  21112243.922   112698606.896                    87654480.241    21112245.789  
  21112242.195  
  24008007.906   126162922.943    24008017.473    98308812.2154   24008017.809  
                
 21  8 14  0 57 40.0000000  0 14G 6R23G17R 4R13R12G12R14G19G 2R24G24
                                R22G25
  21862663.047   114889070.782    21862672.184    89523987.7824   21862672.688  
                
  19677356.633   105260607.980                                                  
  19677355.016  
  23532069.266   123661867.529    23532075.203    96359932.5004   23532075.188  
                
  23289006.719   124711569.576                    96997883.300    23289010.070  
  23289005.680  
  19393315.930   103559240.138                    80546099.378    19393318.012  
  19393314.051  
  21078885.539   112599634.426                    87577494.057    21078888.895  
  21078885.012  
  21452017.352   112731122.075    21452022.988    87842468.3624   21452023.078  
                
  22181686.734   118240874.497                    91965122.214    22181690.488  
  22181686.250  
  21146439.859   111125307.194    21146444.090    86591173.0164                 
                
  22830100.758   119972983.379    22830104.539    93485463.6134                 
                
  22240302.164   118928893.930                    92500253.213    22240306.023  
  22240301.098  
  20363111.680   107008887.053    20363119.535    83383589.2254   20363119.840  
                
  21118038.836   112729540.544                    87678539.744    21118040.695  
  21118037.137  
  24002072.914   126131734.137    24002082.398    98284509.2724   24002082.742  
                
 21  8 14  0 57 50.0000000  0 14G 6R23G17R 4R13R12G12R14G19G 2R24G24
                                R22G25
  21859474.938   114872317.196    21859484.102    89510933.0554   21859484.578  
                
  19673450.516   105239712.870                                                  
  19673448.918  
  23537889.422   123692452.705    23537895.430    96383765.1054   23537895.395  
                
  23292781.852   124731785.071                    97013606.484    23292785.195  
  23292780.855  
  19392095.102   103552721.037                    80541028.967    19392097.184  
  19392093.211  
  21083631.695   112624987.540                    87597213.137    21083635.023  
  21083631.164  
  21447980.109   112709906.210    21447985.773    87825936.5254   21447985.852  
                
  22175334.055   118207011.136                    91938784.043    22175337.777  
  22175333.574  
  21150647.586   111147418.933    21150651.742    86608402.9414                 
                
  22824767.203   119944955.332    22824770.984    93463623.5894                 
                
  22232296.000   118886081.764                    92466954.881    22232299.949  
  22232295.004  
  20363932.617   107013201.102    20363940.461    83386950.8204   20363940.777  
                
  21123845.164   112760535.013                    87702646.543    21123847.051  
  21123843.445  
  23996139.508   126100552.915    23996148.824    98260212.2164   23996149.191  
                
 21  8 14  0 58  0.0000000  0 14G 6R23G17R 4R13R12G12R14G19G 2R24G24
                                R22G25
  21856298.109   114855622.853    21856307.285    89497924.4844   21856307.746  
                
  19669559.734   105218899.792                                                  
  19669558.129  
  23543711.953   123723050.315    23543718.012    96407607.3984   23543717.969  
                
  23296569.172   124752066.014                    97029380.525    23296572.535  
  23296568.234  
  19390884.047   103546254.106                    80535999.127    19390886.133  
  19390882.148  
  21088385.469   112650381.359                    87616963.887    21088388.793  
  21088384.934  
  21443947.758   112688716.085    21443953.441    87809424.7424   21443953.512  
                
  22168983.023   118173156.652                    91912452.776    22168986.742  
  22168982.559  
  21154863.875   111169575.629    21154867.969    86625667.9044                 
                
  22819439.852   119916959.942    22819443.641    93441809.0054                 
                
  22224295.453   118843299.633                    92433679.900    22224299.477  
  22224294.500  
  20364765.477   107017577.811    20364773.309    83390361.2394   20364773.625  
                
  21129662.766   112791589.787                    87726800.273    21129664.648  
  21129661.055  
  23990207.344   126069378.910    23990216.520    98235920.7624   23990216.914  
                
 21  8 14  0 58 10.0000000  0 14G 6R23G17R 4R13R12G12R14G19G 2R24G24
                                R22G25
  21853132.539   114838987.648    21853141.680    89484961.9924   21853142.152  
                
  19665684.281   105198168.717                                                  
  19665682.676  
  23549536.773   123753660.014    23549542.875    96431459.1084   23549542.824  
                
  23300368.672   124772411.923                    97045205.083    23300372.020  
  23300367.754  
  19389682.711   103539839.043                    80531009.633    19389684.789  
  19389680.820  
  21093146.836   112675815.739                    87636746.198    21093150.168  
  21093146.289  
  21439920.273   112667551.561    21439925.980    87792932.9114   21439926.027  
                
  22162633.680   118139311.020                    91886128.406    22162637.387  
  22162633.223  
  21159088.656   111191776.987    21159092.707    86642967.6694                 
                
  22814118.703   119888997.088    22814122.480    93420019.7714                 
                
  22216300.500   118800547.836                    92400428.500    22216304.668  
  22216299.652  
  20365610.227   107022016.996    20365618.051    83393820.3504   20365618.367  
                
  21135491.625   112822704.552                    87751000.657    21135493.516  
  21135489.922  
  23984276.625   126038212.018    23984285.582    98211634.8634   23984285.992  
                
 21  8 14  0 58 20.0000000  0 15G 6R23G17R 4R13R12G32G12R14G19G 2R24
                                G24R22G25
  21849978.172   114822411.366    21849987.262    89472045.4124   21849987.785  
                
  19661824.125   105177519.479                                                  
  19661822.527  
  23555363.812   123784281.430    23555369.930    96455319.9434   23555369.871  
                
  23304180.227   124792822.503                    97061080.025    23304183.543  
  23304179.359  
  19388491.047   103533475.615                    80526060.301    19388493.137  
  19388489.160  
  21097915.719   112701290.267                    87656559.690    21097919.043  
  21097915.156  
  24778610.516   130212465.582    24778618.137   101464293.7964   24778618.645  
                
  21435897.602   112646412.280    21435903.320    87776460.7524   21435903.363  
                
  22156285.938   118105474.005                    91859810.742    22156289.664  
  22156285.484  
  21163321.859   111214022.659    21163325.883    86660301.9604                 
                
  22808803.672   119861066.514    22808807.430    93398255.6824                 
                
  22208311.219   118757826.087                    92367200.486    22208315.477  
  22208310.414  
  20366466.797   107026518.359    20366474.617    83397327.8994   20366474.934  
                
  21141331.656   112853879.030                    87775247.465    21141333.520  
  21141329.977  
  23978347.039   126007051.895    23978355.867    98187354.2184   23978356.305  
                
 21  8 14  0 58 30.0000000  0 15G 6R23G17R 4R13R12G32G12R14G19G 2R24
                                G24R22G25
  21846835.164   114805894.704    21846844.215    89459175.2874   21846844.758  
                
  19657979.398   105156952.733                                                  
  19657977.812  
  23561193.203   123814915.128    23561199.328    96479190.3454   23561199.254  
                
  23308003.945   124813298.270                    97077005.605    23308007.258  
  23308003.117  
  19387309.297   103527165.097                    80521152.121    19387311.387  
  19387307.406  
  21102692.234   112726805.524                    87676404.900    21102695.562  
  21102691.664  
  24775479.406   130196011.508    24775487.324   101451472.4144   24775487.617  
                
  21431879.875   112625298.941    21431885.594    87760008.8034   21431885.633  
                
  22149939.945   118071646.269                    91833500.292    22149943.691  
  22149939.488  
  21167563.617   111236313.201    21167567.633    86677671.2174                 
                
  22803494.906   119833168.924    22803498.672    93376517.3134                 
                
  22200327.789   118715135.081                    92333996.382    22200332.055  
  22200326.938  
  20367335.336   107031082.534    20367343.156    83400884.4044   20367343.473  
                
  21147182.945   112885113.573                    87799540.987    21147184.805  
  21147181.254  
  23972418.922   125975899.281    23972427.617    98163079.4464   23972428.113  
                
 21  8 14  0 58 40.0000000  0 15G 6R23G17R 4R13R12G32G12R14G19G 2R24
                                G24R22G25
  21843703.438   114789437.416    21843712.453    89446351.4234   21843713.004  
                
  19654150.031   105136468.220                                                  
  19654148.453  
  23567024.820   123845560.754    23567030.965    96503070.0444   23567030.887  
                
  23311839.742   124833838.709                    97092981.474    23311843.094  
  23311838.902  
  19386137.258   103520906.518                    80516284.337    19386139.332  
  19386135.355  
  21107476.320   112752361.317                    87696281.627    21107479.645  
  21107475.730  
  24772358.438   130179611.281    24772366.609   101438692.9954   24772366.809  
                
  21427867.023   112604211.304    21427872.750    87743576.8794   21427872.789  
                
  22143595.641   118037827.596                    91807196.879    22143599.375  
  22143595.219  
  21171813.820   111258648.258    21171817.848    86695075.1584                 
                
  22798192.367   119805304.058    22798196.152    93354804.4384                 
                
  22192350.125   118672474.820                    92300816.211    22192354.383  
  22192349.246  
  20368215.750   107035709.169    20368223.578    83404489.5714   20368223.887  
                
  21153045.383   112916407.699                    87823880.856    21153047.246  
  21153043.664  
  23966491.977   125944753.759    23966500.754    98138810.2344   23966501.258  
                
 21  8 14  0 58 50.0000000  0 15G 6R23G17R 4R13R12G32G12R14G19G 2R24
                                G24R22G25
  21840583.055   114773039.671    21840592.047    89433573.9674   21840592.602  
                
  19650336.070   105116066.149                                                  
  19650334.500  
  23572858.711   123876218.271    23572864.859    96526959.0164   23572864.785  
                
  23315687.594   124854443.756                    97109007.629    23315690.938  
  23315686.719  
  19384975.094   103514700.552                    80511457.475    19384977.156  
  19384973.191  
  21112267.992   112777957.607                    87716189.842    21112271.305  
  21112267.375  
  24769247.828   130163265.126    24769256.074   101425955.7524   24769256.270  
                
  21423859.102   112583149.517    21423864.832    87727165.1024   21423864.855  
                
  22137253.039   118004018.030                    91780900.552    22137256.781  
  22137252.629  
  21176072.500   111281027.791    21176076.551    86712513.7514                 
                
  22792896.109   119777472.167    22792899.887    93333117.2564                 
                
  22184378.312   118629845.463                    92267660.034    22184382.480  
  22184377.375  
  20369108.078   107040398.402    20369115.914    83408143.5154   20369116.215  
                
  21158919.000   112947761.284                    87848266.973    21158920.848  
  21158917.254  
  23960566.531   125913615.595    23960575.320    98114546.7134   23960575.824  
                
 21  8 14  0 59  0.0000000  0 15G 6R23G17R 4R13R12G32G12R14G19G 2R24
                                G24R22G25
  21837473.969   114756701.305    21837482.973    89420842.7834   21837483.508  
                
  19646537.477   105095746.229                                                  
  19646535.910  
  23578694.836   123906887.439    23578700.969    96550857.0664   23578700.898  
                
  23319547.445   124875113.137                    97125083.817    23319550.781  
  23319546.562  
  19383822.664   103508546.572                    80506671.045    19383824.750  
  19383820.750  
  21117067.203   112803594.178                    87736129.396    21117070.527  
  21117066.594  
  24766147.523   130146972.748    24766155.742   101413260.4104   24766155.941  
                
  21419856.055   112562113.359    21419861.770    87710773.2884   21419861.820  
                
  22130912.156   117970217.471                    91754611.225    22130915.914  
  22130911.758  
  21180339.594   111303451.486    21180343.660    86729986.7544                 
                
  22787606.133   119749673.134    22787609.891    93311455.6694                 
                
  22176412.141   118587246.624                    92234527.602    22176416.285  
  22176411.227  
  20370012.266   107045149.923    20370020.105    83411846.0034   20370020.395  
                
  21164803.680   112979174.034                    87872699.122    21164805.555  
  21164801.934  
  23954642.344   125882484.447    23954651.270    98090288.7234   23954651.754  
                
 21  8 14  0 59 10.0000000  0 15G 6R23G17R 4R13R12G32G12R14G19G 2R24
                                G24R22G25
  21834376.219   114740422.471    21834385.207    89408157.9784   21834385.723  
                
  19642754.281   105075508.682                                                  
  19642752.699  
  23584533.188   123937568.243    23584539.312    96574764.1824   23584539.234  
                
  23323419.305   124895846.833                    97141210.002    23323422.609  
  23323418.441  
  19382680.023   103502445.020                    80501925.400    19382682.113  
  19382678.137  
  21121873.961   112829271.067                    87756100.295    21121877.289  
  21121873.355  
  24763057.477   130130734.370    24763065.602   101400607.1434   24763065.828  
                
  21415857.906   112541102.902    21415863.609    87694401.5134   21415863.680  
                
  22124573.000   117936426.159                    91728329.104    22124576.754  
  22124572.605  
  21184615.070   111325919.263    21184619.160    86747494.1174                 
                
  22782322.430   119721907.132    22782326.211    93289819.8254                 
                
  22168451.727   118544678.735                    92201419.254    22168455.863  
  22168450.863  
  20370928.320   107049963.870    20370936.168    83415597.1224   20370936.457  
                
  21170699.391   113010645.820                    87897177.158    21170701.227  
  21170697.605  
  23948719.695   125851360.530    23948728.598    98066036.3114   23948729.078  
                
 21  8 14  0 59 20.0000000  0 15G 6R23G17R 4R13R12G32G12R14G19G 2R24
                                G24R22G25
  21831289.805   114724203.238    21831298.715    89395519.6114   21831299.250  
                
  19638986.508   105055353.622                                                  
  19638984.922  
  23590373.734   123968260.537    23590379.855    96598680.2554   23590379.773  
                
  23327303.164   124916644.598                    97157386.046    23327306.457  
  23327302.332  
  19381547.195   103496395.756                    80497220.411    19381549.309  
  19381545.297  
  21126688.273   112854988.242                    87776102.559    21126691.617  
  21126687.680  
  24759977.719   130114549.991    24759985.703   101387995.9364   24759985.996  
                
  21411864.641   112520118.128    21411870.332    87678049.7434   21411870.406  
                
  22118235.570   117902644.048                    91702054.154    22118239.309  
  22118235.191  
  21188898.938   111348431.102    21188903.043    86765035.8194                 
                
  22777045.023   119694174.215    22777048.824    93268209.7664                 
                
  22160497.148   118502142.025                    92168335.143    22160501.262  
  22160496.336  
  20371856.242   107054840.161    20371864.086    83419396.8334   20371864.379  
                
  21176606.141   113042176.481                    87921701.009    21176607.984  
  21176604.316  
  23942798.242   125820243.733    23942807.273    98041789.4974   23942807.738  
                
 21  8 14  0 59 30.0000000  0 15G 6R23G17R 4R13R12G32G12R14G19G 2R24
                                G24R22G25
  21828214.719   114708043.564    21828223.555    89382927.6614   21828224.133  
                
  19635234.141   105035281.002                                                  
  19635232.543  
  23596216.430   123998964.201    23596222.523    96622605.1904   23596222.449  
                
  23331198.922   124937506.247                    97173611.774    23331202.246  
  23331198.082  
  19380424.148   103490398.826                    80492556.129    19380426.273  
  19380422.270  
  21131510.094   112880745.600                    87796136.049    21131513.430  
  21131509.500  
  24756908.219   130098419.597    24756916.109   101375426.8094   24756916.453  
                
  21407876.234   112499158.969    21407881.910    87661717.9414   21407881.996  
                
  22111899.883   117868871.258                    91675786.428    22111903.598  
  22111899.508  
  21193191.148   111370986.774    21193195.266    86782611.6694                 
                
  22771773.914   119666474.395    22771777.711    93246625.4994                 
                
  22152548.477   118459636.474                    92135275.266    22152552.473  
  22152547.605  
  20372796.023   107059778.770    20372803.867    83423245.1054   20372804.168  
                
  21182523.867   113073765.771                    87946270.448    21182525.691  
  21182522.043  
  23936878.383   125789134.112    23936887.387    98017548.2494   23936887.828  
                
 21  8 14  0 59 40.0000000  0 15G 6R23G17R 4R13R12G32G12R14G19G 2R24
                                G24R22G25
  21825151.023   114691943.694    21825159.824    89370382.3134   21825160.410  
                
  19631497.227   105015291.068                                                  
  19631495.625  
  23602061.328   124029679.343    23602067.367    96646539.0684   23602067.293  
                
  23335106.602   124958431.725                    97189887.145    23335109.852  
  23335105.781  
  19379310.953   103484454.370                    80487932.663    19379313.098  
  19379309.086  
  21136339.461   112906543.188                    87816200.849    21136342.793  
  21136338.867  
  24753849.023   130082343.363    24753856.883   101362899.8664   24753857.266  
                
  21403892.766   112478225.640    21403898.414    87645406.2584   21403898.520  
                
  22105565.953   117835107.884                    91649526.042    22105569.672  
  22105565.570  
  21197491.711   111393586.359    21197495.848    86800221.7334                 
                
  22766509.156   119638807.880    22766512.953    93225067.1694                 
                
  22144605.695   118417162.335                    92102239.804    22144609.574  
  22144604.758  
  20373747.680   107064779.786    20373755.527    83427141.9934   20373755.840  
                
  21188452.547   113105413.589                    87970885.432    21188454.426  
  21188450.746  
  23930959.711   125758031.760    23930968.891    97993312.6644   23930969.281  
                
 21  8 14  0 59 50.0000000  0 15G 6R23G17R 4R13R12G32G12R14G19G 2R24
                                G24R22G25
  21822098.719   114675903.724    21822107.516    89357883.6404   21822108.078  
                
  19627775.805   104995383.972                                                  
  19627774.180  
  23607908.391   124060405.875    23607914.375    96670481.8234   23607914.316  
                
  23339026.242   124979420.932                    97206212.124    23339029.363  
  23339025.441  
  19378207.617   103478562.615                    80483350.194    19378209.773  
  19378205.754  
  21141176.367   112932381.100                    87836297.011    21141179.688  
  21141175.777  
  24750800.109   130066321.409    24750808.047   101350415.2194   24750808.426  
                
  21399914.203   112457318.154    21399919.824    87629114.7104   21399919.961  
                
  22099233.797   117801353.986                    91623273.019    22099237.508  
  22099233.430  
  21201800.617   111416229.776    21201804.770    86817865.9574                 
                
  22761250.781   119611174.870    22761254.578    93203534.9494                 
                
  22136668.773   118374719.681                    92069228.859    22136672.559  
  22136667.773  
  20374711.219   107069843.251    20374719.070    83431087.5554   20374719.383  
                
  21194392.164   113137120.074                    87995546.026    21194394.059  
  21194390.398  
  23925042.570   125726936.797    23925051.785    97969082.8394   23925052.168  
                
 21  8 14  1  0  0.0000000  0 15G 6R23G17R 4R13R12G32G12R14G19G 2R24
                                G24R22G25
  21819057.859   114659923.863    21819066.633    89345431.8044   21819067.180  
                
  19624069.875   104975559.796                                                  
  19624068.242  
  23613757.641   124091143.847    23613763.566    96694433.5024   23613763.547  
                
  23342957.766   125000474.000                    97222586.700    23342960.887  
  23342956.965  
  19377114.234   103472723.985                    80478809.030    19377116.395  
  19377112.379  
  21146020.859   112958259.490                    87856424.637    21146024.180  
  21146020.258  
  24747761.555   130050353.893    24747769.609   101337972.9694   24747769.945  
                
  21395940.586   112436436.697    21395946.172    87612843.4474   21395946.316  
                
  22092903.484   117767609.838                    91597027.567    22092907.156  
  22092903.117  
  21206117.875   111438917.066    21206122.023    86835544.3704                 
                
  22755998.828   119583575.551    22756002.633    93182028.9854                 
                
  22128737.531   118332308.640                    92036242.534    22128741.508  
  22128736.684  
  20375686.664   107074969.282    20375694.516    83435081.8604   20375694.840  
                
  21200342.812   113168884.964                    88020252.054    21200344.680  
  21200341.016  
  23919126.750   125695849.283    23919136.117    97944858.8434   23919136.484  
                
 21  8 14  1  0 10.0000000  0 15G 6R23G17R 4R13R12G32G12R14G19G 2R24
                                G24R22G25
  21816028.398   114644003.913    21816037.129    89333026.6484   21816037.684  
                
  19620379.430   104955818.402                                                  
  19620377.793  
  23619609.000   124121892.945    23619614.910    96718393.8434   23619614.930  
                
  23346901.141   125021590.358                    97239010.553    23346904.230  
  23346900.363  
  19376030.688   103466937.876                    80474308.734    19376032.840  
  19376028.852  
  21150872.828   112984177.861                    87876583.361    21150876.145  
  21150872.230  
  24744733.336   130034440.626    24744741.512   101325573.1794   24744741.770  
                
  21391971.883   112415581.077    21391977.453    87596592.3164   21391977.613  
                
  22086574.969   117733875.359                    91570789.638    22086578.633  
  22086574.613  
  21210443.422   111461647.955    21210447.570    86853256.7514                 
                
  22750753.242   119556009.742    22750757.098    93160549.1364                 
                
  22120812.242   118289929.527                    92003281.015    22120816.391  
  22120811.512  
  20376673.969   107080157.628    20376681.816    83439124.7274   20376682.160  
                
  21206304.297   113200707.942                    88045003.264    21206306.145  
  21206302.551  
  23913212.555   125664769.092    23913221.770    97920640.5094   23913222.133  
                
 21  8 14  1  0 20.0000000  0 15G 6R23G17R 4R13R12G32G12R14G19G 2R24
                                G24R22G25
  21813010.328   114628143.882    21813019.035    89320668.1894   21813019.598  
                
  19616704.461   104936159.810                                                  
  19616702.816  
  23625462.477   124152653.112    23625468.438    96742362.8024   23625468.473  
                
  23350856.281   125042770.024                    97255483.632    23350859.344  
  23350855.504  
  19374956.992   103461204.387                    80469849.345    19374959.137  
  19374955.164  
  21155732.281   113010136.224                    87896773.199    21155735.570  
  21155731.668  
  24741715.430   130018581.576    24741724.516   101313224.4024   24741723.934  
                
  21388008.094   112394751.226    21388013.656    87580361.2694   21388013.816  
                
  22080248.234   117700150.369                    91544559.088    22080251.898  
  22080247.863  
  21214777.227   111484422.242    21214781.379    86871002.9494                 
                
  22745514.031   119528477.531    22745517.992    93139095.4804                 
                
  22112892.992   118247581.969                    91970344.022    22112897.160  
  22112892.281  
  20377673.117   107085408.211    20377680.961    83443216.0924   20377681.316  
                
  21212276.680   113232588.867                    88069799.539    21212278.531  
  21212274.902  
  23907299.688   125633696.133    23907308.848    97896427.8414   23907309.227  
                
 21  8 14  1  0 30.0000000  0 15G 6R23G17R 4R13R12G32G12R14G19G 2R24
                                G24R22G25
  21810003.719   114612344.070    21810012.395    89308356.6554   21810012.977  
                
  19613045.016   104916584.314                                                  
  19613043.391  
  23631318.070   124183424.404    23631324.098    96766340.4404   23631324.125  
                
  23354823.289   125064012.902                    97272005.861    23354826.289  
  23354822.484  
  19373893.250   103455524.007                    80465431.277    19373895.387  
  19373891.441  
  21160599.281   113036134.869                    87916994.381    21160602.547  
  21160598.668  
  24738707.898   130002776.979    24738716.742   101300909.1224   24738716.438  
                
  21384049.266   112373947.418    21384054.820    87564150.5214   21384054.969  
                
  22073923.383   117666435.341                    91518336.303    22073927.090  
  22073923.008  
  21219119.320   111507240.092    21219123.469    86888783.0994                 
                
  22740281.266   119500979.186    22740285.336    93117668.2164                 
                
  22104979.859   118205266.757                    91937432.195    22104983.969  
  22104979.117  
  20378684.148   107090721.221    20378691.988    83447356.1024   20378692.355  
                
  21218259.906   113264527.674                    88094640.821    21218261.773  
  21218258.113  
  23901388.203   125602630.652    23901397.277    97872220.9404   23901397.645  
                
 21  8 14  1  0 40.0000000  0 15G 6R23G17R 4R13R12G32G12R14G19G 2R24
                                G24R22G25
  21807008.578   114596604.542    21807017.227    89296092.0844   21807017.824  
                
  19609401.117   104897091.903                                                  
  19609399.473  
  23637175.781   124214206.909    23637181.863    96790326.8054   23637181.910  
                
  23358802.031   125085318.881                    97288577.173    23358805.039  
  23358801.207  
  19372839.391   103449896.450                    80461054.294    19372841.539  
  19372837.590  
  21165473.812   113062173.752                    87937246.841    21165477.051  
  21165473.195  
  24735710.766   129987026.944    24735719.473   101288636.4324   24735719.312  
                
  21380095.391   112353169.667    21380100.945    87547960.0654   21380101.086  
                
  22067600.375   117632730.186                    91492121.197    22067604.105  
  22067599.984  
  21223469.656   111530101.316    21223473.809    86906597.0444                 
                
  22735054.969   119473514.809    22735059.109    93096267.4064                 
                
  22097072.781   118162983.604                    91904545.301    22097076.770  
  22097071.961  
  20379707.062   107096096.678    20379714.902    83451544.7674   20379715.270  
                
  21224253.906   113296524.137                    88119526.952    21224255.750  
  21224252.102  
  23895478.156   125571572.690    23895487.203    97848019.9624   23895487.574  
                
 21  8 14  1  0 50.0000000  0 15G 6R23G17R 4R13R12G32G12R14G19G 2R24
                                G24R22G25
  21804024.891   114580925.204    21804033.539    89283874.4204   21804034.145  
                
  19605772.742   104877682.600                                                  
  19605771.094  
  23643035.547   124245000.243    23643041.719    96814321.6024   23643041.742  
                
  23362792.469   125106687.774                    97305197.382    23362795.520  
  23362791.605  
  19371795.422   103444321.719                    80456718.383    19371797.574  
  19371793.637  
  21170355.812   113088252.539                    87957530.366    21170359.039  
  21170355.191  
  24732723.969   129971331.336    24732732.648   101276406.0074   24732732.520  
                
  21376146.430   112332417.732    21376151.996    87531789.7304   21376152.121  
                
  22061279.188   117599034.780                    91465913.680    22061282.918  
  22061278.809  
  21227828.203   111553005.648    21227832.371    86924444.5684                 
                
  22729835.109   119446084.325    22729839.285    93074893.0024                 
                
  22089171.773   118120732.689                    91871683.472    22089175.613  
  22089170.840  
  20380741.820   107101534.411    20380749.660    83455781.9614   20380750.035  
                
  21230258.609   113328578.055                    88144457.789    21230260.527  
  21230256.840  
  23889569.414   125540522.072    23889578.516    97823824.6654   23889578.871  
                
 21  8 14  1  1  0.0000000  0 15G 6R23G17R 4R13R12G32G12R14G19G 2R24
                                G24R22G25
  21801052.688   114565306.233    21801061.363    89271703.8084   21801061.961  
                
  19602159.922   104858356.481                                                  
  19602158.262  
  23648897.383   124275804.423    23648903.648    96838324.8374   23648903.621  
                
  23366794.695   125128119.492                    97321866.493    23366797.723  
  23366793.852  
  19370761.375   103438800.000                    80452423.715    19370763.535  
  19370759.578  
  21175245.320   113114371.439                    87977845.056    21175248.520  
  21175244.691  
  24729747.555   129955690.330    24729756.137   101264218.2484   24729756.121  
                
  21372202.422   112311691.853    21372207.988    87515639.6924   21372208.105  
                
  22054959.914   117565349.522                    91439714.023    22054963.625  
  22054959.559  
  21232194.977   111575953.190    21232199.164    86942325.7654                 
                
  22724621.727   119418687.913    22724625.930    93053545.1634                 
                
  22081276.797   118078514.200                    91838846.871    22081280.594  
  22081275.816  
  20381788.453   107107034.503    20381796.297    83460067.7514   20381796.676  
                
  21236274.164   113360689.428                    88169433.289    21236276.102  
  21236272.340  
  23883662.062   125509478.952    23883671.188    97799635.2364   23883671.539  
                
 21  8 14  1  1 10.0000000  0 15G 6R23G17R 4R13R12G32G12R14G19G 2R24
                                G24R22G25
  21798092.008   114549747.808    21798100.684    89259580.3594   21798101.281  
                
  19598562.711   104839113.855                                                  
  19598561.051  
  23654761.273   124306619.448    23654767.602    96862336.5444   23654767.535  
                
  23370808.617   125149613.926                    97338584.380    23370811.633  
  23370807.797  
  19369737.297   103433331.497                    80448170.432    19369739.473  
  19369735.504  
  21180142.359   113140530.527                    87998191.019    21180145.527  
  21180141.727  
  24726781.578   129940104.053    24726790.074   101252073.0784   24726790.141  
                
  21368263.398   112290992.142    21368268.969    87499510.0524   21368269.094  
                
  22048642.539   117531674.443                    91413522.301    22048646.250  
  22048642.238  
  21236569.969   111598943.908    21236574.184    86960240.6124                 
                
  22719414.883   119391325.759    22719419.051    93032224.0094                 
                
  22073387.883   118036328.373                    91806035.685    22073391.652  
  22073386.906  
  20382846.969   107112597.053    20382854.824    83464402.2014   20382855.203  
                
  21242300.445   113392858.089                    88194453.374    21242302.402  
  21242298.574  
  23877756.242   125478443.434    23877765.344    97775451.7184   23877765.715  
                
