     2.11           OBSERVATION DATA    M (MIXED)           RINEX VERSION / TYPE
EFT-CORS.RU                             20210817 144911 UTC PGM / RUN BY / DATE 
MDNG                                                        MARKER NAME         
                                                            MARKER NUMBER       
MDNG                EFT-CORS.RU                             OBSERVER / AGENCY   
0                   TRIMBLE BD970       2.0                 REC # / TYPE / VERS 
0                   UNKNOWN EXT NONE                        ANT # / TYPE        
  3463911.2830  3030468.2400  4402179.3760                  APPROX POSITION XYZ 
        0.0000        0.0000        0.0000                  ANTENNA: DELTA H/E/N
     1     1                                                WAVELENGTH FACT L1/2
     6    C1    L1    P2    L2    C2    P1                  # / TYPES OF OBSERV 
    10.000                                                  INTERVAL            
  2021     8    16    16    30    0.0000000     GPS         TIME OF FIRST OBS   
  2021     8    16    17    30    0.0000000     GPS         TIME OF LAST OBS    
     0                                                      RCV CLOCK OFFS APPL 
                                                            END OF HEADER       
 21  8 16 16 30  0.0000000  0 14G 4G16R 1G26G 9R18G 6G22R12G 7G 2R 3
                                G 3R 2
  20617203.148   108344181.561    20617211.152    84424088.4084   20617210.848  
                
  22279860.008   117081488.285    22279867.074    91232371.9554                 
                
  21115036.375   112871992.360                    87789328.004    21115042.645  
  21115035.801  
  23201838.930   121926555.757    23201849.012    95007729.4524   23201848.918  
                
  20821307.883   109416747.723    20821316.352    85259857.4204   20821316.121  
                
  22883497.219   122153667.071                    95008399.998    22883501.551  
  22883495.715  
  22737128.633   119484403.681    22737138.168    93104790.0434   22737138.629  
                
  24106463.078   126680317.938    24106469.738    98711959.1934                 
                
  19678142.938   105117142.909                    81757778.388    19678146.836  
  19678142.328  
  22382799.438   117622430.572    22382806.840    91653890.9084   22382806.781  
                
  24910995.648   130908173.698    24911000.750   102006381.4854                 
                
  22889294.812   122528192.711                    95299709.396    22889299.707  
  22889293.496  
  22305626.984   117216871.172    22305637.039    91337872.7064   22305637.535  
                
  19528833.188   104209613.112                    81051926.425    19528836.066  
  19528831.262  
 21  8 16 16 30 10.0000000  0 14G 4G16R 1G26G 9R18G 6G22R12G 7G 2R 3
                                G 3R 2
  20618801.938   108352583.257    20618809.922    84430635.1814   20618809.629  
                
  22277897.031   117071172.877    22277904.086    91224333.9874                 
                
  21119696.141   112896901.450                    87808701.732    21119702.441  
  21119695.574  
  23204737.938   121941790.180    23204748.055    95019600.4234   23204747.953  
                
  20818847.922   109403820.589    20818856.363    85249784.3314   20818856.160  
                
  22886450.953   122169434.109                    95020663.242    22886455.246  
  22886449.480  
  22738383.930   119491000.308    22738393.441    93109930.2704   22738393.926  
                
  24113048.859   126714926.725    24113055.551    98738927.0504                 
                
  19674317.883   105096710.166                    81741886.265    19674321.793  
  19674317.281  
  22377858.156   117596464.065    22377865.551    91633657.2934   22377865.488  
                
  24908735.562   130896296.904    24908740.711   101997126.8664                 
                
  22882871.781   122493809.685                    95272967.059    22882876.684  
  22882870.438  
  22311486.609   117247663.596    22311496.688    91361866.7894   22311497.164  
                
  19526338.195   104196299.389                    81041571.314    19526341.082  
  19526336.242  
 21  8 16 16 30 20.0000000  0 14G 4G16R 1G26G 9R18G 6G22R12G 7G 2R 3
                                G 3R 2
  20620406.805   108361016.901    20620414.758    84437206.8514   20620414.477  
                
  22275947.070   117060925.863    22275954.102    91216349.2954                 
                
  21124363.148   112921849.251                    87828105.572    21124369.461  
  21124362.582  
  23207648.398   121957084.798    23207658.531    95031518.3074   23207658.430  
                
  20816393.750   109390923.866    20816402.164    85239734.9374   20816401.977  
                
  22889418.734   122185276.268                    95032984.880    22889423.008  
  22889417.277  
  22739651.305   119497660.387    22739660.809    93115119.9364   22739661.336  
                
  24119637.727   126749551.454    24119644.422    98765907.3514                 
                
  19670507.883   105076357.833                    81726056.696    19670511.809  
  19670507.281  
  22372922.695   117570528.138    22372930.090    91613447.4964   22372930.039  
                
  24906485.062   130884470.464    24906490.301   101987911.4284                 
                
  22876448.953   122459427.874                    95246225.650    22876453.867  
  22876447.629  
  22317352.734   117278490.238    22317362.863    91385887.5374   22317363.316  
                
  19523850.836   104183026.430                    81031247.897    19523853.719  
  19523848.875  
 21  8 16 16 30 30.0000000  0 14G 4G16R 1G26G 9R18G 6G22R12G 7G 2R 3
                                G 3R 2
  20622017.852   108369483.034    20622025.777    84443803.8344   20622025.508  
                
  22274010.258   117050747.954    22274017.305    91208418.4814                 
                
  21129037.516   112946836.434                    87847540.038    21129043.836  
  21129036.941  
  23210570.406   121972440.127    23210580.520    95043483.4994   23210580.426  
                
  20813945.477   109378058.128    20813953.879    85229709.6914   20813953.707  
                
  22892400.656   122201193.894                    95045365.336    22892404.891  
  22892399.234  
  22740930.836   119504384.374    22740940.363    93120359.4004   22740940.914  
                
  24126229.742   126784192.681    24126236.453    98792900.5164                 
                
  19666713.047   105056086.546                    81710290.147    19666716.973  
  19666712.441  
  22367993.164   117544623.344    22368000.555    91593261.9594   22368000.508  
                
  24904244.258   130872695.008    24904249.562   101978735.7354                 
                
  22870026.430   122425047.810                    95219485.616    22870031.371  
  22870025.102  
  22323225.445   117309351.517    22323235.617    91409935.2664   22323236.055  
                
  19521371.352   104169795.410                    81020957.102    19521374.234  
  19521369.387  
 21  8 16 16 30 40.0000000  0 14G 4G16R 1G26G 9R18G 6G22R12G 7G 2R 3
                                G 3R 2
  20623634.672   108377979.478    20623642.559    84450424.4344   20623642.293  
                
  22272086.188   117040636.940    22272093.234    91200539.7844                 
                
  21133718.773   112971860.450                    87867003.133    21133725.098  
  21133718.180  
  23213503.547   121987853.940    23213513.617    95055494.2614   23213513.531  
                
  20811502.688   109365221.217    20811511.078    85219706.9044   20811510.918  
                
  22895396.328   122217184.876                    95057802.735    22895400.453  
  22895394.926  
  22742222.117   119511170.087    22742231.691    93125646.9674   22742232.234  
                
  24132824.508   126818848.187    24132831.188    98819904.7904                 
                
  19662932.984   105035894.113                    81694584.939    19662936.945  
  19662932.383  
  22363069.141   117518747.489    22363076.500    91573098.9684   22363076.473  
                
  24902012.750   130860968.357    24902018.113   101969598.0844                 
                
  22863603.867   122390667.462                    95192745.338    22863608.809  
  22863602.508  
  22329104.336   117340245.255    22329114.531    91434008.2954   22329114.957  
                
  19518899.273   104156603.929                    81010697.069    19518902.129  
  19518897.289  
 21  8 16 16 30 50.0000000  0 14G 4G16R 1G26G 9R18G 6G22R12G 7G 2R 3
                                G 3R 2
  20625257.750   108386508.805    20625265.594    84457070.6664   20625265.352  
                
  22270175.297   117030595.246    22270182.352    91192715.1014                 
                
  21138407.500   112996924.336                    87886497.272    21138413.812  
  21138406.902  
  23216448.289   122003328.756    23216458.336    95067552.5574   23216458.246  
                
  20809065.883   109352415.748    20809074.270    85209728.6204   20809074.113  
                
  22898406.141   122233251.414                    95070298.936    22898410.176  
  22898404.758  
  22743525.633   119518020.055    22743535.246    93130984.5874   22743535.781  
                
  24139422.469   126853520.344    24139429.078    98846922.0444                 
                
  19659168.195   105015783.365                    81678943.274    19659172.184  
  19659167.586  
  22358151.109   117492903.099    22358158.441    91552960.4954   22358158.430  
                
  24899791.023   130849293.167    24899796.457   101960500.5284                 
                
  22857181.734   122356289.375                    95166006.865    22857186.652  
  22857180.359  
  22334989.867   117371173.930    22335000.094    91458108.5484   22335000.504  
                
  19516435.117   104143454.743                    81000469.927    19516437.957  
  19516433.129  
 21  8 16 16 31  0.0000000  0 14G 4G16R 1G26G 9R18G 6G22R12G 7G 2R 3
                                G 3R 2
  20626887.016   108395070.630    20626894.816    84463742.2114   20626894.594  
                
  22268277.609   117020622.845    22268284.660    91184944.4044                 
                
  21143103.555   113022027.407                    87906021.857    21143109.855  
  21143102.953  
  23219404.562   122018864.153    23219414.594    95079658.0644   23219414.484  
                
  20806635.000   109339641.349    20806643.387    85199774.5504   20806643.234  
                
  22901430.086   122249393.286                    95082853.711    22901434.039  
  22901428.715  
  22744841.305   119524933.835    22744850.926    93136371.9444   22744851.465  
                
  24146023.562   126888208.822    24146030.070    98873952.0164                 
                
  19655418.617   104995753.840                    81663364.764    19655422.617  
  19655418.000  
  22353239.039   117467090.001    22353246.371    91532846.4124   22353246.355  
                
  24897579.023   130837669.049    24897584.512   101951442.7764                 
                
  22850760.023   122321913.417                    95139270.025    22850764.887  
  22850758.633  
  22340881.984   117402137.132    22340892.227    91482235.6944   22340892.625  
                
  19513978.836   104130347.517                    80990275.410    19513981.660  
  19513976.855  
 21  8 16 16 31 10.0000000  0 14G 4G16R 1G26G 9R18G 6G22R12G 7G 2R 3
                                G 3R 2
  20628522.336   108403664.281    20628530.094    84470438.5614   20628529.887  
                
  22266392.992   117010719.191    22266400.020    91177227.2814                 
                
  21147806.836   113047169.056                    87925576.463    21147813.121  
  21147806.238  
  23222372.219   122034459.413    23222382.246    95091810.2024   23222382.129  
                
  20804209.898   109326897.406    20804218.289    85189844.2054   20804218.141  
                
  22904467.930   122265609.480                    95095466.328    22904471.809  
  22904466.531  
  22746168.977   119531910.744    22746178.594    93141808.4994   22746179.133  
                
  24152627.617   126922912.819    24152633.984    98900994.0734                 
                
  19651684.148   104975805.022                    81647849.029    19651688.160  
  19651683.500  
  22348332.805   117441307.598    22348340.145    91512756.2384   22348340.125  
                
  24895376.617   130826095.388    24895382.137   101942424.3514                 
                
  22844338.500   122287538.741                    95112534.134    22844343.367  
  22844337.121  
  22346780.523   117433134.094    22346790.734    91506389.1694   22346791.145  
                
  19511530.273   104117281.537                    80980112.993    19511533.086  
  19511528.289  
 21  8 16 16 31 20.0000000  0 14G 4G16R 1G26G 9R18G 6G22R12G 7G 2R 3
                                G 3R 2
  20630163.711   108412289.777    20630171.422    84477159.7254   20630171.242  
                
  22264521.453   117000884.284    22264528.418    91169563.7354                 
                
  21152517.297   113072349.160                    87945160.970    21152523.547  
  21152516.703  
  23225351.258   122050114.470    23225361.289    95104008.9484   23225361.180  
                
  20801790.602   109314183.933    20801798.996    85179937.6054   20801798.848  
                
  22907519.711   122281900.158                    95108136.847    22907523.570  
  22907518.305  
  22747508.656   119538950.759    22747518.289    93147294.2224   22747518.820  
                
  24159234.641   126957632.287    24159240.852    98928048.1834                 
                
  19647964.805   104955937.062                    81632396.189    19647968.828  
  19647964.137  
  22343432.422   117415555.899    22343439.762    91492689.9964   22343439.754  
                
  24893183.805   130814572.199    24893189.328   101933445.2474                 
                
  22837917.211   122253165.573                    95085799.481    22837922.172  
  22837915.836  
  22352685.484   117464164.795    22352695.664    91530568.9454   22352696.086  
                
  19509089.461   104104256.865                    80969982.687    19509092.258  
  19509087.477  
 21  8 16 16 31 30.0000000  0 14G 4G16R 1G26G 9R18G 6G22R12G 7G 2R 3
                                G 3R 2
  20631811.211   108420947.432    20631818.867    84483905.9554   20631818.711  
                
  22262663.078   116991118.523    22262669.953    91161954.0614                 
                
  21157235.094   113097568.363                    87964775.899    21157241.324  
  21157234.531  
  23228341.719   122065829.607    23228351.773    95116254.5234   23228351.660  
                
  20799377.172   109301501.284    20799385.582    85170055.0284   20799385.422  
                
  22910585.477   122298265.399                    95120865.350    22910589.336  
  22910584.047  
  22748860.398   119546054.135    22748870.070    93152829.3184   22748870.562  
                
  24165844.688   126992367.477    24165850.734    98955114.5624                 
                
  19644260.672   104936150.265                    81617006.474    19644264.695  
  19644259.996  
  22338537.961   117389835.303    22338545.266    91472647.9844   22338545.289  
                
  24891000.672   130803099.879    24891006.172   101924505.7834                 
                
  22831496.352   122218794.265                    95059066.243    22831501.340  
  22831494.965  
  22358596.922   117495229.475    22358607.098    91554775.1814   22358607.520  
                
  19506656.539   104091274.312                    80959885.147    19506659.324  
  19506654.555  
 21  8 16 16 31 40.0000000  0 14G 4G16R 1G26G 9R18G 6G22R12G 7G 2R 3
                                G 3R 2
  20633464.805   108429637.127    20633472.406    84490677.1484   20633472.277  
                
  22260817.836   116981421.836    22260824.680    91154398.2254                 
                
  21161960.102   113122826.142                    87984420.828    21161966.305  
  21161959.543  
  23231343.586   122081604.659    23231353.660    95128546.7674   23231353.535  
                
  20796969.586   109288849.357    20796978.023    85160196.3894   20796977.859  
                
  22913665.195   122314705.052                    95133651.762    22913669.055  
  22913663.734  
  22750224.156   119553220.722    22750233.875    93158413.6654   22750234.344  
                
  24172457.539   127027118.117    24172463.570    98982192.9594                 
                
  19640571.727   104916444.622                    81601679.873    19640575.730  
  19640571.059  
  22333649.375   117364145.689    22333656.641    91452630.1114   22333656.691  
                
  24888827.203   130791678.358    24888832.688   101915605.9304                 
                
  22825075.836   122184424.762                    95032334.422    22825080.855  
  22825074.477  
  22364514.773   117526327.972    22364524.984    91579007.7544   22364525.395  
                
  19504231.414   104078333.362                    80949819.963    19504234.176  
  19504229.438  
 21  8 16 16 31 50.0000000  0 14G 4G16R 1G26G 9R18G 6G22R12G 7G 2R 3
                                G 3R 2
  20635124.531   108438359.038    20635132.082    84497473.4474   20635131.980  
                
  22258985.797   116971794.468    22258992.602    91146896.4014                 
                
  21166692.406   113148122.918                    88004096.089    21166698.578  
  21166691.863  
  23234356.875   122097439.765    23234366.957    95140885.8134   23234366.832  
                
  20794567.883   109276228.386    20794576.348    85150361.8664   20794576.160  
                
  22916758.812   122331219.158                    95146496.010    22916762.773  
  22916757.293  
  22751599.977   119560450.661    22751609.723    93164047.3804   22751610.168  
                
  24179073.305   127061884.422    24179079.402    99009283.5664                 
                
  19636898.023   104896820.410                    81586416.598    19636902.000  
  19636897.355  
  22328766.703   117338487.204    22328773.938    91432636.5004   22328774.008  
                
  24886663.453   130780307.849    24886668.918   101906745.7884                 
                
  22818655.750   122150057.313                    95005604.203    22818660.742  
  22818654.430  
  22370439.086   117557460.410    22370449.355    91603266.7814   22370449.727  
                
  19501814.141   104065434.346                    80939787.406    19501816.895  
  19501812.172  
 21  8 16 16 32  0.0000000  0 14G 4G16R 1G26G 9R18G 6G22R12G 7G 2R 3
                                G 3R 2
  20636790.391   108447113.155    20636797.891    84504294.8414   20636797.832  
                
  22257166.953   116962236.452    22257173.703    91139448.6084                 
                
  21171431.969   113173458.499                    88023801.557    21171438.102  
  21171431.461  
  23237381.602   122113334.870    23237391.660    95153271.6144   23237391.543  
                
  20792172.086   109263638.392    20792180.574    85140551.4934   20792180.375  
                
  22919866.383   122347807.540                    95159398.105    22919870.395  
  22919864.887  
  22752987.844   119567743.941    22752997.586    93169730.4434   22752998.039  
                
  24185692.016   127096666.357    24185698.238    99036386.3544                 
                
  19633239.570   104877277.646                    81571216.691    19633243.523  
  19633238.898  
  22323889.992   117312859.974    22323897.207    91412667.2434   22323897.270  
                
  24884509.398   130768988.321    24884514.863   101897925.3964                 
                
  22812236.008   122115691.873                    94978875.533    22812240.988  
  22812234.691  
  22376369.859   117588626.703    22376380.188    91627552.2024   22376380.508  
                
  19499404.766   104052577.453                    80929787.604    19499407.512  
  19499402.793  
 21  8 16 16 32 10.0000000  0 14G 4G16R 1G26G 9R18G 6G22R12G 7G 2R 3
                                G 3R 2
  20638462.320   108455899.196    20638469.789    84511141.1114   20638469.750  
                
  22255361.242   116952747.480    22255367.961    91132054.6134                 
                
  21176178.742   113198832.668                    88043537.001    21176184.840  
  21176178.242  
  23240417.664   122129289.612    23240427.680    95165703.8844   23240427.578  
                
  20789782.133   109251079.112    20789790.633    85130765.0424   20789790.430  
                
  22922987.773   122364469.802                    95172357.623    22922991.797  
  22922986.195  
  22754387.680   119575100.186    22754397.402    93175462.5804   22754397.875  
                
  24192313.523   127131463.502    24192319.965    99063500.9924                 
                
  19629596.352   104857816.281                    81556080.087    19629600.277  
  19629595.680  
  22319019.172   117287263.728    22319026.371    91392722.1304   22319026.422  
                
  24882365.023   130757719.634    24882370.500   101889144.5734                 
                
  22805816.602   122081328.335                    94952148.327    22805821.555  
  22805815.328  
  22382307.016   117619826.527    22382317.375    91651863.7404   22382317.656  
                
  19497003.289   104039762.691                    80919820.556    19497006.020  
  19497001.305  
 21  8 16 16 32 20.0000000  0 14G 4G16R 1G26G 9R18G 6G22R12G 7G 2R 3
                                G 3R 2
  20640140.328   108464717.201    20640147.770    84518012.2844   20640147.770  
                
  22253568.695   116943327.677    22253575.434    91124714.5294                 
                
  21180932.766   113224245.636                    88063302.636    21180938.883  
  21180932.270  
  23243465.086   122145303.984    23243475.070    95178182.6414   23243474.980  
                
  20787398.031   109238550.618    20787406.535    85121002.5824   20787406.316  
                
  22926123.023   122381206.009                    95185374.636    22926127.062  
  22926121.355  
  22755799.508   119582519.410    22755809.211    93181243.7924   22755809.719  
                
  24198938.031   127166275.914    24198944.566    99090627.5164                 
                
  19625968.375   104838436.326                    81541006.792    19625972.273  
  19625967.707  
  22314154.258   117261698.573    22314161.438    91372801.2464   22314161.480  
                
  24880230.328   130746501.803    24880235.801   101880403.4154                 
                
  22799397.555   122046966.736                    94925422.689    22799402.477  
  22799396.270  
  22388250.531   117651059.850    22388260.871    91676201.3934   22388261.152  
                
  19494609.648   104026989.755                    80909886.055    19494612.387  
  19494607.656  
 21  8 16 16 32 30.0000000  0 15G 4G16R 1G26G 9R19R18G 6G22R12G 7G 2
                                R 3G 3R 2
  20641824.383   108473566.973    20641831.809    84524908.2074   20641831.812  
                
  22251789.273   116933976.847    22251795.996    91117428.1764                 
                
  21185693.977   113249696.980                    88083098.129    21185700.105  
  21185693.449  
  23246523.812   122161377.770    23246533.762    95190707.6614   23246533.684  
                
  20785019.758   109226052.710    20785028.266    85111263.9544   20785028.059  
                
  23649775.125   126510342.679                    98396955.264    23649778.828  
  23649772.625  
  22929272.078   122398015.975                    95198449.076    22929276.141  
  22929270.375  
  22757223.281   119590001.378    22757232.965    93187073.8874   22757233.484  
                
  24205565.430   127201103.368    24205572.031    99117765.7684                 
                
  19622355.625   104819137.662                    81525996.712    19622359.504  
  19622354.977  
  22309295.242   117236164.369    22309302.410    91352904.4874   22309302.453  
                
  24878105.328   130735334.754    24878110.781   101871701.8264                 
                
  22792978.883   122012606.991                    94898698.400    22792983.691  
  22792977.574  
  22394200.383   117682326.427    22394210.691    91700564.9534   22394211.012  
                
  19492223.906   104014259.020                    80899984.366    19492226.637  
  19492221.918  
 21  8 16 16 32 40.0000000  0 15G 4G16R 1G26G 9R19R18G 6G22R12G 7G 2
                                R 3G 3R 2
  20643514.438   108482448.323    20643521.859    84531828.7454   20643521.875  
                
  22250022.992   116924695.064    22250029.676    91110195.6224                 
                
  21190462.328   113275186.487                    88102923.289    21190468.457  
  21190461.820  
  23249593.805   122177510.715    23249603.734    95203278.7844   23249603.637  
                
  20782647.281   109213585.292    20782655.805    85101549.0874   20782655.598  
                
  23647333.414   126497282.671                    98386797.465    23647337.473  
  23647330.621  
  22932434.836   122414898.910                    95211580.234    22932438.914  
  22932433.172  
  22758658.945   119597545.855    22758668.641    93192952.7074   22758669.156  
                
  24212195.703   127235945.622    24212202.285    99144915.5674                 
                
  19618758.078   104799920.251                    81511049.851    19618761.930  
  19618757.434  
  22304442.117   117210661.099    22304449.273    91333031.8174   22304449.312  
                
  24875989.938   130724218.309    24875995.410   101863039.6634                 
                
  22786560.492   121978248.960                    94871975.486    22786565.258  
  22786559.195  
  22400156.508   117713626.019    22400166.816    91724954.2354   22400167.141  
                
  19489845.984   104001569.949                    80890115.098    19489848.711  
  19489843.996  
 21  8 16 16 32 50.0000000  0 15G 4G16R 1G26G 9R19R18G 6G22R12G 7G 2
                                R 3G 3R 2
  20645210.602   108491361.698    20645218.023    84538774.2304   20645218.051  
                
  22248269.930   116915482.708    22248276.578    91103017.1814                 
                
  21195237.891   113300714.551                    88122778.437    21195244.016  
  21195237.371  
  23252675.117   122193703.194    23252685.039    95215896.3104   23252684.945  
                
  20780280.695   109201148.810    20780289.238    85091858.3264   20780289.008  
                
  23644907.180   126484304.026                    98376702.957    23644911.273  
  23644904.402  
  22935611.398   122431855.669                    95224768.806    22935615.473  
  22935609.734  
  22760106.586   119605153.275    22760116.301    93198880.5574   22760116.812  
                
  24218828.922   127270802.999    24218835.410    99172077.1514                 
                
  19615175.836   104780784.540                    81496166.540    19615179.656  
  19615175.199  
  22299594.938   117185189.059    22299602.098    91313183.4804   22299602.137  
                
  24873884.289   130713152.975    24873889.785   101854417.3334                 
                
  22780142.531   121943893.125                    94845254.314    22780147.262  
  22780141.195  
  22406118.992   117744958.998    22406129.281    91749369.5274   22406129.602  
                
  19487475.953   103988923.007                    80880278.585    19487478.680  
  19487473.957  
 21  8 16 16 33  0.0000000  0 15G 4G16R 1G26G 9R19R18G 6G22R12G 7G 2
                                R 3G 3R 2
  20646912.828   108500306.996    20646920.266    84545744.5824   20646920.289  
                
  22246530.078   116906339.843    22246536.695    91095892.9014                 
                
  21200020.664   113326281.202                    88142663.593    21200026.809  
  21200020.145  
  23255767.734   122209955.103    23255777.645    95228560.1394   23255777.559  
                
  20777919.984   109188743.197    20777928.539    85082191.6204   20777928.305  
                
  23642496.273   126471407.078                    98366672.003    23642500.359  
  23642493.668  
  22938801.719   122448885.740                    95238014.440    22938805.801  
  22938800.086  
  22761566.172   119612823.475    22761575.891    93204857.3274   22761576.398  
                
  24225465.055   127305675.262    24225471.395    99199250.3514                 
                
  19611608.883   104761730.555                    81481346.776    19611612.680  
  19611608.250  
  22294753.688   117159748.188    22294760.855    91293359.4534   22294760.898  
                
  24871788.312   130702138.591    24871793.875   101845834.7154                 
                
  22773724.984   121909539.628                    94818534.927    22773729.723  
  22773723.637  
  22412087.797   117776325.207    22412098.016    91773810.7284   22412098.375  
                
  19485113.875   103976318.519                    80870475.090    19485116.582  
  19485111.887  
 21  8 16 16 33 10.0000000  0 15G 4G16R 1G26G 9R19R18G 6G22R12G 7G 2
                                R 3G 3R 2
  20648621.172   108509284.389    20648628.637    84552739.9484   20648628.648  
                
  22244803.516   116897266.711    22244810.113    91088822.9224                 
                
  21204810.672   113351886.493                    88162578.821    21204816.840  
  21204810.145  
  23258871.695   122226266.537    23258881.609    95241270.3354   23258881.512  
                
  20775565.180   109176368.634    20775573.738    85072549.1134   20775573.508  
                
  23640100.656   126458591.973                    98356704.677    23640104.734  
  23640098.113  
  22942005.812   122465989.483                    95251317.292    22942009.969  
  22942004.168  
  22763037.742   119620556.596    22763047.473    93210883.1314   22763047.988  
                
  24232103.938   127340562.545    24232110.254    99226435.2254                 
                
  19608057.305   104742758.634                    81466590.835    19608061.094  
  19608056.684  
  22289918.445   117134338.792    22289925.629    91273559.9314   22289925.656  
                
  24869702.102   130691175.458    24869707.703   101837292.0214                 
                
  22767307.930   121875188.502                    94791817.398    22767312.688  
  22767306.543  
  22418062.961   117807724.753    22418073.145    91798277.9104   22418073.516  
                
  19482759.789   103963756.658                    80860704.760    19482762.496  
  19482757.789  
 21  8 16 16 33 20.0000000  0 15G 4G16R 1G26G 9R19R18G 6G22R12G 7G 2
                                R 3G 3R 2
  20650335.562   108518293.633    20650343.059    84559760.1284   20650343.062  
                
  22243090.203   116888263.274    22243096.824    91081807.2814                 
                
  21209607.875   113377530.264                    88182523.955    21209614.070  
  21209607.305  
  23261986.922   122242637.206    23261996.832    95254026.6864   23261996.723  
                
  20773216.250   109164024.939    20773224.805    85062930.6514   20773224.574  
                
  23637720.180   126445858.555                    98346800.893    23637724.363  
  23637717.668  
  22945223.617   122483166.269                    95264677.067    22945227.789  
  22945222.008  
  22764521.211   119628352.349    22764530.984    93216957.7324   22764531.480  
                
  24238745.656   127375464.588    24238751.918    99253631.6144                 
                
  19604521.008   104723868.438                    81451898.477    19604524.801  
  19604520.402  
  22285089.141   117108960.653    22285096.336    91253784.7654   22285096.352  
                
  24867625.562   130680263.176    24867631.168   101828788.9464                 
                
  22760891.281   121840839.660                    94765101.640    22760896.051  
  22760889.918  
  22424044.398   117839157.393    22424054.602    91822770.8554   22424054.957  
                
  19480413.641   103951237.204                    80850967.398    19480416.348  
  19480411.629  
 21  8 16 16 33 30.0000000  0 15G 4G16R 1G26G 9R19R18G 6G22R12G 7G 2
                                R 3G 3R 2
  20652056.102   108527335.122    20652063.629    84566805.4434   20652063.609  
                
  22241390.211   116879329.811    22241396.855    91074846.1514                 
                
  21214412.328   113403212.857                    88202499.296    21214418.578  
  21214411.738  
  23265113.484   122259067.430    23265123.363    95266829.4724   23265123.254  
                
  20770873.266   109151712.531    20770881.805    85053336.5684   20770881.590  
                
  23635355.016   126433207.185                    98336960.955    23635359.305  
  23635352.574  
  22948455.148   122500416.450                    95278093.779    22948459.367  
  22948453.566  
  22766016.680   119636211.096    22766026.508    93223081.4184   22766026.988  
                
  24245390.180   127410381.681    24245396.453    99280839.7474                 
                
  19601000.141   104705060.607                    81437270.162    19601003.926  
  19600999.547  
  22280265.867   117083614.226    22280273.074    91234034.3104   22280273.086  
                
  24865558.812   130669402.368    24865564.395   101820325.9804                 
                
  22754475.148   121806493.445                    94738387.906    22754479.879  
  22754473.820  
  22430032.188   117870623.383    22430042.438    91847289.7904   22430042.742  
                
  19478075.492   103938760.405                    80841263.223    19478078.188  
  19478073.469  
 21  8 16 16 33 40.0000000  0 15G 4G16R 1G26G 9R19R18G 6G22R12G 7G 2
                                R 3G 3R 2
  20653782.719   108536408.575    20653790.285    84573875.6644   20653790.254  
                
  22239703.492   116870466.122    22239710.121    91067939.3974                 
                
  21219224.016   113428934.041                    88222504.644    21219230.305  
  21219223.406  
  23268251.336   122275556.896    23268261.164    95279678.4154   23268261.062  
                
  20768536.195   109139431.148    20768544.715    85043766.6674   20768544.516  
                
  23633005.180   126420637.683                    98327184.690    23633009.527  
  23633002.773  
  22951700.414   122517739.753                    95291567.487    22951704.676  
  22951698.883  
  22767524.070   119644132.485    22767533.926    93229253.9224   22767534.406  
                
  24252037.547   127445313.557    24252043.789    99308059.3724                 
                
  19597494.633   104686334.885                    81422705.732    19597498.445  
  19597494.039  
  22275448.562   117058299.225    22275455.777    91214308.3574   22275455.797  
                
  24863501.820   130658592.752    24863507.344   101811902.9184                 
                
  22748059.477   121772149.730                    94711676.153    22748064.207  
  22748058.113  
  22436026.273   117902122.415    22436036.531    91871834.4804   22436036.805  
                
  19475745.391   103926326.530                    80831592.442    19475748.098  
  19475743.367  
 21  8 16 16 33 50.0000000  0 15G 4G16R 1G26G 9R19R18G 6G22R12G 7G 2
                                R 3G 3R 2
  20655515.398   108545513.890    20655522.992    84580970.7114   20655522.949  
                
  22238030.047   116861672.143    22238036.629    91061086.9514                 
                
  21224042.875   113454693.608                    88242539.854    21224049.164  
  21224042.266  
  23271400.422   122292105.466    23271410.223    95292573.3954   23271410.129  
                
  20766205.016   109127180.726    20766213.527    85034220.8794   20766213.332  
                
  23630670.703   126408149.845                    98317471.906    23630675.012  
  23630668.324  
  22954959.281   122535135.748                    95305097.665    22954963.523  
  22954957.742  
  22769043.359   119652116.380    22769053.230    93235475.1484   22769053.711  
                
  24258687.688   127480260.071    24258693.891    99335290.4274                 
                
  19594004.484   104667691.137                    81408205.045    19594008.316  
  19594003.898  
  22270637.242   117033015.612    22270644.449    91194606.8544   22270644.477  
                
  24861454.570   130647834.314    24861460.000   101803519.7194                 
                
  22741644.266   121737808.567                    94684966.369    22741649.000  
  22741642.871  
  22442026.617   117933654.338    22442036.816    91896404.8074   22442037.102  
                
  19473423.320   103913935.509                    80821954.975    19473426.020  
  19473421.297  
 21  8 16 16 34  0.0000000  0 15G 4G16R 1G26G 9R19R18G 6G22R12G 7G 2
                                R 3G 3R 2
  20657254.102   108554650.786    20657261.707    84588090.3724   20657261.656  
                
  22236369.828   116852947.667    22236376.371    91054288.6684                 
                
  21228868.891   113480491.304                    88262604.741    21228875.172  
  21228868.281  
  23274560.695   122308712.766    23274570.512    95305514.1564   23274570.395  
                
  20763879.688   109114961.023    20763888.195    85024699.0404   20763888.004  
                
  23628351.539   126395743.750                    98307822.710    23628355.785  
  23628349.223  
  22958231.773   122552604.269                    95318684.320    22958236.020  
  22958230.297  
  22770574.484   119660162.471    22770584.375    93241744.8304   22770584.867  
                
  24265340.484   127515220.859    24265346.730    99362532.5884                 
                
  19590529.664   104649129.322                    81393768.102    19590533.516  
  19590529.059  
  22265831.828   117007763.072    22265839.039    91174929.5684   22265839.059  
                
  24859417.000   130637126.756    24859422.367   101795176.1914                 
                
  22735229.430   121703469.528                    94658258.242    22735234.164  
  22735228.047  
  22448033.141   117965218.790    22448043.262    91921000.4824   22448043.602  
                
  19471109.125   103901586.493                    80812350.190    19471111.828  
  19471107.105  
 21  8 16 16 34 10.0000000  0 15G 4G16R 1G26G 9R19R18G 6G22R12G 7G 2
                                R 3G 3R 2
  20658998.891   108563819.694    20659006.500    84595234.9764   20659006.445  
                
  22234722.922   116844293.168    22234729.402    91047544.9094                 
                
  21233702.109   113506327.570                    88282699.619    21233708.363  
  21233701.512  
  23277732.203   122325379.187    23277742.012    95318500.9864   23277741.883  
                
  20761560.273   109102772.464    20761568.789    85015201.4644   20761568.582  
                
  23626047.789   126383419.859                    98298237.481    23626051.984  
  23626045.465  
  22961517.852   122570145.516                    95332327.524    22961522.070  
  22961516.379  
  22772117.523   119668271.156    22772127.453    93248063.2734   22772127.934  
                
  24271995.977   127550196.265    24272002.348    99389786.1414                 
                
  19587070.273   104630649.938                    81379395.262    19587074.156  
  19587069.660  
  22261032.430   116982542.109    22261039.648    91155276.8834   22261039.656  
                
  24857389.211   130626470.592    24857394.562   101786872.7094                 
                
  22728815.148   121669133.311                    94631552.267    22728819.812  
  22728813.766  
  22454045.930   117996816.157    22454056.016    91945621.7954   22454056.359  
                
  19468803.039   103889280.793                    80802779.092    19468805.750  
  19468801.008  
 21  8 16 16 34 20.0000000  0 15G 4G16R 1G26G 9R19R18G 6G22R12G 7G 2
                                R 3G 3R 2
  20660749.727   108573020.393    20660757.332    84602404.3564   20660757.285  
                
  22233089.305   116835708.530    22233095.738    91040855.5944                 
                
  21238542.500   113532202.191                    88302824.295    21238548.750  
  21238541.930  
  23280914.914   122342104.464    23280924.715    95331533.6704   23280924.559  
                
  20759246.758   109090614.890    20759255.281    85005728.0384   20759255.066  
                
  23623759.297   126371177.895                    98288715.935    23623763.484  
  23623756.980  
  22964817.492   122587759.134                    95346026.996    22964821.723  
  22964816.055  
  22773672.414   119676442.111    22773682.387    93254430.2564   22773682.855  
                
  24278654.141   127585186.007    24278660.684    99417050.8534                 
                
  19583626.266   104612252.742                    81365086.341    19583630.172  
  19583625.648  
  22256239.008   116957352.579    22256246.230    91135648.6824   22256246.223  
                
  24855371.180   130615865.697    24855376.512   101778609.1504                 
                
  22722401.320   121634799.708                    94604848.375    22722405.945  
  22722399.996  
  22460064.930   118028446.130    22460074.996    91970268.5274   22460075.344  
                
  19466504.914   103877017.585                    80793241.046    19466507.641  
  19466502.855  
 21  8 16 16 34 30.0000000  0 15G 4G16R 1G26G 9R19R18G 6G22R12G 7G 2
                                R 3G 3R 2
  20662506.656   108582253.093    20662514.254    84609598.6664   20662514.211  
                
  22231469.031   116827193.965    22231475.453    91034220.8784                 
                
  21243390.086   113558115.259                    88322978.906    21243396.332  
  21243389.535  
  23284108.852   122358888.745    23284118.621    95344612.3384   23284118.480  
                
  20756939.188   109078488.534    20756947.711    84996278.9354   20756947.488  
                
  23621486.164   126359018.109                    98279258.308    23621490.348  
  23621483.773  
  22968130.750   122605445.471                    95359783.042    22968134.961  
  22968129.273  
  22775239.195   119684675.575    22775249.188    93260845.9414   22775249.656  
                
  24285315.070   127620190.236    24285321.758    99444326.8284                 
                
  19580197.719   104593938.125                    81350841.652    19580201.648  
  19580197.094  
  22251451.609   116932194.737    22251458.855    91116045.1954   22251458.832  
                
  24853362.930   130605312.197    24853368.254   101770385.6434                 
                
  22715988.039   121600468.915                    94578146.645    22715992.629  
  22715986.719  
  22466090.180   118060108.914    22466100.238    91994940.8224   22466100.590  
                
  19464214.938   103864797.858                    80783736.813    19464217.668  
  19464212.871  
 21  8 16 16 34 40.0000000  0 15G 4G16R 1G26G 9R19R18G 6G22R12G 7G 2
                                R 3G 3R 2
  20664269.617   108591517.519    20664277.215    84616817.7104   20664277.172  
                
  22229862.062   116818749.326    22229868.453    91027640.6424                 
                
  21248244.828   113584066.549                    88343163.220    21248251.070  
  21248244.281  
  23287313.969   122375731.714    23287323.715    95357736.7474   23287323.582  
                
  20754637.516   109066393.167    20754646.023    84986853.9754   20754645.805  
                
  23619228.398   126346940.448                    98269864.563    23619232.531  
  23619225.949  
  22971457.492   122623203.734                    95373594.993    22971461.691  
  22971455.996  
  22776817.812   119692971.229    22776827.812    93267310.0804   22776828.277  
                
  24291978.703   127655208.622    24291985.547    99471613.8524                 
                
  19576784.594   104575705.893                    81336661.041    19576788.539  
  19576783.953  
  22246670.203   116907068.358    22246677.480    91096466.2134   22246677.457  
                
  24851364.391   130594809.825    24851369.734   101762202.0004                 
                
  22709575.211   121566140.738                    94551446.950    22709579.816  
  22709573.895  
  22472121.602   118091804.135    22472131.680    92019638.3914   22472132.027  
                
  19461932.992   103852621.016                    80774265.934    19461935.742  
  19461930.918  
 21  8 16 16 34 50.0000000  0 15G 4G16R 1G26G 9R19R18G 6G22R12G 7G 2
                                R 3G 3R 2
  20666038.641   108600813.757    20666046.230    84624061.5264   20666046.188  
                
  22228268.406   116810374.675    22228274.754    91021114.9614                 
                
  21253106.719   113610056.121                    88363377.303    21253112.996  
  21253106.215  
  23290530.266   122392633.413    23290539.984    95370906.9084   23290539.855  
                
  20752341.758   109054328.887    20752350.238    84977453.2344   20752350.035  
                
  23616986.008   126334945.175                    98260534.902    23616990.133  
  23616983.605  
  22974797.766   122641034.306                    95387463.174    22974801.977  
  22974796.230  
  22778408.273   119701329.074    22778418.277    93273822.6824   22778418.734  
                
  24298645.133   127690241.218    24298652.027    99498911.9464                 
                
  19573386.906   104557556.085                    81322544.532    19573390.863  
  19573386.250  
  22241894.820   116881973.598    22241902.125    91076911.8754   22241902.094  
                
  24849375.625   130584358.765    24849381.016   101754058.3144                 
                
  22703162.953   121531815.495                    94524749.547    22703167.543  
  22703161.637  
  22478159.188   118123531.847    22478169.305    92044361.2654   22478169.637  
                
  19459659.125   103840487.219                    80764828.543    19459661.883  
  19459657.035  
 21  8 16 16 35  0.0000000  0 16G 4G16R 1G26G 9R19R13R18G 6G22R12G 7
                                G 2R 3G 3R 2
  20667813.766   108610142.080    20667821.359    84631330.3514   20667821.316  
                
  22226688.133   116802070.283    22226694.445    91014644.0144                 
                
  21257975.820   113636084.183                    88383621.364    21257982.148  
  21257975.305  
  23293757.773   122409594.059    23293767.469    95384122.9904   23293767.352  
                
  20750051.977   109042296.004    20750060.426    84968076.9664   20750060.250  
                
  23614759.055   126323032.374                    98251269.388    23614763.172  
  23614756.754  
  22763734.625   121557051.716                    94544405.568    22763739.539  
  22763732.828  
  22978151.531   122658936.912                    95401387.463    22978155.750  
  22978149.977  
  22780010.609   119709749.355    22780020.648    93280383.9284   22780021.109  
                
  24305314.430   127725288.138    24305321.277    99526221.2104                 
                
  19570004.711   104539489.049                    81308492.412    19570008.688  
  19570004.051  
  22237125.516   116856910.743    22237132.832    91057382.3824   22237132.793  
                
  24847396.680   130573959.327    24847402.090   101745954.8454                 
                
  22696751.281   121497493.303                    94498054.510    22696755.887  
  22696749.973  
  22484203.008   118155292.243    22484213.152    92069109.6154   22484213.457  
                
  19457393.477   103828397.275                    80755425.252    19457396.238  
  19457391.367  
 21  8 16 16 35 10.0000000  0 16G 4G16R 1G26G 9R19R13R18G 6G22R12G 7
                                G 2R 3G 3R 2
  20669594.969   108619502.371    20669602.566    84638624.0824   20669602.516  
                
  22225121.234   116793836.242    22225127.527    91008227.8934                 
                
  21262852.102   113662150.668                    88403895.279    21262858.461  
  21262851.555  
  23296996.445   122426613.429    23297006.133    95397384.8614   23297006.039  
                
  20747768.148   109030294.423    20747776.570    84958725.0944   20747776.410  
                
  23612547.688   126311201.924                    98242067.966    23612551.598  
  23612545.340  
  22755459.648   121512862.951                    94510036.553    22755464.312  
  22755457.945  
  22981518.828   122676911.794                    95415367.853    22981523.074  
  22981517.285  
  22781624.797   119718231.917    22781634.879    93286993.7044   22781635.309  
                
  24311986.352   127760349.189    24311993.215    99553541.4904                 
                
  19566638.039   104521504.927                    81294504.773    19566642.020  
  19566637.395  
  22232362.250   116831879.690    22232369.578    91037877.6734   22232369.535  
                
  24845427.523   130563611.374    24845432.898   101737891.5154                 
                
  22690340.148   121463174.303                    94471361.966    22690344.824  
  22690338.891  
  22490253.016   118187085.162    22490263.160    92093883.3124   22490263.461  
                
  19455135.883   103816350.378                    80746055.449    19455138.664  
  19455133.766  
 21  8 16 16 35 20.0000000  0 16G 4G16R 1G26G 9R19R13R18G 6G22R12G 7
                                G 2R 3G 3R 2
  20671382.195   108628894.277    20671389.801    84645942.4494   20671389.750  
                
  22223567.672   116785672.272    22223573.945    91001866.3674                 
                
  21267735.492   113688255.157                    88424198.751    21267741.832  
  21267734.934  
  23300246.234   122443691.167    23300255.887    95410692.2124   23300255.816  
                
  20745490.211   109018323.833    20745498.605    84949397.3614   20745498.461  
                
  23610351.453   126299453.546                    98232930.364    23610355.324  
  23610349.125  
  22747188.398   121468695.832                    94475684.378    22747193.086  
  22747186.605  
  22984899.547   122694958.249                    95429404.029    22984903.777  
  22984897.992  
  22783250.742   119726776.326    22783260.875    93293651.6934   22783261.289  
                
  24318661.008   127795424.055    24318667.781    99580872.5454                 
                
  19563286.812   104503603.300                    81280581.299    19563290.789  
  19563286.188  
  22227604.969   116806880.101    22227612.324    91018397.4914   22227612.254  
                
  24843468.117   130553314.660    24843473.430   101729868.1044                 
                
  22683929.555   121428858.012                    94444671.532    22683934.281  
  22683928.332  
  22496309.117   118218910.182    22496319.254    92118682.0154   22496319.543  
                
  19452886.406   103804346.769                    80736719.311    19452889.211  
  19452884.277  
 21  8 16 16 35 30.0000000  0 16G 4G16R 1G26G 9R19R13R18G 6G22R12G 7
                                G 2R 3G 3R 2
  20673175.445   108638317.901    20673183.066    84653285.5354   20673183.012  
                
  22222027.492   116777578.612    22222033.770    90995559.6344                 
                
  21272626.039   113714397.924                    88444531.990    21272632.395  
  21272625.473  
  23303507.148   122460827.327    23303516.777    95424045.0624   23303516.730  
                
  20743218.203   109006384.359    20743226.578    84940093.8794   20743226.441  
                
  23608170.539   126287787.599                    98223856.889    23608174.512  
  23608168.195  
  22738921.438   121424550.986                    94441349.526    22738926.215  
  22738919.496  
  22988293.664   122713076.383                    95443495.890    22988297.824  
  22988292.094  
  22784888.477   119735382.710    22784898.641    93300357.9524   22784899.035  
                
  24325338.242   127830512.768    24325344.992    99608214.4034                 
                
  19559951.078   104485784.451                    81266722.191    19559955.043  
  19559950.461  
  22222853.727   116781912.235    22222861.125    90998942.0384   22222861.027  
                
  24841518.484   130543069.287    24841523.715   101721884.6914                 
                
  22677519.586   121394544.763                    94417983.466    22677524.297  
  22677518.375  
  22502371.336   118250767.343    22502381.465    92143505.7624   22502381.738  
                
  19450645.039   103792386.438                    80727416.831    19450647.848  
  19450642.914  
 21  8 16 16 35 40.0000000  0 16G 4G16R 1G26G 9R19R13R18G 6G22R12G 7
                                G 2R 3G 3R 2
  20674974.836   108647773.721    20674982.465    84660653.7104   20674982.406  
                
  22220500.773   116769555.702    22220507.035    90989308.0364                 
                
  21277523.797   113740579.316                    88464895.282    21277530.199  
  21277523.199  
  23306779.250   122478022.307    23306788.852    95437443.7514   23306788.840  
                
  20740952.211   108994476.499    20740960.566    84930815.0314   20740960.445  
                
  23606005.070   126276204.504                    98214847.778    23606009.188  
  23606002.797  
  22730658.570   121380428.777                    94407032.302    22730663.660  
  22730656.629  
  22991701.266   122731266.356                    95457643.660    22991705.379  
  22991699.648  
  22786538.086   119744051.441    22786548.254    93307112.7974   22786548.629  
                
  24332018.188   127865615.729    24332024.863    99635567.3574                 
                
  19556630.922   104468048.734                    81252927.762    19556634.867  
  19556630.309  
  22218108.625   116756976.580    22218116.055    90979511.6794   22218115.934  
                
  24839578.727   130532875.766    24839583.910   101713941.6984                 
                
  22671110.258   121360235.021                    94391298.126    22671114.961  
  22671109.074  
  22508439.750   118282657.046    22508449.863    92168354.8794   22508450.145  
                
  19448411.938   103780470.181                    80718148.642    19448414.770  
  19448409.793  
 21  8 16 16 35 50.0000000  0 16G 4G16R 1G26G 9R19R13R18G 6G22R12G 7
                                G 2R 3G 3R 2
  20676780.188   108657260.944    20676787.824    84668046.3434   20676787.758  
                
  22218987.367   116761602.711    22218993.609    90983110.9164                 
                
  21282428.602   113766798.334                    88485287.840    21282434.992  
  21282427.977  
  23310062.375   122495275.253    23310071.945    95450887.6264   23310071.965  
                
  20738692.086   108982599.512    20738700.426    84921560.2374   20738700.309  
                
  23603855.148   126264703.708                    98205902.662    23603859.227  
  23603852.910  
  22722399.961   121336328.424                    94372732.084    22722405.211  
  22722397.828  
  22995122.188   122749527.496                    95471846.801    22995126.238  
  22995120.512  
  22788199.406   119752781.682    22788209.555    93313915.5884   22788209.926  
                
  24338700.688   127900732.131    24338707.250    99662930.7804                 
                
  19553326.219   104450395.659                    81239197.601    19553330.145  
  19553325.605  
  22213369.500   116732072.329    22213376.938    90960105.7814   22213376.805  
                
  24837648.695   130522733.400    24837653.883   101706038.5524                 
                
  22664701.414   121325928.086                    94364614.937    22664706.094  
  22664700.297  
  22514514.195   118314578.448    22514524.293    92193228.6984   22514524.578  
                
  19446186.867   103768596.862                    80708913.829    19446189.703  
  19446184.730  
 21  8 16 16 36  0.0000000  0 16G 4G16R 1G26G 9R19R13R18G 6G22R12G 7
                                G 2R 3G 3R 2
  20678591.617   108666780.074    20678599.270    84675463.8464   20678599.191  
                
  22217487.383   116753720.238    22217493.594    90976968.7414                 
                
  21287340.602   113793055.723                    88505710.237    21287346.965  
  21287339.969  
  23313356.641   122512586.644    23313366.211    95464377.0304   23313366.230  
                
  20736437.945   108970753.918    20736446.270    84912329.9094   20736446.148  
                
  23601720.656   126253285.435                    98197021.795    23601724.668  
  23601718.504  
  22714145.664   121292250.960                    94338449.655    22714150.996  
  22714143.516  
  22998556.477   122767860.033                    95486105.384    22998560.492  
  22998554.766  
  22789872.516   119761573.917    22789882.629    93320766.6764   22789883.004  
                
  24345385.789   127935862.319    24345392.262    99690304.9414                 
                
  19550037.094   104432825.710                    81225532.095    19550040.973  
  19550036.488  
  22208636.469   116707200.087    22208643.898    90940724.8314   22208643.762  
                
  24835728.492   130512642.707    24835733.707   101698175.6914                 
                
  22658293.211   121291624.557                    94337934.428    22658297.883  
  22658292.129  
  22520594.758   118346532.012    22520604.875    92218127.5674   22520605.156  
                
  19443970.070   103756767.632                    80699713.311    19443972.910  
  19443967.926  
 21  8 16 16 36 10.0000000  0 16G 4G16R 1G26G 9R19R13R18G 6G22R12G 7
                                G 2R 3G 3R 2
  20680409.094   108676330.974    20680416.770    84682906.1134   20680416.691  
                
  22216000.805   116745908.241    22216006.973    90970881.4804                 
                
  21292259.727   113819351.221                    88526162.267    21292266.062  
  21292259.109  
  23316661.977   122529956.254    23316671.543    95477911.8084   23316671.578  
                
  20734189.750   108958939.599    20734198.062    84903123.9474   20734197.945  
                
  23599601.695   126241949.933                    98188205.310    23599605.602  
  23599599.539  
  22705895.836   121248196.109                    94304184.807    22705900.941  
  22705893.543  
  23002004.102   122786263.724                    95500419.374    23002008.109  
  23002002.398  
  22791557.383   119770427.942    22791567.457    93327665.9154   22791567.840  
                
  24352073.422   127971006.134    24352079.871    99717689.6994                 
                
  19546763.516   104415338.867                    81211931.224    19546767.359  
  19546762.918  
  22203909.500   116682359.764    22203916.902    90921368.7504   22203916.781  
                
  24833818.094   130502603.554    24833823.359   101690352.9654                 
                
  22651885.617   121257324.329                    94311256.496    22651890.309  
  22651884.562  
  22526681.398   118378517.522    22526691.559    92243051.3204   22526691.832  
                
  19441761.422   103744981.904                    80690546.649    19441764.277  
  19441759.262  
 21  8 16 16 36 20.0000000  0 16G 4G16R 1G26G 9R19R13R18G 6G22R12G 7
                                G 2R 3G 3R 2
  20682232.625   108685913.684    20682240.336    84690373.1674   20682240.246  
                
  22214527.672   116738166.856    22214533.797    90964849.2324                 
                
  21297185.992   113845684.847                    88546643.989    21297192.297  
  21297185.406  
  23319978.398   122547384.150    23319987.969    95491491.9794   23319988.023  
                
  20731947.539   108947156.675    20731955.840    84893942.4524   20731955.727  
                
  23597498.148   126230697.166                    98179453.184    23597502.027  
  23597495.973  
  22697650.055   121204164.059                    94269937.690    22697655.145  
  22697647.816  
  23005465.031   122804738.562                    95514788.704    23005469.066  
  23005463.344  
  22793254.023   119779343.787    22793264.070    93334613.3184   22793264.461  
                
  24358763.547   128006163.664    24358770.133    99745085.1474                 
                
  19543505.508   104397935.185                    81198395.033    19543509.324  
  19543504.910  
  22199188.625   116657551.404    22199196.000    90902037.5714   22199195.879  
                
  24831917.531   130492616.047    24831922.848   101682570.4734                 
                
  22645478.680   121223027.553                    94284581.220    22645483.402  
  22645477.656  
  22532774.125   118410534.981    22532784.320    92267999.9824   22532784.582  
                
  19439561.008   103733240.079                    80681414.118    19439563.891  
  19439558.848  
 21  8 16 16 36 30.0000000  0 16G 4G16R 1G26G 9R19R13R18G 6G22R12G 7
                                G 2R 3G 3R 2
  20684062.266   108695528.531    20684070.023    84697865.2544   20684069.906  
                
  22213068.031   116730496.389    22213074.133    90958872.2664                 
                
  21302119.477   113872057.033                    88567155.657    21302125.758  
  21302118.898  
  23323305.945   122564870.500    23323315.559    95505117.7094   23323315.602  
                
  20729711.359   108935405.470    20729719.652    84884785.6684   20729719.551  
                
  23595410.031   126219527.402                    98170765.628    23595413.965  
  23595407.863  
  22689408.555   121160155.372                    94235708.729    22689413.707  
  22689406.355  
  23008939.352   122823284.790                    95529213.484    23008943.410  
  23008937.617  
  22794962.477   119788321.682    22794972.508    93341609.0844   22794972.887  
                
  24365456.297   128041335.078    24365463.023    99772491.4284                 
                
  19540263.133   104380615.074                    81184923.838    19540266.926  
  19540262.527  
  22194473.891   116632775.374    22194481.254    90882731.5924   22194481.129  
                
  24830026.836   130482680.465    24830032.184   101674828.4654                 
                
  22639072.484   121188734.556                    94257908.911    22639077.219  
  22639071.438  
  22538872.977   118442584.624    22538883.148    92292973.7224   22538883.426  
                
  19437368.875   103721542.463                    80672315.970    19437371.766  
  19437366.719  
 21  8 16 16 36 40.0000000  0 16G 4G16R 1G26G 9R19R13R18G 6G22R12G 7
                                G 2R 3G 3R 2
  20685897.891   108705174.843    20685905.695    84705381.8604   20685905.555  
                
  22211621.781   116722896.285    22211627.930    90952950.1274                 
                
  21307060.023   113898467.081                    88587696.792    21307066.309  
  21307059.465  
  23326644.477   122582414.620    23326654.141    95518788.4644   23326654.156  
                
  20727481.086   108923685.336    20727489.383    84875653.1024   20727489.289  
                
  23593337.359   126208440.349                    98162142.352    23593341.344  
  23593335.168  
  22681171.375   121116169.527                    94201497.555    22681176.543  
  22681169.184  
  23012426.883   122841901.474                    95543693.160    23012430.934  
  23012425.129  
  22796682.602   119797360.942    22796692.609    93348652.6664   22796692.977  
                
  24372151.570   128076519.629    24372158.410    99799907.9474                 
                
  19537036.281   104363377.896                    81171517.167    19537040.055  
  19537035.668  
  22189765.195   116608031.085    22189772.535    90863450.3444   22189772.418  
                
  24828145.930   130472796.285    24828151.301   101667126.4924                 
                
  22632666.852   121154444.835                    94231239.128    22632671.586  
  22632665.789  
  22544977.812   118474665.746    22544987.934    92317971.9854   22544988.234  
                
  19435184.930   103709888.578                    80663251.839    19435187.816  
  19435182.777  
 21  8 16 16 36 50.0000000  0 16G 4G16R 1G26G 9R19R13R18G 6G22R12G 7
                                G 2R 3G 3R 2
  20687739.555   108714852.851    20687747.410    84712923.1644   20687747.238  
                
  22210188.992   116715366.901    22210195.223    90947083.0854                 
                
  21312007.688   113924915.057                    88608267.434    21312013.969  
  21312007.152  
  23329994.039   122600016.699    23330003.742    95532504.3734   23330003.754  
                
  20725256.781   108911996.554    20725265.082    84866544.9604   20725264.992  
                
  23591280.242   126197436.223                    98153583.578    23591284.207  
  23591277.957  
  22672938.547   121072206.792                    94167304.345    22672943.719  
  22672936.418  
  23015927.680   122860588.998                    95558227.864    23015931.742  
  23015925.918  
  22798414.438   119806461.766    22798424.410    93355744.2054   22798424.805  
                
  24378849.461   128111717.498    24378856.348    99827334.8244                 
                
  19533825.023   104346223.966                    81158175.229    19533828.777  
  19533824.391  
  22185062.586   116583318.720    22185069.906    90844193.9674   22185069.797  
                
  24826274.852   130462963.660    24826280.270   101659464.6924                 
                
  22626261.898   121120158.579                    94204572.060    22626266.613  
  22626260.805  
  22551088.672   118506778.518    22551098.746    92342994.9244   22551099.059  
                
  19433009.242   103698278.644                    80654221.891    19433012.133  
  19433007.098  
 21  8 16 16 37  0.0000000  0 16G 4G16R 1G26G 9R19R13R18G 6G22R12G 7
                                G 2R 3G 3R 2
  20689587.234   108724562.434    20689595.133    84720489.0704   20689594.941  
                
  22208769.625   116707908.112    22208775.934    90941271.0344                 
                
  21316962.445   113951401.019                    88628867.606    21316968.730  
  21316961.922  
  23333354.594   122617676.543    23333364.355    95546265.2924   23333364.363  
                
  20723038.430   108900339.021    20723046.746    84857461.1804   20723046.641  
                
  23589238.578   126186514.747                    98145089.085    23589242.559  
  23589236.289  
  22664710.000   121028267.231                    94133129.175    22664715.227  
  22664707.965  
  23019441.664   122879346.880                    95572817.324    23019445.781  
  23019439.930  
  22800157.953   119815623.927    22800167.887    93362883.5644   22800168.305  
                
  24385550.016   128146928.494    24385556.789    99854771.9414                 
                
  19530629.359   104329153.362                    81144898.093    19530633.105  
  19530628.711  
  22180366.039   116558638.225    22180373.348    90824962.4244   22180373.230  
                
  24824413.586   130453182.577    24824419.004   101651843.0794                 
                
  22619857.633   121085875.834                    94177907.705    22619862.289  
  22619856.516  
  22557205.516   118538922.744    22557215.570    92368042.3664   22557215.871  
                
  19430841.766   103686712.594                    80645226.072    19430844.672  
  19430839.633  
 21  8 16 16 37 10.0000000  0 16G 4G16R 1G26G 9R19R13R18G 6G22R12G 7
                                G 2R 3G 3R 2
  20691440.953   108734303.840    20691448.887    84728079.7764   20691448.676  
                
  22207363.711   116700520.023    22207370.070    90935514.1104                 
                
  21321924.320   113977925.006                    88649497.359    21321930.613  
  21321923.797  
  23336726.188   122635394.338    23336736.012    95560071.3734   23336735.988  
                
  20720826.070   108888713.023    20720834.406    84848401.9664   20720834.281  
                
  23587212.406   126175676.051                    98136658.948    23587216.336  
  23587210.137  
  22656485.828   120984351.195                    94098972.289    22656491.176  
  22656483.891  
  23022968.859   122898175.318                    95587461.651    23022972.992  
  23022967.180  
  22801913.188   119824847.684    22801923.121    93370070.9014   22801923.547  
                
  24392253.078   128182152.747    24392259.801    99882219.3914                 
                
  19527449.336   104312166.307                    81131685.949    19527453.059  
  19527448.660  
  22175675.602   116533989.881    22175682.914    90805755.9414   22175682.777  
                
  24822562.195   130443453.388    24822567.590   101644261.8944                 
                
  22613454.016   121051596.750                    94151246.213    22613458.641  
  22613452.898  
  22563328.375   118571098.621    22563338.426    92393114.4594   22563338.703  
                
  19428682.578   103675190.789                    80636264.678    19428685.480  
  19428680.445  
 21  8 16 16 37 20.0000000  0 16G 4G16R 1G26G 9R19R13R18G 6G22R12G 7
                                G 2R 3G 3R 2
  20693300.734   108744077.027    20693308.699    84735695.2444   20693308.477  
                
  22205971.312   116693202.915    22205977.715    90929812.4814                 
                
  21326893.320   114004487.057                    88670156.731    21326899.629  
  21326892.773  
  23340108.789   122653169.991    23340118.668    95573922.5304   23340118.625  
                
  20718619.719   108877118.547    20718628.070    84839367.3154   20718627.941  
                
  23585201.750   126164920.789                    98128293.782    23585205.766  
  23585199.543  
  22648266.000   120940458.647                    94064833.669    22648271.461  
  22648264.188  
  23026509.258   122917074.080                    95602160.713    23026513.418  
  23026507.645  
  22803680.117   119834132.914    22803690.074    93377306.1374   22803690.477  
                
  24398958.609   128217390.252    24398965.324    99909677.1934                 
                
  19524284.930   104295262.711                    81118538.715    19524288.645  
  19524284.227  
  22170991.297   116509373.767    22170998.609    90786574.5724   22170998.461  
                
  24820720.648   130433775.974    24820726.023   101636721.0504                 
                
  22607051.086   121017321.485                    94124587.671    22607055.730  
  22607049.961  
  22569457.242   118603306.036    22569467.293    92418211.1264   22569467.562  
                
  19426531.727   103663713.441                    80627337.856    19426534.645  
  19426529.594  
 21  8 16 16 37 30.0000000  0 16G 4G16R 1G26G 9R19R13R18G 6G22R12G 7
                                G 2R 3G 3R 2
  20695166.562   108753882.032    20695174.559    84743335.5084   20695174.316  
                
  22204592.430   116685956.851    22204598.852    90924166.1944                 
                
  21331869.445   114031087.259                    88690845.789    21331875.730  
  21331868.926  
  23343502.375   122671003.479    23343512.297    95587818.7624   23343512.266  
                
  20716419.367   108865555.659    20716427.723    84830357.2754   20716427.594  
                
  23583206.656   126154248.496                    98119993.112    23583210.707  
  23583204.395  
  22640050.930   120896590.038                    94030713.670    22640056.250  
  22640049.023  
  23030062.836   122936043.245                    95616914.472    23030067.016  
  23030061.230  
  22805458.742   119843479.622    22805468.727    93384589.2794   22805469.141  
                
  24405666.688   128252641.000    24405673.348    99937145.2904                 
                
  19521136.203   104278442.841                    81105456.619    19521139.910  
  19521135.473  
  22166313.133   116484789.911    22166320.441    90767418.3344   22166320.277  
                
  24818888.961   130424150.385    24818894.344   101629220.5964                 
                
  22600648.875   120983050.243                    94097932.292    22600653.582  
  22600647.730  
  22575592.109   118635544.978    22575602.145    92443332.3604   22575602.426  
                
  19424389.141   103652280.204                    80618445.340    19424392.051  
  19424387.000  
 21  8 16 16 37 40.0000000  0 16G 4G16R 1G26G 9R19R13R18G 6G22R12G 7
                                G 2R 3G 3R 2
  20697038.375   108763718.479    20697046.402    84751000.2694   20697046.141  
                
  22203226.984   116678781.480    22203233.418    90918575.0114                 
                
  21336852.609   114057725.134                    88711564.121    21336858.859  
  21336852.098  
  23346906.891   122688894.389    23346916.852    95601759.7264   23346916.820  
                
  20714224.961   108854024.014    20714233.320    84821371.5834   20714233.188  
                
  23581227.039   126143659.167                    98111757.027    23581231.133  
  23581224.793  
  22631840.383   120852745.232                    93996612.212    22631845.488  
  22631838.293  
  23033629.523   122955082.302                    95631722.657    23033633.695  
  23033627.941  
  22807248.977   119852887.380    22807258.996    93391919.9844   22807259.395  
                
  24412377.180   128287904.438    24412383.785    99964623.2744                 
                
  19518003.086   104261706.365                    81092439.357    19518006.789  
  19518002.340  
  22161641.039   116460237.946    22161648.348    90748286.9504   22161648.168  
                
  24817067.070   130414576.345    24817072.449   101621760.2934                 
                
  22594247.312   120948782.471                    94071279.610    22594252.066  
  22594246.148  
  22581732.898   118667814.983    22581742.910    92468477.8154   22581743.199  
                
  19422254.891   103640891.483                    80609587.445    19422257.809  
  19422252.746  
 21  8 16 16 37 50.0000000  0 16G 4G16R 1G26G 9R19R13R18G 6G22R12G 7
                                G 2R 3G 3R 2
  20698916.250   108773586.789    20698924.312    84758689.8554   20698924.031  
                
  22201875.094   116671677.272    22201881.535    90913039.2644                 
                
  21341842.891   114084401.077                    88732312.063    21341849.102  
  21341842.379  
  23350322.383   122706843.029    23350332.406    95615745.6884   23350332.371  
                
  20712036.602   108842524.072    20712044.949    84812410.6034   20712044.832  
                
  23579263.117   126133153.256                    98103585.724    23579267.148  
  23579260.824  
  22623634.141   120808924.388                    93962529.364    22623639.219  
  22623632.047  
  23037209.336   122974191.588                    95646585.375    23037213.555  
  23037207.742  
  22809050.906   119862356.547    22809060.953    93399298.5514   22809061.324  
                
  24419090.102   128323180.983    24419096.688    99992111.4794                 
                
  19514885.688   104245053.829                    81079487.399    19514889.387  
  19514884.941  
  22156975.109   116435718.389    22156982.430    90729180.8144   22156982.250  
                
  24815255.070   130405054.212    24815260.441   101614340.4694                 
                
  22587846.586   120914518.865                    94044630.128    22587851.297  
  22587845.383  
  22587879.672   118700116.418    22587889.660    92493647.7674   22587889.957  
                
  19420129.000   103629547.327                    80600764.213    19420131.910  
  19420126.863  
 21  8 16 16 38  0.0000000  0 16G 4G16R 1G26G 9R19R13R18G 6G22R12G 7
                                G 2R 3G 3R 2
  20700800.164   108783486.822    20700808.258    84766404.1684   20700807.961  
                
  22200536.719   116664644.104    22200543.227    90907558.8944                 
                
  21346840.305   114111115.003                    88753089.548    21346846.488  
  21346839.812  
  23353748.836   122724849.271    23353758.910    95629776.5274   23353758.871  
                
  20709854.242   108831055.712    20709862.566    84803474.2264   20709862.469  
                
  23577314.695   126122730.442                    98095479.112    23577318.762  
  23577312.379  
  22615432.438   120765127.784                    93928465.370    22615437.492  
  22615430.352  
  23040802.258   122993370.661                    95661502.435    23040806.492  
  23040800.688  
  22810864.484   119871886.943    22810874.543    93406724.8334   22810874.938  
                
  24425805.531   128358470.417    24425812.035   100019609.7354                 
                
  19511783.977   104228485.070                    81066600.594    19511787.695  
  19511783.242  
  22152315.336   116411231.110    22152322.695    90710099.8324   22152322.508  
                
  24813452.961   130395584.054    24813458.363   101606961.1244                 
                
  22581446.570   120880259.152                    94017983.706    22581451.250  
  22581445.383  
  22594032.391   118732449.101    22594042.359    92518842.0644   22594042.676  
                
  19418011.469   103618247.734                    80591975.640    19418014.379  
  19418009.328  
 21  8 16 16 38 10.0000000  0 16G 4G16R 1G26G 9R19R13R18G 6G22R12G 7
                                G 2R 3G 3R 2
  20702690.078   108793418.392    20702698.195    84774143.0504   20702697.891  
                
  22199211.844   116657681.868    22199218.422    90902133.7844                 
                
  21351844.766   114137866.658                    88773896.392    21351850.918  
  21351844.270  
  23357186.195   122742912.817    23357196.328    95643852.0264   23357196.277  
                
  20707677.867   108819618.768    20707686.164    84794562.3274   20707686.082  
                
  23575381.750   126112390.618                    98087436.984    23575385.918  
  23575379.527  
  22607235.156   120721355.136                    93894420.027    22607240.246  
  22607233.172  
  23044408.180   123012619.248                    95676473.537    23044412.430  
  23044406.645  
  22812689.664   119881478.332    22812699.719    93414198.6234   22812700.129  
                
  24432523.266   128393772.466    24432529.785   100047117.8164                 
                
  19508697.922   104212000.001                    81053778.892    19508701.652  
  19508697.180  
  22147661.656   116386775.942    22147669.066    90691043.8754   22147668.871  
                
  24811660.680   130386165.573    24811666.082   101599622.0554                 
                
  22575047.320   120846003.429                    93991340.366    22575051.969  
  22575046.129  
  22600191.000   118764812.794    22600200.961    92544060.5034   22600201.285  
                
  19415902.266   103606992.634                    80583221.681    19415905.188  
  19415900.148  
 21  8 16 16 38 20.0000000  0 16G 4G16R 1G26G 9R19R13R18G 6G22R12G 7
                                G 2R 3G 3R 2
  20704586.047   108803381.828    20704594.188    84781906.7654   20704593.867  
                
  22197900.539   116650790.965    22197907.176    90896764.2684                 
                
  21356856.320   114164656.288                    88794732.764    21356862.473  
  21356855.828  
  23360634.531   122761033.991    23360644.695    95657972.4154   23360644.633  
                
  20705507.539   108808213.615    20705515.797    84785675.1954   20705515.738  
                
  23573464.578   126102134.359                    98079459.916    23573468.734  
  23573462.281  
  22599042.648   120677607.133                    93860393.816    22599047.590  
  22599040.609  
  23048027.227   123031937.879                    95691499.144    23048031.523  
  23048025.711  
  22814526.508   119891130.980    22814536.551    93421720.1674   22814536.988  
                
  24439243.508   128429087.529    24439250.039   100074636.0124                 
                
  19505627.617   104195599.012                    81041022.577    19505631.355  
  19505626.867  
  22143014.195   116362353.363    22143021.652    90672013.3204   22143021.453  
                
  24809878.320   130376799.159    24809883.711   101592323.5614                 
                
  22568648.875   120811752.125                    93964700.464    22568653.559  
  22568647.680  
  22606355.562   118797207.753    22606365.531    92569303.3174   22606365.859  
                
  19413801.453   103595782.325                    80574502.549    19413804.379  
  19413799.348  
 21  8 16 16 38 30.0000000  0 16G 4G16R 1G26G 9R19R13R18G 6G22R12G 7
                                G 2R 3G 3R 2
  20706488.047   108813376.942    20706496.203    84789695.1644   20706495.871  
                
  22196602.773   116643971.261    22196609.441    90891450.2174                 
                
  21361874.953   114191483.800                    88815598.602    21361881.094  
  21361874.438  
  23364093.758   122779212.467    23364103.922    95672137.4804   23364103.879  
                
  20703343.234   108796840.107    20703351.465    84776812.7194   20703351.426  
                
  23571562.758   126091961.428                    98071547.661    23571567.031  
  23571560.512  
  22590854.867   120633883.782                    93826386.783    22590859.566  
  22590852.613  
  23051659.289   123051325.892                    95706578.725    23051663.555  
  23051657.812  
  22816374.953   119900844.651    22816384.969    93429289.2644   22816385.426  
                
  24445966.133   128464415.219    24445972.730   100102164.0724                 
                
  19502573.016   104179281.962                    81028331.544    19502576.766  
  19502572.262  
  22138372.914   116337963.298    22138380.387    90653008.0784   22138380.184  
                
  24808105.844   130367484.656    24808111.262   101585065.5184                 
                
  22562251.172   120777504.877                    93938063.764    22562255.914  
  22562249.988  
  22612526.023   118829633.720    22612536.016    92594570.2864   22612536.332  
                
  19411708.992   103584616.591                    80565818.088    19411711.941  
  19411706.891  
 21  8 16 16 38 40.0000000  0 16G 4G16R 1G26G 9R19R13R18G 6G22R12G 7
                                G 2R 3G 3R 2
  20708396.109   108823403.925    20708404.270    84797508.3944   20708403.949  
                
  22195318.602   116637222.910    22195325.301    90886191.7904                 
                
  21366900.695   114218349.302                    88836493.984    21366906.824  
  21366900.172  
  23367563.938   122797448.458    23367574.082    95686347.3434   23367574.051  
                
  20701184.984   108785498.441    20701193.199    84767975.0544   20701193.160  
                
  23569676.578   126081872.191                    98063700.490    23569680.957  
  23569674.316  
  22582671.578   120590185.104                    93792398.944    22582676.129  
  22582669.262  
  23055304.328   123070783.466                    95721712.332    23055308.660  
  23055302.883  
  22818235.055   119910619.516    22818245.047    93436906.0384   22818245.539  
                
  24452691.188   128499755.711    24452697.852   100129702.1064                 
                
  19499534.203   104163049.187                    81015706.065    19499537.965  
  19499533.469  
  22133737.844   116313605.868    22133745.320    90634028.2714   22133745.102  
                
  24806343.297   130358222.369    24806348.734   101577848.1494                 
                
  22555854.367   120743262.264                    93911430.645    22555859.090  
  22555853.184  
  22618702.422   118862090.806    22618712.418    92619861.5144   22618712.723  
                
  19409625.031   103573496.191                    80557168.887    19409627.992  
  19409622.938  
 21  8 16 16 38 50.0000000  0 16G 4G16R 1G26G 9R19R13R18G 6G22R12G 7
                                G 2R 3G 3R 2
  20710310.188   108833462.463    20710318.344    84805346.2184   20710318.012  
                
  22194047.977   116630545.768    22194054.684    90880988.8214                 
                
  21371933.492   114245252.482                    88857418.666    21371939.582  
  21371932.961  
  23371044.977   122815741.570    23371055.094    95700601.7024   23371055.086  
                
  20699032.742   108774188.353    20699040.953    84759162.0054   20699040.906  
                
  23567806.141   126071866.187                    98055918.056    23567810.418  
  23567803.758  
  22574492.820   120546511.057                    93758430.279    22574497.316  
  22574490.508  
  23058962.352   123090310.267                    95736899.846    23058966.742  
  23058960.973  
  22820106.727   119920455.206    22820116.715    93444570.1934   22820117.195  
                
  24459418.586   128535108.684    24459425.305   100157249.8614                 
                
  19496511.109   104146900.437                    81003145.932    19496514.867  
  19496510.395  
  22129108.883   116289280.586    22129116.371    90615073.5194   22129116.152  
                
  24804590.633   130349011.957    24804596.055   101570671.1894                 
                
  22549458.344   120709023.771                    93884800.711    22549463.059  
  22549457.152  
  22624884.664   118894578.682    22624894.629    92645176.7374   22624894.961  
                
  19407549.469   103562420.616                    80548554.551    19407552.441  
  19407547.367  
 21  8 16 16 39  0.0000000  0 16G 4G16R 1G26G 9R19R13R18G 6G22R12G 7
                                G 2R 3G 3R 2
  20712230.281   108843552.638    20712238.422    84813208.6884   20712238.098  
                
  22192790.914   116623939.871    22192797.586    90875841.3874                 
                
  21376973.352   114272193.335                    88878372.657    21376979.402  
  21376972.832  
  23374536.898   122834091.807    23374547.004    95714900.5754   23374547.008  
                
  20696886.539   108762909.940    20696894.746    84750373.6344   20696894.691  
                
  23565951.281   126061943.626                    98048200.527    23565955.531  
  23565948.891  
  22566318.578   120502861.974                    93724481.033    22566323.227  
  22566316.449  
  23062633.289   123109906.146                    95752141.065    23062637.734  
  23062631.836  
  22821989.977   119930351.719    22821999.965    93452281.7564   22822000.445  
                
  24466148.383   128570474.157    24466155.117   100184807.3484                 
                
  19493503.773   104130835.766                    80990651.208    19493507.555  
  19493503.070  
  22124486.070   116264987.598    22124493.570    90596143.9474   22124493.367  
                
  24802847.828   130339853.482    24802853.234   101563534.7434                 
                
  22543063.078   120674789.624                    93858174.171    22543067.824  
  22543061.855  
  22631072.773   118927097.363    22631082.688    92670515.9564   22631083.059  
                
  19405482.305   103551389.829                    80539975.050    19405485.289  
  19405480.191  
 21  8 16 16 39 10.0000000  0 16G 4G16R 1G26G 9R19R13R18G 6G22R12G 7
                                G 2R 3G 3R 2
  20714156.398   108853674.447    20714164.520    84821095.8044   20714164.195  
                
  22191547.422   116617405.306    22191554.066    90870749.5134                 
                
  21382020.266   114299171.942                    88899356.000    21382026.297  
  21382019.750  
  23378039.672   122852499.122    23378049.762    95729243.9424   23378049.789  
                
  20694746.359   108751663.241    20694754.562    84741609.9794   20694754.496  
                
  23564111.938   126052104.363                    98040547.765    23564116.164  
  23564109.559  
  22558149.234   120459237.825                    93690551.153    22558153.844  
  22558147.047  
  23066317.141   123129570.908                    95767435.842    23066321.664  
  23066315.582  
  22823884.797   119940308.997    22823894.754    93460040.6714   22823895.258  
                
  24472880.539   128605852.039    24472887.309   100212374.5384                 
                
  19490512.172   104114855.253                    80978221.933    19490515.957  
  19490511.473  
  22119869.430   116240727.042    22119876.918    90577239.6304   22119876.727  
                
  24801114.930   130330747.073    24801120.281   101556438.8104                 
                
  22536668.648   120640559.859                    93831551.020    22536673.379  
  22536667.375  
  22637266.727   118959646.751    22637276.617    92695879.1104   22637277.000  
                
  19403423.602   103540404.270                    80531430.740    19403426.609  
  19403421.477  
 21  8 16 16 39 20.0000000  0 16G 4G16R 1G26G 9R19R13R18G 6G22R12G 7
                                G 2R 3G 3R 2
  20716088.484   108863827.661    20716096.570    84829007.3904   20716096.258  
                
  22190317.469   116610941.887    22190324.117    90865713.0854                 
                
  21387074.195   114326188.046                    88920368.544    21387080.234  
  21387073.707  
  23381553.242   122870963.186    23381563.320    95743631.5224   23381563.324  
                
  20692612.172   108740448.032    20692620.355    84732870.8614   20692620.289  
                
  23562288.234   126042348.652                    98032959.960    23562292.465  
  23562285.883  
  22549984.445   120415638.587                    93656640.679    22549989.094  
  22549982.273  
  23070013.883   123149304.396                    95782784.118    23070018.445  
  23070012.320  
  22825791.125   119950326.777    22825801.062    93467846.7284   22825801.559  
                
  24479615.008   128641241.986    24479621.805   100239951.0884                 
                
  19487536.312   104098958.777                    80965858.013    19487540.105  
  19487535.621  
  22115258.938   116216498.833    22115266.414    90558360.5254   22115266.242  
                
  24799391.867   130321692.407    24799397.145   101549383.2194                 
                
  22530275.031   120606334.485                    93804931.298    22530279.789  
  22530273.801  
  22643466.453   118992226.537    22643476.355    92721265.9474   22643476.723  
                
  19401373.266   103529463.310                    80522921.095    19401376.281  
  19401371.141  
 21  8 16 16 39 30.0000000  0 16G 4G16R 1G26G 9R19R13R18G 6G22R12G 7
                                G 2R 3G 3R 2
  20718026.648   108874012.761    20718034.707    84836943.8404   20718034.410  
                
  22189101.156   116604550.160    22189107.812    90860732.5284                 
                
  21392135.242   114353242.099                    88941410.562    21392141.242  
  21392134.754  
  23385077.703   122889484.485    23385087.793    95758063.6984   23385087.777  
                
  20690484.094   108729264.880    20690492.254    84724156.7164   20690492.199  
                
  23560480.164   126032676.888                    98025437.457    23560484.414  
  23560477.844  
  22541824.547   120372064.983                    93622750.135    22541829.164  
  22541822.309  
  23073723.516   123169106.821                    95798185.995    23073728.141  
  23073721.941  
  22827709.047   119960405.500    22827718.961    93475700.2704   22827719.473  
                
  24486351.836   128676644.420    24486358.703   100267537.3934                 
                
  19484576.305   104083146.956                    80953559.938    19484580.102  
  19484575.637  
  22110654.703   116192303.491    22110662.141    90539507.0164   22110661.996  
                
  24797678.789   130312690.113    24797683.961   101542368.4604                 
                
  22523882.367   120572113.920                    93778315.326    22523887.113  
  22523881.188  
  22649672.055   119024837.203    22649681.977    92746676.8414   22649682.336  
                
  19399331.500   103518568.061                    80514447.019    19399334.527  
  19399329.375  
 21  8 16 16 39 40.0000000  0 16G 4G16R 1G26G 9R19R13R18G 6G22R12G 7
                                G 2R 3G 3R 2
  20719970.852   108884229.597    20719978.875    84844905.0074   20719978.590  
                
  22187898.469   116598229.994    22187905.121    90855807.7404                 
                
  21397203.359   114380333.938                    88962481.974    21397209.344  
  21397202.883  
  23388613.016   122908062.736    23388623.145    95772540.2624   23388623.105  
                
  20688362.086   108718113.616    20688370.219    84715467.4224   20688370.176  
                
  23558687.781   126023088.839                    98017980.085    23558692.051  
  23558685.406  
  22533669.273   120328517.083                    93588879.579    22533674.016  
  22533667.145  
  23077446.078   123188978.096                    95813641.425    23077450.711  
  23077444.461  
  22829638.523   119970544.947    22829648.398    93483601.1334   22829648.918  
                
  24493091.039   128712059.113    24493097.934   100295133.2274                 
                
  19481632.094   104067419.529                    80941327.506    19481635.898  
  19481631.434  
  22106056.695   116168140.853    22106064.074    90520678.9864   22106063.953  
                
  24795975.641   130303740.003    24795980.680   101535394.3444                 
                
  22517490.578   120537898.046                    93751703.007    22517495.312  
  22517489.414  
  22655883.477   119057478.479    22655893.414    92772111.5924   22655893.777  
                
  19397298.250   103507718.254                    80506008.285    19397301.293  
  19397296.121  
 21  8 16 16 39 50.0000000  0 16G 4G16R 1G26G 9R19R13R18G 6G22R12G 7
                                G 2R 3G 3R 2
  20721921.055   108894478.037    20721929.043    84852890.8094   20721928.777  
                
  22186709.375   116591981.382    22186716.008    90850938.6904                 
                
  21402278.516   114407463.453                    88983582.697    21402284.547  
  21402278.039  
  23392159.133   122926697.801    23392169.277    95787061.0894   23392169.223  
                
  20686246.117   108706994.171    20686254.242    84706802.9244   20686254.195  
                
  23556911.016   126013584.488                    98010587.832    23556915.309  
  23556908.668  
  22525518.648   120284994.700                    93555028.884    22525523.699  
  22525516.738  
  23081181.484   123208917.834                    95829150.095    23081186.078  
  23081179.848  
  22831579.516   119980744.934    22831589.348    93491549.1744   22831589.902  
                
  24499832.633   128747485.913    24499839.461   100322738.5004                 
                
  19478703.703   104051776.648                    80929160.840    19478707.504  
  19478703.043  
  22101464.883   116144010.863    22101472.195    90501876.4214   22101472.102  
                
  24794282.406   130294842.013    24794287.281   101528460.8414                 
                
  22511099.633   120503686.875                    93725094.337    22511104.379  
  22511098.469  
  22662100.695   119090150.224    22662110.645    92797570.0894   22662111.012  
                
  19395273.445   103496913.559                    80497604.636    19395276.500  
  19395271.309  
 21  8 16 16 40  0.0000000  0 16G 4G16R 1G26G 9R19R13R18G 6G22R12G 7
                                G 2R 3G 3R 2
  20723877.289   108904758.081    20723885.238    84860901.2314   20723884.988  
                
  22185533.930   116585804.380    22185540.555    90846125.4484                 
                
  21407360.719   114434630.551                    89004712.633    21407366.715  
  21407360.266  
  23395716.062   122945389.630    23395726.207    95801626.1304   23395726.156  
                
  20684136.219   108695906.553    20684144.348    84698163.2244   20684144.289  
                
  23555149.945   126004163.946                    98003260.768    23555154.250  
  23555147.617  
  22517373.078   120241497.865                    93521198.041    22517378.141  
  22517371.168  
  23084929.664   123228925.817                    95844711.868    23084934.266  
  23084928.012  
  22833532.023   119991005.436    22833541.828    93499544.3684   22833542.387  
                
  24506576.523   128782924.810    24506583.309   100350353.2254                 
                
  19475791.125   104036218.219                    80917059.848    19475794.938  
  19475790.461  
  22096879.281   116119913.454    22096886.543    90483099.2364   22096886.480  
                
  24792599.094   130285996.191    24792603.871   101521568.0054                 
                
  22504709.570   120469480.367                    93698489.274    22504714.312  
  22504708.445  
  22668323.695   119122852.360    22668333.637    92823052.2624   22668334.035  
                
  19393257.164   103486154.317                    80489236.335    19393260.219  
  19393255.035  
 21  8 16 16 40 10.0000000  0 16G 4G16R 1G26G 9R19R13R18G 6G22R12G 7
                                G 2R 3G 3R 2
  20725839.539   108915069.743    20725847.453    84868936.3014   20725847.211  
                
  22184372.109   116579699.041    22184378.766    90841368.0494                 
                
  21412449.930   114461835.171                    89025871.784    21412455.957  
  21412449.480  
  23399283.773   122964138.128    23399293.898    95816235.3484   23399293.875  
                
  20682032.375   108684850.820    20682040.516    84689548.3734   20682040.438  
                
  23553404.430   125994827.246                    97995998.906    23553408.824  
  23553402.148  
  22509232.320   120198026.753                    93487387.215    22509237.414  
  22509230.367  
  23088690.617   123249002.146                    95860326.784    23088695.234  
  23088688.934  
  22835496.031   120001326.369    22835505.812    93507586.6474   22835506.363  
                
  24513322.695   128818375.719    24513329.434   100377977.2914                 
                
  19472894.367   104020744.322                    80905024.618    19472898.184  
  19472893.691  
  22092299.906   116095848.738    22092307.133    90464347.5144   22092307.090  
                
  24790925.688   130277202.431    24790930.422   101514715.7504                 
                
  22498320.445   120435278.770                    93671888.033    22498325.148  
  22498319.348  
  22674552.469   119155584.812    22674562.449    92848558.0644   22674562.875  
                
  19391249.422   103475440.639                    80480903.479    19391252.496  
  19391247.301  
 21  8 16 16 40 20.0000000  0 16G 4G16R 1G26G 9R19R13R18G 6G22R12G 7
                                G 2R 3G 3R 2
  20727807.766   108925412.825    20727815.625    84876995.8364   20727815.395  
                
  22183223.898   116573665.187    22183230.574    90836666.3734                 
                
  21417546.164   114489077.370                    89047060.169    21417552.160  
  21417545.688  
  23402862.234   122982943.052    23402872.301    95830888.5374   23402872.301  
                
  20679934.570   108673826.779    20679942.723    84680958.2144   20679942.617  
                
  23551674.664   125985574.187                    97988802.050    23551679.047  
  23551672.305  
  22501096.477   120154581.547                    93453596.543    22501101.512  
  22501094.410  
  23092464.328   123269146.412                    95875994.556    23092468.926  
  23092462.637  
  22837471.492   120011707.512    22837481.234    93515675.8484   22837481.805  
                
  24520071.023   128853838.369    24520077.758   100405610.5104                 
                
  19470013.422   104005354.881                    80893055.063    19470017.230  
  19470012.723  
  22087726.719   116071816.561    22087733.898    90445621.1494   22087733.855  
                
  24789262.172   130268460.623    24789266.840   101507903.9384                 
                
  22491932.172   120401081.851                    93645290.459    22491936.863  
  22491931.070  
  22680786.961   119188347.344    22680797.043    92874087.2874   22680797.465  
                
  19389250.180   103464772.305                    80472605.887    19389253.266  
  19389248.051  
 21  8 16 16 40 30.0000000  0 16G 4G16R 1G26G 9R19R13R18G 6G22R12G 7
                                G 2R 3G 3R 2
  20729782.070   108935787.820    20729789.875    84885080.2564   20729789.664  
                
  22182089.352   116567703.181    22182096.027    90832020.6484                 
                
  21422649.469   114516357.359                    89068277.936    21422655.477  
  21422649.023  
  23406451.523   123001804.876    23406461.535    95845586.0514   23406461.551  
                
  20677842.906   108662835.000    20677851.059    84672393.1964   20677850.949  
                
  23549960.648   125976405.299                    97981670.682    23549964.980  
  23549958.309  
  22492965.695   120111162.874                    93419826.484    22492970.562  
  22492963.484  
  23096250.781   123289359.004                    95891715.427    23096255.418  
  23096249.055  
  22839458.492   120022149.313    22839468.195    93523812.3034   22839468.758  
                
  24526821.625   128889313.206    24526828.402   100433253.2314                 
                
  19467148.383   103990050.438                    80881151.602    19467152.184  
  19467147.684  
  22083159.836   116047817.514    22083166.977    90426920.6024   22083166.961  
                
  24787608.641   130259771.365    24787613.305   101501133.0954                 
                
  22485544.883   120366890.220                    93618697.000    22485549.586  
  22485543.758  
  22687027.266   119221140.394    22687037.465    92899640.2844   22687037.867  
                
  19387259.594   103454150.226                    80464344.274    19387262.688  
  19387257.469  
 21  8 16 16 40 40.0000000  0 16G 4G16R 1G26G 9R19R13R18G 6G22R12G 7
                                G 2R 3G 3R 2
  20731762.367   108946194.322    20731770.109    84893189.2134   20731769.926  
                
  22180968.469   116561812.923    22180975.137    90827430.8424                 
                
  21427759.766   114543674.766                    89089524.803    21427765.801  
  21427759.305  
  23410051.562   123020723.076    23410061.559    95860327.5124   23410061.562  
                
  20675757.297   108651875.089    20675765.441    84663853.0074   20675765.340  
                
  23548262.336   125967320.242                    97974604.555    23548266.645  
  23548260.055  
  22484839.523   120067770.121                    93386076.589    22484844.449  
  22484837.441  
  23100049.984   123309639.330                    95907489.020    23100054.582  
  23100048.266  
  22841456.953   120032651.292    22841466.641    93531995.6554   22841467.230  
                
  24533574.531   128924799.774    24533581.270   100460905.1024                 
                
  19464299.203   103974830.615                    80869313.991    19464302.996  
  19464298.488  
  22078599.188   116023851.221    22078606.305    90408245.5874   22078606.324  
                
  24785965.055   130251134.294    24785969.773   101494402.8914                 
                
  22479158.500   120332703.469                    93592107.312    22479163.203  
  22479157.352  
  22693273.289   119253963.457    22693283.590    92925216.6754   22693283.973  
                
  19385277.547   103443573.656                    80456118.061    19385280.641  
  19385275.422  
 21  8 16 16 40 50.0000000  0 16G 4G16R 1G26G 9R19R13R18G 6G22R12G 7
                                G 2R 3G 3R 2
  20733748.625   108956632.128    20733756.309    84901322.5774   20733756.172  
                
  22179861.203   116555994.224    22179867.879    90822896.8024                 
                
  21432877.070   114571029.644                    89110800.810    21432883.102  
  21432876.590  
  23413662.258   123039697.431    23413672.273    95875112.7234   23413672.250  
                
  20673677.727   108640946.862    20673685.855    84655337.5064   20673685.766  
                
  23546579.672   125958318.733                    97967603.396    23546583.930  
  23546577.367  
  22476718.406   120024403.417                    93352346.966    22476723.242  
  22476716.188  
  23103861.836   123329987.104                    95923315.064    23103866.352  
  23103860.148  
  22843466.805   120043213.196    22843476.527    93540225.6874   22843477.141  
                
  24540329.531   128960297.733    24540336.305   100488565.8334                 
                
  19461465.820   103959695.276                    80857542.072    19461469.582  
  19461465.094  
  22074044.742   115999917.498    22074051.855    90389595.9444   22074051.867  
                
  24784331.367   130242549.280    24784336.164   101487713.2764                 
                
  22472773.039   120298521.629                    93565521.465    22472777.770  
  22472771.844  
  22699524.977   119286816.282    22699535.305    92950816.2684   22699535.664  
                
  19383304.086   103433042.881                    80447927.458    19383307.180  
  19383301.969  
 21  8 16 16 41  0.0000000  0 16G 4G16R 1G26G 9R19R13R18G 6G22R12G 7
                                G 2R 3G 3R 2
  20735740.859   108967101.396    20735748.492    84909480.4524   20735748.387  
                
  22178767.578   116550247.235    22178774.266    90818418.6444                 
                
  21438001.320   114598421.573                    89132105.654    21438007.328  
  21438000.891  
  23417283.641   123058727.989    23417293.652    95889941.7204   23417293.633  
                
  20671604.211   108630050.503    20671612.320    84646846.8394   20671612.250  
                
  23544912.688   125949401.249                    97960667.572    23544916.895  
  23544910.289  
  22468602.102   119981063.162                    93318637.903    22468606.973  
  22468599.910  
  23107686.328   123350402.513                    95939193.704    23107690.820  
  23107684.656  
  22845488.070   120053835.115    22845497.852    93548502.5004   22845498.457  
                
  24547086.758   128995807.256    24547093.551   100516235.6004                 
                
  19458648.305   103944644.685                    80845836.064    19458652.039  
  19458647.578  
  22069496.508   115976016.467    22069503.621    90370971.7734   22069503.621  
                
  24782707.609   130234016.485    24782712.500   101481064.3144                 
                
  22466388.492   120264344.798                    93538939.481    22466393.207  
  22466387.328  
  22705782.344   119319698.984    22705792.613    92976439.1564   22705792.996  
                
  19381339.125   103422557.517                    80439772.180    19381342.223  
  19381337.012  
 21  8 16 16 41 10.0000000  0 16G 4G16R 1G26G 9R19R13R18G 6G22R12G 7
                                G 2R 3G 3R 2
  20737739.141   108977602.372    20737746.727    84917663.0364   20737746.641  
                
  22177687.680   116544572.307    22177694.359    90813996.6314                 
                
  21443132.633   114625851.302                    89153439.864    21443138.652  
  21443132.199  
  23420915.773   123077814.952    23420925.773    95904814.6904   23420925.758  
                
  20669536.828   108619186.304    20669544.930    84638381.2364   20669544.871  
                
  23543261.438   125940567.772                    97953797.116    23543265.535  
  23543259.039  
  22460490.758   119937749.783                    93284949.753    22460495.777  
  22460488.641  
  23111523.531   123370885.531                    95955124.966    23111527.953  
  23111521.918  
  22847520.812   120064517.245    22847530.664    93556826.2384   22847531.273  
                
  24553846.211   129031328.482    24553852.988   100543914.4604                 
                
  19455846.703   103929679.080                    80834196.141    19455850.418  
  19455845.977  
  22064954.570   115952148.434    22064961.695    90352373.3154   22064961.684  
                
  24781093.828   130225536.067    24781098.820   101474456.2054                 
                
  22460005.008   120230173.297                    93512361.653    22460009.656  
  22460003.875  
  22712045.438   119352611.739    22712055.617    93002085.4484   22712056.023  
                
  19379382.844   103412118.426                    80431652.895    19379385.926  
  19379380.730  
 21  8 16 16 41 20.0000000  0 16G 4G16R 1G26G 9R19R13R18G 6G22R12G 7
                                G 2R 3G 3R 2
  20739743.438   108988134.987    20739750.996    84925870.2674   20739750.938  
                
  22176621.492   116538969.479    22176628.145    90809630.7964                 
                
  21448270.945   114653318.447                    89174803.186    21448276.984  
  21448270.500  
  23424558.617   123096958.237    23424568.625    95919731.5514   23424568.621  
                
  20667475.555   108608354.253    20667483.664    84629940.6774   20667483.609  
                
  23541625.812   125931818.563                    97946992.161    23541629.914  
  23541623.465  
  22452384.336   119894463.297                    93251282.531    22452389.543  
  22452382.340  
  23115373.312   123391435.871                    95971108.553    23115377.738  
  23115371.738  
  22849564.984   120075259.480    22849574.898    93565196.8164   22849575.477  
                
  24560607.867   129066861.297    24560614.629   100571602.3634                 
                
  19453061.039   103914798.579                    80822622.429    19453064.730  
  19453060.324  
  22060418.914   115928313.499    22060426.062    90333800.6544   22060426.043  
                
  24779490.008   130217108.023    24779495.055   101467888.8804                 
                
  22453622.508   120196007.152                    93485787.994    22453627.090  
  22453621.340  
  22718314.227   119385554.414    22718324.359    93027755.0634   22718324.781  
                
  19377435.203   103401725.444                    80423569.461    19377438.262  
  19377433.086  
 21  8 16 16 41 30.0000000  0 16G 4G16R 1G26G 9R19R13R18G 6G22R12G 7
                                G 2R 3G 3R 2
  20741753.734   108998699.148    20741761.277    84934102.0784   20741761.227  
                
  22175568.984   116533438.544    22175575.641    90805320.9884                 
                
  21453416.258   114680823.053                    89196195.653    21453422.332  
  21453415.781  
  23428212.141   123116157.603    23428222.176    95934692.1004   23428222.145  
                
  20665420.375   108597554.232    20665428.504    84621525.0764   20665428.438  
                
  23540006.016   125923153.435                    97940252.590    23540010.039  
  23540003.625  
  22444283.008   119851203.636                    93217636.165    22444288.344  
  22444281.074  
  23119235.680   123412053.494                    95987144.462    23119240.098  
  23119234.109  
  22851620.562   120086061.676    22851630.520    93573614.0994   22851631.070  
                
  24567371.711   129102405.560    24567378.461   100599299.1814                 
                
  19450291.258   103900002.926                    80811114.706    19450294.914  
  19450290.555  
  22055889.531   115904511.475    22055896.707    90315253.6364   22055896.672  
                
  24777896.133   130208732.262    24777901.164   101461362.3254                 
                
  22447240.977   120161846.492                    93459218.602    22447245.543  
  22447239.762  
  22724588.680   119418526.844    22724598.816    93053447.8514   22724599.223  
                
  19375496.219   103391378.677                    80415521.974    19375499.258  
  19375494.105  
 21  8 16 16 41 40.0000000  0 16G 4G16R 1G26G 9R19R13R18G 6G22R12G 7
                                G 2R 3G 3R 2
  20743770.031   109009294.828    20743777.562    84942358.4454   20743777.520  
                
  22174530.133   116527979.386    22174536.785    90801067.1224                 
                
  21458568.586   114708365.140                    89217617.245    21458574.664  
  21458568.117  
  23431876.336   123135413.041    23431886.391    95949696.3444   23431886.340  
                
  20663371.297   108586786.265    20663379.445    84613134.4594   20663379.371  
                
  23538401.984   125914572.424                    97933578.499    23538405.949  
  23538399.523  
  22436186.891   119807971.065                    93184010.874    22436192.250  
  22436184.957  
  23123110.602   123432738.206                    96003232.566    23123115.055  
  23123109.031  
  22853687.539   120096923.731    22853697.547    93582078.0224   22853698.094  
                
  24574137.703   129137961.117    24574144.430   100627004.7834                 
                
  19447537.414   103885292.416                    80799673.209    19447541.055  
  19447536.719  
  22051366.406   115880742.371    22051373.598    90296732.2644   22051373.559  
                
  24776312.234   130200408.870    24776317.258   101454876.5634                 
                
  22440860.461   120127691.077                    93432653.283    22440865.012  
  22440859.207  
  22730868.773   119451528.945    22730878.914    93079163.7574   22730879.316  
                
  19373565.852   103381077.846                    80407510.218    19373568.879  
  19373563.742  
 21  8 16 16 41 50.0000000  0 16G 4G16R 1G26G 9R19R13R18G 6G22R12G 7
                                G 2R 3G 3R 2
  20745792.352   109019922.178    20745799.883    84950639.5044   20745799.840  
                
  22173505.016   116522592.414    22173511.664    90796869.5004                 
                
  21463727.898   114735944.547                    89239067.900    21463733.992  
  21463727.414  
  23435551.203   123154724.603    23435561.266    95964744.3404   23435561.199  
                
  20661328.352   108576050.550    20661336.523    84604768.9664   20661336.441  
                
  23536813.602   125906075.766                    97926969.980    23536817.582  
  23536811.141  
  22428095.852   119764765.700                    93150406.723    22428101.301  
  22428093.914  
  23126998.148   123453490.026                    96019372.905    23127002.629  
  23126996.555  
  22855765.922   120107845.741    22855775.980    93590588.6754   22855776.484  
                
  24580905.906   129173528.072    24580912.578   100654719.2874                 
                
  19444799.492   103870666.991                    80788297.892    19444803.113  
  19444798.793  
  22046849.586   115857006.364    22046856.805    90278236.6914   22046856.754  
                
  24774738.352   130192138.056    24774743.414   101448431.7884                 
                
  22434481.016   120093541.414                    93406092.468    22434485.551  
  22434479.734  
  22737154.531   119484560.801    22737164.633    93104902.8594   22737165.070  
                
  19371644.188   103370823.507                    80399534.629    19371647.219  
  19371642.070  
 21  8 16 16 42  0.0000000  0 16G 4G16R 1G26G 9R19R13R18G 6G22R12G 7
                                G 2R 3G 3R 2
  20747820.695   109030581.182    20747828.230    84958945.2144   20747828.195  
                
  22172493.648   116517277.610    22172500.305    90792728.1074                 
                
  21468894.195   114763561.418                    89260547.683    21468900.352  
  21468893.672  
  23439236.750   123174092.211    23439246.793    95979835.9914   23439246.730  
                
  20659291.555   108565347.095    20659299.734    84596428.6184   20659299.656  
                
  23535240.930   125897663.508                    97920427.109    23535245.004  
  23535238.496  
  22420009.953   119721587.556                    93116823.777    22420015.391  
  22420008.027  
  23130898.211   123474308.804                    96035565.289    23130902.707  
  23130896.598  
  22857855.719   120118827.639    22857865.785    93599146.0014   22857866.285  
                
  24587676.227   129209106.388    24587682.883   100682442.6324                 
                
  19442077.562   103856126.954                    80776988.980    19442081.176  
  19442076.867  
  22042339.094   115833303.569    22042346.355    90259766.9914   22042346.297  
                
  24773174.469   130183919.775    24773179.551   101442027.9344                 
                
  22428102.617   120059397.456                    93379536.082    22428107.129  
  22428101.348  
  22743445.945   119517622.351    22743456.008    93130665.1064   22743456.480  
                
  19369731.297   103360615.981                    80391595.436    19369734.324  
  19369729.195  
 21  8 16 16 42 10.0000000  0 16G 4G16R 1G26G 9R19R13R18G 6G22R12G 7
                                G 2R 3G 3R 2
  20749855.000   109041271.548    20749862.547    84967275.3654   20749862.508  
                
  22171495.969   116512034.825    22171502.625    90788642.8164                 
                
  21474067.453   114791215.504                    89282056.393    21474073.637  
  21474066.867  
  23442932.898   123193515.528    23442942.934    95994971.0414   23442942.887  
                
  20657260.836   108554675.654    20657269.020    84588113.2114   20657268.938  
                
  23533683.977   125889335.509                    97913949.774    23533688.156  
  23533681.609  
  22411929.328   119678436.900                    93083262.178    22411934.652  
  22411927.285  
  23134810.695   123495194.145                    96051809.388    23134815.242  
  23134809.016  
  22859956.836   120129869.084    22859966.848    93607749.7134   22859967.410  
                
  24594448.719   129244695.733    24594455.293   100710174.5804                 
                
  19439371.555   103841671.965                    80765746.215    19439375.152  
  19439370.859  
  22037834.852   115809633.677    22037842.141    90241322.9244   22037842.070  
                
  24771620.531   130175753.757    24771625.621   101435664.7994                 
                
  22421725.242   120025258.891                    93352983.872    22421729.699  
  22421723.984  
  22749742.938   119550713.226    22749753.004    93156450.1914   22749753.484  
                
  19367827.008   103350454.325                    80383691.923    19367830.043  
  19367824.910  
 21  8 16 16 42 20.0000000  0 16G 4G16R 1G26G 9R19R13R18G 6G22R12G 7
                                G 2R 3G 3R 2
  20751895.258   109051993.153    20751902.828    84975629.8634   20751902.793  
                
  22170511.977   116506863.968    22170518.660    90784613.5854                 
                
  21479247.625   114818906.526                    89303593.856    21479253.809  
  21479247.051  
  23446639.594   123212994.333    23446649.652    96010149.3484   23446649.609  
                
  20655236.195   108544036.105    20655244.383    84579822.6694   20655244.297  
                
  23532142.875   125881091.323                    97907537.644    23532146.969  
  23532140.496  
  22403853.500   119635313.327                    93049721.676    22403858.965  
  22403851.555  
  23138735.633   123516145.700                    96068105.008    23138740.191  
  23138733.930  
  22862069.258   120140969.889    22862079.211    93616399.6854   22862079.832  
                
  24601223.219   129280295.858    24601229.770   100737914.9234                 
                
  19436681.430   103827301.883                    80754569.496    19436685.020  
  19436680.723  
  22033336.852   115785996.587    22033344.156    90222904.4204   22033344.074  
                
  24770076.500   130167639.813    24770081.574   101429342.2444                 
                
  22415348.898   119991125.702                    93326435.832    22415353.297  
  22415347.633  
  22756045.469   119583833.217    22756055.543    93182257.9654   22756056.031  
                
  19365931.352   103340338.759                    80375824.273    19365934.398  
  19365929.250  
 21  8 16 16 42 30.0000000  0 16G 4G16R 1G26G 9R19R13R18G 6G22R12G 7
                                G 2R 3G 3R 2
  20753941.562   109062746.510    20753949.160    84984009.1004   20753949.105  
                
  22169541.789   116501765.563    22169548.508    90780640.8194                 
                
  21484434.852   114846635.145                    89325160.540    21484441.012  
  21484434.262  
  23450356.953   123232529.106    23450367.039    96025371.2644   23450367.016  
                
  20653217.734   108533429.014    20653225.934    84571557.4074   20653225.844  
                
  23530617.531   125872931.721                    97901191.312    23530621.629  
  23530615.195  
  22395783.156   119592217.833                    93016202.990    22395788.547  
  22395781.109  
  23142673.016   123537163.910                    96084452.478    23142677.613  
  23142671.336  
  22864193.055   120152130.495    22864202.984    93625096.2574   22864203.645  
                
  24607999.891   129315907.273    24608006.426   100765664.0754                 
                
  19434007.344   103813017.384                    80743459.332    19434010.922  
  19434006.625  
  22028845.227   115762392.921    22028852.547    90204511.9674   22028852.445  
                
  24768542.500   130159578.599    24768547.586   101423060.7874                 
                
  22408973.648   119956998.448                    93299892.425    22408978.016  
  22408972.406  
  22762353.633   119616982.815    22762363.730    93208088.8164   22762364.234  
                
  19364044.484   103330270.079                    80367993.077    19364047.531  
  19364042.410  
 21  8 16 16 42 40.0000000  0 16G 4G16R 1G26G 9R19R13R18G 6G22R12G 7
                                G 2R 3G 3R 2
  20755993.828   109073531.260    20756001.457    84992412.8004   20756001.395  
                
  22168585.273   116496739.077    22168592.031    90776724.0934                 
                
  21489628.992   114874400.884                    89346756.122    21489635.129  
  21489628.398  
  23454084.875   123252119.398    23454094.977    96040636.4384   23454094.961  
                
  20651205.375   108522854.026    20651213.582    84563317.1534   20651213.484  
                
  23529107.914   125864856.462                    97894910.551    23529112.031  
  23529105.586  
  22387717.961   119549149.915                    92982705.740    22387723.215  
  22387715.891  
  23146622.836   123558248.352                    96100851.477    23146627.434  
  23146621.156  
  22866328.156   120163350.532    22866338.078    93633839.1244   22866338.766  
                
  24614778.617   129351529.517    24614785.141   100793421.6524                 
                
  19431349.180   103798818.028                    80732415.400    19431352.758  
  19431348.449  
  22024359.875   115738822.325    22024367.211    90186145.2774   22024367.094  
                
  24767018.461   130151569.680    24767023.598   101416820.0764                 
                
  22402599.445   119922877.007                    93273353.535    22402603.797  
  22402598.242  
  22768667.328   119650161.586    22768677.445    93233942.3814   22768677.961  
                
  19362166.359   103320248.045                    80360198.169    19362169.410  
  19362164.281  
 21  8 16 16 42 50.0000000  0 16G 4G16R 1G26G 9R19R13R18G 6G22R12G 7
                                G 2R 3G 3R 2
  20758052.125   109084347.653    20758059.793    85000841.1584   20758059.723  
                
  22167642.539   116491785.012    22167649.301    90772863.7894                 
                
  21494830.125   114902204.023                    89368380.766    21494836.281  
  21494829.484  
  23457823.422   123271765.434    23457833.504    96055945.0564   23457833.477  
                
  20649199.195   108512311.443    20649207.414    84555102.1584   20649207.301  
                
  23527613.977   125856865.622                    97888695.473    23527618.191  
  23527611.738  
  22379658.000   119506110.177                    92949230.417    22379663.207  
  22379655.941  
  23150585.055   123579399.154                    96117302.085    23150589.688  
  23150583.387  
  22868474.602   120174630.131    22868484.535    93642628.4264   22868485.223  
                
  24621559.414   129387162.780    24621565.938   100821187.8214                 
                
  19428707.047   103784704.262                    80721438.031    19428710.625  
  19428706.309  
  22019880.891   115715285.093    22019888.223    90167804.5854   22019888.117  
                
  24765504.445   130143613.437    24765509.645   101410620.4284                 
                
  22396226.383   119888761.566                    93246819.324    22396230.730  
  22396225.203  
  22774986.602   119683369.707    22774996.797    93259818.8154   22774997.316  
                
  19360297.031   103310272.912                    80352439.738    19360300.078  
  19360294.957  
 21  8 16 16 43  0.0000000  0 16G 4G16R 1G26G 9R19R13R18G 6G22R12G 7
                                G 2R 3G 3R 2
  20760116.367   109095195.363    20760124.074    85009293.9154   20760123.988  
                
  22166713.531   116486903.081    22166720.254    90769059.7054                 
                
  21500038.156   114930044.055                    89390034.102    21500044.348  
  21500037.469  
  23461572.492   123291466.807    23461582.551    96071296.7784   23461582.520  
                
  20647199.109   108501800.972    20647207.328    84546912.1814   20647207.211  
                
  23526135.930   125848959.215                    97882545.996    23526140.121  
  23526133.652  
  22371603.344   119463098.359                    92915776.805    22371608.406  
  22371601.250  
  23154559.656   123600615.831                    96133803.984    23154564.281  
  23154557.969  
  22870632.320   120185968.955    22870642.258    93651463.8664   22870642.949  
                
  24628342.258   129422806.723    24628348.734   100848962.3064                 
                
  19426080.867   103770675.737                    80710526.959    19426084.457  
  19426080.133  
  22015408.164   115691780.854    22015415.488    90149489.6074   22015415.387  
                
  24764000.383   130135709.550    24764005.668   101404461.5494                 
                
  22389854.414   119854652.012                    93220289.693    22389858.777  
  22389853.227  
  22781311.383   119716606.799    22781321.668    93285717.8334   22781322.180  
                
  19358436.398   103300344.252                    80344717.431    19358439.422  
  19358434.328  
 21  8 16 16 43 10.0000000  0 16G 4G16R 1G26G 9R19R13R18G 6G22R12G 7
                                G 2R 3G 3R 2
  20762186.602   109106074.488    20762194.348    85017771.1414   20762194.246  
                
  22165798.297   116482093.510    22165804.980    90765311.9914                 
                
  21505253.117   114957921.188                    89411716.291    21505259.367  
  21505252.434  
  23465332.086   123311223.534    23465342.164    96086691.6354   23465342.117  
                
  20645205.164   108491322.732    20645213.379    84538747.3154   20645213.254  
                
  23524673.812   125841137.255                    97876462.269    23524677.887  
  23524671.504  
  22363554.094   119420114.478                    92882344.922    22363558.879  
  22363551.797  
  23158546.562   123621898.407                    96150356.994    23158551.270  
  23158544.801  
  22872801.297   120197367.023    22872811.223    93660345.4674   22872811.910  
                
  24635127.094   129458461.261    24635133.543   100876745.0504                 
                
  19423470.688   103756732.675                    80699682.363    19423474.281  
  19423469.965  
  22010941.766   115668309.836    22010949.090    90131200.5044   22010948.980  
                
  24762506.312   130127858.128    24762511.672   101398343.5524                 
                
  22383483.547   119820548.358                    93193764.632    22383487.941  
  22383482.379  
  22787641.703   119749872.863    22787652.070    93311639.4224   22787652.547  
                
  19356584.539   103290462.383                    80337031.552    19356587.551  
  19356582.473  
 21  8 16 16 43 20.0000000  0 16G 4G16R 1G26G 9R19R13R18G 6G22R12G 7
                                G 2R 3G 3R 2
  20764262.812   109116985.034    20764270.594    85026272.8684   20764270.477  
                
  22164896.805   116477356.230    22164903.465    90761620.6084                 
                
  21510475.062   114985835.451                    89433427.362    21510481.340  
  21510474.387  
  23469102.227   123331035.595    23469112.305    96102129.6024   23469112.266  
                
  20643217.367   108480876.772    20643225.570    84530607.6034   20643225.457  
                
  23523227.484   125833399.561                    97870444.071    23523231.445  
  23523225.137  
  22355509.758   119377158.924                    92848935.087    22355514.590  
  22355507.598  
  23162545.812   123643246.558                    96166961.113    23162550.582  
  23162544.004  
  22874981.555   120208824.282    22874991.477    93669273.2094   22874992.160  
                
  24641913.977   129494126.472    24641920.414   100904536.1124                 
                
  19420876.508   103742875.083                    80688904.249    19420880.117  
  19420875.801  
  22006481.680   115644871.978    22006488.996    90112937.2514   22006488.883  
                
  24761022.227   130120059.243    24761027.633   101392266.5074                 
                
  22377113.828   119786450.740                    93167244.266    22377118.199  
  22377112.637  
  22793977.547   119783167.885    22793987.961    93337583.5824   22793988.406  
                
  19354741.453   103280627.327                    80329382.060    19354744.461  
  19354739.395  
 21  8 16 16 43 30.0000000  0 16G 4G16R 1G26G 9R19R13R18G 6G22R12G 7
                                G 2R 3G 3R 2
  20766345.047   109127927.238    20766352.867    85034799.2504   20766352.734  
                
  22164009.156   116472691.628    22164015.777    90757985.8764                 
                
  21515703.977   115013786.889                    89455167.385    21515710.250  
  21515703.309  
  23472882.914   123350903.119    23472892.965    96117610.7934   23472892.926  
                
  20641235.750   108470463.355    20641243.938    84522493.2584   20641243.820  
                
  23521796.859   125825746.551                    97864491.800    23521800.797  
  23521794.488  
  22347471.062   119334232.073                    92815547.561    22347475.754  
  22347468.836  
  23166557.391   123664660.685                    96183616.608    23166562.137  
  23166555.590  
  22877173.117   120220340.941    22877183.055    93678247.2074   22877183.711  
                
  24648702.812   129529802.450    24648709.332   100932335.5694                 
                
  19418298.391   103729103.275                    80678192.854    19418302.008  
  19418297.680  
  22002027.977   115621467.613    22002035.273    90094700.0964   22002035.160  
                
  24759548.180   130112313.166    24759553.598   101386230.5984                 
                
  22370745.266   119752359.524                    93140728.896    22370749.656  
  22370744.051  
  22800318.914   119816492.026    22800329.324    93363550.4264   22800329.773  
                
  19352907.242   103270839.635                    80321769.413    19352910.246  
  19352905.199  
 21  8 16 16 43 40.0000000  0 16G 4G16R 1G26G 9R19R13R18G 6G22R12G 7
                                G 2R 3G 3R 2
  20768433.281   109138900.962    20768441.141    85043350.2054   20768440.992  
                
  22163135.312   116468099.585    22163141.906    90754407.6674                 
                
  21520939.820   115041775.476                    89476936.273    21520946.125  
  21520939.145  
  23476674.125   123370825.927    23476684.125    96133135.0574   23476684.086  
                
  20639260.320   108460082.383    20639268.484    84514404.1924   20639268.379  
                
  23520381.883   125818178.174                    97858605.271    23520385.992  
  23520379.586  
  22339437.648   119291333.760                    92782182.245    22339442.266  
  22339435.379  
  23170581.273   123686140.382                    96200322.950    23170586.086  
  23170579.543  
  22879375.930   120231916.759    22879385.906    93687267.3204   22879386.562  
                
  24655493.672   129565489.044    24655500.266   100960143.3014                 
                
  19415736.320   103715417.199                    80667548.138    19415739.953  
  19415735.605  
  21997580.633   115598096.691    21997587.898    90076488.9954   21997587.789  
                
  24758084.141   130104619.644    24758089.578   101380235.6654                 
                
  22364377.859   119718274.472                    93114218.325    22364382.309  
  22364376.660  
  22806665.805   119849845.064    22806676.156    93389539.7994   22806676.652  
                
  19351081.906   103261099.283                    80314193.587    19351084.906  
  19351079.863  
 21  8 16 16 43 50.0000000  0 16G 4G16R 1G26G 9R19R13R18G 6G22R12G 7
                                G 2R 3G 3R 2
  20770527.453   109149905.922    20770535.340    85051925.4954   20770535.188  
                
  22162275.203   116463579.746    22162281.777    90750885.7254                 
                
  21526182.586   115069801.015                    89498733.904    21526188.887  
  21526181.914  
  23480475.797   123390803.658    23480485.730    96148702.1244   23480485.672  
                
  20637291.000   108449733.580    20637299.148    84506340.1974   20637299.059  
                
  23518982.648   125810694.240                    97852784.367    23518986.930  
  23518980.461  
  22331409.453   119248463.734                    92748838.938    22331414.031  
  22331407.180  
  23174617.422   123707685.297                    96217080.122    23174622.246  
  23174615.773  
  22881589.930   120243551.407    22881599.938    93696333.2774   22881600.586  
                
  24662286.578   129601185.827    24662293.137   100987958.9604                 
                
  19413190.234   103701816.526                    80656969.840    19413193.879  
  19413189.520  
  21993139.586   115574758.886    21993146.816    90058303.6964   21993146.719  
                
  24756630.078   130096978.517    24756635.449   101374281.5234                 
                
  22358011.641   119684195.669                    93087712.605    22358016.113  
  22358010.395  
  22813018.109   119883226.648    22813028.406    93415551.4274   22813028.945  
                
  19349265.266   103251405.408                    80306653.909    19349268.266  
  19349263.230  
 21  8 16 16 44  0.0000000  0 16G 4G16R 1G26G 9R19R13R18G 6G22R12G 7
                                G 2R 3G 3R 2
  20772627.617   109160942.341    20772635.520    85060525.3004   20772635.359  
                
  22161428.898   116459132.446    22161435.469    90747420.2964                 
                
  21531432.273   115097863.594                    89520560.341    21531438.586  
  21531431.586  
  23484287.945   123410836.468    23484297.832    96164312.1114   23484297.770  
                
  20635327.859   108439417.200    20635335.992    84498301.4574   20635335.902  
                
  23517599.461   125803294.865                    97847029.268    23517603.617  
  23517597.293  
  22323386.789   119205622.603                    92715518.091    22323391.223  
  22323384.445  
  23178665.766   123729295.366                    96233888.001    23178670.473  
  23178664.172  
  22883815.164   120255245.051    22883825.215    93705445.2014   22883825.852  
                
  24669081.398   129636893.020    24669087.996   101015782.7154                 
                
  19410660.211   103688301.581                    80646458.231    19410663.863  
  19410659.516  
  21988704.906   115551454.492    21988712.109    90040144.4424   21988712.016  
                
  24755186.039   130089390.041    24755191.352   101368368.4374                 
                
  22351646.617   119650123.105                    93061211.737    22351651.082  
  22351645.336  
  22819375.891   119916636.970    22819386.160    93441585.4244   22819386.727  
                
  19347457.562   103241759.117                    80299151.243    19347460.547  
  19347455.527  
 21  8 16 16 44 10.0000000  0 16G 4G16R 1G26G 9R19R13R18G 6G22R12G 7
                                G 2R 3G 3R 2
  20774733.750   109172010.149    20774741.680    85069149.5634   20774741.516  
                
  22160596.383   116454757.575    22160602.977    90744011.3124                 
                
  21536688.828   115125962.978                    89542415.394    21536695.148  
  21536688.141  
  23488110.531   123430924.218    23488120.383    96179964.9094   23488120.328  
                
  20633370.883   108429133.223    20633379.012    84490287.9744   20633378.930  
                
  23516232.102   125795980.016                    97841339.969    23516236.145  
  23516229.949  
  22315369.570   119162810.674                    92682219.948    22315373.871  
  22315367.211  
  23182726.289   123750970.588                    96250746.458    23182730.988  
  23182724.703  
  22886051.602   120266997.585    22886061.676    93714602.9924   22886062.297  
                
  24675878.172   129672610.452    24675884.789   101043614.4754                 
                
  19408146.219   103674872.320                    80636013.260    19408149.891  
  19408145.531  
  21984276.578   115528183.520    21984283.750    90022011.2224   21984283.668  
                
  24753752.000   130081854.152    24753757.258   101362496.3294                 
                
  22345282.727   119616056.931                    93034715.813    22345287.203  
  22345281.445  
  22825739.094   119950075.871    22825749.395    93467641.6904   22825749.969  
                
  19345658.672   103232159.908                    80291685.204    19345661.641  
  19345656.637  
 21  8 16 16 44 20.0000000  0 16G 4G16R 1G26G 9R19R13R18G 6G22R12G 7
                                G 2R 3G 3R 2
  20776845.883   109183109.474    20776853.836    85077798.3814   20776853.660  
                
  22159777.633   116450455.045    22159784.242    90740658.7034                 
                
  21541952.328   115154099.470                    89564299.344    21541958.684  
  21541951.668  
  23491943.602   123451066.996    23491953.453    96195660.5744   23491953.383  
                
  20631420.102   108418881.812    20631428.223    84482299.8554   20631428.141  
                
  23514880.555   125788749.890                    97835716.600    23514884.555  
  23514878.410  
  22307357.680   119120027.733                    92648944.352    22307361.965  
  22307355.359  
  23186799.000   123772710.687                    96267655.465    23186803.652  
  23186797.438  
  22888299.242   120278809.033    22888309.352    93723806.7194   22888309.965  
                
  24682676.875   129708338.192    24682683.570   101071454.2654                 
                
  19405648.320   103661529.053                    80625635.175    19405652.023  
  19405647.641  
  21979854.641   115504946.129    21979861.781    90003904.1634   21979861.719  
                
  24752328.008   130074371.043    24752333.215   101356665.3294                 
                
  22338920.109   119581997.465                    93008225.136    22338924.617  
  22338918.816  
  22832107.750   119983543.437    22832118.105    93493720.2964   22832118.676  
                
  19343868.664   103222608.091                    80284256.006    19343871.629  
  19343866.641  
 21  8 16 16 44 30.0000000  0 16G 4G16R 1G26G 9R19R13R18G 6G22R12G 7
                                G 2R 3G 3R 2
  20778963.992   109194240.235    20778971.977    85086471.7024   20778971.773  
                
  22158972.719   116446225.261    22158979.348    90737362.7754                 
                
  21547222.781   115182272.945                    89586212.034    21547229.141  
  21547222.113  
  23495787.094   123471264.621    23495796.961    96211398.9874   23495796.879  
                
  20629475.500   108408662.889    20629483.625    84474337.0624   20629483.535  
                
  23513544.828   125781604.610                    97830159.160    23513548.852  
  23513542.574  
  22299351.445   119077274.236                    92615691.663    22299355.586  
  22299349.035  
  23190883.812   123794515.699                    96284614.913    23190888.383  
  23190882.238  
  22890558.078   120290679.282    22890568.238    93733056.2494   22890568.832  
                
  24689477.641   129744076.135    24689484.309   101099301.9944                 
                
  19403166.492   103648271.578                    80615323.821    19403170.211  
  19403165.828  
  21975439.070   115481742.212    21975446.199    89985823.2064   21975446.145  
                
  24750914.031   130066940.600    24750919.227   101350875.3784                 
                
  22332558.750   119547944.661                    92981739.643    22332563.285  
  22332557.434  
  22838481.844   120017039.481    22838492.238    93519821.1014   22838492.809  
                
  19342087.594   103213103.969                    80276863.911    19342090.559  
  19342085.582  
 21  8 16 16 44 40.0000000  0 16G 4G16R 1G26G 9R19R13R18G 6G22R12G 7
                                G 2R 3G 3R 2
  20781088.102   109205402.509    20781096.109    85095169.5724   20781095.891  
                
  22158181.680   116442068.358    22158188.340    90734123.6294                 
                
  21552500.133   115210483.376                    89608153.477    21552506.508  
  21552499.445  
  23499641.023   123491517.105    23499650.883    96227180.1504   23499650.773  
                
  20627537.109   108398476.582    20627545.238    84466399.6894   20627545.145  
                
  23512224.773   125774544.258                    97824667.748    23512229.000  
  23512222.582  
  22291350.375   119034550.097                    92582461.805    22291354.648  
  22291348.148  
  23194980.797   123816385.494                    96301624.759    23194985.348  
  23194979.246  
  22892828.102   120302608.318    22892838.312    93742351.5944   22892838.875  
                
  24696280.297   129779824.248    24696286.988   101127157.6644                 
                
  19400700.742   103635100.010                    80605079.268    19400704.480  
  19400700.090  
  21971029.906   115458571.924    21971037.031    89967768.4414   21971036.957  
                
  24749510.094   130059562.928    24749515.281   101345126.5464                 
                
  22326198.625   119513898.453                    92955259.271    22326203.176  
  22326197.320  
  22844861.375   120050564.030    22844871.805    93545944.1204   22844872.371  
                
  19340315.406   103203647.213                    80269508.662    19340318.363  
  19340313.398  
 21  8 16 16 44 50.0000000  0 16G 4G16R 1G26G 9R19R13R18G 6G22R12G 7
                                G 2R 3G 3R 2
  20783218.156   109216596.016    20783226.188    85103891.7824   20783225.938  
                
  22157404.445   116437983.984    22157411.102    90730941.0144                 
                
  21557784.344   115238730.531                    89630123.477    21557790.734  
  21557783.652  
  23503505.344   123511824.151    23503515.172    96243003.8284   23503515.051  
                
  20625604.875   108388322.659    20625613.000    84458487.5444   20625612.922  
                
  23510920.656   125767568.402                    97819242.057    23510924.934  
  23510918.484  
  22283355.086   118991855.410                    92549254.849    22283359.234  
  22283352.809  
  23199089.820   123838319.717                    96318684.672    23199094.355  
  23199088.250  
  22895109.266   120314595.847    22895119.508    93751692.5254   22895120.066  
                
  24703084.836   129815582.279    24703091.543   101155021.0654                 
                
  19398251.078   103622014.336                    80594901.524    19398254.824  
  19398250.434  
  21966627.078   115435434.978    21966634.207    89949739.6604   21966634.133  
                
  24748116.141   130052237.766    24748121.293   101339418.6184                 
                
  22319839.734   119479858.865                    92928784.058    22319844.293  
  22319838.461  
  22851246.273   120084116.790    22851256.750    93572089.1074   22851257.297  
                
  19338552.062   103194237.649                    80262190.104    19338555.004  
  19338550.066  
 21  8 16 16 45  0.0000000  0 16G 4G16R 1G26G 9R19R13R18G 6G22R12G 7
                                G 2R 3G 3R 2
  20785354.211   109227821.058    20785362.254    85112638.5774   20785361.988  
                
  22156641.078   116433972.474    22156647.715    90727815.1704                 
                
  21563075.477   115267014.739                    89652122.279    21563081.906  
  21563074.754  
  23507380.070   123532185.975    23507389.887    96258870.1954   23507389.754  
                
  20623678.875   108378201.443    20623686.992    84450600.8854   20623686.922  
                
  23509632.508   125760677.453                    97813882.391    23509636.730  
  23509630.344  
  22275365.070   118949190.621                    92516071.150    22275369.477  
  22275363.066  
  23203210.945   123860318.488                    96335794.843    23203215.457  
  23203209.320  
  22897401.594   120326642.108    22897411.863    93761079.2054   22897412.414  
                
  24709891.289   129851350.409    24709897.996   101182892.3334                 
                
  19395817.523   103609014.764                    80584790.758    19395821.266  
  19395816.879  
  21962230.664   115412331.718    21962237.812    89931737.1354   21962237.734  
                
  24746732.250   130044965.509    24746737.395   101333751.9154                 
                
  22313482.117   119445826.162                    92902314.201    22313486.691  
  22313480.844  
  22857636.594   120117697.949    22857647.129    93598256.2244   22857647.637  
                
  19336797.727   103184876.179                    80254908.965    19336800.648  
  19336795.750  
 21  8 16 16 45 10.0000000  0 16G 4G16R 1G26G 9R19R13R18G 6G22R12G 7
                                G 2R 3G 3R 2
  20787496.203   109239077.325    20787504.238    85121409.6904   20787503.977  
                
  22155891.508   116430033.474    22155898.141    90724745.8344                 
                
  21568373.492   115295335.616                    89674149.622    21568379.945  
  21568372.789  
  23511265.133   123552602.179    23511274.965    96274778.9134   23511274.824  
                
  20621759.039   108368112.632    20621767.156    84442739.4794   20621767.094  
                
  23508360.227   125753871.069                    97808588.580    23508364.367  
  23508358.059  
  22267380.898   118906555.241                    92482910.336    22267385.234  
  22267378.789  
  23207344.070   123882381.372                    96352954.867    23207348.602  
  23207342.523  
  22899705.031   120338746.685    22899715.320    93770511.3404   22899715.840  
                
  24716699.562   129887128.255    24716706.305   101210771.1524                 
                
  19393400.039   103596100.985                    80574746.720    19393403.793  
  19393399.410  
  21957840.609   115389261.858    21957847.762    89913760.6314   21957847.695  
                
  24745358.375   130037745.851    24745363.527   101328126.1894                 
                
  22307125.750   119411800.076                    92875849.465    22307130.312  
  22307124.477  
  22864032.234   120151307.152    22864042.816    93624445.1964   22864043.297  
                
  19335052.305   103175562.250                    80247664.809    19335055.227  
  19335050.336  
 21  8 16 16 45 20.0000000  0 16G 4G16R 1G26G 9R19R13R18G 6G22R12G 7
                                G 2R 3G 3R 2
  20789644.164   109250365.009    20789652.188    85130205.2884   20789651.938  
                
  22155155.797   116426167.344    22155162.422    90721733.2724                 
                
  21573678.367   115323693.204                    89696205.518    21573684.801  
  21573677.672  
  23515160.570   123573072.895    23515170.391    96290730.1114   23515170.246  
                
  20619845.398   108358056.468    20619853.520    84434903.5094   20619853.465  
                
  23507103.828   125747149.729                    97803360.879    23507107.867  
  23507101.531  
  22259402.102   118863949.590                    92449772.646    22259406.566  
  22259400.066  
  23211489.195   123904508.535                    96370164.825    23211493.773  
  23211487.648  
  22902019.586   120350909.756    22902029.855    93779989.0434   22902030.375  
                
  24723509.742   129922915.980    24723516.477   101238657.6914                 
                
  19390998.664   103583273.301                    80564769.641    19391002.410  
  19390998.039  
  21953456.961   115366225.705    21953464.117    89895810.3904   21953464.051  
                
  24743994.547   130030578.947    24743999.695   101322541.5954                 
                
  22300770.656   119377780.949                    92849390.159    22300775.234  
  22300769.422  
  22870433.227   120184944.518    22870443.789    93650656.1214   22870444.273  
                
  19333315.828   103166296.126                    80240457.822    19333318.766  
  19333313.855  
 21  8 16 16 45 30.0000000  0 16G 4G16R 1G26G 9R19R13R18G 6G22R12G 7
                                G 2R 3G 3R 2
  20791798.117   109261684.122    20791806.133    85139025.3744   20791805.898  
                
  22154433.953   116422374.036    22154440.559    90718777.4654                 
                
  21578990.141   115352087.575                    89718290.044    21578996.527  
  21578989.465  
  23519066.352   123593598.050    23519076.145    96306723.7514   23519076.031  
                
  20617938.000   108348032.984    20617946.141    84427093.0054   20617946.078  
                
  23505863.180   125740513.382                    97798199.292    23505867.273  
  23505860.828  
  22251428.844   118821373.894                    92416658.248    22251433.469  
  22251426.973  
  23215646.359   123926699.685                    96387424.591    23215650.949  
  23215644.750  
  22904345.273   120363131.239    22904355.496    93789512.2754   22904356.031  
                
  24730321.805   129958713.502    24730328.508   101266551.8574                 
                
  19388613.438   103570531.872                    80554859.651    19388617.184  
  19388612.820  
  21949079.742   115343223.322    21949086.910    89877886.4714   21949086.840  
                
  24742640.781   130023464.871    24742645.949   101316998.1544                 
                
  22294416.930   119343768.940                    92822936.378    22294421.508  
  22294415.688  
  22876839.594   120218610.002    22876850.090    93676888.9584   22876850.598  
                
  19331588.367   103157078.051                    80233288.210    19331591.293  
  19331586.383  
 21  8 16 16 45 40.0000000  0 16G 4G16R 1G26G 9R19R13R18G 6G22R12G 7
                                G 2R 3G 3R 2
  20793958.039   109273034.616    20793966.039    85147869.9084   20793965.805  
                
  22153725.977   116418653.609    22153732.578    90715878.4384                 
                
  21584308.836   115380518.915                    89740403.272    21584315.203  
  21584308.133  
  23522982.477   123614177.551    23522992.211    96322759.7254   23522992.168  
                
  20616036.820   108338042.200    20616044.980    84419307.9824   20616044.910  
                
  23504638.312   125733961.725                    97793103.536    23504642.453  
  23504635.906  
  22243461.219   118778828.338                    92383567.288    22243466.035  
  22243459.516  
  23219815.500   123948954.803                    96404734.102    23219820.102  
  23219813.910  
  22906682.055   120375411.029    22906692.227    93799080.9434   22906692.785  
                
  24737135.695   129994520.735    24737142.410   101294453.6024                 
                
  19386244.328   103557876.506                    80545016.586    19386248.059  
  19386243.719  
  21944708.977   115320254.773    21944716.156    89859988.9024   21944716.074  
                
  24741297.062   130016403.575    24741302.250   101311495.8524                 
                
  22288064.516   119309764.048                    92796488.140    22288069.129  
  22288063.309  
  22883251.289   120252303.474    22883261.738    93703143.6024   22883262.258  
                
  19329869.883   103147907.882                    80226155.846    19329872.801  
  19329867.898  
 21  8 16 16 45 50.0000000  0 16G 4G16R 1G26G 9R19R13R18G 6G22R12G 7
                                G 2R 3G 3R 2
  20796123.930   109284416.449    20796131.902    85156738.8634   20796131.676  
                
  22153031.852   116415006.010    22153038.453    90713036.1564                 
                
  21589634.336   115408986.783                    89762544.938    21589640.730  
  21589633.645  
  23526908.914   123634811.300    23526918.621    96338837.9784   23526918.590  
                
  20614141.836   108328084.043    20614150.020    84411548.3864   20614149.941  
                
  23503429.414   125727495.127                    97788073.957    23503433.609  
  23503427.000  
  22235499.422   118736313.293                    92350500.058    22235504.324  
  22235497.754  
  23223996.570   123971273.619                    96422093.164    23224001.184  
  23223995.008  
  22909029.914   120387749.045    22909040.035    93808694.9834   22909040.617  
                
  24743951.383   130030337.534    24743958.105   101322362.7654                 
                
  19383891.352   103545307.414                    80535240.647    19383895.074  
  19383890.746  
  21940344.586   115297319.843    21940351.793    89842117.5334   21940351.703  
                
  24739963.383   130009395.035    24739968.578   101306034.6844                 
                
  22281713.391   119275766.142                    92770045.372    22281718.031  
  22281712.184  
  22889668.273   120286024.829    22889678.715    93729419.9764   22889679.215  
                
  19328160.375   103138785.631                    80219060.769    19328163.293  
  19328158.387  
 21  8 16 16 46  0.0000000  0 16G 4G16R 1G26G 9R19R13R18G 6G22R12G 7
                                G 2R 3G 3R 2
  20798295.727   109295829.404    20798303.672    85165632.0704   20798303.465  
                
  22152351.547   116411431.048    22152358.129    90710250.4844                 
                
  21594966.672   115437491.220                    89784715.048    21594973.102  
  21594966.008  
  23530845.617   123655498.983    23530855.309    96354958.2574   23530855.293  
                
  20612253.039   108318158.370    20612261.238    84403814.0954   20612261.152  
                
  23502236.344   125721113.205                    97783110.212    23502240.613  
  23502233.969  
  22227543.250   118693828.260                    92317456.186    22227548.211  
  22227541.621  
  23228189.539   123993655.766                    96439501.517    23228194.129  
  23228187.984  
  22911388.773   120400144.971    22911398.848    93818354.1394   22911399.469  
                
  24750768.891   130066163.624    24750775.582   101350279.1964                 
                
  19381554.469   103532824.281                    80525531.552    19381558.176  
  19381553.867  
  21935986.570   115274418.348    21935993.816    89824272.2284   21935993.707  
                
  24738639.703   130002439.091    24738644.891   101300614.4594                 
                
  22275363.586   119241775.292                    92743608.050    22275368.242  
  22275362.398  
  22896090.492   120319773.816    22896100.957    93755717.8804   22896101.434  
                
  19326459.828   103129711.219                    80212002.892    19326462.734  
  19326457.840  
 21  8 16 16 46 10.0000000  0 16G 4G16R 1G26G 9R19R13R18G 6G22R12G 7
                                G 2R 3G 3R 2
  20800473.562   109307273.984    20800481.484    85174549.9274   20800481.285  
                
  22151685.188   116407929.280    22151691.734    90707521.8254                 
                
  21600305.906   115466032.524                    89806913.841    21600312.367  
  21600305.254  
  23534792.680   123676241.058    23534802.348    96371120.9104   23534802.375  
                
  20610370.531   108308265.714    20610378.738    84396105.5354   20610378.656  
                
  23501059.312   125714816.527                    97778212.788    23501063.586  
  23501056.848  
  22219592.891   118651374.081                    92284436.312    22219597.859  
  22219591.254  
  23232394.438   124016101.725                    96456959.481    23232399.043  
  23232392.895  
  22913758.758   120412599.299    22913768.809    93828058.7954   22913769.430  
                
  24757588.305   130101999.437    24757594.945   101378203.1964                 
                
  19379233.789   103520427.619                    80515889.711    19379237.488  
  19379233.199  
  21931635.047   115251550.970    21931642.328    89806453.5004   21931642.207  
                
  24737326.148   129995536.254    24737331.336   101295235.6384                 
                
  22269015.219   119207791.918                    92717176.530    22269019.832  
  22269014.047  
  22902518.047   120353550.868    22902528.547    93782037.6354   22902529.000  
                
  19324768.383   103120685.320                    80204982.744    19324771.277  
  19324766.379  
 21  8 16 16 46 20.0000000  0 16G 4G16R 1G26G 9R19R13R18G 6G22R12G 7
                                G 2R 3G 3R 2
  20802657.430   109318750.311    20802665.316    85183492.5174   20802665.137  
                
  22151032.773   116404500.852    22151039.285    90704850.3504                 
                
  21605652.117   115494611.037                    89829141.546    21605658.660  
  21605651.480  
  23538750.094   123697037.600    23538759.742    96387326.0094   23538759.816  
                
  20608494.328   108298406.207    20608502.535    84388422.7964   20608502.453  
                
  23499898.195   125708605.176                    97773381.729    23499902.469  
  23499895.711  
  22211648.430   118608951.117                    92251440.704    22211653.375  
  22211646.730  
  23236611.242   124038611.372                    96474466.941    23236615.875  
  23236609.664  
  22916139.852   120425112.048    22916149.879    93837808.9714   22916150.496  
                
  24764409.531   130137845.131    24764416.152   101406134.8754                 
                
  19376929.328   103508117.648                    80506315.306    19376933.020  
  19376928.738  
  21927290.031   115228717.749    21927297.324    89788661.3944   21927297.195  
                
  24736022.719   129988686.650    24736027.957   101289898.2894                 
                
  22262668.312   119173816.359                    92690751.103    22262672.883  
  22262667.105  
  22908950.969   120387356.033    22908961.484    93808379.3044   22908961.906  
                
  19323086.023   103111707.944                    80198000.344    19323088.934  
  19323084.016  
 21  8 16 16 46 30.0000000  0 16G 4G16R 1G26G 9R19R13R18G 6G22R12G 7
                                G 2R 3G 3R 2
  20804847.070   109330256.958    20804854.922    85192458.7344   20804854.762  
                
  22150394.062   116401144.430    22150400.523    90702234.9554                 
                
  21611004.945   115523224.901                    89851396.737    21611011.566  
  21611004.309  
  23542717.578   123717887.015    23542727.215    96403572.3254   23542727.305  
                
  20606624.164   108288578.455    20606632.371    84380764.8074   20606632.293  
                
  23498752.758   125702477.848                    97768616.067    23498757.043  
  23498750.305  
  22203709.430   118566558.100                    92218468.381    22203714.531  
  22203707.805  
  23240839.695   124061183.206                    96492022.819    23240844.367  
  23240838.129  
  22918531.766   120437681.701    22918541.750    93847603.5044   22918542.383  
                
  24771232.328   130173699.086    24771238.961   101434073.0334                 
                
  19374640.844   103495893.019                    80496807.257    19374644.523  
  19374640.246  
  21922951.242   115205917.307    21922958.543    89770894.8204   21922958.418  
                
  24734729.156   129981888.961    24734734.430   101284601.3794                 
                
  22256322.570   119139847.114                    92664330.572    22256327.137  
  22256321.406  
  22915388.953   120421187.769    22915399.469    93834741.6924   22915399.875  
                
  19321412.523   103102777.847                    80191054.707    19321415.430  
  19321410.516  
 21  8 16 16 46 40.0000000  0 16G 4G16R 1G26G 9R19R13R18G 6G22R12G 7
                                G 2R 3G 3R 2
  20807042.758   109341795.356    20807050.590    85201449.6904   20807050.438  
                
  22149769.312   116397861.424    22149775.762    90699676.7804                 
                
  21616364.695   115551875.804                    89873680.771    21616371.359  
  21616364.043  
  23546695.406   123738790.785    23546705.082    96419860.9814   23546705.145  
                
  20604760.336   108278783.959    20604768.543    84373132.7304   20604768.461  
                
  23497623.344   125696436.116                    97763916.970    23497627.598  
  23497621.008  
  22195776.359   118524196.336                    92185520.380    22195781.480  
  22195774.766  
  23245080.016   124083818.707                    96509628.205    23245084.777  
  23245078.453  
  22920934.797   120450309.717    22920944.727    93857443.5004   22920945.383  
                
  24778057.008   130209562.704    24778063.613   101462018.7204                 
                
  19372368.625   103483755.227                    80487366.758    19372372.305  
  19372368.027  
  21918618.992   115183151.178    21918626.281    89753154.9854   21918626.152  
                
  24733445.734   129975144.523    24733451.016   101279345.9644                 
                
  22249978.336   119105885.875                    92637916.299    22249982.902  
  22249977.195  
  22921832.266   120455047.509    22921842.773    93861125.8994   22921843.184  
                
  19319748.227   103093896.829                    80184147.252    19319751.121  
  19319746.207  
 21  8 16 16 46 50.0000000  0 16G 4G16R 1G26G 9R19R13R18G 6G22R12G 7
                                G 2R 3G 3R 2
  20809244.422   109353365.202    20809252.234    85210465.1534   20809252.086  
                
  22149158.492   116394651.562    22149164.930    90697175.5974                 
                
  21621731.320   115580563.412                    89895993.340    21621737.988  
  21621730.688  
  23550683.438   123759748.484    23550693.223    96436191.6614   23550693.277  
                
  20602902.773   108269022.411    20602910.984    84365526.3344   20602910.910  
                
  23496509.844   125690479.412                    97759283.961    23496514.082  
  23496507.566  
  22187849.320   118481865.736                    92152596.613    22187854.273  
  22187847.582  
  23249332.156   124106517.092                    96527282.484    23249336.984  
  23249330.602  
  22923348.852   120462995.635    22923358.750    93867328.6244   22923359.387  
                
  24784883.445   130245435.606    24784890.012   101489971.6364                 
                
  19370112.602   103471704.005                    80477993.600    19370116.270  
  19370112.000  
  21914293.203   115160419.002    21914300.477    89735441.6014   21914300.352  
                
  24732172.383   129968453.060    24732177.711   101274131.8234                 
                
  22243635.523   119071932.262                    92611507.939    22243640.082  
  22243634.395  
  22928280.828   120488934.857    22928291.336    93887531.6124   22928291.746  
                
  19318093.055   103085064.475                    80177277.646    19318095.949  
  19318091.031  
 21  8 16 16 47  0.0000000  0 16G 4G16R 1G26G 9R19R13R18G 6G22R12G 7
                                G 2R 3G 3R 2
  20811452.023   109364966.232    20811459.824    85219504.9154   20811459.688  
                
  22148561.555   116391514.688    22148567.977    90694731.2814                 
                
  21627104.742   115609287.369                    89918334.195    21627111.410  
  21627104.129  
  23554681.703   123780759.797    23554691.520    96452564.1204   23554691.586  
                
  20601051.445   108259293.594    20601059.656    84357945.4424   20601059.578  
                
  23495412.172   125684607.587                    97754717.003    23495416.426  
  23495409.934  
  22179928.047   118439566.153                    92119696.955    22179932.875  
  22179926.219  
  23253596.039   124129278.124                    96544985.469    23253600.906  
  23253594.570  
  22925773.859   120475739.175    22925783.746    93877258.6554   22925784.375  
                
  24791711.602   130281317.521    24791718.121   101517931.5624                 
                
  19367872.758   103459739.215                    80468687.662    19367876.410  
  19367872.145  
  21909973.844   115137720.674    21909981.090    89717754.5994   21909980.992  
                
  24730909.070   129961814.336    24730914.465   101268958.8184                 
                
  22237294.094   119037986.144                    92585105.415    22237298.637  
  22237292.945  
  22934734.594   120522849.506    22934745.113    93913958.5914   22934745.516  
                
  19316446.859   103076280.076                    80170445.340    19316449.750  
  19316444.832  
 21  8 16 16 47 10.0000000  0 16G 4G16R 1G26G 9R19R13R18G 6G22R12G 7
                                G 2R 3G 3R 2
  20813665.617   109376598.762    20813673.410    85228569.2214   20813673.273  
                
  22147978.555   116388451.048    22147984.945    90692344.0394                 
                
  21632485.023   115638047.978                    89940703.531    21632491.703  
  21632484.379  
  23558690.234   123801824.948    23558700.062    96468978.5324   23558700.121  
                
  20599206.406   108249597.862    20599214.625    84350390.3324   20599214.539  
                
  23494330.398   125678821.300                    97750216.530    23494334.738  
  23494328.195  
  22172012.617   118397298.221                    92086821.901    22172017.355  
  22172010.824  
  23257871.727   124152101.988                    96562737.370    23257876.617  
  23257870.277  
  22928209.891   120488540.595    22928219.770    93887233.7724   22928220.379  
                
  24798541.453   130317208.639    24798547.980   101545898.6684                 
                
  19365649.125   103447860.999                    80459449.057    19365652.773  
  19365648.516  
  21905660.984   115115056.489    21905668.188    89700094.2054   21905668.105  
                
  24729655.883   129955228.748    24729661.316   101263827.2054                 
                
  22230954.094   119004047.736                    92558708.893    22230958.625  
  22230952.906  
  22941193.586   120556791.675    22941204.121    93940407.0114   22941204.531  
                
  19314809.891   103067544.909                    80163651.326    19314812.781  
  19314807.879  
 21  8 16 16 47 20.0000000  0 16G 4G16R 1G26G 9R19R13R18G 6G22R12G 7
                                G 2R 3G 3R 2
  20815885.148   109388262.450    20815892.938    85237657.8094   20815892.797  
                
  22147409.438   116385460.400    22147415.797    90690013.6694                 
                
  21637872.094   115666844.950                    89963101.154    21637878.789  
  21637871.441  
  23562708.984   123822943.715    23562718.812    96485434.7074   23562718.879  
                
  20597367.594   108239934.876    20597375.828    84342860.7344   20597375.730  
                
  23493264.586   125673120.053                    97745782.197    23493268.902  
  23493262.383  
  22164103.047   118355061.810                    92053971.378    22164107.750  
  22164101.324  
  23262159.125   124174988.232                    96580537.751    23262164.008  
  23262157.711  
  22930656.852   120501399.451    22930666.727    93897253.6634   22930667.324  
                
  24805372.953   130353108.610    24805379.527   101573872.6644                 
                
  19363441.664   103436069.141                    80450277.618    19363445.305  
  19363441.055  
  21901354.562   115092426.130    21901361.738    89682460.1624   21901361.645  
                
  24728412.734   129948695.931    24728418.230   101258736.6974                 
                
  22224615.570   118970117.114                    92532318.416    22224620.086  
  22224614.348  
  22947657.750   120590760.959    22947668.273    93966876.5694   22947668.688  
                
  19313181.953   103058857.954                    80156894.806    19313184.824  
  19313179.961  
 21  8 16 16 47 30.0000000  0 16G 4G16R 1G26G 9R19R13R18G 6G22R12G 7
                                G 2R 3G 3R 2
  20818110.609   109399957.341    20818118.387    85246770.7174   20818118.254  
                
  22146854.211   116382542.681    22146860.543    90687740.1334                 
                
  21643265.984   115695678.304                    89985527.089    21643272.695  
  21643265.359  
  23566737.898   123844115.688    23566747.707    96501932.3784   23566747.777  
                
  20595535.039   108230304.730    20595543.285    84335356.7274   20595543.168  
                
  23492214.625   125667503.529                    97741413.778    23492218.902  
  23492212.477  
  22156199.320   118312856.685                    92021145.213    22156204.074  
  22156197.633  
  23266458.164   124197936.691                    96598386.545    23266463.031  
  23266456.750  
  22933114.742   120514315.731    22933124.590    93907318.3004   22933125.203  
                
  24812206.117   130389017.433    24812212.727   101601853.5584                 
                
  19361250.406   103424363.845                    80441173.520    19361254.047  
  19361249.801  
  21897054.586   115069829.636    21897061.742    89664852.5114   21897061.645  
                
  24727179.633   129942215.943    24727185.172   101253687.3614                 
                
  22218278.508   118936194.340                    92505934.052    22218283.023  
  22218277.281  
  22954127.117   120624757.331    22954137.598    93993367.2434   22954138.008  
                
  19311563.141   103050219.656                    80150176.126    19311566.004  
  19311561.164  
 21  8 16 16 47 40.0000000  0 16G 4G16R 1G26G 9R19R13R18G 6G22R12G 7
                                G 2R 3G 3R 2
  20820342.031   109411683.523    20820349.785    85255908.0054   20820349.668  
                
  22146312.906   116379698.177    22146319.188    90685523.6394                 
                
  21648666.680   115724548.000                    90007981.325    21648673.367  
  21648666.066  
  23570776.969   123865341.109    23570786.781    96518471.6774   23570786.863  
                
  20593708.758   108220707.540    20593717.016    84327878.4054   20593716.898  
                
  23491180.656   125661972.028                    97737111.576    23491184.848  
  23491178.520  
  22148301.805   118270683.113                    91988343.588    22148306.312  
  22148299.867  
  23270768.898   124220947.342                    96616283.694    23270773.738  
  23270767.457  
  22935583.570   120527289.492    22935593.371    93917427.7014   22935594.016  
                
  24819040.969   130424935.083    24819047.605   101629841.3054                 
                
  19359075.336   103412745.038                    80432136.669    19359078.973  
  19359074.734  
  21892761.078   115047267.147    21892768.207    89647271.3564   21892768.121  
                
  24725956.625   129935788.948    24725962.160   101248679.3074                 
                
  22211942.930   118902279.410                    92479555.782    22211947.445  
  22211941.691  
  22960601.625   120658780.835    22960612.070    94019879.0594   22960612.473  
                
  19309953.531   103041630.456                    80143495.648    19309956.398  
  19309951.566  
 21  8 16 16 47 50.0000000  0 17G 4G16R 1G26G30G 9R19R13R18G 6G22R12
                                G 7G 2R 3G 3R 2
  20822579.383   109423440.854    20822587.113    85265069.5624   20822587.000  
                
  22145785.523   116376926.789    22145791.758    90683364.1184                 
                
  21654074.086   115753453.786                    90030463.583    21654080.766  
  21654073.445  
  23574826.172   123886619.765    23574835.973    96535052.4644   23574836.074  
                
  24932547.266   131021420.126    24932559.152   102094658.9974   24932559.016  
                
  20591888.719   108211143.199    20591896.980    84320425.6774   20591896.852  
                
  23490162.703   125656525.943                    97732875.758    23490166.766  
  23490160.461  
  22140409.984   118228541.401                    91955566.734    22140414.535  
  22140408.027  
  23275091.242   124244020.048                    96634229.113    23275096.082  
  23275089.781  
  22938063.289   120540320.491    22938073.043    93927581.7224   22938073.715  
                
  24825877.453   130460861.388    24825884.133   101657835.8094                 
                
  19356916.453   103401212.727                    80423167.108    19356920.078  
  19356915.844  
  21888474.023   115024738.559    21888481.137    89629716.6294   21888481.055  
                
  24724743.672   129929414.757    24724749.188   101243712.4094                 
                
  22205608.789   118868372.327                    92453183.624    22205613.289  
  22205607.539  
  22967081.242   120692831.271    22967091.664    94046411.8554   22967092.070  
                
  19308352.969   103033089.542                    80136852.704    19308355.828  
  19308350.988  
 21  8 16 16 48  0.0000000  0 17G 4G16R 1G26G30G 9R19R13R18G 6G22R12
                                G 7G 2R 3G 3R 2
  20824822.711   109435229.611    20824830.418    85274255.6084   20824830.312  
                
  22145272.094   116374228.740    22145278.324    90681261.7554                 
                
  21659488.383   115782396.250                    90052974.364    21659495.031  
  21659487.738  
  23578885.539   123907951.872    23578895.336    96551674.8884   23578895.445  
                
  24926091.805   130987496.260    24926103.512   102068224.8434   24926103.465  
                
  20590074.992   108201612.008    20590083.238    84312998.7774   20590083.117  
                
  23489160.469   125651165.149                    97728706.269    23489164.660  
  23489158.211  
  22132524.109   118186431.776                    91922814.848    22132528.695  
  22132522.215  
  23279425.188   124267154.831                    96652222.810    23279429.996  
  23279423.707  
  22940553.953   120553408.979    22940563.680    93937780.5354   22940564.359  
                
  24832715.680   130496796.579    24832722.355   101685837.2184                 
                
  19354773.852   103389767.334                    80414265.144    19354777.453  
  19354773.250  
  21884193.492   115002244.233    21884200.594    89612188.5934   21884200.512  
                
  24723540.820   129923093.696    24723546.336   101238786.9154                 
                
  22199276.211   118834473.529                    92426817.885    22199280.672  
  22199274.926  
  22973565.984   120726908.855    22973576.406    94072965.8054   22973576.805  
                
  19306761.688   103024598.126                    80130248.276    19306764.559  
  19306759.691  
 21  8 16 16 48 10.0000000  0 17G 4G16R 1G26G30G 9R19R13R18G 6G22R12
                                G 7G 2R 3G 3R 2
  20827071.992   109447049.608    20827079.680    85283466.0004   20827079.586  
                
  22144772.586   116371603.863    22144778.824    90679216.4044                 
                
  21664909.461   115811374.930                    90075513.342    21664916.105  
  21664908.816  
  23582955.031   123929337.116    23582964.844    96568338.7274   23582964.930  
                
  24919638.578   130953583.841    24919650.258   102041799.6194   24919650.156  
                
  20588267.539   108192113.814    20588275.773    84305597.5954   20588275.656  
                
  23488174.227   125645889.661                    97724603.044    23488178.465  
  23488171.910  
  22124644.406   118144354.047                    91890087.770    22124648.859  
  22124642.426  
  23283770.719   124290351.406                    96670264.613    23283775.480  
  23283769.273  
  22943055.492   120566554.687    22943065.219    93948023.9244   22943065.906  
                
  24839555.547   130532740.254    24839562.199   101713845.2604                 
                
  19352647.469   103378408.607                    80405430.584    19352651.062  
  19352646.875  
  21879919.461   114979784.071    21879926.559    89594687.1814   21879926.477  
                
  24722348.039   129916825.601    24722353.590   101233902.6854                 
                
  22192945.141   118800582.832                    92400458.439    22192949.539  
  22192943.836  
  22980055.820   120761013.326    22980066.258    94099540.7004   22980066.652  
                
  19305179.539   103016155.535                    80123681.814    19305182.422  
  19305177.547  
 21  8 16 16 48 20.0000000  0 17G 4G16R 1G26G30G 9R19R13R18G 6G22R12
                                G 7G 2R 3G 3R 2
  20829327.211   109458900.814    20829334.891    85292700.7004   20829334.789  
                
  22144286.992   116369052.056    22144293.215    90677227.9904                 
                
  21670337.305   115840389.842                    90098080.489    21670343.934  
  21670336.691  
  23587034.617   123950775.448    23587044.473    96585043.9224   23587044.520  
                
  24913187.461   130919682.895    24913199.129   102015383.3244   24913199.027  
                
  20586466.375   108182648.617    20586474.594    84298222.1184   20586474.488  
                
  23487203.961   125640699.296                    97720566.063    23487208.219  
  23487201.656  
  22116770.547   118102308.413                    91857385.620    22116775.043  
  22116768.609  
  23288127.789   124313609.631                    96688354.303    23288132.582  
  23288126.410  
  22945567.898   120579757.487    22945577.637    93958311.8174   22945578.312  
                
  24846397.055   130568692.414    24846403.664   101741859.9204                 
                
  19350537.305   103367136.521                    80396663.418    19350540.895  
  19350536.730  
  21875651.914   114957357.990    21875659.008    89577212.3184   21875658.922  
                
  24721165.328   129910610.417    24721170.914   101229059.6844                 
                
  22186615.578   118766700.187                    92374105.279    22186619.945  
  22186614.250  
  22986550.766   120795144.539    22986561.188    94126136.4464   22986561.578  
                
  19303606.625   103007762.125                    80117153.607    19303609.504  
  19303604.645  
 21  8 16 16 48 30.0000000  0 17G 4G16R 1G26G30G 9R19R13R18G 6G22R12
                                G 7G 2R 3G 3R 2
  20831588.336   109470783.095    20831596.004    85301959.6174   20831595.895  
                
  22143815.281   116366573.245    22143821.480    90675296.4484                 
                
  21675771.875   115869440.839                    90120675.692    21675778.496  
  21675771.254  
  23591124.258   123972266.640    23591134.137    96601790.3074   23591134.172  
                
  24906738.469   130885793.307    24906750.117   101988975.8834   24906750.000  
                
  20584671.461   108173216.323    20584679.664    84290872.2834   20584679.586  
                
  23486249.656   125635594.065                    97716595.368    23486253.777  
  23486247.363  
  22108902.797   118060295.106                    91824708.629    22108907.262  
  22108900.859  
  23292496.344   124336929.093                    96706491.628    23292501.164  
  23292495.004  
  22948091.141   120593017.200    22948100.875    93968644.0514   22948101.523  
                
  24853240.188   130604652.961    24853246.711   101769881.1144                 
                
  19348443.328   103355950.963                    80387963.542    19348446.922  
  19348442.758  
  21871390.836   114934965.900    21871397.938    89559763.9534   21871397.844  
                
  24719992.656   129904448.042    24719998.254   101224257.8274                 
                
  22180287.531   118732825.732                    92347758.493    22180291.922  
  22180286.211  
  22993050.781   120829302.332    22993061.133    94152752.9104   22993061.562  
                
  19302042.828   102999417.462                    80110663.318    19302045.707  
  19302040.828  
 21  8 16 16 48 40.0000000  0 17G 4G16R 1G26G30G 9R19R13R18G 6G22R12
                                G 7G 2R 3G 3R 2
  20833855.477   109482696.964    20833863.129    85311243.1544   20833863.023  
                
  22143357.641   116364168.352    22143363.816    90673422.5164                 
                
  21681213.297   115898528.337                    90143299.291    21681219.930  
  21681212.660  
  23595224.039   123993811.136    23595233.977    96618578.2434   23595233.992  
                
  24900291.828   130851915.705    24900303.477   101962577.8044   24900303.367  
                
  20582882.914   108163817.477    20582891.109    84283548.5074   20582891.027  
                
  23485311.336   125630574.340                    97712691.129    23485315.359  
  23485309.059  
  22101041.102   118018314.837                    91792057.333    22101045.664  
  22101039.258  
  23296876.461   124360310.180                    96724676.927    23296881.242  
  23296875.121  
  22950625.312   120606334.288    22950635.012    93979021.0034   22950635.684  
                
  24860084.953   130640622.231    24860091.418   101797909.1094                 
                
  19346365.672   103344852.483                    80379331.398    19346369.254  
  19346365.105  
  21867136.336   114912608.392    21867143.434    89542342.5284   21867143.340  
                
  24718830.141   129898339.011    24718835.773   101219497.5424                 
                
  22173961.125   118698959.964                    92321418.465    22173965.520  
  22173959.812  
  22999555.945   120863487.198    22999566.234    94179390.4614   22999566.703  
                
  19300488.414   102991122.794                    80104211.904    19300491.297  
  19300486.418  
 21  8 16 16 48 50.0000000  0 17G 4G16R 1G26G30G 9R19R13R18G 6G22R12
                                G 7G 2R 3G 3R 2
  20836128.547   109494641.971    20836136.176    85320550.9404   20836136.082  
                
  22142913.977   116361836.865    22142920.145    90671605.7814                 
                
  21686661.484   115927651.977                    90165951.002    21686668.141  
  21686660.863  
  23599333.883   124015408.460    23599343.848    96635407.3294   23599343.840  
                
  24893847.281   130818049.651    24893858.961   101936188.6984   24893858.879  
                
  20581100.672   108154451.681    20581108.867    84276250.4874   20581108.781  
                
  23484388.781   125625639.910                    97708853.280    23484392.914  
  23484386.625  
  22093185.805   117976366.953                    91759431.219    22093190.129  
  22093183.758  
  23301268.086   124383752.608                    96742909.918    23301272.805  
  23301266.727  
  22953170.297   120619708.212    22953179.977    93989442.2464   22953180.648  
                
  24866931.375   130676599.749    24866937.711   101825943.5374                 
                
  19344304.281   103333840.917                    80370766.858    19344307.859  
  19344303.730  
  21862888.328   114890284.960    21862895.422    89524947.6554   21862895.344  
                
  24717677.719   129892282.966    24717683.387   101214778.5384                 
                
  22167636.258   118665102.465                    92295084.877    22167640.668  
  22167634.941  
  23006066.148   120897698.549    23006076.422    94206048.6494   23006076.926  
                
  19298943.234   102982877.385                    80097798.811    19298946.129  
  19298941.234  
 21  8 16 16 49  0.0000000  0 17G 4G16R 1G26G30G 9R19R13R18G 6G22R12
                                G 7G 2R 3G 3R 2
  20838407.531   109506618.111    20838415.125    85329882.9954   20838415.051  
                
  22142484.250   116359578.676    22142490.398    90669846.1664                 
                
  21692116.414   115956811.645                    90188630.733    21692123.082  
  21692115.809  
  23603453.742   124037058.486    23603463.719    96652277.4824   23603463.688  
                
  24887404.914   130784195.223    24887416.648   101909808.6804   24887416.598  
                
  20579324.703   108145118.919    20579332.895    84268978.2024   20579332.801  
                
  23483482.117   125620790.608                    97705081.547    23483486.344  
  23483480.000  
  22085336.523   117934451.571                    91726830.391    22085340.676  
  22085334.348  
  23305671.156   124407256.070                    96761190.389    23305675.809  
  23305669.777  
  22955726.078   120633138.926    22955735.762    93999907.7274   22955736.438  
                
  24873779.297   130712585.452    24873785.578   101853984.3094                 
                
  19342259.109   103322916.010                    80362269.712    19342262.684  
  19342258.543  
  21858646.773   114867995.538    21858653.883    89507579.2914   21858653.805  
                
  24716535.352   129886279.813    24716541.023   101210100.7614                 
                
  22161312.945   118631253.414                    92268757.849    22161317.391  
  22161311.602  
  23012581.383   120931936.352    23012591.684    94232727.4394   23012592.168  
                
  19297407.211   102974680.917                    80091423.781    19297410.113  
  19297405.207  
 21  8 16 16 49 10.0000000  0 17G 4G16R 1G26G30G 9R19R13R18G 6G22R12
                                G 7G 2R 3G 3R 2
  20840692.453   109518625.390    20840700.016    85339239.3224   20840699.969  
                
  22142068.469   116357393.776    22142074.605    90668143.6494                 
                
  21697578.070   115986007.323                    90211338.475    21697584.742  
  21697577.445  
  23607583.602   124058761.157    23607593.621    96669188.6554   23607593.566  
                
  24880964.891   130750352.471    24880976.535   101883437.7134   24880976.543  
                
  20577555.023   108135819.222    20577563.215    84261731.6974   20577563.121  
                
  23482591.602   125616026.661                    97701376.253    23482595.727  
  23482589.438  
  22077493.289   117892569.244                    91694255.281    22077497.402  
  22077491.074  
  23310085.547   124430820.179                    96779518.040    23310090.172  
  23310084.156  
  22958292.648   120646626.349    22958302.363    94010417.4064   22958303.016  
                
  24880628.758   130748579.275    24880635.000   101882031.4654                 
                
  19340230.188   103312077.894                    80353840.084    19340233.770  
  19340229.613  
  21854411.734   114845740.264    21854418.863    89490237.5374   21854418.777  
                
  24715403.070   129880329.625    24715408.742   101205464.2644                 
                
  22154991.242   118597412.881                    92242437.435    22154995.691  
  22154989.875  
  23019101.648   120966200.536    23019111.996    94259426.7824   23019112.457  
                
  19295880.461   102966533.895                    80085087.208    19295883.359  
  19295878.441  
 21  8 16 16 49 20.0000000  0 17G 4G16R 1G26G30G 9R19R13R18G 6G22R12
                                G 7G 2R 3G 3R 2
  20842983.297   109530663.856    20842990.855    85348619.9474   20842990.812  
                
  22141666.664   116355282.280    22141672.812    90666498.3254                 
                
  21703046.438   116015239.000                    90234074.229    21703053.156  
  21703045.789  
  23611723.508   124080516.418    23611733.578    96686140.8214   23611733.512  
                
  24874527.109   130716521.507    24874538.723   101857075.9574   24874538.750  
                
  20575791.664   108126552.705    20575799.848    84254511.0314   20575799.750  
                
  23481717.164   125611347.953                    97697737.265    23481721.102  
  23481714.934  
  22069655.914   117850719.664                    91661705.651    22069660.273  
  22069653.914  
  23314511.344   124454445.210                    96797893.039    23314515.941  
  23314509.941  
  22960870.016   120660170.460    22960879.770    94020971.2484   22960880.402  
                
  24887479.734   130784581.255    24887485.965   101910084.9274                 
                
  19338217.555   103301326.769                    80345478.103    19338221.141  
  19338216.973  
  21850183.227   114823519.305    21850190.371    89472922.5164   21850190.281  
                
  24714280.898   129874432.539    24714286.543   101200869.1304                 
                
  22148671.148   118563580.933                    92216123.711    22148675.586  
  22148669.805  
  23025626.930   121000491.081    23025637.328    94286146.6724   23025637.758  
                
  19294363.023   102958436.588                    80078789.313    19294365.918  
  19294361.004  
 21  8 16 16 49 30.0000000  0 17G 4G16R 1G26G30G 9R19R13R18G 6G22R12
                                G 7G 2R 3G 3R 2
  20845280.078   109542733.488    20845287.637    85358024.8524   20845287.602  
                
  22141278.820   116353244.159    22141285.008    90664910.2004                 
                
  21708521.570   116044506.859                    90256838.116    21708528.328  
  21708520.887  
  23615873.422   124102324.280    23615883.516    96703133.9514   23615883.438  
                
  24868091.492   130682702.344    24868103.152   101830723.4024   24868103.207  
                
  20574034.617   108117319.396    20574042.793    84247316.2534   20574042.684  
                
  23480858.625   125606754.413                    97694164.537    23480862.414  
  23480856.250  
  22061824.922   117808903.261                    91629181.821    22061829.375  
  22061822.992  
  23318948.508   124478130.845                    96816315.185    23318953.086  
  23318947.062  
  22963458.141   120673771.186    22963467.945    94031569.2044   22963468.562  
                
  24894332.273   130820591.269    24894338.465   101938144.6614                 
                
  19336221.164   103290662.428                    80337183.626    19336224.754  
  19336220.578  
  21845961.258   114801332.686    21845968.418    89455634.2584   21845968.320  
                
  24713168.812   129868588.513    24713174.422   101196315.3484                 
                
  22142352.703   118529757.751                    92189816.798    22142357.172  
  22142351.371  
  23032157.219   121034807.897    23032167.633    94312887.0394   23032168.027  
                
  19292854.883   102950388.879                    80072529.990    19292857.766  
  19292852.859  
 21  8 16 16 49 40.0000000  0 17G 4G16R 1G26G30G 9R19R13R18G 6G22R12
                                G 7G 2R 3G 3R 2
  20847582.844   109554834.562    20847590.430    85367454.2584   20847590.375  
                
  22140904.992   116351279.722    22140911.199    90663379.4664                 
                
  21714003.484   116073810.936                    90279630.166    21714010.250  
  21714002.785  
  23620033.344   124124184.852    23620043.469    96720168.1624   23620043.355  
                
  24861658.141   130648895.338    24861669.844   101804380.3124   24861669.938  
                
  20572283.945   108108119.557    20572292.105    84240147.5554   20572292.000  
                
  23480015.828   125602246.697                    97690658.536    23480019.730  
  23480013.395  
  22054000.156   117767120.449                    91596684.083    22054004.758  
  22053998.395  
  23323397.039   124501877.336                    96834784.712    23323401.648  
  23323395.582  
  22966057.086   120687428.720    22966066.922    94042211.4374   22966067.535  
                
  24901186.289   130856609.502    24901192.555   101966210.8184                 
                
  19334241.102   103280085.329                    80328956.995    19334244.707  
  19334240.504  
  21841745.867   114779180.684    21841753.059    89438372.9654   21841752.945  
                
  24712066.859   129862797.752    24712072.441   101191803.0494                 
                
  22136035.898   118495943.565                    92163516.902    22136040.406  
  22136034.543  
  23038692.523   121069151.228    23038702.922    94339648.0634   23038703.293  
                
  19291356.070   102942390.965                    80066309.393    19291358.949  
  19291354.043  
 21  8 16 16 49 50.0000000  0 17G 4G16R 1G26G30G 9R19R13R18G 6G22R12
                                G 7G 2R 3G 3R 2
  20849891.555   109566966.896    20849899.172    85376908.0164   20849899.090  
                
  22140545.164   116349388.848    22140551.375    90661906.0664                 
                
  21719492.172   116103151.010                    90302450.214    21719498.941  
  21719491.480  
  23624203.250   124146097.881    23624213.383    96737243.2804   23624213.242  
                
  24855227.102   130615100.338    24855238.812   101778046.5884   24855238.945  
                
  20570539.609   108098953.037    20570547.750    84233004.8194   20570547.656  
                
  23479188.906   125597824.472                    97687219.030    23479193.059  
  23479186.543  
  22046181.906   117725370.999                    91564212.314    22046186.367  
  22046180.043  
  23327856.852   124525684.282                    96853301.175    23327861.484  
  23327855.324  
  22968666.797   120701142.820    22968676.680    94052897.7384   22968677.277  
                
  24908041.852   130892635.662    24908048.145   101994283.1364                 
                
  19332277.328   103269595.274                    80320798.073    19332280.938  
  19332276.727  
  21837537.031   114757063.137    21837544.266    89421138.5354   21837544.141  
                
  24710975.023   129857060.114    24710980.574   101187332.1624                 
                
  22129720.758   118462138.299                    92137223.923    22129725.305  
  22129719.387  
  23045232.805   121103520.780    23045243.172    94366429.5294   23045243.566  
                
  19289866.617   102934442.939                    80060127.596    19289869.508  
  19289864.586  
 21  8 16 16 50  0.0000000  0 16G 4G16R 1G26G30G 9R19R13R18G 6R12G 7
                                G 2R 3G 3R 2
  20852206.164   109579130.210    20852213.824    85386385.9214   20852213.719  
                
  22140199.273   116347571.194    22140205.508    90660489.7334                 
                
  21724987.523   116132526.819                    90325298.046    21724994.352  
  21724986.824  
  23628383.102   124168063.056    23628393.207    96754359.0104   23628393.070  
                
  24848798.352   130581317.128    24848810.008   101751722.0384   24848810.184  
                
  20568801.578   108089819.611    20568809.695    84225887.8644   20568809.609  
                
  23478378.219   125593487.128                    97683845.516    23478382.273  
  23478375.805  
  22038369.773   117683654.962                    91531766.534    22038374.266  
  22038367.984  
  23332327.914   124549551.201                    96871864.306    23332332.566  
  23332326.398  
  22971287.211   120714913.123    22971297.133    94063627.8334   22971297.746  
                
  19330329.828   103259192.115                    80312706.736    19330333.445  
  19330329.230  
  21833334.711   114734979.801    21833341.961    89403930.7584   21833341.836  
                
  24709893.258   129851375.390    24709898.797   101182902.5034                 
                
  22123407.273   118428341.719                    92110937.672    22123411.801  
  22123405.926  
  23051778.023   121137916.216    23051788.359    94393231.1594   23051788.762  
                
  19288386.398   102926544.219                    80053984.146    19288389.285  
  19288384.367  
 21  8 16 16 50 10.0000000  0 16G 4G16R 1G26G30G 9R19R13R18G 6R12G 7
                                G 2R 3G 3R 2
  20854526.750   109591324.964    20854534.449    85395888.3154   20854534.324  
                
  22139867.422   116345827.349    22139873.703    90659130.8924                 
                
  21730489.641   116161938.810                    90348174.016    21730496.539  
  21730488.945  
  23632572.922   124190080.758    23632583.043    96771515.6504   23632582.898  
                
  24842371.914   130547546.227    24842383.566   101725407.0964   24842383.770  
                
  20567069.930   108080719.760    20567078.035    84218797.0734   20567077.957  
                
  23477583.469   125589235.367                    97680538.612    23477587.516  
  23477581.129  
  22030564.133   117641972.915                    91499347.196    22030568.527  
  22030562.305  
  23336810.305   124573478.499                    96890474.417    23336814.949  
  23336808.746  
  22973918.383   120728740.037    22973928.352    94074402.0414   22973928.945  
                
  19328398.680   103248876.270                    80304683.312    19328402.316  
  19328398.078  
  21829138.992   114712931.128    21829146.230    89386749.9854   21829146.117  
                
  24708821.648   129845744.022    24708827.156   101178514.4244                 
                
  22117095.508   118394554.401                    92084658.667    22117100.035  
  22117094.176  
  23058328.258   121172337.937    23058338.582    94420053.2714   23058338.996  
                
  19286915.625   102918695.900                    80047879.895    19286918.504  
  19286913.586  
 21  8 16 16 50 20.0000000  0 16G 4G16R 1G26G30G 9R19R13R18G 6R12G 7
                                G 2R 3G 3R 2
  20856853.234   109603550.676    20856860.973    85405414.8524   20856860.820  
                
  22139549.500   116344156.718    22139555.848    90657829.1034                 
                
  21735998.469   116191386.551                    90371077.800    21736005.395  
  21735997.793  
  23636772.648   124212150.436    23636782.793    96788712.8124   23636782.637  
                
  24835947.773   130513787.229    24835959.398   101699101.4164   24835959.594  
                
  20565344.586   108071653.032    20565352.691    84211732.0964   20565352.613  
                
  23476804.641   125585068.990                    97677298.054    23476808.754  
  23476802.246  
  22022764.664   117600324.133                    91466953.720    22022769.027  
  22022762.844  
  23341303.836   124597465.585                    96909131.012    23341308.500  
  23341302.289  
  22976560.242   120742623.008    22976570.230    94085219.9394   22976570.816  
                
  19326483.797   103238647.350                    80296727.495    19326487.434  
  19326483.191  
  21824949.773   114690916.653    21824956.984    89369595.8574   21824956.887  
                
  24707760.102   129840165.577    24707765.602   101174167.5944                 
                
  22110785.453   118360776.208                    92058386.734    22110789.977  
  22110784.105  
  23064883.383   121206785.351    23064893.703    94446895.4084   23064894.121  
                
  19285454.164   102910897.274                    80041814.303    19285457.047  
  19285452.129  
 21  8 16 16 50 30.0000000  0 16G 4G16R 1G26G30G 9R19R13R18G 6R12G 7
                                G 2R 3G 3R 2
  20859185.648   109615807.596    20859193.418    85414965.6934   20859193.254  
                
  22139245.594   116342559.693    22139252.004    90656584.6754                 
                
  21741513.984   116220869.978                    90394009.353    21741520.926  
  21741513.312  
  23640982.297   124234272.242    23640992.422    96805950.5824   23640992.273  
                
  24829525.953   130480040.400    24829537.566   101672805.2184   24829537.754  
                
  20563625.602   108062619.714    20563633.711    84204693.1444   20563633.629  
                
  23476041.641   125580988.228                    97674124.091    23476045.945  
  23476037.977  
  22014971.547   117558709.370                    91434586.693    22014975.926  
  22014969.734  
  23345808.648   124621512.406                    96927834.123    23345813.285  
  23345807.078  
  22979212.797   120756562.215    22979222.801    94096081.6544   22979223.371  
                
  19324585.211   103228505.473                    80288839.375    19324588.863  
  19324584.609  
  21820767.125   114668936.709    21820774.297    89352468.6404   21820774.203  
                
  24706708.672   129834640.266    24706714.152   101169862.1564                 
                
  22104477.062   118327006.949                    92032121.783    22104481.594  
  22104475.703  
  23071443.445   121241258.729    23071453.781    94473757.7674   23071454.168  
                
  19284002.078   102903148.626                    80035787.572    19284004.949  
  19284000.055  
 21  8 16 16 50 40.0000000  0 16G 4G16R 1G26G30G 9R19R13R18G 6R12G 7
                                G 2R 3G 3R 2
  20861523.953   109628095.476    20861531.750    85424540.6624   20861531.574  
                
  22138955.648   116341036.142    22138962.082    90655397.4954                 
                
  21747036.133   116250389.140                    90416968.706    21747043.133  
  21747035.465  
  23645201.797   124256445.867    23645211.902    96823228.7194   23645211.770  
                
  24823106.445   130446305.593    24823118.020   101646518.3764   24823118.227  
                
  20561912.930   108053619.594    20561921.047    84197680.0684   20561920.965  
                
  23475294.547   125576992.578                    97671016.378    23475298.980  
  23475292.230  
  22007184.844   117517128.796                    91402246.282    22007189.266  
  22007182.992  
  23350324.562   124645618.700                    96946583.452    23350329.238  
  23350322.945  
  22981875.984   120770557.348    22981885.992    94106986.9404   22981886.547  
                
  19322702.922   103218450.665                    80281018.964    19322706.578  
  19322702.328  
  21816591.008   114646991.081    21816598.133    89335368.1614   21816598.051  
                
  24705667.312   129829167.841    24705672.777   101165597.9444                 
                
  22098170.406   118293246.918                    92005863.973    22098174.953  
  22098169.043  
  23078008.383   121275757.706    23078018.707    94500640.0704   23078019.102  
                
  19282559.359   102895450.042                    80029799.792    19282562.215  
  19282557.348  
 21  8 16 16 50 50.0000000  0 16G 4G16R 1G26G30G 9R19R13R18G 6R12G 7
                                G 2R 3G 3R 2
  20863868.180   109640414.494    20863875.992    85434139.8884   20863875.816  
                
  22138679.711   116339586.153    22138686.156    90654267.6414                 
                
  21752564.992   116279944.310                    90439956.029    21752572.023  
  21752564.289  
  23649431.180   124278671.451    23649441.285    96840547.3604   23649441.160  
                
  24816689.180   130412583.001    24816700.832   101620241.0794   24816701.035  
                
  20560206.609   108044652.880    20560214.730    84190693.0264   20560214.633  
                
  23474563.547   125573082.295                    97667975.084    23474567.930  
  23474562.133  
  21999404.352   117475582.099                    91369932.222    21999408.941  
  21999402.598  
  23354851.609   124669784.682                    96965379.180    23354856.363  
  23354850.023  
  22984549.844   120784608.507    22984559.863    94117935.8964   22984560.430  
                
  19320836.938   103208482.969                    80273266.320    19320840.609  
  19320836.344  
  21812421.469   114625080.052    21812428.566    89318294.6454   21812428.484  
                
  24704636.047   129823748.525    24704641.520   101161375.1134                 
                
  22091865.492   118259496.271                    91979613.488    22091870.082  
  22091864.129  
  23084578.250   121310282.419    23084588.547    94527542.4384   23084588.957  
                
  19281126.078   102887801.762                    80023851.128    19281128.926  
  19281124.062  
 21  8 16 16 51  0.0000000  0 16G 4G16R 1G26G30G 9R19R13R18G 6R12G 7
                                G 2R 3G 3R 2
  20866218.344   109652764.692    20866226.176    85443763.4124   20866225.984  
                
  22138417.797   116338209.829    22138424.273    90653195.2034                 
                
  21758100.547   116309535.111                    90462971.077    21758107.621  
  21758099.812  
  23653670.453   124300948.917    23653680.520    96857906.4364   23653680.414  
                
  24810274.258   130378872.745    24810285.934   101593973.3784   24810286.141  
                
  20558506.672   108035719.646    20558514.797    84183732.0644   20558514.703  
                
  23473848.672   125569257.572                    97665000.327    23473852.945  
  23473847.352  
  21991630.406   117434069.639                    91337644.778    21991635.027  
  21991628.660  
  23359389.797   124694009.945                    96984221.059    23359394.578  
  23359388.246  
  22987234.359   120798715.652    22987244.402    94128928.4674   22987244.957  
                
  19318987.281   103198602.428                    80265581.456    19318990.957  
  19318986.691  
  21808258.508   114603203.555    21808265.574    89301248.0394   21808265.488  
                
  24703614.914   129818382.410    24703620.371   101157193.7154                 
                
  22085562.305   118225754.877                    91953370.200    22085566.914  
  22085560.941  
  23091153.023   121344832.800    23091163.281    94554464.8124   23091163.707  
                
  19279702.180   102880203.596                    80017941.445    19279705.031  
  19279700.156  
 21  8 16 16 51 10.0000000  0 16G 4G16R 1G26G30G 9R19R13R18G 6R12G 7
                                G 2R 3G 3R 2
  20868574.453   109665146.132    20868582.305    85453411.2894   20868582.082  
                
  22138169.906   116336907.171    22138176.410    90652180.1474                 
                
  21763642.852   116339161.840                    90486014.073    21763649.945  
  21763642.105  
  23657919.594   124323278.260    23657929.574    96875305.9284   23657929.488  
                
  24803861.820   130345174.915    24803873.398   101567715.3684   24803873.621  
                
  20556813.117   108026819.963    20556821.246    84176797.2544   20556821.145  
                
  23473149.594   125565518.375                    97662092.056    23473153.969  
  23473147.992  
  21983862.641   117392591.777                    91305384.274    21983867.574  
  21983861.113  
  23363939.094   124718294.497                    97003109.050    23363943.914  
  23363937.539  
  22989929.523   120812878.785    22989939.598    94139964.6724   22989940.141  
                
  19317153.969   103188809.246                    80257964.552    19317157.660  
  19317153.363  
  21804102.148   114581361.787    21804109.180    89284228.4944   21804109.098  
                
  24702603.914   129813069.537    24702609.375   101153053.8304                 
                
  22079260.898   118192023.035                    91927134.310    22079265.484  
  22079259.555  
  23097732.641   121379408.880    23097742.898    94581407.1914   23097743.328  
                
  19278287.758   102872655.964                    80012071.066    19278290.598  
  19278285.730  
 21  8 16 16 51 20.0000000  0 16G 4G16R 1G26G30G 9R19R13R18G 6R12G 7
                                G 2R 3G 3R 2
  20870936.469   109677558.636    20870944.336    85463083.3574   20870944.094  
                
  22137935.961   116335677.867    22137942.504    90651222.2674                 
                
  21769191.758   116368824.079                    90509084.693    21769198.895  
  21769191.012  
  23662178.570   124345659.266    23662188.469    96892745.6724   23662188.406  
                
  24797451.711   130311489.437    24797463.242   101541466.9864   24797463.465  
                
  20555125.930   108017953.736    20555134.059    84169888.5034   20555133.961  
                
  23472466.586   125561864.584                    97659250.176    23472471.000  
  23472464.758  
  21976101.586   117351148.305                    91273150.499    21976106.484  
  21976100.020  
  23368499.445   124742638.213                    97022043.022    23368504.328  
  23368497.910  
  22992635.305   120827097.691    22992645.391    94151044.3284   22992645.934  
                
  19315336.984   103179103.259                    80250415.459    19315340.680  
  19315336.359  
  21799952.383   114559554.661    21799959.387    89267235.9394   21799959.320  
                
  24701603.016   129807809.758    24701608.469   101148955.3044                 
                
  22072961.258   118158300.693                    91900905.840    22072965.855  
  22072959.934  
  23104317.023   121414010.423    23104327.359    94608369.4174   23104327.805  
                
  19276882.727   102865158.477                    80006239.694    19276885.562  
  19276880.691  
 21  8 16 16 51 30.0000000  0 16G 4G16R 1G26G30G 9R19R13R18G 6R12G 7
                                G 2R 3G 3R 2
  20873304.391   109690002.161    20873312.266    85472779.5994   20873312.020  
                
  22137716.055   116334522.303    22137722.625    90650321.8254                 
                
  21774747.359   116398521.959                    90532183.030    21774754.516  
  21774746.641  
  23666447.344   124368091.760    23666457.176    96910225.5584   23666457.141  
                
  24791043.961   130277816.307    24791055.410   101515228.1974   24791055.645  
                
  20553445.086   108009120.896    20553453.227    84163005.7694   20553453.117  
                
  23471799.477   125558296.085                    97656474.653    23471803.891  
  23471797.551  
  21968347.086   117309739.671                    91240943.798    21968351.922  
  21968345.477  
  23373070.797   124767040.589                    97041022.637    23373075.730  
  23373069.219  
  22995351.672   120841372.205    22995361.762    94162167.3174   22995362.285  
                
  19313536.305   103169484.406                    80242934.129    19313540.012  
  19313535.680  
  21795809.156   114537781.893    21795816.164    89250270.1584   21795816.090  
                
  24700612.211   129802603.065    24700617.609   101144898.1314                 
                
  22066663.422   118124587.933                    91874684.810    22066668.027  
  22066662.105  
  23110906.289   121448637.267    23110916.637    94635351.3544   23110917.109  
                
  19275487.203   102857711.679                    80000447.738    19275490.043  
  19275485.156  
 21  8 16 16 51 40.0000000  0 16G 4G16R 1G26G30G 9R19R13R18G 6R12G 7
                                G 2R 3G 3R 2
  20875678.211   109702476.697    20875686.105    85482500.0184   20875685.844  
                
  22137510.188   116333440.486    22137516.773    90649478.8494                 
                
  21780309.633   116428255.390                    90555309.020    21780316.789  
  21780308.934  
  23670725.906   124390575.709    23670735.719    96927745.5254   23670735.691  
                
  24784638.523   130244155.538    24784649.902   101488999.0514   24784650.145  
                
  20551770.609   108000321.488    20551778.758    84156149.0904   20551778.641  
                
  23471148.539   125554813.131                    97653765.722    23471152.758  
  23471146.590  
  21960599.273   117268365.836                    91208764.159    21960603.883  
  21960597.449  
  23377653.148   124791501.661                    97060047.894    23377658.125  
  23377651.645  
  22998078.602   120855702.271    22998088.707    94173333.6034   22998089.219  
                
  19311751.945   103159952.701                    80235520.592    19311755.648  
  19311751.328  
  21791672.492   114516043.650    21791679.504    89233331.2874   21791679.426  
                
  24699631.523   129797449.497    24699636.836   101140882.3554                 
                
  22060367.375   118090884.707                    91848471.190    22060371.957  
  22060366.105  
  23117500.359   121483289.371    23117510.730    94662352.9874   23117511.223  
                
  19274101.070   102850315.045                    79994694.803    19274103.922  
  19274099.035  
 21  8 16 16 51 50.0000000  0 16G 4G16R 1G26G30G 9R19R13R18G 6R12G 7
                                G 2R 3G 3R 2
  20878057.938   109714982.276    20878065.840    85492244.6214   20878065.559  
                
  22137318.320   116332432.324    22137324.941    90648693.2864                 
                
  21785878.539   116458024.308                    90578462.619    21785885.711  
  21785877.867  
  23675014.250   124413111.062    23675024.059    96945305.5404   23675024.031  
                
  24778235.477   130210507.267    24778246.828   101462779.6584   24778247.070  
                
  20550102.516   107991555.603    20550110.680    84149318.5334   20550110.555  
                
  23470513.438   125551415.488                    97651123.165    23470517.609  
  23470511.430  
  21952857.828   117227026.800                    91176611.602    21952862.355  
  21952855.980  
  23382246.547   124816021.316                    97079118.709    23382251.500  
  23382245.047  
  23000816.102   120870087.863    23000826.211    94184543.1354   23000826.719  
                
  19309983.938   103150508.361                    80228175.000    19309987.648  
  19309983.309  
  21787542.422   114494339.995    21787549.430    89216419.3554   21787549.336  
                
  24698660.930   129792349.007    24698666.133   101136907.9514                 
                
  22054073.164   118057191.345                    91822265.261    22054077.754  
  22054071.887  
  23124099.266   121517966.687    23124109.609    94689374.2714   23124110.086  
                
  19272724.438   102842969.090                    79988981.283    19272727.285  
  19272722.391  
 21  8 16 16 52  0.0000000  0 16G 4G16R 1G26G30G 9R19R13R18G 6R12G 7
                                G 2R 3G 3R 2
  20880443.641   109727519.240    20880451.535    85502013.6704   20880451.270  
                
  22137140.539   116331498.106    22137147.207    90647965.3384                 
                
  21791454.172   116487829.183                    90601644.167    21791461.332  
  21791453.504  
  23679312.414   124435698.063    23679322.211    96962905.8024   23679322.188  
                
  24771834.727   130176871.791    24771846.172   101436570.2384   24771846.426  
                
  20548440.852   107982823.545    20548449.023    84142514.3454   20548448.898  
                
  23469894.312   125548103.725                    97648547.364    23469898.523  
  23469892.246  
  21945122.992   117185722.961                    91144486.416    21945127.430  
  21945121.125  
  23386851.000   124840599.691                    97098235.204    23386855.914  
  23386849.438  
  23003564.203   120884529.210    23003574.305    94195796.1264   23003574.816  
                
  19308232.289   103141151.431                    80220897.398    19308236.012  
  19308231.645  
  21783419.000   114472671.339    21783426.012    89199534.7004   21783425.906  
                
  24697700.516   129787301.940    24697705.609   101132975.1764                 
                
  22047780.820   118023507.969                    91796067.079    22047785.414  
  22047779.535  
  23130702.992   121552669.498    23130713.328    94716415.4144   23130713.789  
                
  19271357.367   102835674.136                    79983307.427    19271360.219  
  19271355.320  
 21  8 16 16 52 10.0000000  0 16G 4G16R 1G26G30G 9R19R13R18G 6R12G 7
                                G 2R 3G 3R 2
  20882835.242   109740087.211    20882843.125    85511806.9034   20882842.863  
                
  22136976.773   116330637.575    22136983.453    90647294.7974                 
                
  21797036.445   116517669.494                    90624853.301    21797043.590  
  21797035.805  
  23683620.320   124458336.254    23683630.121    96980545.9634   23683630.117  
                
  24765436.406   130143248.888    24765447.914   101410370.6184   24765448.168  
                
  20546785.586   107974125.058    20546793.762    84135736.3044   20546793.629  
                
  23469291.070   125544877.306                    97646037.885    23469295.406  
  23469289.008  
  21937394.867   117144454.125                    91112388.452    21937399.094  
  21937392.809  
  23391466.250   124865236.496                    97117397.137    23391471.238  
  23391464.738  
  23006322.828   120899025.916    23006332.934    94207092.2484   23006333.445  
                
  19306497.008   103131881.937                    80213687.794    19306500.734  
  19306496.348  
  21779302.180   114451037.326    21779309.180    89182677.0464   21779309.074  
                
  24696750.211   129782307.991    24696755.219   101129083.7864                 
                
  22041490.344   117989834.556                    91769876.640    22041494.898  
  22041489.066  
  23137311.461   121587397.378    23137321.793    94743476.0824   23137322.262  
                
  19269999.766   102828429.741                    79977672.895    19270002.625  
  19269997.715  
 21  8 16 16 52 20.0000000  0 16G 4G16R 1G26G30G 9R19R13R18G 6R12G 7
                                G 2R 3G 3R 2
  20885232.742   109752686.156    20885240.602    85521624.2554   20885240.352  
                
  22136827.031   116329850.694    22136833.684    90646681.6474                 
                
  21802625.312   116547545.124                    90648089.886    21802632.453  
  21802624.660  
  23687937.969   124481025.584    23687947.805    96998225.9684   23687947.777  
                
  24759040.531   130109638.560    24759052.062   101384180.7964   24759052.332  
                
  20545136.688   107965460.078    20545144.863    84128984.3804   20545144.730  
                
  23468703.891   125541736.260                    97643594.818    23468708.277  
  23468701.887  
  21929673.289   117103220.695                    91080318.013    21929677.391  
  21929671.102  
  23396092.500   124889931.312                    97136604.203    23396097.406  
  23396090.957  
  23009091.969   120913577.827    23009102.094    94218431.4004   23009102.582  
                
  19304778.070   103122699.708                    80206546.065    19304781.797  
  19304777.395  
  21775191.953   114429437.973    21775198.934    89165846.3904   21775198.840  
                
  24695810.000   129777367.074    24695814.961   101125233.7284                 
                
  22035201.672   117956170.814                    91743693.751    22035206.207  
  22035200.395  
  23143924.711   121622150.202    23143935.000    94770556.1874   23143935.504  
                
  19268651.680   102821236.072                    79972077.829    19268654.543  
  19268649.621  
 21  8 16 16 52 30.0000000  0 16G 4G16R 1G26G30G 9R19R13R18G 6R12G 7
                                G 2R 3G 3R 2
  20887636.109   109765315.999    20887643.938    85531465.6924   20887643.711  
                
  22136691.281   116329137.387    22136697.910    90646125.8304                 
                
  21808220.781   116577456.143                    90671354.012    21808227.918  
  21808220.125  
  23692265.297   124503765.876    23692275.176    97015945.6694   23692275.129  
                
  24752647.117   130076040.787    24752658.609   101358000.7614   24752658.887  
                
  20543494.164   107956828.590    20543502.340    84122258.5474   20543502.215  
                
  23468132.758   125538680.509                    97641218.133    23468137.066  
  23468130.691  
  21921958.172   117062022.416                    91048274.928    21921962.234  
  21921955.988  
  23400729.609   124914684.027                    97155856.311    23400734.441  
  23400728.051  
  23011871.578   120928184.847    23011881.723    94229813.4724   23011882.219  
                
  19303075.453   103113604.681                    80199472.165    19303079.176  
  19303074.758  
  21771088.305   114407873.216    21771095.277    89149042.7014   21771095.188  
                
  24694879.875   129772479.242    24694884.773   101121425.0274                 
                
  22028914.891   117922517.140                    91717518.659    22028919.375  
  22028913.609  
  23150542.680   121656927.815    23150552.945    94797655.6324   23150553.477  
                
  19267313.086   102814093.122                    79966522.198    19267315.938  
  19267311.035  
 21  8 16 16 52 40.0000000  0 16G 4G16R 1G26G30G 9R19R13R18G 6R12G 7
                                G 2R 3G 3R 2
  20890045.391   109777976.855    20890053.188    85541331.2864   20890052.980  
                
  22136569.562   116328497.797    22136576.164    90645627.4574                 
                
  21813822.883   116607402.535                    90694645.657    21813830.008  
  21813822.211  
  23696602.312   124526557.162    23696612.230    97033705.0964   23696612.172  
                
  24746256.125   130042455.757    24746267.582   101331830.6404   24746267.875  
                
  20541858.031   107948230.708    20541866.215    84115558.8984   20541866.086  
                
  23467577.352   125535710.203                    97638907.927    23467581.766  
  23467575.418  
  21914249.766   117020859.463                    91016259.331    21914253.719  
  21914247.469  
  23405377.500   124939494.659                    97175153.453    23405382.352  
  23405375.996  
  23014661.680   120942846.952    23014671.848    94241238.4994   23014672.336  
                
  19301389.180   103104596.960                    80192466.177    19301392.895  
  19301388.480  
  21766991.266   114386343.182    21766998.242    89132266.0674   21766998.133  
                
  24693959.875   129767644.585    24693964.746   101117657.7584                 
                
  22022629.977   117888873.564                    91691351.451    22022634.438  
  22022628.695  
  23157165.359   121691730.283    23157175.676    94824774.4374   23157176.203  
                
  19265983.984   102807000.793                    79961005.940    19265986.828  
  19265981.934  
 21  8 16 16 52 50.0000000  0 16G 4G16R 1G26G30G 9R19R13R18G 6R12G 7
                                G 2R 3G 3R 2
  20892460.641   109790669.055    20892468.422    85551221.3104   20892468.223  
                
  22136461.938   116327932.215    22136468.512    90645186.7564                 
                
  21819431.648   116637384.582                    90717965.008    21819438.766  
  21819430.953  
  23700949.086   124549399.702    23700959.031    97051504.4794   23700958.961  
                
  24739867.586   130008883.813    24739879.016   101305670.6994   24739879.336  
                
  20540228.375   107939666.833    20540236.559    84108885.7524   20540236.441  
                
  23467038.047   125532825.641                    97636664.393    23467042.473  
  23467036.086  
  21906547.938   116979732.412                    90984271.646    21906551.934  
  21906545.695  
  23410036.312   124964363.263                    97194495.687    23410041.117  
  23410034.754  
  23017462.328   120957564.469    23017472.520    94252706.6704   23017473.000  
                
  19299719.336   103095676.996                    80185528.442    19299723.047  
  19299718.637  
  21762900.891   114364848.169    21762907.859    89115516.7124   21762907.750  
                
  24693050.047   129762863.392    24693054.957   101113932.1364                 
                
  22016347.031   117855240.454                    91665192.369    22016351.469  
  22016345.746  
  23163792.828   121726557.905    23163803.230    94851912.8144   23163803.719  
                
  19264664.539   102799959.993                    79955529.774    19264667.363  
  19264662.496  
 21  8 16 16 53  0.0000000  0 16G 4G16R 1G26G30G 9R19R13R18G 6R12G 7
                                G 2R 3G 3R 2
  20894881.789   109803392.231    20894889.547    85561135.4814   20894889.359  
                
  22136368.312   116327440.213    22136374.852    90644803.3744                 
                
  21825047.055   116667402.047                    90741311.919    21825054.156  
  21825046.352  
  23705305.531   124572293.066    23705315.484    97069343.4524   23705315.402  
                
  24733481.461   129975324.676    24733492.875   101279520.7574   24733493.227  
                
  20538605.133   107931136.617    20538613.312    84102238.8374   20538613.203  
                
  23466514.805   125530026.709                    97634487.464    23466519.215  
  23466512.805  
  21898852.891   116938641.561                    90952312.127    21898856.961  
  21898850.672  
  23414705.867   124989289.407                    97213882.699    23414710.664  
  23414704.328  
  23020273.438   120972336.965    23020283.637    94264217.6894   23020284.117  
                
  19298065.852   103086844.416                    80178658.660    19298069.566  
  19298065.156  
  21758817.141   114343387.905    21758824.121    89098794.4384   21758824.027  
                
  24692150.328   129758135.340    24692155.289   101110247.9384                 
                
  22010066.023   117821617.736                    91639041.381    22010070.484  
  22010064.734  
  23170424.945   121761410.202    23170435.473    94879070.4224   23170435.918  
                
  19263354.648   102792970.131                    79950093.204    19263357.457  
  19263352.617  
 21  8 16 16 53 10.0000000  0 16G 4G16R 1G26G30G 9R19R13R18G 6R12G 7
                                G 2R 3G 3R 2
  20897308.836   109816146.435    20897316.582    85571073.8194   20897316.398  
                
  22136288.742   116327022.110    22136295.254    90644477.5954                 
                
  21830669.016   116697454.638                    90764686.145    21830676.113  
  21830668.289  
  23709671.625   124595237.171    23709681.535    97087221.9984   23709681.488  
                
  24727097.695   129941778.401    24727109.188   101253380.8354   24727109.543  
                
  20536988.297   107922640.134    20536996.477    84095618.2024   20536996.375  
                
  23466007.586   125527313.271                    97632376.979    23466011.949  
  23466005.516  
  21891164.516   116897586.627                    90920380.553    21891168.695  
  21891162.379  
  23419386.109   125014273.068                    97233314.429    23419390.969  
  23419384.660  
  23023094.977   120987164.314    23023105.172    94275771.4804   23023105.633  
                
  19296428.727   103078099.260                    80171856.869    19296432.445  
  19296428.020  
  21754740.008   114321962.473    21754747.023    89082099.3084   21754746.906  
                
  24691260.711   129753460.450    24691265.711   101106605.1674                 
                
  22003786.898   117788005.245                    91612898.353    22003791.402  
  22003785.621  
  23177061.758   121796287.171    23177072.402    94906247.2724   23177072.809  
                
  19262054.344   102786031.484                    79944696.487    19262057.145  
  19262052.309  
 21  8 16 16 53 20.0000000  0 16G 4G16R 1G26G30G 9R19R13R18G 6R12G 7
                                G 2R 3G 3R 2
  20899741.812   109828931.786    20899749.539    85581036.4344   20899749.371  
                
  22136223.266   116326678.044    22136229.777    90644209.4964                 
                
  21836297.617   116727542.744                    90788087.991    21836304.711  
  21836296.871  
  23714047.406   124618232.123    23714057.266    97105140.1484   23714057.219  
                
  24720716.414   129908245.189    24720728.008   101227251.1034   24720728.344  
                
  20535377.914   107914177.517    20535386.090    84089023.9564   20535385.992  
                
  23465516.398   125524685.521                    97630333.184    23465520.758  
  23465514.293  
  21883482.820   116856567.697                    90888476.972    21883487.152  
  21883480.797  
  23424077.086   125039314.022                    97252790.708    23424081.977  
  23424075.676  
  23025926.992   121002046.669    23025937.148    94287368.0964   23025937.625  
                
  19294808.000   103069441.649                    80165123.178    19294811.707  
  19294807.301  
  21750669.523   114300571.979    21750676.578    89065431.4064   21750676.426  
                
  24690381.266   129748838.908    24690386.312   101103003.9594                 
                
  21997509.758   117754403.273                    91586763.485    21997514.277  
  21997508.484  
  23183703.336   121831188.818    23183714.008    94933443.3494   23183714.402  
                
  19260763.680   102779144.222                    79939339.718    19260766.465  
  19260761.660  
 21  8 16 16 53 30.0000000  0 16G 4G16R 1G26G30G 9R19R13R18G 6R12G 7
                                G 2R 3G 3R 2
  20902180.664   109841747.991    20902188.367    85591023.0824   20902188.207  
                
  22136171.805   116326407.660    22136178.297    90643998.8054                 
                
  21841932.781   116757665.919                    90811517.125    21841939.879  
  21841932.051  
  23718432.789   124641277.542    23718442.602    97123097.6154   23718442.578  
                
  24714337.578   129874724.806    24714349.254   101201131.3664   24714349.590  
                
  20533773.922   107905748.554    20533782.102    84082455.9324   20533782.008  
                
  23465041.102   125522142.952                    97628355.646    23465045.422  
  23465038.930  
  21875808.016   116815584.814                    90856601.432    21875812.375  
  21875806.051  
  23428778.891   125064412.185                    97272311.484    23428783.699  
  23428777.441  
  23028769.391   121016983.604    23028779.488    94299007.2564   23028779.984  
                
  19293203.617   103060871.396                    80158457.439    19293207.324  
  19293202.926  
  21746605.633   114279216.190    21746612.703    89048790.5444   21746612.543  
                
  24689511.898   129744270.391    24689517.047   101099444.1004                 
                
  21991234.547   117720811.763                    91560636.764    21991239.070  
  21991233.250  
  23190349.523   121866114.835    23190360.207    94960658.4214   23190360.617  
                
  19259482.523   102772307.767                    79934022.479    19259485.309  
  19259480.512  
 21  8 16 16 53 40.0000000  0 16G 4G16R 1G26G30G 9R19R13R18G 6R12G 7
                                G 2R 3G 3R 2
  20904625.469   109854595.457    20904633.152    85601034.0994   20904633.008  
                
  22136134.453   116326211.335    22136140.926    90643845.8404                 
                
  21847574.609   116787824.601                    90834973.868    21847581.688  
  21847573.891  
  23722827.844   124664373.766    23722837.621    97141094.6904   23722837.625  
                
  24707961.352   129841217.746    24707973.027   101175021.9844   24707973.371  
                
  20532176.430   107897353.645    20532184.617    84075914.4564   20532184.516  
                
  23464581.852   125519686.255                    97626444.862    23464586.129  
  23464579.535  
  21868140.148   116774638.404                    90824754.253    21868144.418  
  21868138.129  
  23433491.328   125089567.500                    97291876.696    23433496.152  
  23433489.902  
  23031622.258   121031975.485    23031632.281    94310689.2284   23031632.797  
                
  19291615.672   103052388.837                    80151859.917    19291619.375  
  19291614.980  
  21742548.477   114257895.685    21742555.551    89032177.1744   21742555.391  
                
  24688652.727   129739755.376    24688657.969   101095925.8894                 
                
  21984961.430   117687231.203                    91534518.535    21984965.949  
  21984960.129  
  23197000.406   121901065.572    23197011.105    94987892.7424   23197011.543  
                
  19258211.094   102765523.117                    79928745.527    19258213.891  
  19258209.082  
 21  8 16 16 53 50.0000000  0 16G 4G16R 1G26G30G 9R19R13R18G 6R12G 7
                                G 2R 3G 3R 2
  20907076.156   109867473.854    20907083.820    85611069.2054   20907083.684  
                
  22136111.141   116326088.820    22136117.582    90643750.3834                 
                
  21853223.000   116818018.325                    90858457.867    21853230.066  
  21853222.277  
  23727232.477   124687520.341    23727242.254    97159131.0094   23727242.262  
                
  24701587.523   129807723.704    24701599.270   101148922.7814   24701599.652  
                
  20530585.359   107888992.516    20530593.551    84069399.2964   20530593.441  
                
  23464138.523   125517314.970                    97624600.515    23464142.809  
  23464136.223  
  21860479.062   116733728.404                    90792935.382    21860483.223  
  21860476.992  
  23438214.438   125114779.610                    97311486.092    23438219.254  
  23438212.977  
  23034485.508   121047021.873    23034495.473    94322413.6994   23034496.016  
                
  19290044.062   103043993.639                    80145330.336    19290047.746  
  19290043.367  
  21738497.953   114236610.071    21738505.020    89015590.9964   21738504.875  
                
  24687803.648   129735293.474    24687808.973   101092449.0874                 
                
  21978690.266   117653661.190                    91508408.541    21978694.785  
  21978689.008  
  23203655.922   121936040.618    23203666.613    95015146.0064   23203667.074  
                
  19256949.305   102758789.970                    79923508.620    19256952.094  
  19256947.312  
 21  8 16 16 54  0.0000000  0 16G 4G16R 1G26G30G 9R19R13R18G 6R12G 7
                                G 2R 3G 3R 2
  20909532.695   109880383.047    20909540.344    85621128.3124   20909540.207  
                
  22136101.828   116326039.945    22136108.234    90643712.2874                 
                
  21858877.914   116848247.061                    90881969.085    21858884.965  
  21858877.184  
  23731646.672   124710717.144    23731656.430    97177206.4364   23731656.418  
                
  24695216.195   129774242.603    24695227.934   101122833.6334   24695228.379  
                
  20529000.680   107880665.035    20529008.879    84062910.3584   20529008.766  
                
  23463711.172   125515028.932                    97622822.540    23463715.441  
  23463708.918  
  21852824.812   116692854.928                    90761144.904    21852828.824  
  21852822.691  
  23442948.117   125140048.297                    97331139.482    23442952.922  
  23442946.660  
  23037359.070   121062122.611    23037369.012    94334180.4954   23037369.578  
                
  19288488.820   103035685.881                    80138868.747    19288492.484  
  19288488.117  
  21734454.047   114215359.294    21734461.098    88999031.9564   21734460.969  
                
  24686964.641   129730884.538    24686970.000   101089013.5744                 
                
  21972421.078   117620101.712                    91482306.730    21972425.586  
  21972419.852  
  23210316.062   121971039.733    23210326.699    95042418.0414   23210327.164  
                
  19255697.102   102752108.007                    79918311.551    19255699.914  
  19255695.102  
 21  8 16 16 54 10.0000000  0 16G 4G16R 1G26G30G 9R19R13R18G 6R12G 7
                                G 2R 3G 3R 2
  20911995.164   109893323.353    20912002.805    85631211.6714   20912002.676  
                
  22136106.570   116326064.889    22136112.945    90643731.7484                 
                
  21864539.414   116878510.957                    90905507.673    21864546.453  
  21864538.684  
  23736070.461   124733964.355    23736080.215    97195321.1484   23736080.168  
                
  24688847.367   129740774.771    24688859.176   101096754.8634   24688859.629  
                
  20527422.484   107872371.577    20527430.695    84056447.9234   20527430.586  
                
  23463299.875   125512828.592                    97621111.141    23463304.105  
  23463297.496  
  21845177.438   116652018.290                    90729383.080    21845181.359  
  21845175.340  
  23447692.500   125165373.522                    97350836.879    23447697.188  
  23447691.000  
  23040243.039   121077277.897    23040252.945    94345989.7974   23040253.516  
                
  19286949.992   103027465.821                    80132475.365    19286953.652  
  19286949.289  
  21730416.828   114194143.650    21730423.875    88982500.3024   21730423.766  
                
  24686135.797   129726528.937    24686141.160   101085619.5994                 
                
  21966153.938   117586553.194                    91456213.451    21966158.469  
  21966152.734  
  23216980.844   122006063.180    23216991.430    95069709.0364   23216991.902  
                
  19254454.570   102745477.613                    79913154.571    19254457.387  
  19254452.566  
 21  8 16 16 54 20.0000000  0 16G 4G16R 1G26G30G 9R19R13R18G 6R12G 7
                                G 2R 3G 3R 2
  20914463.516   109906294.648    20914471.160    85641319.1674   20914471.027  
                
  22136125.383   116326163.769    22136131.750    90643808.8054                 
                
  21870207.469   116908809.989                    90929073.580    21870214.508  
  21870206.711  
  23740503.789   124757261.766    23740513.547    97213474.9914   23740513.488  
                
  24682481.172   129707320.182    24682492.996   101070686.3914   24682493.430  
                
  20525850.727   107864111.996    20525858.941    84050011.8954   20525858.836  
                
  23462904.352   125510713.744                    97619466.248    23462908.727  
  23462902.062  
  21837536.891   116611218.454                    90697649.889    21837540.812  
  21837534.902  
  23452447.227   125190755.324                    97370578.240    23452452.051  
  23452445.855  
  23043137.344   121092487.517    23043147.227    94357841.4494   23043147.809  
                
  19285427.555   103019333.273                    80126150.056    19285431.211  
  19285426.863  
  21726386.258   114172962.971    21726393.309    88965995.8864   21726393.207  
                
  24685317.078   129722226.601    24685322.434   101082267.1404                 
                
  21959888.836   117553015.623                    91430128.687    21959893.344  
  21959887.641  
  23223650.289   122041110.777    23223660.797    95097018.8464   23223661.270  
                
  19253221.758   102738899.104                    79908037.954    19253224.582  
  19253219.750  
 21  8 16 16 54 30.0000000  0 16G 4G16R 1G26G30G 9R19R13R18G 6R12G 7
                                G 2R 3G 3R 2
  20916937.742   109919296.755    20916945.387    85651450.6804   20916945.250  
                
  22136158.234   116326336.439    22136164.621    90643943.3634                 
                
  21875882.062   116939143.921                    90952666.617    21875889.133  
  21875881.297  
  23744946.633   124780609.152    23744956.414    97231667.7674   23744956.332  
                
  24676117.461   129673878.706    24676129.301   101044628.1484   24676129.730  
                
  20524285.406   107855886.198    20524293.621    84043602.1864   20524293.520  
                
  23462524.914   125508684.144                    97617887.639    23462529.312  
  23462522.633  
  21829903.336   116570455.416                    90665945.325    21829907.152  
  21829901.320  
  23457212.555   125216193.163                    97390363.198    23457217.406  
  23457211.211  
  23046041.961   121107751.278    23046051.828    94369735.2804   23046052.418  
                
  19283921.492   103011288.179                    80119892.764    19283925.129  
  19283920.805  
  21722362.359   114151817.284    21722369.406    88949518.7394   21722369.309  
                
  24684508.469   129717977.308    24684513.781   101078956.0034                 
                
  21953625.773   117519488.914                    91404052.364    21953630.281  
  21953624.602  
  23230324.188   122076182.270    23230334.766    95124347.2754   23230335.195  
                
  19251998.539   102732371.773                    79902961.142    19252001.367  
  19251996.527  
 21  8 16 16 54 40.0000000  0 16G 4G16R 1G26G30G 9R19R13R18G 6R12G 7
                                G 2R 3G 3R 2
  20919417.859   109932329.919    20919425.512    85661606.3854   20919425.359  
                
  22136205.156   116326583.084    22136211.551    90644135.5624                 
                
  21881563.227   116969512.845                    90976286.892    21881570.301  
  21881562.473  
  23749399.008   124804006.672    23749408.805    97249899.6084   23749408.738  
                
  24669756.281   129640450.677    24669768.156   101018580.3764   24669768.598  
                
  20522726.570   107847694.472    20522734.785    84037219.0264   20522734.688  
                
  23462161.477   125506740.196                    97616375.700    23462165.910  
  23462159.266  
  21822276.797   116529729.513                    90634269.644    21822280.461  
  21822274.664  
  23461988.523   125241687.275                    97410191.966    23461993.324  
  23461987.117  
  23048956.906   121123069.321    23048966.777    94381671.4144   23048967.359  
                
  19282431.852   103003330.805                    80113703.693    19282435.488  
  19282431.168  
  21718345.164   114130706.799    21718352.191    88933069.0214   21718352.102  
                
  24683710.000   129713781.340    24683715.258   101075686.4084                 
                
  21947364.789   117485973.356                    91377984.705    21947369.281  
  21947363.645  
  23237002.656   122111277.874    23237013.328    95151694.4864   23237013.727  
                
  19250785.078   102725896.514                    79897924.830    19250787.910  
  19250783.062  
 21  8 16 16 54 50.0000000  0 16G 4G16R 1G26G30G 9R19R13R18G 6R12G 7
                                G 2R 3G 3R 2
  20921903.875   109945394.013    20921911.527    85671786.2024   20921911.379  
                
  22136266.164   116326903.725    22136272.555    90644385.4254                 
                
  21887250.961   116999916.795                    90999934.407    21887258.016  
  21887250.211  
  23753860.906   124827454.153    23753870.719    97268170.3684   23753870.645  
                
  24663397.539   129607035.980    24663409.484   100992542.9794   24663409.953  
                
  20521174.195   107839536.707    20521182.395    84030862.3304   20521182.301  
                
  23461814.016   125504881.759                    97614930.261    23461818.449  
  23461811.863  
  21814656.914   116489040.913                    90602622.974    21814660.746  
  21814654.945  
  23466775.000   125267237.285                    97430064.197    23466779.703  
  23466773.504  
  23051882.156   121138441.447    23051892.023    94393649.7014   23051892.594  
                
  19280958.594   102995460.969                    80107582.722    19280962.227  
  19280957.934  
  21714334.609   114109631.262    21714341.621    88916646.5354   21714341.539  
                
  24682921.664   129709638.585    24682926.879   101072458.2904                 
                
  21941105.875   117452468.863                    91351925.660    21941110.344  
  21941104.738  
  23243685.641   122146397.380    23243696.422    95179060.3104   23243696.836  
                
  19249581.344   102719473.147                    79892928.874    19249584.184  
  19249579.332  
 21  8 16 16 55  0.0000000  0 16G 4G16R 1G26G30G 9R19R13R18G 6R12G 7
                                G 2R 3G 3R 2
  20924395.773   109958489.021    20924403.410    85681990.0874   20924403.273  
                
  22136341.234   116327298.271    22136347.613    90644692.8714                 
                
  21892945.195   117030355.689                    91023609.088    21892952.242  
  21892944.449  
  23758332.266   124850951.450    23758342.098    97286479.9554   23758342.020  
                
  24657041.422   129573634.663    24657053.363   100966516.0254   24657053.863  
                
  20519628.281   107831412.918    20519636.473    84024532.1044   20519636.379  
                
  23461482.516   125503108.820                    97613551.329    23461486.934  
  23461480.438  
  21807044.141   116448389.681                    90571005.401    21807048.086  
  21807042.238  
  23471571.875   125292843.122                    97449979.848    23471576.500  
  23471570.359  
  23054817.664   121153867.579    23054827.516    94405670.0464   23054828.090  
                
  19279501.750   102987678.750                    80101529.877    19279505.355  
  19279501.133  
  21710330.711   114088590.775    21710337.699    88900251.3654   21710337.629  
                
  24682143.453   129705549.108    24682148.660   101069271.6874                 
                
  21934849.023   117418975.582                    91325875.348    21934853.488  
  21934847.891  
  23250373.234   122181540.680    23250384.008    95206444.6894   23250384.414  
                
  19248387.344   102713101.766                    79887973.363    19248390.180  
  19248385.328  
 21  8 16 16 55 10.0000000  0 16G 4G16R 1G26G30G 9R19R13R18G 6R12G 7
                                G 2R 3G 3R 2
  20926893.570   109971615.044    20926901.195    85692218.1574   20926901.059  
                
  22136430.398   116327766.885    22136436.777    90645058.0184                 
                
  21898645.992   117060829.464                    91047310.905    21898653.004  
  21898645.270  
  23762813.141   124874498.637    23762822.965    97304828.4114   23762822.887  
                
  24650687.883   129540246.875    24650699.824   100940499.6154   24650700.352  
                
  20518088.867   107823323.221    20518097.051    84018228.4534   20518096.965  
                
  23461167.070   125501421.443                    97612238.940    23461171.484  
  23461164.938  
  21799438.367   116407775.895                    90539416.936    21799442.422  
  21799436.527  
  23476379.305   125318504.604                    97469938.775    23476383.758  
  23476377.641  
  23057763.453   121169347.729    23057773.297    94417732.4934   23057773.898  
                
  19278061.344   102979984.316                    80095545.339    19278064.934  
  19278060.770  
  21706333.516   114067585.422    21706340.477    88883883.5754   21706340.430  
                
  24681375.398   129701512.908    24681380.578   101066126.5864                 
                
  21928594.312   117385493.657                    91299833.887    21928598.797  
  21928593.137  
  23257065.344   122216707.834    23257076.113    95233847.6514   23257076.516  
                
  19247203.109   102706782.473                    79883058.362    19247205.953  
  19247201.098  
 21  8 16 16 55 20.0000000  0 16G 4G16R 1G26G30G 9R19R13R18G 6R12G 7
                                G 2R 3G 3R 2
  20929397.211   109984771.796    20929404.812    85702470.1634   20929404.684  
                
  22136533.602   116328309.230    22136539.984    90645480.6284                 
                
  21904353.234   117091337.952                    91071039.719    21904360.270  
  21904352.512  
  23767303.406   124898095.323    23767313.238    97323215.4314   23767313.168  
                
  24644336.945   129506872.400    24644348.836   100914493.5724   24644349.371  
                
  20516555.883   107815267.383    20516564.078    84011951.1774   20516563.980  
                
  23460867.500   125499819.365                    97610992.854    23460872.012  
  23460865.406  
  21791839.727   116367199.594                    90507857.617    21791843.742  
  21791837.852  
  23481196.953   125344221.466                    97489940.756    23481201.391  
  23481195.293  
  23060719.445   121184881.528    23060729.262    94429836.7414   23060729.863  
                
  19276637.273   102972377.203                    80089628.695    19276640.836  
  19276636.738  
  21702342.969   114046615.002    21702349.898    88867542.9954   21702349.875  
                
  24680617.398   129697529.676    24680622.602   101063022.7714                 
                
  21922341.719   117352023.045                    91273801.161    21922346.164  
  21922340.570  
  23263761.836   122251898.472    23263772.664    95261268.9184   23263773.078  
                
  19246028.555   102700514.816                    79878183.509    19246031.414  
  19246026.535  
 21  8 16 16 55 30.0000000  0 16G 4G16R 1G26G30G 9R19R13R18G 6R12G 7
                                G 2R 3G 3R 2
  20931906.758   109997959.543    20931914.332    85712746.3284   20931914.215  
                
  22136650.883   116328925.554    22136657.254    90645960.8874                 
                
  21910066.992   117121881.298                    91094795.627    21910074.078  
  21910066.270  
  23771803.133   124921741.665    23771812.973    97341641.1734   23771812.918  
                
  24637988.555   129473511.575    24638000.434   100888498.1494   24638000.977  
                
  20515029.406   107807245.716    20515037.613    84005700.5294   20515037.504  
                
  23460583.992   125498302.869                    97609813.312    23460588.535  
  23460581.945  
  21784248.164   116326660.783                    90476327.456    21784252.129  
  21784246.203  
  23486025.016   125369993.656                    97509985.744    23486029.391  
  23486023.270  
  23063685.695   121200469.191    23063695.461    94441982.9644   23063696.090  
                
  19275229.656   102964857.916                    80083780.368    19275233.215  
  19275229.148  
  21698359.125   114025679.789    21698366.035    88851229.8534   21698366.035  
                
  24679869.555   129693599.727    24679874.797   101059960.4654                 
                
  21916091.250   117318563.768                    91247777.296    21916095.641  
  21916090.105  
  23270462.898   122287112.808    23270473.691    95288708.6444   23270474.113  
                
  19244863.789   102694299.383                    79873349.284    19244866.645  
  19244861.770  
 21  8 16 16 55 40.0000000  0 16G 4G16R 1G26G30G 9R19R13R18G 6R12G 7
                                G 2R 3G 3R 2
  20934422.219   110011178.413    20934429.789    85723046.7494   20934429.688  
                
  22136782.266   116329616.009    22136788.617    90646498.9094                 
                
  21915787.281   117152459.588                    91118578.745    21915794.426  
  21915786.582  
  23776312.289   124945437.795    23776322.180    97360105.6874   23776322.098  
                
  24631642.766   129440164.556    24631654.715   100862513.5024   24631655.246  
                
  20513509.453   107799258.340    20513517.672    83999476.6024   20513517.543  
                
  23460316.492   125496872.059                    97608700.452    23460321.043  
  23460314.441  
  21776663.688   116286160.207                    90444827.033    21776667.660  
  21776661.727  
  23490863.297   125395821.331                    97530073.965    23490867.781  
  23490861.672  
  23066662.188   121216110.721    23066671.938    94454171.1704   23066672.574  
                
  19273838.469   102957426.427                    80078000.331    19273842.008  
  19273837.984  
  21694382.008   114004779.949    21694388.895    88834944.2814   21694388.906  
                
  24679131.883   129689723.237    24679137.129   101056939.8404                 
                
  21909843.000   117285116.508                    91221762.753    21909847.375  
  21909841.836  
  23277168.500   122322350.860    23277179.273    95316166.8594   23277179.711  
                
  19243708.867   102688136.527                    79868555.958    19243711.730  
  19243706.848  
 21  8 16 16 55 50.0000000  0 16G 4G16R 1G26G30G 9R19R13R18G 6R12G 7
                                G 2R 3G 3R 2
  20936943.570   110024428.167    20936951.133    85733371.2204   20936951.047  
                
  22136927.711   116330380.372    22136934.027    90647094.5274                 
                
  21921514.102   117183072.603                    91142388.826    21921521.254  
  21921513.406  
  23780830.859   124969183.324    23780840.738    97378608.7004   23780840.656  
                
  24625299.531   129406831.166    24625311.562   100836539.4734   24625312.098  
                
  20511996.000   107791305.056    20512004.227    83993279.2474   20512004.098  
                
  23460065.055   125495526.676                    97607654.110    23460069.496  
  23460062.977  
  21769086.320   116245697.525                    90413356.088    21769090.312  
  21769084.359  
  23495711.984   125421704.112                    97550204.999    23495716.531  
  23495710.441  
  23069648.891   121231805.838    23069658.652    94466401.1264   23069659.258  
                
  19272463.680   102950082.506                    80072288.390    19272467.188  
  19272463.215  
  21690411.609   113983915.408    21690418.469    88818686.1964   21690418.469  
                
  24678404.352   129685900.027    24678409.645   101053960.7024                 
                
  21903596.938   117251680.774                    91195757.193    21903601.309  
  21903595.777  
  23283878.609   122357612.349    23283889.355    95343643.3324   23283889.801  
                
  19242563.703   102682025.706                    79863803.089    19242566.570  
  19242561.680  
 21  8 16 16 56  0.0000000  0 16G 4G16R 1G26G30G 9R19R13R18G 6R12G 7
                                G 2R 3G 3R 2
  20939470.797   110037708.822    20939478.352    85743719.7814   20939478.289  
                
  22137087.250   116331218.766    22137093.535    90647747.8294                 
                
  21927247.469   117213720.432                    91166226.010    21927254.625  
  21927246.816  
  23785358.852   124992978.246    23785368.691    97397150.1994   23785368.637  
                
  24618958.977   129373511.468    24618971.031   100810576.1064   24618971.551  
                
  20510489.031   107783385.932    20510497.254    83987108.5004   20510497.129  
                
  23459829.633   125494266.633                    97606674.107    23459833.902  
  23459827.480  
  21761516.109   116205272.930                    90381914.754    21761520.031  
  21761514.098  
  23500570.914   125447641.625                    97570378.584    23500575.555  
  23500569.414  
  23072645.781   121247554.491    23072655.574    94478672.7884   23072656.152  
                
  19271105.328   102942826.418                    80066644.783    19271108.812  
  19271104.883  
  21686447.930   113963086.169    21686454.770    88802455.6324   21686454.773  
                
  24677686.930   129682129.982    24677692.250   101051023.0154                 
                
  21897353.062   117218256.796                    91169760.778    21897357.434  
  21897351.934  
  23290593.211   122392897.213    23290603.883    95371138.0164   23290604.344  
                
  19241428.328   102675967.124                    79859090.866    19241431.211  
  19241426.312  
 21  8 16 16 56 10.0000000  0 16G 4G16R 1G26G30G 9R19R13R18G 6R12G 7
                                G 2R 3G 3R 2
  20942003.867   110051020.198    20942011.426    85754092.2814   20942011.355  
                
  22137260.852   116332131.049    22137267.113    90648458.6994                 
                
  21932987.258   117244402.648                    91190089.970    21932994.387  
  21932986.629  
  23789896.203   125016822.255    23789906.027    97415729.9524   23789905.977  
                
  24612620.977   129340205.333    24612633.066   100784623.3214   24612633.578  
                
  20508988.539   107775500.803    20508996.754    83980964.2484   20508996.648  
                
  23459610.125   125493092.002                    97605760.482    23459614.281  
  23459607.930  
  21753952.938   116164886.384                    90350502.999    21753956.891  
  21753950.980  
  23505440.016   125473633.856                    97590594.744    23505444.836  
  23505438.562  
  23075652.797   121263356.406    23075662.621    94490985.9644   23075663.172  
                
  19269763.352   102935657.808                    80061069.200    19269766.801  
  19269762.902  
  21682490.898   113942291.917    21682497.711    88786252.3314   21682497.723  
                
  24676979.602   129678412.972    24676984.898   101048126.6464                 
                
  21891111.359   117184844.431                    91143773.383    21891115.711  
  21891110.266  
  23297312.148   122428205.224    23297322.777    95398650.7444   23297323.242  
                
  19240302.734   102669960.740                    79854419.229    19240305.625  
  19240300.719  
 21  8 16 16 56 20.0000000  0 16G 4G16R 1G26G30G 9R19R13R18G 6R12G 7
                                G 2R 3G 3R 2
  20944542.836   110064362.565    20944550.395    85764488.9174   20944550.324  
                
  22137448.523   116333117.322    22137454.785    90649227.2434                 
                
  21938733.570   117275119.682                    91213980.985    21938740.652  
  21938732.938  
  23794442.945   125040715.569    23794452.754    97434348.1344   23794452.699  
                
  24606285.617   129306913.102    24606297.746   100758681.3574   24606298.250  
                
  20507494.570   107767649.970    20507502.777    83974846.7204   20507502.688  
                
  23459406.547   125492002.842                    97604913.383    23459410.664  
  23459404.367  
  21746397.203   116124538.352                    90319121.213    21746400.930  
  21746395.113  
  23510319.547   125499680.608                    97610853.333    23510324.352  
  23510317.996  
  23078669.992   121279211.771    23078679.820    94503340.7944   23078680.383  
                
  19268437.797   102928576.975                    80055561.903    19268441.238  
  19268437.336  
  21678540.609   113921533.023    21678547.395    88770076.5784   21678547.418  
                
  24676282.430   129674749.293    24676287.680   101045271.8294                 
                
  21884871.867   117151443.936                    91117795.241    21884876.195  
  21884870.809  
  23304035.438   122463536.573    23304046.086    95426181.6514   23304046.566  
                
  19239187.000   102664006.971                    79849788.517    19239189.891  
  19239184.988  
 21  8 16 16 56 30.0000000  0 16G 4G16R 1G26G30G 9R19R13R18G 6R12G 7
                                G 2R 3G 3R 2
  20947087.711   110077735.979    20947095.270    85774909.7594   20947095.211  
                
  22137650.320   116334177.750    22137656.574    90650053.5474                 
                
  21944486.391   117305871.604                    91237899.129    21944493.469  
  21944485.805  
  23798999.102   125064658.184    23799008.875    97453004.7174   23799008.828  
                
  24599952.898   129273634.858    24599965.105   100732750.3204   24599965.609  
                
  20506007.148   107759833.536    20506015.348    83968755.9904   20506015.262  
                
  23459219.016   125490999.332                    97604132.854    23459223.039  
  23459216.824  
  21738848.516   116084228.988                    90287769.504    21738852.246  
  21738846.473  
  23515209.242   125525782.156                    97631154.511    23515214.090  
  23515207.691  
  23081697.367   121295120.595    23081707.215    94515737.2744   23081707.770  
                
  19267128.695   102921584.013                    80050122.951    19267132.129  
  19267128.211  
  21674597.062   113900809.599    21674603.855    88753928.4594   21674603.863  
                
  24675595.430   129671139.063    24675600.598   101042458.6774                 
                
  21878634.664   117118055.633                    91091826.572    21878638.965  
  21878633.594  
  23310763.211   122498891.258    23310773.832    95453730.7454   23310774.320  
                
  19238081.156   102658105.976                    79845198.847    19238084.066  
  19238079.148  
 21  8 16 16 56 40.0000000  0 16G 4G16R 1G26G30G 9R19R13R18G 6R12G 7
                                G 2R 3G 3R 2
  20949638.469   110091140.251    20949646.035    85785354.6434   20949645.980  
                
  22137866.203   116335312.199    22137872.465    90650937.5354                 
                
  21950245.656   117336657.878                    91261844.002    21950252.688  
  21950245.074  
  23803564.586   125088649.789    23803574.281    97471699.4924   23803574.250  
                
  24593622.984   129240370.491    24593635.078   100706830.0834   24593635.570  
                
  20504526.250   107752051.342    20504534.445    83962691.9454   20504534.359  
                
  23459047.328   125490081.140                    97603418.692    23459051.359  
  23459045.164  
  21731306.953   116043958.175                    90256447.793    21731310.777  
  21731305.000  
  23520108.984   125551937.915                    97651497.851    23520114.012  
  23520107.543  
  23084734.844   121311082.604    23084744.742    94528175.1804   23084745.289  
                
  19265836.016   102914678.770                    80044752.197    19265839.441  
  19265835.512  
  21670660.234   113880121.486    21670667.070    88737807.8654   21670667.051  
                
  24674918.547   129667582.061    24674923.590   101039686.9854                 
                
  21872399.703   117084679.384                    91065867.260    21872403.961  
  21872398.629  
  23317495.430   122534268.987    23317505.961    95481297.7954   23317506.469  
                
  19236985.156   102652257.487                    79840650.027    19236988.078  
  19236983.145  
 21  8 16 16 56 50.0000000  0 16G 4G16R 1G26G30G 9R19R13R18G 6R12G 7
                                G 2R 3G 3R 2
  20952195.078   110104575.305    20952202.656    85795823.5184   20952202.605  
                
  22138096.133   116336520.525    22138102.398    90651879.1114                 
                
  21956011.312   117367478.509                    91285815.603    21956018.367  
  21956010.723  
  23808139.367   125112690.237    23808149.008    97490432.3274   23808148.965  
                
  24587295.641   129207119.963    24587307.656   100680920.6094   24587308.152  
                
  20503051.844   107744303.329    20503060.043    83956654.5244   20503059.949  
                
  23458891.703   125489248.299                    97602770.958    23458895.633  
  23458889.508  
  21723772.547   116003726.030                    90225156.147    21723776.543  
  21723770.738  
  23525019.023   125578147.837                    97671883.319    23525024.066  
  23525017.590  
  23087782.406   121327097.585    23087792.340    94540654.3814   23087792.848  
                
  19264559.734   102907861.136                    80039449.586    19264563.160  
  19264559.211  
  21666730.094   113859468.508    21666736.980    88721714.6504   21666736.938  
                
  24674251.781   129664078.206    24674256.707   101036956.7174                 
                
  21866166.977   117051315.057                    91039917.244    21866171.195  
  21866165.891  
  23324232.023   122569669.630    23324242.465    95508882.7014   23324242.980  
                
  19235899.000   102646461.605                    79836142.112    19235901.918  
  19235896.988  
 21  8 16 16 57  0.0000000  0 16G 4G16R 1G26G30G 9R19R13R18G 6R12G 7
                                G 2R 3G 3R 2
  20954757.539   110118041.104    20954765.141    85806316.3484   20954765.066  
                
  22138340.094   116337802.571    22138346.367    90652878.1124                 
                
  21961783.375   117398333.571                    91309813.969    21961790.508  
  21961782.793  
  23812723.438   125136779.441    23812733.062    97509203.1344   23812732.988  
                
  24580970.922   129173883.299    24580982.879   100655021.9494   24580983.379  
                
  20501583.953   107736589.509    20501592.148    83950643.7544   20501592.062  
                
  23458752.008   125488500.960                    97602189.697    23458755.918  
  23458749.758  
  21716245.648   115963532.665                    90193894.647    21716249.562  
  21716243.762  
  23529939.156   125604411.600                    97692310.666    23529944.215  
  23529937.664  
  23090840.039   121343165.489    23090850.012    94553174.8054   23090850.539  
                
  19263299.867   102901131.163                    80034215.164    19263303.277  
  19263299.336  
  21662806.656   113838850.762    21662813.594    88705648.8764   21662813.535  
                
  24673595.125   129660627.494    24673599.980   101034267.8554                 
                
  21859936.492   117017962.852                    91013976.641    21859940.715  
  21859935.410  
  23330972.930   122605093.092    23330983.336    95536485.3924   23330983.848  
                
  19234822.680   102640718.151                    79831674.987    19234825.602  
  19234820.660  
 21  8 16 16 57 10.0000000  0 16G 4G16R 1G26G30G 9R19R13R18G 6R12G 7
                                G 2R 3G 3R 2
  20957325.875   110131537.742    20957333.488    85816833.2044   20957333.406  
                
  22138598.133   116339158.565    22138604.426    90653934.7314                 
                
  21967561.914   117429223.241                    91333839.259    21967569.086  
  21967561.363  
  23817316.773   125160917.426    23817326.402    97528011.9614   23817326.320  
                
  24574648.828   129140660.681    24574660.793   100629134.2184   24574661.285  
                
  20500122.602   107728910.020    20500130.801    83944659.7394   20500130.707  
                
  23458628.289   125487839.091                    97601674.914    23458632.219  
  23458626.062  
  21708726.023   115923378.413                    90162663.583    21708729.953  
  21708724.152  
  23534869.305   125630729.080                    97712779.781    23534874.363  
  23534867.785  
  23093907.742   121359286.290    23093917.762    94565736.4704   23093918.281  
                
  19262056.422   102894488.919                    80029048.988    19262059.824  
  19262055.871  
  21658889.953   113818268.402    21658896.941    88689610.6914   21658896.863  
                
  24672948.594   129657229.945    24672953.391   101031620.4284                 
                
  21853708.312   116984622.902                    90988045.571    21853712.504  
  21853707.199  
  23337718.234   122640539.393    23337728.551    95564105.8804   23337729.070  
                
  19233756.227   102635027.346                    79827248.798    19233759.148  
  19233754.211  
 21  8 16 16 57 20.0000000  0 16G 4G16R 1G26G30G 9R19R13R18G 6R12G 7
                                G 2R 3G 3R 2
  20959900.109   110145065.407    20959907.730    85827374.2404   20959907.625  
                
  22138870.328   116340588.941    22138876.621    90655049.3144                 
                
  21973346.922   117460147.497                    91357891.464    21973354.137  
  21973346.363  
  23821919.414   125185104.267    23821929.078    97546858.8554   23821928.988  
                
  24568329.367   129107452.275    24568341.426   100603257.5904   24568341.918  
                
  20498667.812   107721265.050    20498676.008    83938702.6324   20498675.926  
                
  23458520.484   125487262.605                    97601226.498    23458524.484  
  23458518.266  
  21701213.711   115883263.335                    90131463.002    21701217.691  
  21701211.844  
  23539809.422   125657100.642                    97733290.983    23539814.645  
  23539808.012  
  23096985.547   121375460.146    23096995.617    94578339.4584   23096996.156  
                
  19260829.414   102887934.488                    80023951.113    19260832.809  
  19260828.844  
  21654980.031   113797721.695    21654987.070    88673600.2834   21654986.965  
                
  24672312.227   129653885.801    24672317.000   101029014.6094                 
                
  21847482.469   116951295.530                    90962124.308    21847486.645  
  21847481.336  
  23344467.938   122676008.664    23344478.156    95591744.2714   23344478.691  
                
  19232699.789   102629389.964                    79822864.177    19232702.715  
  19232697.777  
 21  8 16 16 57 30.0000000  0 16G 4G16R 1G26G30G 9R19R13R18G 6R12G 7
                                G 2R 3G 3R 2
  20962480.203   110158623.872    20962487.809    85837939.2714   20962487.711  
                
  22139156.609   116342093.365    22139162.922    90656221.6054                 
                
  21979138.359   117491106.117                    91381970.360    21979145.555  
  21979137.777  
  23826531.281   125209339.685    23826540.980    97565743.5914   23826540.875  
                
  24562012.695   129074257.954    24562024.719   100577391.9334   24562025.227  
                
  20497219.547   107713654.429    20497227.742    83932772.2834   20497227.660  
                
  23458428.703   125486771.450                    97600844.481    23458432.641  
  23458426.469  
  21693708.820   115843187.615                    90100293.018    21693712.832  
  21693706.934  
  23544759.750   125683525.577                    97753843.708    23544764.926  
  23544758.340  
  23100073.359   121391686.726    23100083.484    94590983.5294   23100084.000  
                
  19259618.828   102881467.816                    80018921.493    19259622.219  
  19259618.238  
  21651076.836   113777210.353    21651083.918    88657617.4294   21651083.789  
                
  24671685.977   129650594.862    24671690.797   101026450.2434                 
                
  21841258.945   116917980.527                    90936212.643    21841263.121  
  21841257.824  
  23351221.844   122711500.595    23351232.082    95619400.3054   23351232.617  
                
  19231653.289   102623805.636                    79818520.796    19231656.219  
  19231651.289  
 21  8 16 16 57 40.0000000  0 16G 4G16R 1G26G30G 9R19R13R18G 6R12G 7
                                G 2R 3G 3R 2
  20965066.109   110172212.901    20965073.688    85848528.1274   20965073.598  
                
  22139456.938   116343671.604    22139463.293    90657451.4164                 
                
  21984936.203   117522098.765                    91406075.745    21984943.355  
  21984935.586  
  23831152.336   125233623.346    23831162.062    97584665.9334   23831161.910  
                
  24555698.711   129041077.534    24555710.645   100551537.1004   24555711.152  
                
  20495777.781   107706077.921    20495785.973    83926868.5194   20495785.895  
                
  23458352.922   125486365.531                    97600528.793    23458356.742  
  23458350.680  
  21686211.344   115803150.878                    90069153.359    21686215.281  
  21686209.340  
  23549720.086   125710003.582                    97774437.723    23549725.176  
  23549718.617  
  23103171.148   121407965.735    23103181.320    94603668.4484   23103181.793  
                
  19258424.641   102875088.713                    80013959.963    19258428.035  
  19258424.035  
  21647180.328   113756734.163    21647187.449    88641661.9694   21647187.301  
                
  24671069.789   129647356.842    24671074.734   101023927.1244                 
                
  21835037.734   116884677.847                    90910310.561    21835041.898  
  21835036.625  
  23357979.898   122747014.891    23357990.289    95647073.7654   23357990.805  
                
  19230616.641   102618273.922                    79814218.360    19230619.578  
  19230614.652  
 21  8 16 16 57 50.0000000  0 16G 4G16R 1G26G30G 9R19R13R18G 6R12G 7
                                G 2R 3G 3R 2
  20967657.875   110185832.695    20967665.422    85859140.9514   20967665.348  
                
  22139771.352   116345323.855    22139777.750    90658738.9004                 
                
  21990740.391   117553125.704                    91430207.800    21990747.570  
  21990739.789  
  23835782.570   125257955.384    23835792.348    97603625.9584   23835792.160  
                
  24549387.430   129007911.289    24549399.254   100525693.2954   24549399.773  
                
  20494342.555   107698535.780    20494350.738    83920991.5264   20494350.656  
                
  23458292.977   125486044.880                    97600279.459    23458296.777  
  23458290.824  
  21678721.086   115763153.463                    90038044.284    21678725.027  
  21678719.066  
  23554690.398   125736534.839                    97795073.112    23554695.414  
  23554688.816  
  23106278.930   121424297.235    23106289.090    94616394.2934   23106289.617  
                
  19257246.852   102868797.226                    80009066.573    19257250.242  
  19257246.238  
  21643290.570   113736293.389    21643297.707    88625734.1004   21643297.555  
                
  24670463.727   129644171.999    24670468.766   101021445.4184                 
                
  21828818.844   116851387.734                    90884418.257    21828823.039  
  21828817.746  
  23364742.258   122782551.691    23364752.773    95674764.7524   23364753.273  
                
  19229589.852   102612794.741                    79809956.772    19229592.789  
  19229587.871  
 21  8 16 16 58  0.0000000  0 16G 4G16R 1G26G30G 9R19R13R18G 6R12G 7
                                G 2R 3G 3R 2
  20970255.547   110199483.506    20970263.082    85869777.9504   20970263.023  
                
  22140099.891   116347050.288    22140106.305    90660084.1814                 
                
  21996551.078   117584187.047                    91454366.598    21996558.246  
  21996550.438  
  23840422.055   125282335.948    23840431.863    97622623.8124   23840431.688  
                
  24543078.883   128974759.509    24543090.598   100499860.7684   24543091.133  
                
  20492913.930   107691028.301    20492922.109    83915141.5414   20492922.023  
                
  23458249.039   125485809.776                    97600096.566    23458252.840  
  23458246.887  
  21671238.320   115723195.854                    90006966.169    21671242.270  
  21671236.230  
  23559670.484   125763119.366                    97815749.970    23559675.613  
  23559668.977  
  23109396.750   121440681.476    23109406.863    94629161.2104   23109407.414  
                
  19256085.555   102862593.800                    80004241.701    19256088.938  
  19256084.938  
  21639407.602   113715888.291    21639414.730    88609834.0314   21639414.602  
                
  24669867.852   129641040.630    24669872.945   101019005.3704                 
                
  21822602.352   116818110.472                    90858535.957    21822606.523  
  21822601.234  
  23371508.930   122818111.160    23371519.527    95702473.4204   23371520.027  
                
  19228573.141   102607369.339                    79805737.011    19228576.078  
  19228571.168  
 21  8 16 16 58 10.0000000  0 16G 4G16R 1G26G30G 9R19R13R18G 6R12G 7
                                G 2R 3G 3R 2
  20972859.078   110213165.159    20972866.602    85880438.9574   20972866.562  
                
  22140442.508   116348850.725    22140448.957    90661487.1224                 
                
  22002368.203   117615282.651                    91478552.074    22002375.371  
  22002367.559  
  23845070.727   125306764.825    23845080.578    97641659.3014   23845080.387  
                
  24536773.016   128941622.061    24536784.699   100474039.4204   24536785.234  
                
  20491491.875   107683555.318    20491500.047    83909318.4424   20491499.965  
                
  23458220.992   125485660.160                    97599980.152    23458224.859  
  23458218.816  
  21663762.938   115683278.247                    89975919.168    21663766.973  
  21663760.863  
  23564660.602   125789756.915                    97836468.056    23564665.715  
  23564659.145  
  23112524.562   121457118.185    23112534.656    94641969.0154   23112535.227  
                
  19254940.664   102856478.055                    79999485.018    19254944.055  
  19254940.020  
  21635531.398   113695518.718    21635538.512    88593961.6474   21635538.395  
                
  24669282.102   129637962.449    24669287.270   101016606.7994                 
                
  21816388.273   116784846.023                    90832663.620    21816392.430  
  21816387.145  
  23378279.930   122853693.071    23378290.551    95730199.5734   23378291.043  
                
  19227566.375   102601997.016                    79801558.536    19227569.309  
  19227564.414  
 21  8 16 16 58 20.0000000  0 16G 4G16R 1G26G30G 9R19R13R18G 6R12G 7
                                G 2R 3G 3R 2
  20975468.469   110226877.591    20975475.996    85891123.9794   20975475.949  
                
  22140799.188   116350725.157    22140805.660    90662947.7334                 
                
  22008191.672   117646412.453                    91502764.129    22008198.840  
  22008191.039  
  23849728.570   125331241.863    23849738.445    97660732.3174   23849738.219  
                
  24530469.859   128908498.954    24530481.527   100448229.2444   24530482.059  
                
  20490076.367   107676116.820    20490084.531    83903522.2034   20490084.453  
                
  23458208.969   125485595.673                    97599929.995    23458212.863  
  23458206.688  
  21656295.008   115643400.166                    89944902.926    21656299.074  
  21656292.980  
  23569660.562   125816447.193                    97857227.175    23569665.715  
  23569659.176  
  23115662.312   121473607.187    23115672.414    94654817.5874   23115672.996  
                
  19253812.203   102850450.108                    79994796.641    19253815.602  
  19253811.523  
  21631661.953   113675184.687    21631669.055    88578116.9534   21631668.945  
                
  24668706.469   129634937.499    24668711.684   101014249.7084                 
                
  21810176.594   116751594.422                    90806801.268    21810180.742  
  21810175.469  
  23385055.156   122889297.290    23385065.805    95757943.1114   23385066.285  
                
  19226569.633   102596678.193                    79797421.680    19226572.570  
  19226567.676  
 21  8 16 16 58 30.0000000  0 16G 4G16R 1G26G30G 9R19R13R18G 6R12G 7
                                G 2R 3G 3R 2
  20978083.695   110240620.740    20978091.223    85901832.9174   20978091.176  
                
  22141169.953   116352673.529    22141176.418    90664465.9524                 
                
  22014021.547   117677576.346                    91527002.680    22014028.703  
  22014020.906  
  23854395.539   125355766.901    23854405.402    97679842.7374   23854405.172  
                
  24524169.438   128875390.143    24524181.105   100422430.2124   24524181.613  
                
  20488667.422   107668712.766    20488675.578    83897752.8104   20488675.500  
                
  23458212.805   125485616.566                    97599946.281    23458216.781  
  23458210.547  
  21648834.570   115603561.926                    89913917.648    21648838.594  
  21648832.562  
  23574670.531   125843189.922                    97878027.069    23574675.555  
  23574669.062  
  23118810.000   121490148.315    23118820.125    94667706.7924   23118820.676  
                
  19252700.164   102844509.864                    79990176.455    19252703.566  
  19252699.438  
  21627799.258   113654886.154    21627806.355    88562299.9194   21627806.266  
                
  24668140.961   129631965.707    24668146.188   101011934.0274                 
                
  21803967.320   116718355.720                    90780948.947    21803971.469  
  21803966.199  
  23391834.703   122924923.663    23391845.297    95785703.9144   23391845.762  
                
  19225582.828   102591412.448                    79793326.106    19225585.773  
  19225580.883  
 21  8 16 16 58 40.0000000  0 16G 4G16R 1G26G30G 9R19R13R18G 6R12G 7
                                G 2R 3G 3R 2
  20980704.797   110254394.716    20980712.328    85912565.8834   20980712.273  
                
  22141554.812   116354695.979    22141561.254    90666041.8984                 
                
  22019857.844   117708774.279                    91551267.730    22019864.949  
  22019857.215  
  23859071.656   125380339.958    23859081.496    97698990.5814   23859081.273  
                
  24517871.734   128842295.810    24517883.461   100396642.4744   24517883.934  
                
  20487265.055   107661343.287    20487273.199    83892010.3644   20487273.133  
                
  23458232.570   125485722.643                    97600028.787    23458236.582  
  23458230.312  
  21641381.664   115563764.035                    89882963.744    21641385.652  
  21641379.641  
  23579690.281   125869985.253                    97898867.839    23579695.234  
  23579688.723  
  23121967.625   121506741.662    23121977.770    94680636.6664   23121978.332  
                
  19251604.562   102838657.428                    79985624.562    19251607.953  
  19251603.816  
  21623943.359   113634623.272    21623950.465    88546510.6754   21623950.375  
                
  24667585.570   129629047.108    24667590.773   101009659.8004                 
                
  21797760.500   116685130.097                    90755106.802    21797764.617  
  21797759.387  
  23398618.500   122960572.218    23398629.023    95813482.0034   23398629.445  
                
  19224605.992   102586199.815                    79789271.821    19224608.930  
  19224604.055  
 21  8 16 16 58 50.0000000  0 16G 4G16R 1G26G30G 9R19R13R18G 6R12G 7
                                G 2R 3G 3R 2
  20983331.750   110268199.488    20983339.281    85923322.8454   20983339.234  
                
  22141953.781   116356792.592    22141960.207    90667675.6354                 
                
  22025700.508   117740006.471                    91575559.444    22025707.574  
  22025699.910  
  23863756.883   125404960.934    23863766.699    97718175.7744   23863766.465  
                
  24511576.836   128809215.969    24511588.543   100370865.9994   24511588.992  
                
  20485869.266   107654008.390    20485877.395    83886294.8614   20485877.332  
                
  23458268.320   125485914.008                    97600177.658    23458272.348  
  23458266.039  
  21633936.219   115524006.336                    89852041.111    21633940.270  
  21633934.219  
  23584719.656   125896832.833                    97919749.264    23584724.703  
  23584718.180  
  23125135.141   121523387.095    23125145.277    94693607.1054   23125145.875  
                
  19250525.422   102832892.946                    79981141.074    19250528.816  
  19250524.664  
  21620094.211   113614395.957    21620101.328    88530749.1374   21620101.234  
                
  24667040.289   129626181.672    24667045.379   101007426.9974                 
                
  21791556.094   116651917.456                    90729274.766    21791560.199  
  21791554.980  
  23405406.500   122996242.888    23405416.934    95841277.3364   23405417.352  
                
  19223639.195   102581040.813                    79785259.266    19223642.129  
  19223637.254  
 21  8 16 16 59  0.0000000  0 16G 4G16R 1G26G30G 9R19R13R18G 6R12G 7
                                G 2R 3G 3R 2
  20985964.562   110282034.998    20985972.094    85934103.7704   20985972.047  
                
  22142366.844   116358963.244    22142373.219    90669367.0624                 
                
  22031549.516   117771272.648                    91599877.571    22031556.547  
  22031548.926  
  23868451.227   125429629.721    23868461.000    97737398.2144   23868460.777  
                
  24505284.766   128776150.647    24505296.395   100345100.8544   24505296.840  
                
  20484480.062   107646708.066    20484488.176    83880606.3024   20484488.113  
                
  23458320.055   125486190.773                    97600392.938    23458324.059  
  23458317.777  
  21626498.398   115484289.073                    89821149.929    21626502.477  
  21626496.453  
  23589758.945   125923732.609                    97940671.328    23589763.949  
  23589757.434  
  23128312.555   121540084.486    23128322.684    94706618.0474   23128323.277  
                
  19249462.695   102827216.101                    79976725.740    19249466.102  
  19249461.934  
  21616251.844   113594204.186    21616258.965    88515015.3034   21616258.871  
                
  24666505.133   129623369.420    24666510.059   101005235.6214                 
                
  21785354.172   116618718.124                    90703453.055    21785358.270  
  21785353.047  
  23412198.594   123031935.538    23412209.000    95869089.7824   23412209.449  
                
  19222682.453   102575935.418                    79781288.406    19222685.387  
  19222680.512  
 21  8 16 16 59 10.0000000  0 16G 4G16R 1G26G30G 9R19R13R18G 6R12G 7
                                G 2R 3G 3R 2
  20988603.195   110295901.129    20988610.730    85944908.5344   20988610.688  
                
  22142793.945   116361207.722    22142800.309    90671116.0134                 
                
  22037404.844   117802572.693                    91624222.042    22037411.871  
  22037404.250  
  23873154.617   125454346.115    23873164.371    97756657.7464   23873164.156  
                
  24498995.430   128743099.787    24499006.977   100319346.9754   24499007.430  
                
  20483097.414   107639442.215    20483105.504    83874944.5974   20483105.457  
                
  23458387.734   125486552.592                    97600674.294    23458391.660  
  23458385.375  
  21619068.180   115444612.509                    89790290.406    21619072.328  
  21619066.305  
  23594807.867   125950684.296                    97961633.804    23594812.883  
  23594806.387  
  23131499.812   121556833.653    23131509.926    94719669.3174   23131510.547  
                
  19248416.359   102821626.806                    79972378.530    19248419.789  
  19248415.598  
  21612416.227   113574047.932    21612423.328    88499309.1364   21612423.246  
                
  24665980.086   129620610.301    24665984.871   101003085.6614                 
                
  21779154.680   116585531.785                    90677641.459    21779158.758  
  21779153.547  
  23418994.766   123067650.010    23419005.219    95896919.2234   23419005.711  
                
  19221735.688   102570883.302                    79777358.970    19221738.613  
  19221733.742  
 21  8 16 16 59 20.0000000  0 16G 4G16R 1G26G30G 9R19R13R18G 6R12G 7
                                G 2R 3G 3R 2
  20991247.727   110309798.226    20991255.266    85955737.4314   20991255.234  
                
  22143235.180   116363526.395    22143241.527    90672922.7874                 
                
  22043266.602   117833906.934                    91648593.098    22043273.621  
  22043266.000  
  23877867.109   125479110.353    23877876.883    97775954.5654   23877876.664  
                
  24492708.914   128710063.760    24492720.383   100293604.6504   24492720.836  
                
  20481721.406   107632211.235    20481729.473    83869310.0644   20481729.430  
                
  23458471.344   125486999.870                    97601022.162    23458475.305  
  23458468.965  
  21611645.664   115404976.498                    89759462.414    21611649.738  
  21611643.754  
  23599866.391   125977688.017                    97982636.634    23599871.590  
  23599865.031  
  23134696.977   121573634.806    23134707.070    94732761.1214   23134707.691  
                
  19247386.500   102816125.533                    79968099.775    19247389.938  
  19247385.738  
  21608587.438   113553927.536    21608594.504    88483630.9094   21608594.445  
                
  24665465.195   129617904.527    24665469.898   101000977.2664                 
                
  21772957.742   116552359.196                    90651840.590    21772961.859  
  21772956.566  
  23425795.172   123103386.571    23425805.688    95924765.8674   23425806.184  
                
  19220799.047   102565885.189                    79773471.556    19220801.980  
  19220797.098  
 21  8 16 16 59 30.0000000  0 16G 4G16R 1G26G30G 9R19R13R18G 6R12G 7
                                G 2R 3G 3R 2
  20993898.102   110323726.058    20993905.668    85966590.2864   20993905.621  
                
  22143690.477   116365919.059    22143696.809    90674787.1884                 
                
  22049134.672   117865275.002                    91672990.492    22049141.652  
  22049134.062  
  23882588.656   125503922.167    23882598.453    97795288.4454   23882598.234  
                
  24486425.211   128677042.422    24486436.578   100267873.7634   24486437.020  
                
  20480351.992   107625014.915    20480360.039    83863702.5404   20480360.012  
                
  23458570.938   125487532.387                    97601436.347    23458574.902  
  23458568.566  
  21604230.742   115365381.245                    89728666.113    21604234.785  
  21604228.812  
  23604934.625   126004743.429                    98003679.665    23604940.008  
  23604933.355  
  23137903.977   121590487.693    23137914.047    94745893.2334   23137914.652  
                
  19246373.094   102810712.119                    79963889.346    19246376.531  
  19246372.340  
  21604765.414   113533842.751    21604772.434    88467980.4394   21604772.402  
                
  24664960.422   129615251.932    24664965.137   100998910.3074                 
                
  21766763.297   116519199.944                    90626050.084    21766767.477  
  21766762.102  
  23432599.727   123139144.898    23432610.320    95952629.4744   23432610.805  
                
  19219872.453   102560940.726                    79769625.858    19219875.383  
  19219870.496  
 21  8 16 16 59 40.0000000  0 16G 4G16R 1G26G30G 9R19R13R18G 6R12G 7
                                G 2R 3G 3R 2
  20996554.297   110337684.484    20996561.895    85977466.9864   20996561.836  
                
  22144159.844   116368385.618    22144166.156    90676709.2114                 
                
  22055009.062   117896676.800                    91697414.111    22055015.977  
  22055008.461  
  23887319.195   125528781.304    23887329.035    97814659.1874   23887328.816  
                
  24480144.195   128644035.607    24480155.598   100242154.2224   24480155.996  
                
  20478989.156   107617853.150    20478997.191    83858121.9444   20478997.164  
                
  23458686.391   125488150.011                    97601916.734    23458690.367  
  23458684.035  
  21596823.477   115325826.729                    89697901.516    21596827.484  
  21596821.461  
  23610012.734   126031850.162                    98024762.658    23610018.047  
  23610011.379  
  23141120.781   121607392.037    23141130.824    94759065.4474   23141131.453  
                
  19245376.078   102805386.278                    79959747.017    19245379.531  
  19245375.355  
  21600950.164   113513793.500    21600957.156    88452357.6514   21600957.133  
                
  24664465.742   129612652.340    24664470.535   100996884.6604                 
                
  21760571.359   116486054.060                    90600269.952    21760575.562  
  21760570.188  
  23439408.492   123174924.767    23439419.066    95980509.8824   23439419.527  
                
  19218955.930   102556049.981                    79765821.944    19218958.855  
  19218953.961  
