     2.11           OBSERVATION DATA    M (MIXED)           RINEX VERSION / TYPE
EFT-CORS.RU                             20210817 150543 UTC PGM / RUN BY / DATE 
MDNG                                                        MARKER NAME         
                                                            MARKER NUMBER       
MDNG                EFT-CORS.RU                             OBSERVER / AGENCY   
0                   TRIMBLE BD970       2.0                 REC # / TYPE / VERS 
0                   UNKNOWN EXT NONE                        ANT # / TYPE        
  3463911.2830  3030468.2400  4402179.3760                  APPROX POSITION XYZ 
        0.0000        0.0000        0.0000                  ANTENNA: DELTA H/E/N
     1     1                                                WAVELENGTH FACT L1/2
     6    C1    L1    P2    L2    C2    P1                  # / TYPES OF OBSERV 
    10.000                                                  INTERVAL            
  2021     8    14     3    30    0.0000000     GPS         TIME OF FIRST OBS   
  2021     8    14     4    30    0.0000000     GPS         TIME OF LAST OBS    
     0                                                      RCV CLOCK OFFS APPL 
                                                            END OF HEADER       
 21  8 14  3 30  0.0000000  0 15G 6R23G20G29R13R15G 5G12R14G31G 2R24
                                G24R17G25
  23893168.852   125559437.888    23893178.668    97838556.2564   23893179.148  
                
  22032493.242   117858989.124                                                  
  22032491.336  
  22814397.211   119890468.725    22814403.320    93421173.2864                 
                
  21680595.656   113932302.051    21680602.340    88778446.9224   21680602.473  
                
  22863153.203   122087951.929                    94957312.933    22863157.391  
  22863150.859  
  20491582.031   109500795.213                    85167282.430    20491586.070  
  20491582.211  
  24237145.430   127367054.443    24237153.242    99247091.9654   24237153.457  
                
  20561583.641   108051856.348    20561589.781    84196285.6924   20561589.980  
                
  19346802.148   103129339.873                    80211705.072    19346806.250  
  19346802.027  
  23660267.859   124335542.027    23660274.273    96884858.9324   23660274.496  
                
  21930977.508   115248060.211    21930982.199    89803704.8674                 
                
  19484266.242   104191133.197                    81037550.630    19484270.289  
  19484265.449  
  24866736.383   130675571.297    24866746.301   101825155.0864   24866746.496  
                
  20253825.484   108382305.409                    84297344.737    20253829.016  
  20253823.676  
  20109799.641   105677706.866    20109808.789    82346307.5924   20109809.207  
                
 21  8 14  3 30 10.0000000  0 15G 6R23G20G29R13R15G 5G12R14G31G 2R24
                                G24R17G25
  23899536.625   125592900.721    23899546.438    97864631.1824   23899546.922  
                
  22039246.898   117895116.557                                                  
  22039245.051  
  22810620.375   119870621.335    22810626.477    93405707.7944                 
                
  21676826.195   113912493.375    21676832.867    88763011.5844   21676832.996  
                
  22871147.508   122130640.366                    94990515.025    22871151.609  
  22871145.133  
  20486430.375   109473266.275                    85145871.032    20486434.422  
  20486430.547  
  24230799.477   127333706.363    24230807.320    99221106.4644   24230807.547  
                
  20564415.617   108066738.427    20564421.777    84207882.1144   20564421.969  
                
  19349355.453   103142950.405                    80222291.031    19349359.535  
  19349355.328  
  23656302.250   124314702.594    23656308.691    96868620.4214   23656308.902  
                
  21934567.227   115266924.313    21934571.949    89818404.1644                 
                
  19487027.859   104205900.813                    81049036.543    19487031.898  
  19487027.059  
  24873632.930   130711812.136    24873642.707   101853394.6934   24873642.910  
                
  20249639.930   108359907.665                    84279924.259    20249643.457  
  20249638.121  
  20108595.609   105671379.633    20108604.762    82341377.2794   20108605.180  
                
 21  8 14  3 30 20.0000000  0 15G 6R23G20G29R13R15G 5G12R14G31G 2R24
                                G24R17G25
  23905908.547   125626385.394    23905918.375    97890723.1194   23905918.883  
                
  22046003.164   117931257.865                                                  
  22046001.355  
  22806851.992   119850818.367    22806858.078    93390276.8884                 
                
  21673062.219   113892713.574    21673068.902    88747598.7524   21673069.023  
                
  22879146.508   122173353.413                    95023736.265    22879150.445  
  22879143.996  
  20481289.547   109445795.239                    85124504.666    20481293.605  
  20481289.730  
  24224455.164   127300366.380    24224462.906    99195127.2454   24224463.145  
                
  20567256.703   108081668.398    20567262.879    84219515.8504   20567263.070  
                
  19351923.984   103156642.096                    80232940.125    19351928.055  
  19351923.863  
  23652346.516   124293915.017    23652353.000    96852422.3044   23652353.195  
                
  21938164.633   115285828.774    21938169.367    89833134.9054                 
                
  19489799.797   104220723.589                    81060565.363    19489803.848  
  19489798.996  
  24880528.281   130748047.319    24880537.992   101881629.8994   24880538.234  
                
  20245464.516   108337564.206                    84262546.027    20245468.059  
  20245462.723  
  20107401.500   105665104.540    20107410.656    82336487.5964   20107411.078  
                
 21  8 14  3 30 30.0000000  0 15G 6R23G20G29R13R15G 5G12R14G31G 2R24
                                G24R17G25
  23912284.578   125659891.655    23912294.434    97916831.8774   23912294.953  
                
  22052761.977   117967412.798                                                  
  22052760.188  
  22803092.047   119831059.651    22803098.160    93374880.5074                 
                
  21669303.703   113872962.425    21669310.430    88732208.2494   21669310.535  
                
  22887149.820   122216090.605                    95056976.301    22887153.734  
  22887147.426  
  20476159.570   109418382.189                    85103183.401    20476163.629  
  20476159.773  
  24218112.430   127267034.342    24218119.988    99169154.2174   24218120.266  
                
  20570106.852   108096645.965    20570113.043    84231186.6744   20570113.238  
                
  19354507.656   103170414.483                    80243651.977    19354511.715  
  19354507.535  
  23648400.617   124273179.127    23648407.086    96836264.4624   23648407.312  
                
  21941769.656   115304773.239    21941774.402    89847896.8284                 
                
  19492581.969   104235601.080                    81072136.744    19492586.031  
  19492581.176  
  24887422.570   130784276.580    24887432.176   101909860.4754   24887432.449  
                
  20241299.227   108315274.894                    84245209.896    20241302.797  
  20241297.445  
  20106217.289   105658881.438    20106226.449    82331638.4184   20106226.867  
                
 21  8 14  3 30 40.0000000  0 15G 6R23G20G29R13R15G 5G12R14G31G 2R24
                                G24R17G25
  23918664.664   125693419.240    23918674.551    97942957.2504   23918675.078  
                
  22059523.297   118003581.249                                                  
  22059521.480  
  22799340.508   119811345.199    22799346.652    93359518.5934                 
                
  21665550.602   113853239.748    21665557.391    88716839.9344   21665557.473  
                
  22895157.836   122258851.959                    95090235.120    22895161.543  
  22895155.348  
  20471040.414   109391026.981                    85081907.136    20471044.473  
  20471040.625  
  24211771.203   127233710.224    24211778.590    99143187.3664   24211778.855  
                
  20572966.055   108111671.131    20572972.277    84242894.5924   20572972.457  
                
  19357106.469   103184267.576                    80254426.596    19357110.527  
  19357106.340  
  23644464.555   124252494.917    23644471.023    96820146.8864   23644471.270  
                
  21945382.258   115323757.577    21945387.012    89862689.8134                 
                
  19495374.352   104250533.223                    81083750.628    19495378.422  
  19495373.570  
  24894315.664   130820499.685    24894325.195   101938086.2654   24894325.496  
                
  20237144.055   108293039.727                    84227915.880    20237147.645  
  20237142.277  
  20105042.953   105652710.254    20105052.117    82326829.7024   20105052.539  
                
 21  8 14  3 30 50.0000000  0 15G 6R23G20G29R13R15G 5G12R14G31G 2R24
                                G24R17G25
  23925048.812   125726968.235    23925058.723    97969099.3014   23925059.262  
                
  22066287.125   118039763.124                                                  
  22066285.316  
  22795597.438   119791675.227    22795603.598    93344191.3434                 
                
  21661802.945   113833545.692    21661809.781    88701493.9264   21661809.844  
                
  22903170.109   122301637.320                    95123512.584    22903173.855  
  22903167.695  
  20465932.156   109363730.004                    85060676.156    20465936.207  
  20465932.359  
  24205431.492   127200394.480    24205438.801    99117227.0304   24205439.047  
                
  20575834.344   108126744.095    20575840.598    84254639.7534   20575840.766  
                
  19359720.422   103198201.416                    80265264.016    19359724.469  
  19359720.293  
  23640538.359   124231862.667    23640544.824    96804069.8114   23640545.086  
                
  21949002.469   115342781.891    21949007.250    89877513.9444                 
                
  19498176.969   104265520.032                    81095407.032    19498181.051  
  19498176.203  
  24901207.578   130856716.689    24901217.082   101966307.2884   24901217.387  
                
  20232999.008   108270858.767                    84210664.025    20233002.609  
  20232997.219  
  20103878.531   105646591.171    20103887.699    82322061.5774   20103888.125  
                
 21  8 14  3 31  0.0000000  0 15G 6R23G20G29R13R15G 5G12R14G31G 2R24
                                G24R17G25
  23931437.031   125760538.503    23931446.957    97995257.9274   23931447.504  
                
  22073053.492   118075958.503                                                  
  22073051.691  
  22791862.852   119772049.854    22791869.066    93328898.8594                 
                
  21658060.750   113813880.305    21658067.621    88686170.2524   21658067.676  
                
  22911187.078   122344446.676                    95156808.727    22911190.699  
  22911184.566  
  20460834.805   109336491.315                    85039490.514    20460838.867  
  20460835.023  
  24199093.344   127167087.050    24199100.617    99091273.2004   24199100.836  
                
  20578711.727   108141864.766    20578718.012    84266422.0894   20578718.164  
                
  19362349.531   103212216.028                    80276164.262    19362353.578  
  19362349.379  
  23636622.078   124211282.380    23636628.543    96788033.2124   23636628.809  
                
  21952630.266   115361846.072    21952635.070    89892369.1444                 
                
  19500989.789   104280561.444                    81107105.903    19500993.883  
  19500989.016  
  24908098.242   130892927.490    24908107.824   101994523.4744   24908108.102  
                
  20228864.109   108248732.085                    84193454.388    20228867.734  
  20228862.324  
  20102724.031   105640524.205    20102733.215    82317334.0764   20102733.641  
                
 21  8 14  3 31 10.0000000  0 15G 6R23G20G29R13R15G 5G12R14G31G 2R24
                                G24R17G25
  23937829.320   125794130.210    23937839.246    98021433.2734   23937839.809  
                
  22079822.367   118112167.318                                                  
  22079820.570  
  22788136.820   119752469.399    22788143.105    93313641.3684                 
                
  21654324.070   113794243.888    21654330.934    88670869.1484   21654330.996  
                
  22919208.516   122387280.037                    95190123.558    22919212.016  
  22919205.973  
  20455748.461   109309311.417                    85018350.581    20455752.527  
  20455748.684  
  24192756.812   127133788.355    24192764.086    99065326.1704   24192764.289  
                
  20581598.227   108157033.382    20581604.547    84278241.7884   20581604.676  
                
  19364993.828   103226311.589                    80287127.468    19364997.875  
  19364993.656  
  23632715.734   124190754.341    23632722.207    96772037.3414   23632722.441  
                
  21956265.680   115380950.277    21956270.488    89907255.5244                 
                
  19503812.859   104295657.651                    81118847.391    19503816.965  
  19503812.070  
  24914987.711   130929132.278    24914997.426   102022734.9744   24914997.676  
                
  20224739.406   108226659.995                    84176287.200    20224743.043  
  20224737.629  
  20101579.516   105634509.693    20101588.719    82312647.4344   20101589.121  
                
 21  8 14  3 31 20.0000000  0 15G 6R23G20G29R13R15G 5G12R14G31G 2R24
                                G24R17G25
  23944225.641   125827743.004    23944235.578    98047625.0524   23944236.137  
                
  22086593.680   118148389.196                                                  
  22086591.848  
  22784419.297   119732933.669    22784425.645    93298418.7324                 
                
  21650592.859   113774636.228    21650599.688    88655590.4414   21650599.754  
                
  22927234.289   122430137.220                    95223456.902    22927237.816  
  22927231.840  
  20450673.078   109282190.157                    84997256.271    20450677.148  
  20450673.297  
  24186421.898   127100498.234    24186429.180    99039385.8174   24186429.398  
                
  20584493.797   108172249.677    20584500.145    84290098.6354   20584500.258  
                
  19367653.242   103240487.783                    80298153.390    19367657.297  
  19367653.055  
  23628819.281   124170278.351    23628825.758    96756082.0264   23628825.961  
                
  21959908.648   115400094.198    21959913.449    89922172.8594                 
                
  19506646.062   104310808.058                    81130631.042    19506650.191  
  19506645.262  
  24921875.977   130965330.651    24921885.801   102050941.4894   24921886.023  
                
  20220624.836   108204642.097                    84159162.179    20220628.488  
  20220623.062  
  20100444.930   105628547.395    20100454.160    82308001.4844   20100454.547  
                
 21  8 14  3 31 30.0000000  0 14G 6R23G20G29R13R15G 5G12R14G31G 2R24
                                R17G25
  23950625.727   125861375.667    23950635.688    98073832.3074   23950636.238  
                
  22093367.227   118184623.054                                                  
  22093365.395  
  22780710.109   119713441.676    22780716.512    93283230.1674                 
                
  21646866.898   113755056.141    21646873.715    88640333.2344   21646873.793  
                
  22935264.227   122473016.658                    95256807.548    22935267.777  
  22935261.828  
  20445608.492   109255126.529                    84976206.777    20445612.566  
  20445608.711  
  24180088.469   127067215.762    24180095.738    99013451.4274   24180095.961  
                
  20587398.211   108187512.419    20587404.582    84301991.6694   20587404.668  
                
  19370327.562   103254743.411                    80309241.092    19370331.613  
  19370327.363  
  23624932.547   124149853.382    23624939.039    96740166.4644   23624939.215  
                
  21963558.953   115419276.644    21963563.727    89937120.2154                 
                
  19509489.219   104326011.695                    81142456.080    19509493.352  
  19509488.414  
  20216520.203   108182677.371                    84142078.493    20216523.852  
  20216518.445  
  20099320.070   105622636.214    20099329.328    82303395.3624   20099329.695  
                
 21  8 14  3 31 40.0000000  0 14G 6R23G20G29R13R15G 5G12R14G31G 2R24
                                R17G25
  23957029.883   125895029.684    23957039.836    98100056.1944   23957040.387  
                
  22100143.273   118220870.359                                                  
  22100141.457  
  22777009.547   119693995.085    22777016.000    93268076.9694                 
                
  21643146.453   113735505.103    21643153.270    88625098.6564   21643153.340  
                
  22943298.680   122515919.879                    95290176.683    22943302.168  
  22943296.266  
  20440555.000   109228122.235                    84955203.442    20440559.078  
  20440555.227  
  24173756.805   127033942.504    24173764.047    98987524.2174   24173764.273  
                
  20590311.766   108202823.245    20590318.148    84313922.1784   20590318.238  
                
  19373017.117   103269080.226                    80320391.942    19373021.168  
  19373016.902  
  23621055.828   124129481.146    23621062.340    96724291.9874   23621062.488  
                
  21967216.859   115438499.066    21967221.598    89952098.7244                 
                
  19512342.578   104341269.874                    81154323.546    19512346.723  
  19512341.770  
  20212425.820   108160767.511                    84125037.477    20212429.469  
  20212424.055  
  20098205.250   105616777.802    20098214.531    82298830.3644   20098214.871  
                
 21  8 14  3 31 50.0000000  0 14G 6R23G20G29R13R15G 5G12R14G31G 2R24
                                R17G25
  23963438.195   125928705.553    23963448.113    98126297.1264   23963448.672  
                
  22106921.922   118257131.502                                                  
  22106920.109  
  22773317.750   119674594.563    22773324.250    93252959.6814                 
                
  21639431.656   113715983.719    21639438.492    88609887.1984   21639438.551  
                
  22951337.477   122558847.574                    95323564.853    22951341.133  
  22951335.281  
  20435512.750   109201177.956                    84934246.760    20435516.828  
  20435512.980  
  24167427.086   127000679.200    24167434.254    98961604.7454   24167434.496  
                
  20593234.602   108218182.852    20593240.992    84325890.6954   20593241.082  
                
  19375721.961   103283498.563                    80331606.192    19375726.012  
  19375721.734  
  23617189.289   124109162.305    23617195.785    96708459.1264   23617195.918  
                
  21970882.477   115457761.976    21970887.188    89967108.7784                 
                
  19515206.211   104356582.979                    81166233.736    19515210.363  
  19515205.402  
  20208341.797   108138913.138                    84108039.634    20208345.457  
  20208340.027  
  20097100.602   105610972.793    20097109.898    82294306.9774   20097110.215  
                
 21  8 14  3 32  0.0000000  0 14G 6R23G20G29R13R15G 5G12R14G31G 2R24
                                R17G25
  23969850.344   125962401.648    23969860.250    98152553.8074   23969860.816  
                
  22113702.859   118293404.964                                                  
  22113701.047  
  22769634.438   119655238.608    22769640.961    93237877.1244                 
                
  21635722.242   113696490.620    21635729.113    88594697.7854   21635729.164  
                
  22959380.867   122601798.124                    95356970.814    22959384.359  
  22959378.664  
  20430481.484   109174292.374                    84913335.766    20430485.555  
  20430481.719  
  24161098.844   126967424.370    24161106.066    98935691.8874   24161106.305  
                
  20596166.414   108233589.600    20596172.809    84337895.9484   20596172.891  
                
  19378441.820   103297996.910                    80342882.676    19378445.883  
  19378441.578  
  23613332.633   124088895.383    23613339.090    96692666.7024   23613339.238  
                
  21974555.492   115477063.741    21974560.184    89982149.1014                 
                
  19518079.867   104371949.678                    81178185.614    19518084.035  
  19518079.066  
  20204267.852   108117112.606                    84091083.664    20204271.520  
  20204266.094  
  20096005.820   105605219.660    20096015.129    82289824.0094   20096015.430  
                
 21  8 14  3 32 10.0000000  0 14G 6R23G20G29R13R15G 5G12R14G31G 2R24
                                R17G25
  23976266.438   125996118.445    23976276.391    98178826.6174   23976276.941  
                
  22120486.172   118329691.150                                                  
  22120484.336  
  22765959.734   119635927.937    22765966.285    93222829.8404                 
                
  21632018.312   113677026.321    21632025.199    88579530.7944   21632025.246  
                
  22967428.523   122644771.719                    95390394.711    22967431.938  
  22967426.281  
  20425461.320   109147466.145                    84892470.910    20425465.398  
  20425461.562  
  24154772.391   126934178.911    24154779.676    98909786.3254   24154779.887  
                
  20599107.305   108249044.058    20599113.699    84349938.3754   20599113.777  
                
  19381176.789   103312575.835                    80354221.827    19381180.859  
  19381176.559  
  23609485.984   124068681.040    23609492.402    96676915.2474   23609492.562  
                
  21978236.000   115496404.913    21978240.676    89997220.1394                 
                
  19520963.625   104387370.406                    81190179.507    19520967.789  
  19520962.836  
  20200204.109   108095366.688                    84074170.174    20200207.789  
  20200202.352  
  20094921.031   105599519.049    20094930.348    82285381.9754   20094930.641  
                
 21  8 14  3 32 20.0000000  0 14G 6R23G20G29R13R15G 5G12R14G31G 2R24
                                R17G25
  23982686.422   126029855.650    23982696.410    98205115.3274   23982696.965  
                
  22127271.797   118365989.731                                                  
  22127269.953  
  22762293.625   119616662.459    22762300.223    93207817.8034                 
                
  21628319.836   113657590.700    21628326.727    88564386.1584   21628326.773  
                
  22975480.414   122687768.349                    95423836.522    22975483.832  
  22975478.203  
  20420452.273   109120699.259                    84871652.232    20420456.355  
  20420452.500  
  24148447.719   126900942.577    24148455.031    98883887.8974   24148455.227  
                
  20602057.211   108264545.884    20602063.598    84362017.7124   20602063.680  
                
  19383926.844   103327235.135                    80365623.495    19383930.938  
  19383926.613  
  23605649.297   124048519.069    23605655.711    96661204.6264   23605655.875  
                
  21981923.945   115515785.222    21981928.602    90012321.6724                 
                
  19523857.406   104402844.749                    81202215.105    19523861.574  
  19523856.617  
  20196150.492   108073674.973                    84057298.843    20196154.180  
  20196148.727  
  20093846.219   105593870.817    20093855.539    82280980.7484   20093855.828  
                
 21  8 14  3 32 30.0000000  0 14G 6R23G20G29R13R15G 5G12R14G31G 2R24
                                R17G25
  23989110.312   126063613.253    23989120.332    98231419.9494   23989120.883  
                
  22134059.758   118402300.800                                                  
  22134057.918  
  22758636.164   119597442.407    22758642.797    93192841.1394                 
                
  21624626.844   113638183.888    21624633.727    88549263.9684   21624633.773  
                
  22983536.844   122730787.619                    95457295.950    22983539.984  
  22983534.398  
  20415454.352   109093991.897                    84850879.823    20415458.434  
  20415454.570  
  24142124.859   126867715.581    24142132.117    98857996.7124   24142132.312  
                
  20605016.156   108280095.259    20605022.531    84374134.1044   20605022.625  
                
  19386691.969   103341974.790                    80377087.662    19386696.082  
  19386691.746  
  23601822.609   124028409.711    23601829.039    96645535.0054   23601829.219  
                
  21985619.359   115535204.742    21985623.988    90027453.7624                 
                
  19526761.211   104418372.708                    81214292.406    19526765.383  
  19526760.422  
  20192107.078   108052037.813                    84040469.937    20192110.766  
  20192105.332  
  20092781.375   105588275.063    20092790.699    82276620.4174   20092790.992  
                
 21  8 14  3 32 40.0000000  0 14G 6R23G20G29R13R15G 5G12R14G31G 2R24
                                R17G25
  23995538.125   126097391.445    23995548.141    98257740.6084   23995548.715  
                
  22140850.070   118438624.476                                                  
  22140848.266  
  22754987.398   119578268.048    22754994.043    93177900.0694                 
                
  21620939.383   113618806.150    21620946.230    88534164.4274   21620946.309  
                
  22991597.367   122773829.698                    95490773.106    22991600.395  
  22991594.820  
  20410467.672   109067344.556                    84830154.106    20410471.754  
  20410467.930  
  24135803.883   126834498.378    24135811.094    98832113.1744   24135811.281  
                
  20607984.211   108295692.448    20607990.578    84386287.7504   20607990.668  
                
  19389472.227   103356795.108                    80388614.574    19389476.344  
  19389472.020  
  23598006.000   124008353.309    23598012.422    96629906.6264   23598012.609  
                
  21989322.242   115554663.527    21989326.844    90042616.4474                 
                
  19529675.102   104433954.516                    81226411.582    19529679.266  
  19529674.320  
  20188073.883   108030455.351                    84023683.575    20188077.594  
  20188072.152  
  20091726.602   105582732.130    20091735.930    82272301.2454   20091736.215  
                
 21  8 14  3 32 50.0000000  0 14G 6R23G20G29R13R15G 5G12R14G31G 2R24
                                R17G25
  24001969.742   126131189.678    24001979.727    98284076.8934   24001980.305  
                
  22147642.672   118474960.152                                                  
  22147640.895  
  22751347.258   119559139.053    22751353.910    93162994.3534                 
                
  21617257.352   113599456.998    21617264.152    88519087.1644   21617264.242  
                
  22999661.688   122816894.195                    95524267.687    22999665.070  
  22999659.469  
  20405492.133   109040756.790                    84809474.737    20405496.234  
  20405492.395  
  24129484.781   126801290.639    24129491.902    98806236.9964   24129492.070  
                
  20610961.281   108311337.025    20610967.652    84398478.3284   20610967.734  
                
  19392267.516   103371695.518                    80400203.764    19392271.648  
  19392267.305  
  23594199.398   123988349.435    23594205.801    96614319.1854   23594205.996  
                
  21993032.516   115574161.107    21993037.094    90057809.3644                 
                
  19532598.938   104449589.575                    81238572.179    19532603.109  
  19532598.160  
  20184050.812   108008927.090                    84006939.382    20184054.523  
  20184049.086  
  20090681.789   105577241.613    20090691.113    82268022.9094   20090691.410  
                
 21  8 14  3 33  0.0000000  0 14G 6R23G20G29R13R15G 5G12R14G31G 2R24
                                R17G25
  24008405.227   126165008.252    24008415.203    98310429.0154   24008415.773  
                
  22154437.555   118511308.245                                                  
  22154435.805  
  22747715.828   119540055.855    22747722.516    93148124.3384                 
                
  21613580.836   113580136.808    21613587.605    88504032.4704   21613587.703  
                
  23007730.508   122859981.686                    95557780.128    23007734.008  
  23007728.594  
  20400527.859   109014229.203                    84788842.158    20400531.953  
  20400528.121  
  24123167.500   126768092.930    24123174.617    98780368.6594   24123174.773  
                
  20613947.430   108327029.301    20613953.809    84410706.0664   20613953.883  
                
  19395077.906   103386676.435                    80411855.596    19395082.066  
  19395077.703  
  23590402.852   123968398.518    23590409.277    96598773.0294   23590409.473  
                
  21996750.227   115593697.823    21996754.781    90073032.7744                 
                
  19535532.781   104465278.137                    81250774.394    19535536.961  
  19535531.992  
  20180037.977   107987453.565                    83990237.754    20180041.695  
  20180036.250  
  20089647.031   105571803.902    20089656.352    82263785.7324   20089656.656  
                
 21  8 14  3 33 10.0000000  0 14G 6R23G20G29R13R15G 5G12R14G31G 2R24
                                R17G25
  24014844.508   126198846.762    24014854.473    98336796.6794   24014855.059  
                
  22161234.695   118547668.273                                                  
  22161232.941  
  22744093.094   119521018.264    22744099.824    93133289.8514                 
                
  21609909.789   113560845.307    21609916.555    88489000.1354   21609916.656  
                
  23015803.305   122903091.619                    95591310.035    23015807.945  
  23015801.141  
  20395574.812   108987761.615                    84768256.264    20395578.922  
  20395575.086  
  24116851.992   126734904.888    24116859.164    98754507.8584   24116859.316  
                
  20616942.594   108342768.941    20616948.969    84422970.7154   20616949.035  
                
  19397903.328   103401737.489                    80423569.734    19397907.496  
  19397903.129  
  23586616.352   123948500.388    23586622.797    96583268.0004   23586623.004  
                
  22000475.328   115613273.350    22000479.859    90088286.4274                 
                
  19538476.586   104481019.907                    81263017.985    19538480.777  
  19538475.812  
  20176035.312   107966034.504                    83973578.476    20176039.051  
  20176033.578  
  20088622.289   105566418.802    20088631.598    82259589.5434   20088631.910  
                
 21  8 14  3 33 20.0000000  0 14G 6R23G20G29R13R15G 5G12R14G31G 2R24
                                R17G25
  24021287.625   126232705.476    24021297.617    98363180.0774   24021298.211  
                
  22168034.133   118584040.510                                                  
  22168032.320  
  22740479.141   119502026.776    22740485.883    93118491.2804                 
                
  21606244.266   113541582.807    21606251.051    88473990.4004   21606251.137  
                
  23023880.484   122946223.920                    95624857.338    23023885.027  
  23023878.238  
  20390633.070   108961354.433                    84747717.351    20390637.215  
  20390633.336  
  24110538.516   126701726.950    24110545.613    98728654.9094   24110545.758  
                
  20619946.828   108358556.232    20619953.191    84435272.4924   20619953.258  
                
  19400743.859   103416879.085                    80435346.530    19400748.043  
  19400743.676  
  23582839.984   123928655.436    23582846.410    96567804.3994   23582846.629  
                
  22004207.859   115632887.900    22004212.375    90103570.4884                 
                
  19541430.391   104496815.147                    81275303.173    19541434.578  
  19541429.637  
  20172042.898   107944670.239                    83956961.831    20172046.641  
  20172041.156  
  20087607.617   105561086.646    20087616.906    82255434.6104   20087617.242  
                
 21  8 14  3 33 30.0000000  0 14G 6R23G20G29R13R15G 5G12R14G31G 2R24
                                R17G25
  24027734.469   126266583.746    24027744.500    98389578.7104   24027745.094  
                
  22174835.711   118620424.326                                                  
  22174833.863  
  22736873.867   119483080.954    22736880.637    93103728.3094                 
                
  21602584.156   113522348.819    21602590.965    88459002.8784   21602591.035  
                
  23031961.891   122989378.021                    95658421.611    23031966.422  
  23031959.602  
  20385702.578   108935007.382                    84727225.198    20385706.746  
  20385702.836  
  24104226.867   126668558.764    24104233.902    98702809.5624   24104234.039  
                
  20622960.039   108374390.704    20622966.379    84447611.0364   20622966.453  
                
  19403599.383   103432100.592                    80447185.469    19403603.562  
  19403599.203  
  23579073.656   123908863.271    23579080.070    96552381.9164   23579080.301  
                
  22007947.688   115652540.834    22007952.191    90118884.4514                 
                
  19544394.023   104512663.002                    81287629.280    19544398.211  
  19544393.277  
  20168060.625   107923360.322                    83940387.448    20168064.355  
  20168058.891  
  20086602.922   105555806.962    20086612.191    82251320.5674   20086612.551  
                
 21  8 14  3 33 40.0000000  0 14G 6R23G20G29R13R15G 5G12R14G31G 2R24
                                R17G25
  24034185.094   126300481.870    24034195.188    98415992.8114   24034195.758  
                
  22181639.523   118656820.061                                                  
  22181637.652  
  22733277.359   119464181.207    22733284.148    93089001.2394                 
                
  21598929.539   113503143.656    21598936.355    88444037.8154   21598936.418  
                
  23040047.594   123032554.198                    95692003.063    23040051.883  
  23040045.285  
  20380783.430   108908720.940                    84706780.186    20380787.602  
  20380783.680  
  24097917.219   126635401.002    24097924.191    98676972.3444   24097924.352  
                
  20625982.297   108390272.753    20625988.602    84459986.6534   20625988.699  
                
  19406469.938   103447402.232                    80459086.732    19406474.121  
  19406469.754  
  23575317.445   123889124.205    23575323.844    96537000.8244   23575324.070  
                
  22011694.875   115672232.403    22011699.367    90134228.5324                 
                
  19547367.602   104528564.047                    81299996.759    19547371.789  
  19547366.855  
  20164088.578   107902105.081                    83923855.597    20164092.312  
  20164086.852  
  20085608.305   105550580.161    20085617.555    82247247.7304   20085617.930  
                
 21  8 14  3 33 50.0000000  0 14G 6R23G20G29R13R15G 5G12R14G31G 2R24
                                R17G25
  24040639.484   126334399.827    24040649.598    98442422.3634   24040650.160  
                
  22188445.547   118693227.568                                                  
  22188443.684  
  22729689.656   119445327.727    22729696.453    93074310.2224                 
                
  21595280.422   113483967.413    21595287.207    88429095.2894   21595287.281  
                
  23048137.414   123075752.613                    95725601.822    23048141.422  
  23048135.082  
  20375875.648   108882495.215                    84686382.402    20375879.844  
  20375875.883  
  24091609.500   126602253.749    24091616.484    98651143.3204   24091616.660  
                
  20629013.625   108406202.394    20629019.887    84472399.3604   20629020.012  
                
  19409355.562   103462784.162                    80471050.455    19409359.742  
  19409355.375  
  23571571.359   123869438.389    23571577.746    96521661.2214   23571577.969  
                
  22015449.422   115691962.610    22015453.891    90149602.7154                 
                
  19550351.102   104544518.113                    81312405.478    19550355.293  
  19550350.352  
  20160126.766   107880904.635                    83907366.361    20160130.516  
  20160125.055  
  20084623.773   105545406.377    20084633.012    82243216.2054   20084633.402  
                
 21  8 14  3 34  0.0000000  0 14G 6R23G20G29R13R15G 5G12R14G31G 2R24
                                R17G25
  24047097.586   126368337.357    24047107.691    98468867.1784   24047108.258  
                
  22195253.711   118729646.666                                                  
  22195251.855  
  22726110.742   119426520.436    22726117.551    93059655.1854                 
                
  21591636.797   113464820.055    21591643.523    88414175.2714   21591643.625  
                
  23056231.250   123118972.753                    95759217.469    23056235.145  
  23056228.977  
  20370979.234   108856330.324                    84666031.927    20370983.457  
  20370979.461  
  24085303.789   126569117.012    24085310.820    98625322.4904   24085311.000  
                
  20632053.977   108422179.515    20632060.199    84484849.0594   20632060.348  
                
  19412256.203   103478246.219                    80483076.500    19412260.387  
  19412256.012  
  23567835.406   123849805.847    23567841.805    96506363.1504   23567842.031  
                
  22019211.281   115711731.277    22019215.730    90165006.8594                 
                
  19553344.469   104560524.985                    81324855.260    19553348.672  
  19553343.703  
  20156175.164   107859758.783                    83890919.591    20156178.926  
  20156173.461  
  20083649.289   105540285.470    20083658.523    82239225.8854   20083658.926  
                
 21  8 14  3 34 10.0000000  0 14G 6R23G20G29R13R15G 5G12R14G31G 2R24
                                R17G25
  24053559.461   126402294.538    24053569.547    98495327.3214   24053570.094  
                
  22202064.070   118766077.405                                                  
  22202062.164  
  22722540.648   119407759.568    22722547.445    93045036.3394                 
                
  21587998.711   113445701.792    21588005.383    88399277.9174   21588005.508  
                
  23064328.992   123162214.840                    95792850.201    23064332.918  
  23064326.879  
  20366094.258   108830226.512                    84645728.966    20366098.496  
  20366094.469  
  24079000.055   126535990.962    24079007.230    98599509.9884   24079007.375  
                
  20635103.383   108438204.230    20635109.578    84497335.8424   20635109.754  
                
  19415171.883   103493788.439                    80495164.889    19415176.055  
  19415171.688  
  23564109.648   123830226.828    23564116.043    96491106.7634   23564116.273  
                
  22022980.492   115731538.589    22022984.934    90180441.1304                 
                
  19556347.727   104576584.773                    81337346.198    19556351.941  
  19556346.945  
  20152233.805   107838667.808                    83874515.496    20152237.574  
  20152232.117  
  20082684.922   105535217.674    20082694.156    82235276.9444   20082694.566  
                
 21  8 14  3 34 20.0000000  0 14G 6R23G20G29R13R15G 5G12R14G31G 2R24
                                R17G25
  24060024.977   126436270.940    24060035.070    98521802.4374   24060035.594  
                
  22208876.508   118802519.352                                                  
  22208874.629  
  22718979.359   119389044.937    22718986.133    93030453.5194                 
                
  21584366.086   113426612.245    21584372.746    88384402.9454   21584372.871  
                
  23072430.742   123205478.614                    95826499.784    23072434.859  
  23072428.773  
  20361220.664   108804183.495                    84625473.295    20361224.918  
  20361220.867  
  24072698.344   126502875.426    24072705.609    98573705.6844   24072705.734  
                
  20638161.773   108454276.137    20638167.945    84509859.3984   20638168.129  
                
  19418102.531   103509410.469                    80507315.346    19418106.699  
  19418102.328  
  23560394.016   123810701.037    23560400.449    96475891.8714   23560400.676  
                
  22026756.977   115751384.108    22026761.422    90195905.1614                 
                
  19559360.773   104592696.900                    81349877.851    19559364.992  
  19559359.973  
  20148302.609   107817631.229                    83858153.726    20148306.391  
  20148300.930  
  20081730.602   105530202.697    20081739.836    82231369.1654   20081740.242  
                
 21  8 14  3 34 30.0000000  0 14G 6R23G20G29R13R15G 5G12R14G31G 2R24
                                R17G25
  24066494.188   126470266.738    24066504.336    98548292.6584   24066504.820  
                
  22215691.078   118838972.661                                                  
  22215689.250  
  22715426.930   119370376.849    22715433.680    93015906.9484                 
                
  21580738.992   113407551.690    21580745.688    88369550.5614   21580745.781  
                
  23080536.695   123248763.908                    95860166.098    23080540.766  
  23080534.738  
  20356358.547   108778201.786                    84605265.292    20356362.801  
  20356358.750  
  24066398.719   126469770.715    24066406.012    98547909.8224   24066406.160  
                
  20641229.195   108470395.486    20641235.352    84522419.9264   20641235.547  
                
  19421048.211   103525112.573                    80519528.079    19421052.367  
  19421047.992  
  23556688.586   123791228.804    23556695.047    96460718.6934   23556695.258  
                
  22030540.750   115771267.958    22030545.211    90211399.0684                 
                
  19562383.633   104608861.487                    81362450.304    19562387.859  
  19562382.816  
  20144381.672   107796649.518                    83841834.610    20144385.453  
  20144379.980  
  20080786.391   105525240.796    20080795.629    82227502.7474   20080796.043  
                
 21  8 14  3 34 40.0000000  0 14G 6R23G20G29R13R15G 5G12R14G31G 2R24
                                R17G25
  24072967.188   126504282.635    24072977.410    98574798.5204   24072977.840  
                
  22222507.914   118875438.105                                                  
  22222506.109  
  22711883.508   119351756.147    22711890.211    93001397.3164                 
                
  21577117.539   113388520.834    21577124.297    88354721.3284   21577124.352  
                
  23088646.898   123292071.385                    95893849.674    23088650.875  
  23088644.887  
  20351508.055   108752282.258                    84585105.659    20351512.285  
  20351508.270  
  24060101.281   126436677.834    24060108.605    98522123.1734   24060108.812  
                
  20644305.797   108486563.080    20644311.945    84535018.0404   20644312.141  
                
  19424009.031   103540895.387                    80531803.605    19424013.195  
  19424008.793  
  23552993.477   123771810.923    23552999.941    96445587.8774   23553000.156  
                
  22034331.961   115791190.892    22034336.441    90226923.4304                 
                
  19565416.477   104625079.430                    81375064.250    19565420.703  
  19565415.641  
  20140471.133   107775723.476                    83825558.795    20140474.922  
  20140469.445  
  20079852.438   105520332.847    20079861.676    82223678.3684   20079862.082  
                
 21  8 14  3 34 50.0000000  0 14G 6R23G20G29R13R15G 5G12R14G31G 2R24
                                R17G25
  24079443.578   126538316.472    24079453.883    98601318.3654   24079454.270  
                
  22229326.586   118911913.348                                                  
  22229324.809  
  22708348.742   119333180.878    22708355.410    92986923.0884                 
                
  21573501.312   113369517.498    21573508.145    88339913.5414   21573508.164  
                
  23096760.992   123335398.913                    95927548.846    23096764.785  
  23096758.824  
  20346668.875   108726423.063                    84564992.950    20346673.098  
  20346669.094  
  24053805.664   126403594.802    24053813.062    98496344.1804   24053813.312  
                
  20647391.164   108502776.755    20647397.316    84547652.0684   20647397.504  
                
  19426984.625   103556757.001                    80544140.405    19426988.785  
  19426984.383  
  23549308.336   123752445.396    23549314.793    96430497.8534   23549315.004  
                
  22038130.195   115811150.689    22038134.691    90242476.5104                 
                
  19568458.859   104641348.424                    81387717.902    19568463.090  
  19568458.027  
  20136570.594   107754850.872                    83809324.548    20136574.383  
  20136568.918  
  20078928.367   105515476.800    20078937.605    82219894.4264   20078938.008  
                
 21  8 14  3 35  0.0000000  0 14G 6R23G20G29R13R15G 5G12R14G31G 2R24
                                R17G25
  24085923.680   126572369.745    24085934.059    98627853.3474   24085934.406  
                
  22236147.398   118948400.040                                                  
  22236145.613  
  22704822.953   119314652.750    22704829.578    92972485.5834                 
                
  21569890.695   113350543.555    21569897.566    88325128.6574   21569897.559  
                
  23104878.914   123378747.950                    95961264.755    23104882.738  
  23104876.746  
  20341841.281   108700625.859                    84544928.459    20341845.504  
  20341841.492  
  24047512.297   126370523.389    24047519.758    98470574.2564   24047520.012  
                
  20650485.617   108519038.171    20650491.770    84560323.2974   20650491.945  
                
  19429975.258   103572698.749                    80556539.538    19429979.402  
  19429975.004  
  23545633.492   123733134.019    23545639.938    96415450.0244   23545640.141  
                
  22041935.727   115831148.852    22041940.234    90258059.4934                 
                
  19571511.102   104657670.080                    81400412.520    19571515.332  
  19571510.266  
  20132680.359   107734033.454                    83793133.228    20132684.137  
  20132678.684  
  20078014.477   105510674.287    20078023.711    82216152.2064   20078024.117  
                
 21  8 14  3 35 10.0000000  0 14G 6R23G20G29R13R15G 5G12R14G31G 2R24
                                R17G25
  24092407.445   126606442.208    24092417.836    98654403.3014   24092418.164  
                
  22242970.320   118984898.029                                                  
  22242968.527  
  22701306.117   119296171.671    22701312.734    92958084.7494                 
                
  21566285.648   113331598.918    21566292.492    88310366.6044   21566292.496  
                
  23113000.758   123422118.558                    95994997.403    23113004.668  
  23112998.699  
  20337025.281   108674890.565                    84524912.112    20337029.484  
  20337025.520  
  24041221.227   126337463.520    24041228.668    98444813.3124   24041228.891  
                
  20653589.133   108535347.181    20653595.297    84573031.6084   20653595.461  
                
  19432980.914   103588720.552                    80569000.938    19432985.055  
  19432980.656  
  23541968.953   123713876.707    23541975.410    96400444.3094   23541975.609  
                
  22045748.539   115851185.276    22045753.055    90273672.2874                 
                
  19574573.156   104674044.227                    81413147.963    19574577.398  
  19574572.324  
  20128800.438   107713271.130                    83776984.738    20128804.199  
  20128798.758  
  20077110.773   105505925.246    20077119.996    82212451.6504   20077120.410  
                
 21  8 14  3 35 20.0000000  0 14G 6R23G20G29R13R15G 5G12R14G31G 2R24
                                R17G25
  24098894.750   126640533.183    24098905.109    98680967.6974   24098905.414  
                
  22249795.195   119021406.451                                                  
  22249793.414  
  22697798.141   119277737.211    22697804.809    92943720.2294                 
                
  21562686.055   113312682.896    21562692.844    88295626.8454   21562692.887  
                
  23121126.562   123465509.580                    96028745.947    23121130.402  
  23121124.508  
  20332220.781   108649216.802                    84504943.622    20332224.977  
  20332221.051  
  24034932.305   126304414.736    24034939.648    98419060.9924   24034939.840  
                
  20656701.570   108551703.164    20656707.746    84585776.5254   20656707.895  
                
  19436001.461   103604821.783                    80581524.108    19436005.594  
  19436001.195  
  23538314.555   123694672.821    23538321.016    96385480.2484   23538321.219  
                
  22049568.477   115871259.188    22049573.004    90289314.2894                 
                
  19577644.836   104690469.882                    81425923.463    19577649.062  
  19577644.012  
  20124930.672   107692563.227                    83760878.599    20124934.434  
  20124928.984  
  20076217.117   105501229.103    20076226.320    82208792.3084   20076226.750  
                
 21  8 14  3 35 30.0000000  0 14G 6R23G20G29R13R15G 5G12R14G31G 2R24
                                R17G25
  24105385.664   126674643.129    24105396.023    98707546.8604   24105396.277  
                
  22256622.133   119057925.817                                                  
  22256620.375  
  22694299.164   119259350.014    22694305.895    92929392.5524                 
                
  21559092.016   113293796.075    21559098.750    88280909.8334   21559098.816  
                
  23129256.328   123508921.825                    96062511.004    23129260.090  
  23129254.273  
  20327427.945   108623605.284                    84485023.556    20327432.129  
  20327428.211  
  24028645.570   126271377.705    24028652.875    98393317.8424   24028653.066  
                
  20659823.070   108568106.684    20659829.258    84598558.4814   20659829.398  
                
  19439037.000   103621002.893                    80594109.407    19439041.141  
  19439036.723  
  23534670.453   123675522.994    23534676.922    96370558.2894   23534677.141  
                
  22053395.648   115891371.059    22053400.180    90304985.8764                 
                
  19580726.258   104706947.600                    81438739.481    19580730.480  
  19580725.445  
  20121071.195   107671910.364                    83744815.273    20121074.961  
  20121069.488  
  20075333.648   105496586.430    20075342.828    82205174.6384   20075343.285  
                
 21  8 14  3 35 40.0000000  0 14G 6R23G20G29R13R15G 5G12R14G31G 2R24
                                R17G25
  24111880.164   126708771.807    24111890.535    98734140.6114   24111890.773  
                
  22263451.039   119094455.813                                                  
  22263449.289  
  22690809.180   119241010.028    22690815.922    92915101.6444                 
                
  21555503.508   113274938.311    21555510.230    88266215.4614   21555510.309  
                
  23137389.984   123552354.772                    96096292.141    23137393.676  
  23137387.887  
  20322646.734   108598055.936                    84465151.846    20322650.898  
  20322647.000  
  24022361.031   126238352.374    24022368.352    98367583.8274   24022368.520  
                
  20662953.586   108584557.609    20662959.785    84611377.3714   20662959.918  
                
  19442087.500   103637263.755                    80606756.738    19442091.652  
  19442087.219  
  23531036.641   123656427.206    23531043.109    96355678.4474   23531043.340  
                
  22057230.031   115911520.820    22057234.562    90320686.9794                 
                
  19583817.391   104723477.242                    81451595.859    19583821.605  
  19583816.578  
  20117221.969   107651312.368                    83728794.607    20117225.723  
  20117220.242  
  20074460.352   105491997.173    20074469.508    82201598.5904   20074469.988  
                
 21  8 14  3 35 50.0000000  0 14G 6R23G20G29R13R15G 5G12R14G31G 2R24
                                R17G25
  24118378.164   126742918.857    24118388.535    98760748.6994   24118388.762  
                
  22270281.859   119130996.158                                                  
  22270280.121  
  22687328.141   119222717.028    22687334.871    92900847.3504                 
                
  21551920.445   113256109.239    21551927.207    88251543.4574   21551927.270  
                
  23145527.289   123595807.986                    96130089.067    23145531.082  
  23145525.281  
  20317877.148   108572568.733                    84445328.468    20317881.293  
  20317877.418  
  24016078.641   126205338.516    24016086.016    98341858.7354   24016086.160  
                
  20666093.055   108601055.635    20666099.270    84624232.9694   20666099.391  
                
  19445152.898   103653604.001                    80619465.821    19445157.074  
  19445152.621  
  23527413.070   123637385.235    23527419.535    96340840.5564   23527419.777  
                
  22061071.539   115931707.989    22061076.066    90336417.2354                 
                
  19586918.180   104740058.549                    81464492.427    19586922.398  
  19586917.379  
  20113382.953   107630769.032                    83712816.454    20113386.691  
  20113381.227  
  20073597.156   105487461.044    20073606.289    82198063.9374   20073606.789  
                
 21  8 14  3 36  0.0000000  0 14G 6R23G20G29R13R15G 5G12R14G31G 2R24
                                R17G25
  24124879.703   126777084.547    24124890.066    98787371.3054   24124890.285  
                
  22277114.664   119167547.118                                                  
  22277112.945  
  22683856.117   119204471.451    22683862.770    92886630.0234                 
                
  21548342.914   113237309.255    21548349.723    88236894.1324   21548349.766  
                
  23153668.484   123639282.097                    96163902.241    23153672.363  
  23153666.586  
  20313119.266   108547144.059                    84425553.711    20313123.383  
  20313119.551  
  24009798.633   126172336.786    24009806.023    98316143.1034   24009806.125  
                
  20669241.570   108617601.187    20669247.801    84637125.5994   20669247.922  
                
  19448233.273   103670024.110                    80632237.004    19448237.465  
  19448233.016  
  23523799.836   123618397.548    23523806.305    96326044.9484   23523806.531  
                
  22064920.203   115951932.857    22064924.734    90352176.8664                 
                
  19590028.609   104756691.457                    81477429.132    19590032.828  
  19590027.820  
  20109554.227   107610280.753                    83696881.115    20109557.961  
  20109552.508  
  20072744.141   105482978.476    20072753.270    82194571.0284   20072753.781  
                
 21  8 14  3 36 10.0000000  0 14G 6R23G20G29R13R15G 5G12R14G31G 2R24
                                R17G25
  24131384.727   126811268.621    24131395.078    98814008.2294   24131395.301  
                
  22283949.422   119204108.431                                                  
  22283947.695  
  22680393.125   119186273.240    22680399.715    92872449.6024                 
                
  21544770.922   113218538.268    21544777.762    88222267.3954   21544777.809  
                
  23161813.648   123682776.408                    96197731.114    23161817.453  
  23161811.691  
  20308373.062   108521781.760                    84405827.477    20308377.156  
  20308373.340  
  24003520.969   126139347.171    24003528.352    98290436.9134   24003528.430  
                
  20672399.094   108634194.030    20672405.344    84650055.0784   20672405.461  
                
  19451328.547   103686523.606                    80645069.940    19451332.738  
  19451328.316  
  23520196.898   123599463.994    23520203.375    96311291.5294   23520203.609  
                
  22068776.008   115972195.152    22068780.551    90367965.6614                 
                
  19593148.688   104773375.836                    81490405.865    19593152.914  
  19593147.914  
  20105735.750   107589847.284                    83680988.429    20105739.480  
  20105734.012  
  20071901.312   105478549.323    20071910.445    82191119.7354   20071910.957  
                
 21  8 14  3 36 20.0000000  0 14G 6R23G20G29R13R15G 5G12R14G31G 2R24
                                R17G25
  24137893.227   126845470.973    24137903.598    98840659.3864   24137903.816  
                
  22290786.094   119240680.025                                                  
  22290784.379  
  22676939.148   119168122.427    22676945.664    92858306.1064                 
                
  21541204.422   113199796.164    21541211.277    88207663.1604   21541211.320  
                
  23169962.453   123726290.867                    96231575.681    23169966.285  
  23169960.523  
  20303638.594   108496482.179                    84386150.015    20303642.676  
  20303638.879  
  23997245.531   126106369.610    23997252.980    98264740.1354   23997253.059  
                
  20675565.578   108650834.009    20675571.848    84663021.2894   20675571.973  
                
  19454438.742   103703102.652                    80657964.742    19454442.938  
  19454438.535  
  23516604.266   123580584.635    23516610.789    96296580.3554   23516611.008  
                
  22072638.914   115992494.818    22072643.465    90383783.5774                 
                
  19596278.391   104790111.728                    81503422.668    19596282.617  
  19596277.637  
  20101927.547   107569468.800                    83665138.486    20101931.254  
  20101925.824  
  20071068.641   105474173.613    20071077.773    82187710.0884   20071078.281  
                
 21  8 14  3 36 30.0000000  0 14G 6R23G20G29R13R15G 5G12R14G31G 2R24
                                R17G25
  24144405.188   126879691.586    24144415.598    98867324.7684   24144415.812  
                
  22297624.664   119277261.863                                                  
  22297622.945  
  22673494.234   119150019.218    22673500.703    92844199.7174                 
                
  21537643.445   113181083.091    21537650.285    88193081.5414   21537650.316  
                
  23178115.008   123769825.617                    96265436.036    23178118.926  
  23178113.195  
  20298915.891   108471245.458                    84366521.439    20298919.949  
  20298916.188  
  23990972.383   126073404.295    23990979.922    98239052.8844   23990980.000  
                
  20678741.047   108667521.153    20678747.340    84676024.2504   20678747.465  
                
  19457563.859   103719761.205                    80670921.394    19457568.066  
  19457563.668  
  23513021.992   123561759.661    23513028.531    96281911.5304   23513028.738  
                
  22076508.961   116012832.014    22076513.527    90399630.7424                 
                
  19599417.695   104806898.978                    81516479.411    19599421.926  
  19599416.945  
  20098129.609   107549145.218                    83649331.271    20098133.305  
  20098127.887  
  20070246.172   105469851.470    20070255.316    82184342.1824   20070255.812  
                
 21  8 14  3 36 40.0000000  0 14G 6R23G20G29R13R15G 5G12R14G31G 2R24
                                R17G25
  24150920.578   126913930.218    24150931.004    98894004.2034   24150931.199  
                
  22304465.117   119313853.741                                                  
  22304463.367  
  22670058.352   119131963.528    22670064.793    92830130.3364                 
                
  21534087.984   113162398.992    21534094.789    88178522.4924   21534094.820  
                
  23186271.523   123813380.276                    96299311.871    23186275.340  
  23186269.609  
  20294204.945   108446071.589                    84346941.763    20294208.980  
  20294205.230  
  23984701.641   126040451.294    23984709.199    98213375.2404   23984709.289  
                
  20681925.461   108684255.369    20681931.785    84689063.8934   20681931.898  
                
  19460703.852   103736499.038                    80683939.704    19460708.074  
  19460703.688  
  23509450.055   123542989.007    23509456.578    96267285.0444   23509456.789  
                
  22080386.086   116033206.398    22080390.668    90415506.8764                 
                
  19602566.555   104823737.306                    81529575.884    19602570.785  
  19602565.789  
  20094341.930   107528876.575                    83633566.773    20094345.621  
  20094340.207  
  20069433.875   105465582.812    20069443.031    82181015.9494   20069443.516  
                
 21  8 14  3 36 50.0000000  0 14G 6R23G20G29R13R15G 5G12R14G31G 2R24
                                R17G25
  24157439.414   126948186.968    24157449.816    98920697.7524   24157450.020  
                
  22311307.445   119350455.540                                                  
  22311305.688  
  22666631.562   119113955.598    22666637.988    92816098.1924                 
                
  21530538.055   113143744.020    21530544.848    88163986.1544   21530544.891  
                
  23194431.852   123856954.912                    96333203.239    23194435.473  
  23194429.707  
  20289505.797   108420960.731                    84327411.107    20289509.832  
  20289506.070  
  23978433.227   126007510.777    23978440.848    98187707.3164   23978440.945  
                
  20685118.883   108701036.843    20685125.246    84702140.3564   20685125.348  
                
  19463858.758   103753316.404                    80697019.862    19463862.984  
  19463858.609  
  23505888.477   123524272.803    23505894.969    96252700.9884   23505895.188  
                
  22084270.281   116053617.976    22084274.902    90431411.9944                 
                
  19605724.992   104840626.829                    81542712.181    19605729.238  
  19605724.215  
  20090564.531   107508662.900                    83617845.016    20090568.199  
  20090562.824  
  20068631.789   105461367.819    20068640.949    82177731.5344   20068641.434  
                
 21  8 14  3 37  0.0000000  0 14G 6R23G20G29R13R15G 5G12R14G31G 2R24
                                R17G25
  24163961.648   126982461.603    24163971.961    98947405.2454   24163972.211  
                
  22318151.617   119387067.204                                                  
  22318149.867  
  22663213.859   119095995.443    22663220.273    92802103.2604                 
                
  21526993.664   113125118.179    21527000.457    88149472.5134   21527000.527  
                
  23202595.484   123900549.286                    96367109.950    23202599.383  
  23202593.508  
  20284818.477   108395913.116                    84307929.627    20284822.504  
  20284818.742  
  23972167.227   125974582.852    23972174.910    98162049.2054   23972175.000  
                
  20688321.258   108717865.438    20688327.668    84715253.5374   20688327.754  
                
  19467028.500   103770212.870                    80710161.567    19467032.734  
  19467028.367  
  23502337.266   123505611.084    23502343.754    96238159.4114   23502343.980  
                
  22088161.531   116074066.630    22088166.176    90447346.0114                 
                
  19608892.945   104857567.299                    81555888.097    19608897.191  
  19608892.156  
  20086797.383   107488504.123                    83602165.977    20086801.039  
  20086795.688  
  20067839.898   105457206.405    20067849.062    82174488.8704   20067849.547  
                
 21  8 14  3 37 10.0000000  0 14G 6R23G20G29R13R15G 5G12R14G31G 2R24
                                R17G25
  24170487.336   127016754.185    24170497.508    98974126.7454   24170497.828  
                
  22324997.641   119423688.763                                                  
  22324995.895  
  22659805.305   119078083.288    22659811.723    92788145.7334                 
                
  21523454.820   113106521.437    21523461.621    88134981.5554   21523461.695  
                
  23210763.008   123944163.655                    96401032.217    23210766.957  
  23210761.062  
  20280143.047   108370929.026                    84288497.550    20280147.059  
  20280143.312  
  23965903.703   125941667.743    23965911.438    98136401.0844   23965911.512  
                
  20691532.633   108734741.274    20691539.102    84728403.5314   20691539.156  
                
  19470213.148   103787188.756                    80723365.022    19470217.391  
  19470213.016  
  23498796.477   123487004.044    23498802.965    96223660.3224   23498803.215  
                
  22092059.867   116094552.485    22092064.539    90463309.0094                 
                
  19612070.453   104874558.850                    81569103.743    19612074.695  
  19612069.664  
  20083040.555   107468400.528                    83586529.852    20083044.195  
  20083038.867  
  20067058.242   105453098.784    20067067.406    82171288.1184   20067067.891  
                
 21  8 14  3 37 20.0000000  0 14G 6R23G20G29R13R15G 5G12R14G31G 2R24
                                R17G25
  24177016.375   127051064.298    24177026.465    99000861.8994   24177026.824  
                
  22331845.453   119460319.806                                                  
  22331843.727  
  22656405.820   119060218.887    22656412.270    92774225.4354                 
                
  21519921.477   113087953.582    21519928.309    88120513.0984   21519928.383  
                
  23218934.281   123987797.252                    96434969.447    23218938.184  
  23218932.250  
  20275479.445   108346008.157                    84269114.651    20275483.445  
  20275479.699  
  23959642.430   125908765.216    23959650.332    98110762.7734   23959650.379  
                
  20694752.922   108751664.024    20694759.441    84741590.0824   20694759.477  
                
  19473412.625   103804243.703                    80736629.960    19473416.859  
  19473412.488  
  23495266.016   123468451.368    23495272.547    96209203.7574   23495272.773  
                
  22095965.195   116115075.105    22095969.895    90479300.6504                 
                
  19615257.445   104891601.121                    81582358.836    19615261.703  
  19615256.652  
  20079293.961   107448351.751                    83570936.359    20079297.578  
  20079292.301  
  20066286.766   105449044.673    20066295.930    82168129.0694   20066296.418  
                
 21  8 14  3 37 30.0000000  0 14G 6R23G20G29R13R15G 5G12R14G31G 2R24
                                R17G25
  24183548.805   127085392.253    24183558.852    99027610.9374   24183559.223  
                
  22338695.086   119496960.615                                                  
  22338693.348  
  22653015.516   119042402.718    22653021.965    92760342.7024                 
                
  21516393.695   113069414.942    21516400.574    88106067.4104   21516400.629  
                
  23227109.273   124031450.647                    96468922.041    23227113.168  
  23227107.129  
  20270827.781   108321151.026                    84249781.324    20270831.762  
  20270828.020  
  23953383.680   125875875.804    23953391.688    98085134.6784   23953391.730  
                
  20697982.219   108768634.055    20697988.785    84754813.4704   20697988.801  
                
  19476626.969   103821377.961                    80749956.611    19476631.223  
  19476626.840  
  23491746.016   123449953.567    23491752.570    96194789.8984   23491752.777  
                
  22099877.570   116135634.789    22099882.293    90495321.1714                 
                
  19618453.938   104908694.152                    81595653.423    19618458.195  
  19618453.148  
  20075557.688   107428358.112                    83555385.744    20075561.289  
  20075556.043  
  20065525.562   105445044.478    20065534.723    82165012.0314   20065535.215  
                
 21  8 14  3 37 40.0000000  0 14G 6R23G20G29R13R15G 5G12R14G31G 2R24
                                R17G25
  24190084.531   127119737.616    24190094.535    99054373.5454   24190094.926  
                
  22345546.492   119533610.863                                                  
  22345544.762  
  22649634.336   119024634.562    22649640.797    92746497.3874                 
                
  21512871.406   113050905.196    21512878.301    88091644.2234   21512878.336  
                
  23235287.930   124075123.258                    96502889.585    23235291.664  
  23235285.117  
  20266188.008   108296357.502                    84230497.460    20266191.977  
  20266188.258  
  23947127.531   125842999.458    23947135.480    98059516.7574   23947135.547  
                
  20701220.445   108785651.021    20701227.051    84768073.4314   20701227.055  
                
  19479856.125   103838591.174                    80763344.658    19479860.387  
  19479855.992  
  23488236.398   123431510.396    23488242.930    96180418.5904   23488243.094  
                
  22103796.914   116156231.100    22103801.637    90511370.2384                 
                
  19621659.859   104925837.658                    81608987.244    19621664.121  
  19621659.062  
  20071831.656   107408419.365                    83539877.834    20071835.262  
  20071830.035  
  20064774.555   105441097.920    20064783.715    82161936.7824   20064784.215  
                
 21  8 14  3 37 50.0000000  0 14G 6R23G20G29R13R15G 5G12R14G31G 2R24
                                R17G25
  24196623.586   127154100.436    24196633.570    99081149.7454   24196633.949  
                
  22352399.672   119570270.456                                                  
  22352398.008  
  22646262.367   119006914.675    22646268.836    92732689.6774                 
                
  21509354.656   113032424.550    21509361.539    88077243.7154   21509361.594  
                
  23243470.086   124118815.126                    96536872.103    23243473.754  
  23243467.590  
  20261560.188   108271627.785                    84211263.238    20261564.152  
  20261560.418  
  23940874.047   125810136.299    23940881.812    98033909.1114   23940881.898  
                
  20704467.633   108802715.075    20704474.270    84781370.0854   20704474.262  
                
  19483100.109   103855883.412                    80776794.164    19483104.363  
  19483099.965  
  23484737.227   123413122.059    23484743.703    96166090.0034   23484743.906  
                
  22107723.250   116176864.095    22107727.949    90527447.8954                 
                
  19624875.242   104943031.740                    81622360.418    19624879.504  
  19624874.453  
  20068115.922   107388535.674                    83524412.742    20068119.508  
  20068114.328  
  20064033.789   105437205.165    20064042.953    82158903.4654   20064043.453  
                
 21  8 14  3 38  0.0000000  0 14G 6R23G20G29R13R15G 5G12R14G31G 2R24
                                R17G25
  24203165.953   127188480.662    24203175.906    99107939.5174   24203176.293  
                
  22359254.617   119606939.455                                                  
  22359252.988  
  22642899.570   118989243.081    22642906.004    92718919.5994                 
                
  21505843.438   113013973.003    21505850.285    88062865.8914   21505850.344  
                
  23251655.805   124162526.143                    96570869.522    23251659.477  
  23251653.355  
  20256944.328   108246962.068                    84192078.792    20256948.293  
  20256944.551  
  23934623.047   125777286.500    23934630.684    98008311.8644   23934630.758  
                
  20707723.773   108819826.200    20707730.430    84794703.4194   20707730.418  
                
  19486358.930   103873254.729                    80790305.180    19486363.180  
  19486358.766  
  23481248.500   123394788.632    23481254.961    96151804.2224   23481255.152  
                
  22111656.562   116197533.772    22111661.250    90543554.1284                 
                
  19628100.039   104960276.153                    81635772.721    19628104.293  
  19628099.250  
  20064410.477   107368707.022                    83508990.457    20064414.047  
  20064408.898  
  20063303.281   105433366.293    20063312.449    82155912.1304   20063312.949  
                
 21  8 14  3 38 10.0000000  0 14G 6R23G20G29R13R15G 5G12R14G31G 2R24
                                R17G25
  24209711.617   127222878.232    24209721.535    99134742.7914   24209721.930  
                
  22366111.273   119643617.791                                                  
  22366109.668  
  22639546.000   118971619.958    22639552.363    92705187.2914                 
                
  21502337.750   112995550.495    21502344.543    88048510.6844   21502344.617  
                
  23259844.867   124206255.945                    96604881.561    23259848.680  
  23259842.633  
  20252340.492   108222360.552                    84172944.268    20252344.457  
  20252340.707  
  23928374.531   125744450.094    23928382.090    97982725.0514   23928382.180  
                
  20710988.875   108836984.412    20710995.531    84808073.4464   20710995.527  
                
  19489632.555   103890704.982                    80803877.592    19489636.805  
  19489632.375  
  23477770.242   123376510.210    23477776.699    96137561.2834   23477776.883  
                
  22115596.836   116218240.052    22115601.520    90559688.8874                 
                
  19631334.242   104977570.902                    81649224.201    19631338.496  
  19631333.449  
  20060715.320   107348933.490                    83493611.047    20060718.875  
  20060713.738  
  20062583.039   105429581.401    20062592.207    82152962.8564   20062592.711  
                
 21  8 14  3 38 20.0000000  0 14G 6R23G20G29R13R15G 5G12R14G31G 2R24
                                R17G25
  24216260.555   127257293.059    24216270.434    99161559.5254   24216270.844  
                
  22372969.641   119680305.219                                                  
  22372968.051  
  22636201.680   118954045.379    22636208.012    92691492.8414                 
                
  21498837.617   112977157.151    21498844.398    88034178.2064   21498844.484  
                
  23268037.719   124250004.745                    96638908.388    23268041.434  
  23268035.527  
  20247748.695   108197823.351                    84153859.776    20247752.668  
  20247748.918  
  23922128.609   125711627.267    23922136.098    97957148.8404   23922136.219  
                
  20714262.938   108854189.693    20714269.586    84821480.1504   20714269.594  
                
  19492921.016   103908234.279                    80817511.492    19492925.270  
  19492920.836  
  23474302.461   123358286.854    23474308.922    96123361.2714   23474309.098  
                
  22119544.070   116238982.848    22119548.734    90575852.1034                 
                
  19634577.852   104994915.905                    81662714.749    19634582.109  
  19634577.051  
  20057030.477   107329215.082                    83478274.503    20057034.023  
  20057028.891  
  20061873.078   105425850.467    20061882.254    82150055.6334   20061882.754  
                
 21  8 14  3 38 30.0000000  0 14G 6R23G20G29R13R15G 5G12R14G31G 2R24
                                R17G25
  24222812.734   127291725.001    24222822.602    99188389.5834   24222823.027  
                
  22379829.727   119717001.772                                                  
  22379828.160  
  22632866.609   118936519.455    22632872.918    92677836.2624                 
                
  21495343.047   112958793.031    21495349.844    88019868.5014   21495349.934  
                
  23276234.164   124293772.522                    96672949.972    23276237.707  
  23276231.953  
  20243168.930   108173350.483                    84134825.317    20243172.914  
  20243169.156  
  23915885.211   125678818.133    23915892.664    97931583.2914   23915892.809  
                
  20717545.945   108871442.011    20717552.578    84834923.4994   20717552.602  
                
  19496224.273   103925842.529                    80831206.790    19496228.512  
  19496224.086  
  23470845.172   123340118.657    23470851.590    96109204.2274   23470851.789  
                
  22123498.234   116259762.107    22123502.844    90592043.7244                 
                
  19637830.859   105012311.177                    81676244.407    19637835.129  
  19637830.059  
  20053355.961   107309551.990                    83462980.983    20053359.488  
  20053354.387  
  20061173.375   105422173.550    20061182.555    82147190.4944   20061183.059  
                
 21  8 14  3 38 40.0000000  0 14G 6R23G20G29R13R15G 5G12R14G31G 2R24
                                R17G25
  24229368.195   127326174.107    24229378.027    99215233.0294   24229378.469  
                
  22386691.508   119753707.375                                                  
  22386689.945  
  22629540.820   118919042.309    22629547.062    92664217.6954                 
                
  21491854.039   112940458.170    21491860.867    88005581.6054   21491860.949  
                
  23284433.805   124337559.171                    96707006.238    23284437.516  
  23284431.797  
  20238601.297   108148942.358                    84115841.221    20238605.289  
  20238601.516  
  23909644.469   125646022.981    23909651.887    97906028.6244   23909652.082  
                
  20720837.922   108888741.426    20720844.543    84848403.5634   20720844.586  
                
  19499542.320   103943529.562                    80844963.363    19499546.559  
  19499542.137  
  23467398.414   123322005.718    23467404.781    96095090.2504   23467405.004  
                
  22127459.375   116280577.973    22127463.922    90608263.8814                 
                
  19641093.211   105029756.431                    81689812.939    19641097.492  
  19641092.406  
  20049691.750   107289944.051                    83447730.368    20049695.277  
  20049690.184  
  20060483.992   105418550.761    20060493.172    82144367.5384   20060493.688  
                
 21  8 14  3 38 50.0000000  0 14G 6R23G20G29R13R15G 5G12R14G31G 2R24
                                R17G25
  24235926.805   127360639.768    24235936.566    99242089.3824   24235937.027  
                
  22393554.906   119790421.596                                                  
  22393553.379  
  22626224.227   118901613.511    22626230.391    92650636.8224                 
                
  21488370.508   112922152.100    21488377.367    87991317.1304   21488377.438  
                
  23292637.125   124381364.049                    96741076.672    23292640.750  
  23292635.008  
  20234045.656   108124598.432                    84096907.051    20234049.652  
  20234045.859  
  23903406.281   125613241.326    23903413.703    97880484.4864   23903413.930  
                
  20724138.750   108906087.423    20724145.363    84861919.9054   20724145.414  
                
  19502875.078   103961295.020                    80858780.937    19502879.305  
  19502874.883  
  23463962.086   123303947.660    23463968.383    96081019.0394   23463968.625  
                
  22131427.336   116301429.753    22131431.828    90624512.0104                 
                
  19644364.828   105047251.242                    81703420.003    19644369.094  
  19644364.027  
  20046037.758   107270390.833                    83432522.314    20046041.293  
  20046036.188  
  20059804.820   105414981.697    20059814.012    82141586.4414   20059814.520  
                
 21  8 14  3 39  0.0000000  0 14G 6R23G20G29R13R15G 5G12R14G31G 2R24
                                R17G25
  24242488.680   127395122.587    24242498.395    99268959.0934   24242498.883  
                
  22400420.000   119827144.895                                                  
  22400418.484  
  22622916.969   118884233.807    22622923.012    92637094.1844                 
                
  21484892.586   112903875.516    21484899.453    87977075.6434   21484899.516  
                
  23300844.086   124425187.552                    96775161.587    23300847.484  
  23300841.770  
  20229502.219   108100319.701                    84078023.596    20229506.219  
  20229502.422  
  23897170.781   125580473.996    23897178.297    97854951.5404   23897178.535  
                
  20727448.570   108923480.635    20727455.188    84875473.0584   20727455.246  
                
  19506222.664   103979139.541                    80872660.009    19506226.891  
  19506222.457  
  23460536.352   123285945.209    23460542.590    96066991.1494   23460542.848  
                
  22135402.234   116322317.955    22135406.676    90640788.5194                 
                
  19647645.852   105064796.316                    81717066.159    19647650.109  
  19647645.074  
  20042394.117   107250892.992                    83417357.347    20042397.672  
  20042392.535  
  20059135.992   105411466.987    20059145.199    82138847.7044   20059145.699  
                
 21  8 14  3 39 10.0000000  0 14G 6R23G20G29R13R15G 5G12R14G31G 2R24
                                R17G25
  24249053.711   127429622.106    24249063.418    99295841.8004   24249063.914  
                
  22407286.703   119863876.801                                                  
  22407285.203  
  22619619.039   118866903.051    22619624.980    92623589.6924                 
                
  21481420.234   112885628.174    21481427.074    87962856.9314   21481427.148  
                
  23309054.164   124469029.258                    96809260.679    23309057.629  
  23309051.953  
  20224970.906   108076105.736                    84059190.510    20224974.910  
  20224971.105  
  23890937.945   125547720.940    23890945.625    97829429.6924   23890945.867  
                
  20730767.320   108940920.767    20730773.941    84889062.7524   20730773.984  
                
  19509584.992   103997062.625                    80886600.175    19509589.203  
  19509584.770  
  23457121.133   123267998.092    23457127.355    96053006.3694   23457127.613  
                
  22139383.984   116343242.185    22139388.395    90657093.1134                 
                
  19650936.156   105082391.023                    81730750.933    19650940.395  
  19650935.383  
  20038760.797   107231450.366                    83402235.298    20038764.355  
  20038759.199  
  20058477.461   105408006.374    20058486.688    82136151.1214   20058487.176  
                
 21  8 14  3 39 20.0000000  0 14G 6R23G20G29R13R15G 5G12R14G31G 2R24
                                R17G25
  24255621.922   127464138.182    24255631.621    99322737.4154   24255632.121  
                
  22414154.977   119900617.213                                                  
  22414153.453  
  22616330.430   118849621.326    22616336.316    92610123.4134                 
                
  21477953.430   112867409.975    21477960.230    87948660.9324   21477960.328  
                
  23317267.805   124512889.251                    96843373.988    23317271.230  
  23317265.613  
  20220451.766   108051956.773                    84040407.985    20220455.770  
  20220451.980  
  23884707.789   125514981.993    23884715.637    97803918.8544   23884715.871  
                
  20734094.969   108958407.653    20734101.590    84902688.8964   20734101.629  
                
  19512962.047   104015064.211                    80900601.412    19512966.242  
  19512961.824  
  23453716.438   123250106.253    23453722.633    96039064.6794   23453722.906  
                
  22143372.578   116364202.362    22143376.969    90673425.7174                 
                
  19654235.703   105100035.140                    81744474.127    19654239.938  
  19654234.938  
  20035137.781   107212062.843                    83387156.115    20035141.336  
  20035136.160  
  20057829.219   105404599.849    20057838.465    82133496.6744   20057838.941  
                
 21  8 14  3 39 30.0000000  0 14G 6R23G20G29R13R15G 5G12R14G31G 2R24
                                R17G25
  24262193.312   127498670.931    24262202.965    99349646.0394   24262203.480  
                
  22421024.852   119937366.285                                                  
  22421023.320  
  22613051.203   118832388.898    22613057.094    92596695.5504                 
                
  21474492.203   112849221.065    21474498.980    87934487.7474   21474499.078  
                
  23325484.852   124556767.465                    96877501.458    23325488.195  
  23325482.633  
  20215944.844   108027873.106                    84021676.231    20215948.852  
  20215945.059  
  23878480.414   125482257.482    23878488.363    97778419.2694   23878488.590  
                
  20737431.562   108975941.523    20737438.184    84916351.6454   20737438.223  
                
  19516353.891   104033144.616                    80914663.938    19516358.062  
  19516353.672  
  23450322.328   123232270.069    23450328.426    96025166.3344   23450328.762  
                
  22147368.047   116385198.623    22147372.422    90689786.4274                 
                
  19657544.555   105117729.015                    81758236.027    19657548.785  
  19657543.777  
  20031525.102   107192730.653                    83372119.964    20031528.656  
  20031523.473  
  20057191.320   105401247.643    20057200.590    82130884.5664   20057201.055  
                
 21  8 14  3 39 40.0000000  0 14G 6R23G20G29R13R15G 5G12R14G31G 2R24
                                R17G25
  24268767.844   127533220.159    24268777.449    99376567.5114   24268777.980  
                
  22427896.312   119974123.844                                                  
  22427894.781  
  22609781.320   118815205.539    22609787.246    92583305.9184                 
                
  21471036.516   112831061.293    21471043.297    87920337.2734   21471043.391  
                
  23333705.242   124600663.538                    96911642.823    23333708.574  
  23333702.988  
  20211450.133   108003854.696                    84002995.243    20211454.148  
  20211450.359  
  23872255.875   125449547.520    23872263.879    97752931.0104   23872264.125  
                
  20740777.086   108993522.316    20740783.688    84930050.9514   20740783.730  
                
  19519760.453   104051303.448                    80928787.466    19519764.605  
  19519760.246  
  23446938.781   123214489.422    23446944.785    96011311.2824   23446945.184  
                
  22151370.328   116406230.699    22151374.703    90706175.0614                 
                
  19660862.656   105135472.367                    81772036.417    19660866.887  
  19660861.875  
  20027922.711   107173453.535                    83357126.646    20027926.270  
  20027921.086  
  20056563.742   105397949.684    20056573.027    82128314.7244   20056573.484  
                
 21  8 14  3 39 50.0000000  0 14G 6R23G20G29R13R15G 5G12R14G31G 2R24
                                R17G25
  24275345.422   127567785.535    24275354.992    99403501.5534   24275355.543  
                
  22434769.289   120010889.307                                                  
  22434767.781  
  22606520.742   118798071.122    22606526.707    92569954.4244                 
                
  21467586.312   112812930.357    21467593.121    87906209.2734   21467593.207  
                
  23341928.914   124644577.013                    96945797.713    23341932.160  
  23341925.832  
  20206967.617   107979901.457                    83984364.949    20206971.641  
  20206967.852  
  23866034.141   125416851.936    23866042.145    97727453.9534   23866042.395  
                
  20744131.469   109011149.691    20744138.047    84943786.5644   20744138.109  
                
  19523181.680   104069540.504                    80942971.835    19523185.812  
  19523181.480  
  23443565.789   123196764.183    23443571.754    95997499.4034   23443572.172  
                
  22155379.383   116427298.379    22155383.754    90722591.4274                 
                
  19664189.906   105153264.682                    81785874.885    19664194.137  
  19664189.117  
  20024330.609   107154231.451                    83342176.140    20024334.160  
  20024328.969  
  20055946.438   105394705.742    20055955.730    82125786.9714   20055956.184  
                
 21  8 14  3 40  0.0000000  0 14G 6R23G20G29R13R15G 5G12R14G31G 2R24
                                R17G25
  24281926.125   127602367.283    24281935.660    99430448.3624   24281936.238  
                
  22441643.844   120047663.180                                                  
  22441642.328  
  22603269.562   118780986.118    22603275.562    92556641.4424                 
                
  21464141.703   112794828.796    21464148.539    87892104.1674   21464148.602  
                
  23350155.719   124688508.726                    96979966.784    23350159.195  
  23350153.219  
  20202497.383   107956013.873                    83965785.719    20202501.422  
  20202497.645  
  23859815.250   125384171.159    23859823.258    97701988.4314   23859823.488  
                
  20747494.781   109028824.003    20747501.328    84957558.7414   20747501.406  
                
  19526617.609   104087855.916                    80957217.159    19526621.754  
  19526617.410  
  23440203.414   123179094.716    23440209.340    95983730.9834   23440209.781  
                
  22159395.258   116448401.886    22159399.625    90739035.7124                 
                
  19667526.383   105171106.332                    81799751.709    19667530.617  
  19667525.598  
  20020748.836   107135064.682                    83327268.659    20020752.387  
  20020747.172  
  20055339.492   105391516.195    20055348.801    82123301.6034   20055349.250  
                
 21  8 14  3 40 10.0000000  0 14G 6R23G20G29R13R15G 5G12R14G31G 2R24
                                R17G25
  24288509.914   127636965.343    24288519.434    99457407.8644   24288520.027  
                
  22448519.883   120084445.291                                                  
  22448518.340  
  22600027.820   118763950.687    22600033.871    92543367.0834                 
                
  21460702.672   112776756.615    21460709.516    87878021.9524   21460709.574  
                
  23358385.938   124732458.165                    97014149.667    23358389.641  
  23358383.508  
  20198039.461   107932192.095                    83947257.663    20198043.508  
  20198039.730  
  23853599.219   125351505.528    23853607.242    97676534.6864   23853607.449  
                
  20750867.008   109046545.180    20750873.527    84971367.4394   20750873.621  
                
  19530068.250   104106249.773                    80971523.470    19530072.371  
  19530068.062  
  23436851.648   123161481.093    23436857.551    95970006.0844   23436858.016  
                
  22163417.922   116469541.156    22163422.293    90755507.8634                 
                
  19670872.062   105188997.168                    81813666.805    19670876.297  
  19670871.277  
  20017177.391   107115953.226                    83312404.189    20017180.938  
  20017175.715  
  20054742.898   105388381.089    20054752.223    82120858.6614   20054752.672  
                
 21  8 14  3 40 20.0000000  0 14G 6R23G20G29R13R15G 5G12R14G31G 2R24
                                R17G25
  24295096.797   127671579.686    24295106.324    99484380.0524   24295106.934  
                
  22455397.508   120121235.656                                                  
  22455395.973  
  22596795.539   118746964.914    22596801.660    92530131.4184                 
                
  21457269.250   112758713.806    21457276.074    87863962.6194   21457276.145  
                
  23366619.359   124776425.098                    97048346.152    23366623.301  
  23366617.109  
  20193593.883   107908436.289                    83928780.926    20193597.941  
  20193594.148  
  23847386.008   125318854.929    23847394.066    97651092.6644   23847394.258  
                
  20754248.164   109064313.260    20754254.656    84985212.6954   20754254.758  
                
  19533533.633   104124722.140                    80985890.858    19533537.758  
  19533533.453  
  23433510.531   123143923.383    23433516.414    95956324.7534   23433516.887  
                
  22167447.398   116490716.114    22167451.762    90772007.8264                 
                
  19674226.945   105206937.251                    81827620.191    19674231.180  
  19674226.145  
  20013616.312   107096897.167                    83297582.810    20013619.871  
  20013614.613  
  20054156.688   105385300.507    20054166.035    82118458.1984   20054166.480  
                
 21  8 14  3 40 30.0000000  0 14G 6R23G20G29R13R15G 5G12R14G31G 2R24
                                R17G25
  24301686.766   127706210.185    24301696.293    99511364.8364   24301696.926  
                
  22462276.609   120158034.073                                                  
  22462275.078  
  22593572.734   118730028.908    22593578.891    92516934.5254                 
                
  21453841.422   112740700.368    21453848.207    87849926.1684   21453848.297  
                
  23374856.094   124820409.605                    97082556.316    23374860.160  
  23374854.043  
  20189160.695   107884746.587                    83910355.608    20189164.770  
  20189160.965  
  23841175.641   125286219.500    23841183.730    97625662.4764   23841183.930  
                
  20757638.258   109082128.273    20757644.734    84999094.5124   20757644.855  
                
  19537013.719   104143272.909                    81000319.232    19537017.848  
  19537013.562  
  23430180.086   123126421.715    23430185.949    95942687.0774   23430186.426  
                
  22171483.664   116511926.785    22171488.027    90788535.6214                 
                
  19677591.047   105224926.550                    81841611.866    19677595.277  
  19677590.250  
  20010065.594   107077896.529                    83282804.533    20010069.148  
  20010063.879  
  20053580.867   105382274.522    20053590.242    82116100.2844   20053590.668  
                
 21  8 14  3 40 40.0000000  0 14G 6R23G20G29R13R15G 5G12R14G31G 2R24
                                R17G25
  24308279.750   127740856.391    24308289.273    99538361.8704   24308289.922  
                
  22469157.180   120194840.242                                                  
  22469155.629  
  22590359.320   118713142.351    22590365.473    92503776.1684                 
                
  21450419.094   112722715.943    21450425.855    87835912.3214   21450425.969  
                
  23383096.141   124864411.290                    97116779.833    23383100.293  
  23383094.191  
  20184739.812   107861122.749                    83891981.511    20184743.898  
  20184740.078  
  23834968.211   125253599.090    23834976.199    97600243.9914   23834976.391  
                
  20761037.195   109099989.794    20761043.660    85013012.5734   20761043.789  
                
  19540508.430   104161901.651                    81014808.247    19540512.559  
  19540508.281  
  23426860.227   123108975.776    23426866.090    95929092.8344   23426866.566  
                
  22175526.617   116533172.637    22175530.969    90805090.8304                 
                
  19680964.195   105242964.323                    81855641.245    19680968.426  
  19680963.414  
  20006525.133   107058950.895                    83268069.042    20006528.688  
  20006523.418  
  20053015.367   105379302.799    20053024.766    82113784.6544   20053025.184  
                
 21  8 14  3 40 50.0000000  0 14G 6R23G20G29R13R15G 5G12R14G31G 2R24
                                R17G25
  24314875.719   127775518.303    24314885.281    99565371.1414   24314885.922  
                
  22476039.188   120231654.090                                                  
  22476037.609  
  22587155.375   118696305.466    22587161.527    92490656.5194                 
                
  21447002.312   112704760.655    21447009.078    87821921.1874   21447009.191  
                
  23391339.469   124908430.076                    97151016.630    23391343.586  
  23391337.531  
  20180331.312   107837565.050                    83873658.842    20180335.418  
  20180331.574  
  23828763.609   125220993.820    23828771.551    97574837.2964   23828771.750  
                
  20764445.000   109117897.891    20764451.461    85026966.9294   20764451.590  
                
  19544017.766   104180608.335                    81029357.888    19544021.895  
  19544017.621  
  23423551.008   123091585.689    23423556.891    95915542.1174   23423557.348  
                
  22179576.273   116554453.740    22179580.625    90821673.5014                 
                
  19684346.438   105261050.638                    81869708.365    19684350.672  
  19684345.660  
  20002995.008   107040060.524                    83253376.542    20002998.562  
  20002993.293  
  20052460.203   105376385.410    20052469.629    82111511.3594   20052470.020  
                
 21  8 14  3 41  0.0000000  0 14G 6R23G20G29R13R15G 5G12R14G31G 2R24
                                R17G25
  24321474.719   127810196.155    24321484.332    99592392.8304   24321484.957  
                
  22482922.648   120268475.873                                                  
  22482921.012  
  22583960.945   118679518.568    22583967.121    92477575.8214                 
                
  21443591.148   112686834.861    21443597.938    87807953.0484   21443598.047  
                
  23399585.836   124952466.035                    97185266.806    23399590.086  
  23399584.055  
  20175935.250   107814073.822                    83855387.897    20175939.359  
  20175935.516  
  23822562.008   125188404.338    23822569.887    97549442.9094   23822570.094  
                
  20767861.719   109135852.842    20767868.172    85040957.7884   20767868.301  
                
  19547541.773   104199393.281                    81043968.385    19547545.910  
  19547541.621  
  23420252.484   123074251.842    23420258.402    95902035.2224   23420258.836  
                
  22183632.672   116575770.215    22183637.023    90838283.7434                 
                
  19687737.781   105279185.677                    81883813.399    19687742.020  
  19687737.012  
  19999475.242   107021225.541                    83238727.108    19999478.797  
  19999473.520  
  20051915.461   105373522.736    20051924.910    82109280.6974   20051925.270  
                
 21  8 14  3 41 10.0000000  0 14G 6R23G20G29R13R15G 5G12R14G31G 2R24
                                R17G25
  24328076.633   127844889.321    24328086.305    99619426.4534   24328086.914  
                
  22489807.430   120305304.821                                                  
  22489805.750  
  22580775.938   118662781.243    22580782.148    92464533.7504                 
                
  21440185.484   112668937.980    21440192.305    87794007.4304   21440192.414  
                
  23407835.375   124996518.788                    97219530.040    23407839.777  
  23407833.715  
  20171551.547   107790648.647                    83837168.320    20171555.668  
  20171551.793  
  23816363.352   125155830.112    23816371.125    97524060.4044   23816371.355  
                
  20771287.258   109153854.175    20771293.707    85054984.7894   20771293.836  
                
  19551080.367   104218255.893                    81058639.300    19551084.520  
  19551080.207  
  23416964.578   123056973.801    23416970.562    95888571.8104   23416970.980  
                
  22187695.688   116597121.507    22187700.031    90854921.1044                 
                
  19691138.141   105297368.943                    81897955.930    19691142.391  
  19691137.391  
  19995965.750   107002445.527                    83224120.428    19995969.305  
  19995964.027  
  20051381.023   105370714.240    20051390.480    82107092.2564   20051390.832  
                
 21  8 14  3 41 20.0000000  0 14G 6R23G20G29R13R15G 5G12R14G31G 2R24
                                R17G25
  24334681.539   127879598.280    24334691.270    99646472.3734   24334691.859  
                
  22496693.688   120342141.598                                                  
  22496691.992  
  22577600.484   118646094.128    22577606.695    92451530.8054                 
                
  21436785.438   112651070.622    21436792.289    87780084.8184   21436792.387  
                
  23416088.117   125040588.509                    97253806.473    23416092.633  
  23416086.535  
  20167180.336   107767290.256                    83819000.679    20167184.473  
  20167180.566  
  23810167.711   125123271.844    23810175.418    97498690.3364   23810175.656  
                
  20774721.719   109171902.368    20774728.168    85069048.3114   20774728.305  
                
  19554633.594   104237196.601                    81073370.955    19554637.758  
  19554633.438  
  23413687.422   123039752.170    23413693.480    95875152.3534   23413693.871  
                
  22191765.414   116618508.110    22191769.754    90871585.9764                 
                
  19694547.617   105315600.920                    81912136.356    19694551.859  
  19694546.848  
  19992466.609   106983720.924                    83209556.846    19992470.164  
  19992464.883  
  20050857.023   105367960.587    20050866.488    82104946.5454   20050866.824  
                
 21  8 14  3 41 30.0000000  0 14G 6R23G20G29R13R15G 5G12R14G31G 2R24
                                R17G25
  24341289.375   127914322.701    24341299.180    99673530.3224   24341299.758  
                
  22503581.344   120378985.732                                                  
  22503579.668  
  22574434.570   118629457.102    22574440.762    92438566.8854                 
                
  21433390.969   112633232.563    21433397.824    87766185.0244   21433397.926  
                
  23424344.125   125084674.865                    97288095.829    23424348.598  
  23424342.523  
  20162821.641   107743998.690                    83800885.017    20162825.781  
  20162821.852  
  23803975.141   125090729.343    23803982.734    97473332.5584   23803982.977  
                
  20778165.039   109189997.158    20778171.500    85083148.1364   20778171.629  
                
  19558201.438   104256215.186                    81088163.184    19558205.617  
  19558201.270  
  23410420.969   123022586.764    23410427.086    95861776.7094   23410427.434  
                
  22195841.805   116639929.683    22195846.141    90888278.1064                 
                
  19697966.109   105333881.097                    81926354.257    19697970.352  
  19697965.352  
  19988977.836   106965051.756                    83195036.392    19988981.395  
  19988976.117  
  20050343.414   105365261.515    20050352.883    82102843.3714   20050353.215  
                
 21  8 14  3 41 40.0000000  0 14G 6R23G20G29R13R15G 5G12R14G31G 2R24
                                R17G25
  24347900.180   127949062.699    24347910.035    99700600.4194   24347910.605  
                
  22510470.391   120415837.448                                                  
  22510468.750  
  22571278.266   118612870.571    22571284.457    92425642.3104                 
                
  21430002.117   112615423.992    21430008.961    87752308.2194   21430009.066  
                
  23432603.625   125128778.124                    97322398.327    23432607.777  
  23432601.734  
  20158475.500   107720774.205                    83782821.518    20158479.645  
  20158475.715  
  23797785.578   125058202.930    23797793.156    97447987.3114   23797793.387  
                
  20781617.266   109208138.659    20781623.727    85097284.3594   20781623.867  
                
  19561783.922   104275311.818                    81103016.111    19561788.117  
  19561783.746  
  23407165.242   123005477.763    23407171.418    95848445.0254   23407171.719  
                
  22199924.883   116661386.370    22199929.215    90904997.5964                 
                
  19701393.656   105352209.664                    81940609.805    19701397.879  
  19701392.902  
  19985499.422   106946438.024                    83180559.040    19985502.961  
  19985497.711  
  20049840.242   105362617.292    20049849.711    82100782.9324   20049850.043  
                
 21  8 14  3 41 50.0000000  0 14G 6R23G20G29R13R15G 5G12R14G31G 2R24
                                R17G25
  24354513.891   127983817.944    24354523.770    99727682.4094   24354524.332  
                
  22517360.797   120452696.318                                                  
  22517359.160  
  22568131.484   118596334.180    22568137.727    92412756.8164                 
                
  21426618.812   112597644.661    21426625.629    87738454.1914   21426625.738  
                
  23440865.859   125172897.608                    97356713.465    23440870.031  
  23440863.988  
  20154141.859   107697616.539                    83764810.008    20154146.000  
  20154142.082  
  23791599.055   125025692.494    23791606.586    97422654.5144   23791606.820  
                
  20785078.336   109226326.763    20785084.812    85111456.8964   20785084.953  
                
  19565380.977   104294486.140                    81117929.473    19565385.188  
  19565380.789  
  23403920.234   122988425.080    23403926.406    95835157.2014   23403926.691  
                
  22204014.578   116682877.887    22204018.914    90921744.2304                 
                
  19704830.195   105370586.401                    81954902.821    19704834.410  
  19704829.441  
  19982031.336   106927879.616                    83166124.730    19982034.887  
  19982029.621  
  20049347.469   105360027.735    20049356.934    82098765.0894   20049357.262  
                
 21  8 14  3 42  0.0000000  0 14G 6R23G20G29R13R15G 5G12R14G31G 2R24
                                R17G25
  24361130.469   128018588.289    24361140.367    99754776.1664   24361140.926  
                
  22524252.523   120489562.287                                                  
  22524250.887  
  22564994.258   118579847.925    22565000.570    92399910.3854                 
                
  21423241.070   112579894.545    21423247.875    87724622.9324   21423248.004  
                
  23449131.289   125217033.622                    97391041.448    23449135.375  
  23449129.332  
  20149820.758   107674525.888                    83746850.605    20149824.891  
  20149820.973  
  23785415.641   124993198.109    23785423.090    97397334.2244   23785423.309  
                
  20788548.250   109244561.260    20788554.754    85125665.5874   20788554.883  
                
  19568992.586   104313738.021                    81132903.141    19568996.816  
  19568992.391  
  23400685.930   122971428.713    23400692.133    95821913.2834   23400692.395  
                
  22208110.883   116704404.081    22208115.230    90938517.8794                 
                
  19708275.688   105389010.954                    81969233.023    19708279.902  
  19708274.945  
  19978573.578   106909376.444                    83151733.377    19978577.129  
  19978571.840  
  20048865.086   105357492.773    20048874.547    82096789.7914   20048874.879  
                
 21  8 14  3 42 10.0000000  0 14G 6R23G20G29R13R15G 5G12R14G31G 2R24
                                R17G25
  24367749.977   128053373.936    24367759.875    99781881.8494   24367760.414  
                
  22531145.609   120526435.510                                                  
  22531143.957  
  22561866.641   118563412.208    22561873.012    92387103.3404                 
                
  21419868.961   112562173.957    21419875.766    87710814.6864   21419875.902  
                
  23457399.992   125261186.358                    97425382.440    23457403.781  
  23457397.793  
  20145512.258   107651502.566                    83728943.572    20145516.387  
  20145512.473  
  23779235.297   124960720.179    23779242.762    97372026.7634   23779242.969  
                
  20792027.047   109262842.474    20792033.582    85139910.6764   20792033.711  
                
  19572618.805   104333067.801                    81147937.415    19572623.055  
  19572618.602  
  23397462.438   122954489.094    23397468.656    95808713.5694   23397468.879  
                
  22212213.828   116725965.171    22212218.188    90955318.7214                 
                
  19711730.180   105407483.655                    81983600.681    19711734.406  
  19711729.449  
  19975126.195   106890928.830                    83137385.223    19975129.750  
  19975124.434  
  20048393.164   105355012.768    20048402.621    82094857.3134   20048402.953  
                
 21  8 14  3 42 20.0000000  0 14G 6R23G20G29R13R15G 5G12R14G31G 2R24
                                R17G25
  24374372.328   128088174.544    24374382.199    99808999.1984   24374382.746  
                
  22538039.992   120563315.595                                                  
  22538038.281  
  22558748.633   118547026.929    22558755.023    92374335.5864                 
                
  21416502.406   112544482.579    21416509.215    87697029.1964   21416509.340  
                
  23465671.391   125305354.791                    97459735.643    23465675.148  
  23465669.195  
  20141216.359   107628546.562                    83711088.893    20141220.473  
  20141216.598  
  23773058.102   124928258.636    23773065.586    97346732.0844   23773065.781  
                
  20795514.695   109281170.167    20795521.270    85154191.9844   20795521.391  
                
  19576259.531   104352474.929                    81163031.837    19576263.793  
  19576259.332  
  23394249.680   122937605.874    23394255.883    95795557.8124   23394256.137  
                
  22216323.352   116747560.814    22216327.738    90972146.4884                 
                
  19715193.602   105426004.070                    81998005.441    19715197.852  
  19715192.871  
  19971689.148   106872536.480                    83123080.081    19971692.703  
  19971687.359  
  20047931.656   105352587.509    20047941.102    82092967.4934   20047941.430  
                
 21  8 14  3 42 30.0000000  0 14G 6R23G20G29R13R15G 5G12R14G31G 2R24
                                R17G25
  24380997.500   128122990.039    24381007.344    99836128.1444   24381007.891  
                
  22544935.648   120600202.470                                                  
  22544933.887  
  22555640.234   118530692.187    22555646.609    92361607.2024                 
                
  21413141.422   112526820.545    21413148.246    87683266.5694   21413148.352  
                
  23473945.711   125349539.118                    97494101.207    23473949.492  
  23473943.535  
  20136933.078   107605658.016                    83693286.691    20136937.172  
  20136933.328  
  23766884.039   124895813.601    23766891.543    97321450.2544   23766891.723  
                
  20799011.180   109299544.322    20799017.801    85168509.4984   20799017.902  
                
  19579914.812   104371959.618                    81178186.587    19579919.082  
  19579914.625  
  23391047.648   122920779.137    23391053.852    95782446.0634   23391054.121  
                
  22220439.430   116769191.006    22220443.852    90989001.1764                 
                
  19718665.914   105444572.112                    82012447.248    19718670.176  
  19718665.184  
  19968262.422   106854199.425                    83108817.921    19968265.973  
  19968260.637  
  20047480.562   105350216.996    20047490.000    82091120.3364   20047490.336  
                
 21  8 14  3 42 40.0000000  0 14G 6R23G20G29R13R15G 5G12R14G31G 2R24
                                R17G25
  24387625.516   128157820.425    24387635.367    99863268.6904   24387635.914  
                
  22551832.547   120637096.322                                                  
  22551830.754  
  22552541.477   118514408.121    22552547.863    92348918.3384                 
                
  21409786.047   112509187.899    21409792.883    87669526.8504   21409792.980  
                
  23482223.203   125393739.415                    97528479.168    23482226.824  
  23482220.891  
  20132662.461   107582837.152                    83675537.134    20132666.555  
  20132662.703  
  23760713.133   124863385.257    23760720.691    97296181.4364   23760720.855  
                
  20802516.516   109317964.980    20802523.180    85182863.2444   20802523.262  
                
  19583584.641   104391521.838                    81193401.649    19583588.922  
  19583584.461  
  23387856.422   122904009.154    23387862.637    95769378.5434   23387862.887  
                
  22224562.109   116790855.772    22224566.559    91005882.7994                 
                
  19722147.117   105463187.675                    82026926.016    19722151.387  
  19722146.383  
  19964846.062   106835917.813                    83094598.897    19964849.629  
  19964844.293  
  20047039.922   105347901.407    20047049.348    82089315.9714   20047049.699  
                
 21  8 14  3 42 50.0000000  0 14G 6R23G20G29R13R15G 5G12R14G31G 2R24
                                R17G25
  24394256.328   128192665.571    24394266.203    99890420.7394   24394266.754  
                
  22558730.711   120673996.875                                                  
  22558728.875  
  22549452.375   118498174.783    22549458.789    92336268.9904                 
                
  21406436.250   112491584.574    21406443.074    87655809.9724   21406443.172  
                
  23490503.719   125437955.762                    97562869.651    23490507.117  
  23490501.316  
  20128404.523   107560083.996                    83657840.229    20128408.617  
  20128404.785  
  23754545.438   124830973.725    23754553.023    97270925.7204   23754553.191  
                
  20806030.688   109336432.034    20806037.391    85197253.1484   20806037.465  
                
  19587268.992   104411161.459                    81208676.903    19587273.262  
  19587268.812  
  23384676.008   122887295.921    23384682.234    95756355.2374   23384682.488  
                
  22228691.359   116812555.090    22228695.832    91022791.3504                 
                
  19725637.273   105481851.075                    82041441.989    19725641.543  
  19725636.516  
  19961440.047   106817691.549                    83080422.903    19961443.621  
  19961438.273  
  20046609.734   105345640.704    20046619.152    82087554.3834   20046619.512  
                
 21  8 14  3 43  0.0000000  0 14G 6R23G20G29R13R15G 5G12R14G31G 2R24
                                R17G25
  24400889.969   128227525.575    24400899.906    99917584.3554   24400900.457  
                
  22565630.148   120710904.128                                                  
  22565628.297  
  22546372.992   118481992.442    22546379.398    92323659.3714                 
                
  21403092.078   112474010.829    21403098.863    87642116.1414   21403098.977  
                
  23498786.773   125482187.604                    97597272.169    23498790.340  
  23498784.574  
  20124159.305   107537398.823                    83640196.199    20124163.395  
  20124159.566  
  23748381.023   124798579.298    23748388.586    97245683.3264   23748388.746  
                
  20809553.734   109354945.710    20809560.480    85211679.3804   20809560.539  
                
  19590967.891   104430878.611                    81224012.460    19590972.164  
  19590967.703  
  23381506.406   122870639.618    23381512.660    95743376.3064   23381512.918  
                
  22232827.172   116834288.887    22232831.668    91039726.7724                 
                
  19729136.297   105500561.914                    82055994.860    19729140.562  
  19729135.504  
  19958044.414   106799520.829                    83066290.125    19958048.004  
  19958042.617  
  20046190.031   105343435.113    20046199.445    82085835.7334   20046199.816  
                
 21  8 14  3 43 10.0000000  0 14G 6R23G20G29R13R15G 5G12R14G31G 2R24
                                R17G25
  24407526.375   128262400.160    24407536.395    99944759.3224   24407536.918  
                
  22572530.805   120747818.022                                                  
  22572528.934  
  22543303.281   118465860.975    22543309.613    92311089.3934                 
                
  21399753.492   112456466.466    21399760.230    87628445.2134   21399760.367  
                
  23507072.945   125526435.041                    97631686.838    23507076.504  
  23507070.688  
  20119926.805   107514781.640                    83622605.069    20119930.891  
  20119927.070  
  23742219.828   124766201.811    23742227.316    97220454.1224   23742227.508  
                
  20813085.617   109373505.857    20813092.406    85226141.8204   20813092.449  
                
  19594681.273   104450673.016                    81239408.101    19594685.543  
  19594681.082  
  23378347.641   122854040.179    23378353.910    95730441.6734   23378354.172  
                
  22236969.477   116856056.866    22236973.988    91056688.8304                 
                
  19732644.148   105519319.961                    82070584.451    19732648.410  
  19732643.324  
  19954659.141   106781405.566                    83052200.484    19954662.746  
  19954657.332  
  20045780.773   105341284.475    20045790.191    82084159.9124   20045790.574  
                
 21  8 14  3 43 20.0000000  0 14G 6R23G20G29R13R15G 5G12R14G31G 2R24
                                R17G25
  24414165.539   128297289.206    24414175.625    99971945.5624   24414176.156  
                
  22579432.664   120784738.350                                                  
  22579430.781  
  22540243.281   118449780.552    22540249.547    92298559.1704                 
                
  21396420.516   112438951.523    21396427.211    87614797.2034   21396427.355  
                
  23515361.789   125570698.227                    97666113.746    23515365.582  
  23515359.758  
  20115707.055   107492232.576                    83605066.897    20115711.141  
  20115707.324  
  23736061.898   124733841.453    23736069.270    97195238.2604   23736069.484  
                
  20816626.328   109392112.385    20816633.152    85240640.4004   20816633.180  
                
  19598409.148   104470544.662                    81254863.813    19598413.426  
  19598408.961  
  23375199.695   122837497.646    23375205.973    95717551.3834   23375206.234  
                
  22241118.281   116877858.948    22241122.801    91073677.4544                 
                
  19736160.812   105538125.160                    82085210.705    19736165.086  
  19736159.980  
  19951284.203   106763345.610                    83038153.855    19951287.828  
  19951282.391  
  20045381.992   105339188.805    20045391.414    82082526.9194   20045391.797  
                
 21  8 14  3 43 30.0000000  0 14G 6R23G20G29R13R15G 5G12R14G31G 2R24
                                R17G25
  24420807.484   128332192.811    24420817.605    99999143.1484   24420818.145  
                
  22586335.773   120821665.258                                                  
  22586333.852  
  22537193.023   118433751.308    22537199.281    92286068.8524                 
                
  21393093.156   112421466.135    21393099.832    87601172.2194   21393099.969  
                
  23523653.992   125614976.921                    97700552.708    23523657.609  
  23523651.754  
  20111500.102   107469751.885                    83587581.906    20111504.176  
  20111500.371  
  23729907.234   124701498.521    23729914.562    97170035.9674   23729914.766  
                
  20820175.883   109410765.405    20820182.738    85255175.2144   20820182.758  
                
  19602151.492   104490493.480                    81270379.559    19602155.770  
  19602151.324  
  23372062.633   122821012.242    23372068.910    95704705.6094   23372069.164  
                
  22245273.602   116899695.279    22245278.145    91090692.7744                 
                
  19739686.336   105556977.694                    82099873.778    19739690.609  
  19739685.516  
  19947919.656   106745341.219                    83024150.437    19947923.277  
  19947917.867  
  20044993.695   105337148.325    20045003.117    82080936.9274   20045003.500  
                
 21  8 14  3 43 40.0000000  0 14G 6R23G20G29R13R15G 5G12R14G31G 2R24
                                R17G25
  24427452.148   128367110.548    24427462.289   100026351.7634   24427462.816  
                
  22593240.008   120858598.291                                                  
  22593238.055  
  22534152.477   118417773.065    22534158.750    92273618.2714                 
                
  21389771.367   112404009.982    21389778.047    87587570.0164   21389778.168  
                
  23531948.891   125659270.476                    97735003.252    23531952.453  
  23531946.504  
  20107305.914   107447339.440                    83570150.007    20107309.988  
  20107306.172  
  23723755.898   124669172.888    23723763.207    97144847.1694   23723763.383  
                
  20823734.219   109429464.552    20823741.109    85269745.9704   20823741.113  
                
  19605908.289   104510519.262                    81285955.165    19605912.566  
  19605908.121  
  23368936.391   122804583.704    23368942.676    95691904.1344   23368942.918  
                
  22249435.367   116921565.461    22249439.934    91107734.4744                 
                
  19743220.602   105575877.003                    82114573.242    19743224.887  
  19743219.789  
  19944565.445   106727392.151                    83010190.047    19944569.078  
  19944563.664  
  20044615.859   105335162.706    20044625.281    82079389.6874   20044625.664  
                
 21  8 14  3 43 50.0000000  0 14G 6R23G20G29R13R15G 5G12R14G31G 2R24
                                R17G25
  24434099.461   128402042.177    24434109.590   100053571.1994   24434110.117  
                
  22600145.281   120895537.078                                                  
  22600143.320  
  22531121.609   118401845.720    22531127.887    92261207.3494                 
                
  21386455.109   112386582.954    21386461.805    87573990.5214   21386461.926  
                
  23540246.297   125703578.887                    97769465.342    23540250.012  
  23540244.059  
  20103124.469   107424995.062                    83552771.033    20103128.547  
  20103124.742  
  23717607.789   124636864.275    23717615.059    97119671.6444   23717615.203  
                
  20827301.297   109448209.660    20827308.203    85284352.5364   20827308.195  
                
  19609679.469   104530621.753                    81301590.424    19609683.742  
  19609679.309  
  23365820.938   122788211.881    23365827.246    95679146.8784   23365827.484  
                
  22253603.508   116943469.158    22253608.102    91124802.2814                 
                
  19746763.555   105594822.794                    82129308.848    19746767.871  
  19746762.742  
  19941221.508   106709498.149                    82996272.499    19941225.152  
  19941219.715  
  20044248.430   105333231.861    20044257.852    82077885.1324   20044258.227  
                
 21  8 14  3 44  0.0000000  0 14G 6R23G20G29R13R15G 5G12R14G31G 2R24
                                R17G25
  24440749.547   128436988.340    24440759.672   100080801.9574   24440760.215  
                
  22607051.805   120932482.596                                                  
  22607049.805  
  22528100.570   118385970.026    22528106.828    92248836.6734                 
                
  21383144.531   112369185.750    21383151.234    87560434.2634   21383151.344  
                
  23548546.523   125747902.744                    97803939.441    23548550.445  
  23548544.461  
  20098955.945   107402719.707                    83535445.763    20098960.016  
  20098956.238  
  23711463.141   124604573.713    23711470.289    97094510.1764   23711470.430  
                
  20830877.266   109467001.442    20830884.184    85298995.4714   20830884.172  
                
  19613465.148   104550801.528                    81317285.794    19613469.422  
  19613465.000  
  23362716.438   122771897.620    23362722.777    95666434.4694   23362723.000  
                
  22257778.180   116965407.125    22257782.797    91141896.7914                 
                
  19750315.375   105613815.919                    82144081.274    19750319.703  
  19750314.562  
  19937888.000   106691659.920                    82982398.328    19937891.652  
  19937886.172  
  20043891.578   105331356.540    20043900.996    82076423.8374   20043901.371  
                
 21  8 14  3 44 10.0000000  0 14G 6R23G20G29R13R15G 5G12R14G31G 2R24
                                R17G25
  24447402.289   128471948.494    24447412.418   100108043.6134   24447412.965  
                
  22613959.438   120969433.989                                                  
  22613957.359  
  22525089.297   118370145.685    22525095.520    92236506.0164                 
                
  21379839.539   112351817.909    21379846.219    87546900.8834   21379846.320  
                
  23556849.773   125792241.342                    97838425.001    23556853.629  
  23556847.684  
  20094800.289   107380513.139                    83518173.985    20094804.367  
  20094800.586  
  23705321.844   124572300.859    23705328.855    97069362.4884   23705329.039  
                
  20834462.023   109485839.461    20834468.945    85313674.4374   20834468.938  
                
  19617265.258   104571058.238                    81333041.013    19617269.543  
  19617265.105  
  23359622.805   122755640.517    23359629.176    95653766.5854   23359629.387  
                
  22261959.250   116987378.793    22261963.891    91159017.5624                 
                
  19753875.891   105632855.645                    82158889.950    19753880.227  
  19753875.082  
  19934564.844   106673877.092                    82968567.231    19934568.500  
  19934562.980  
  20043545.195   105329536.302    20043554.602    82075005.4694   20043554.980  
                
 21  8 14  3 44 20.0000000  0 14G 6R23G20G29R13R15G 5G12R14G31G 2R24
                                R17G25
  24454057.680   128506922.753    24454067.816   100135296.2514   24454068.367  
                
  22620868.180   121006391.469                                                  
  22620866.039  
  22522087.836   118354372.896    22522094.043    92224215.5414                 
                
  21376540.188   112334479.688    21376546.812    87533390.5684   21376546.938  
                
  23565155.570   125836595.036                    97872922.308    23565159.625  
  23565153.715  
  20090657.531   107358375.522                    83500955.830    20090661.617  
  20090657.828  
  23699183.977   124540046.044    23699190.891    97044228.8734   23699191.102  
                
  20838055.609   109504723.853    20838062.531    85328389.5354   20838062.531  
                
  19621079.805   104591391.888                    81348856.057    19621084.090  
  19621079.648  
  23356540.102   122739440.776    23356546.492    95641143.4084   23356546.699  
                
  22266146.773   117009384.297    22266151.434    91176164.7044                 
                
  19757445.164   105651942.195                    82173735.035    19757449.504  
  19757444.359  
  19931252.070   106656149.839                    82954779.373    19931255.730  
  19931250.207  
  20043209.359   105327771.411    20043218.746    82073630.2214   20043219.137  
                
 21  8 14  3 44 30.0000000  0 14G 6R23G20G29R13R15G 5G12R14G31G 2R24
                                R17G25
  24460715.711   128541910.920    24460725.832   100162559.7194   24460726.375  
                
  22627778.023   121043354.837                                                  
  22627775.848  
  22519096.180   118338651.687    22519102.391    92211965.2464                 
                
  21373246.445   112317170.924    21373253.023    87519903.2204   21373253.172  
                
  23573464.398   125880963.239                    97907430.895    23573468.352  
  23573462.465  
  20086527.680   107336306.829                    83483791.287    20086531.777  
  20086527.949  
  23693049.445   124507809.066    23693056.352    97019109.1664   23693056.562  
                
  20841657.992   109523654.483    20841664.914    85343140.6714   20841664.910  
                
  19624908.734   104611802.234                    81364730.762    19624913.008  
  19624908.590  
  23353468.305   122723298.367    23353474.719    95628564.9154   23353474.930  
                
  22270340.695   117031423.459    22270345.375    91193338.0694                 
                
  19761023.133   105671075.177                    82188616.242    19761027.469  
  19761022.352  
  19927949.688   106638478.098                    82941034.678    19927953.336  
  19927947.852  
  20042884.016   105326061.734    20042893.383    82072298.0004   20042893.777  
                
 21  8 14  3 44 40.0000000  0 14G 6R23G20G29R13R15G 5G12R14G31G 2R24
                                R17G25
  24467376.375   128576912.845    24467386.449   100189833.9284   24467386.984  
                
  22634688.969   121080323.936                                                  
  22634686.793  
  22516114.375   118322982.161    22516120.574    92199755.2114                 
                
  21369958.312   112299891.618    21369964.883    87506438.8234   21369965.051  
                
  23581775.742   125925346.006                    97941950.803    23581779.891  
  23581773.922  
  20082410.766   107314307.311                    83466680.549    20082414.871  
  20082411.043  
  23686918.406   124475590.237    23686925.266    96994003.5834   23686925.488  
                
  20845269.172   109542631.310    20845276.102    85357927.7954   20845276.094  
                
  19628752.062   104632289.276                    81380665.130    19628756.328  
  19628751.941  
  23350407.430   122707213.342    23350413.848    95616031.1264   23350414.051  
                
  22274541.000   117053496.126    22274545.688    91210537.5484                 
                
  19764609.820   105690254.731                    82203533.679    19764614.156  
  19764609.039  
  19924657.664   106620861.777                    82927333.097    19924661.297  
  19924655.848  
  20042569.203   105324407.304    20042578.551    82071008.8294   20042578.961  
                
 21  8 14  3 44 50.0000000  0 13G 6R23G20G29R15G 5G12R14G31G 2R24R17
                                G25
  24474039.633   128611928.427    24474049.637   100217118.7804   24474050.180  
                
  22641600.977   121117298.785                                                  
  22641598.801  
  22513142.383   118307364.262    22513148.582    92187585.4254                 
                
  21366675.773   112282641.802    21366682.367    87492997.4084   21366682.531  
                
  20078306.805   107292376.992                    83449623.630    20078310.926  
  20078307.082  
  23680790.844   124443389.669    23680797.660    96968912.2424   23680797.887  
                
  20848889.109   109561654.216    20848896.039    85372750.8304   20848896.020  
                
  19632609.781   104652853.027                    81396659.163    19632614.043  
  19632609.676  
  23347357.469   122691185.706    23347363.859    95603542.0544   23347364.090  
                
  22278747.656   117075602.249    22278752.340    91227763.0914                 
                
  19768205.133   105709480.518                    82218487.058    19768209.469  
  19768204.359  
  19921375.984   106603300.875                    82913674.612    19921379.609  
  19921374.168  
  20042264.883   105322808.121    20042274.215    82069762.7114   20042274.633  
                
 21  8 14  3 45  0.0000000  0 14G 6R23G20G29R13R15G 5G12R14G31G 2R24
                                R17G25
  24480705.500   128646957.615    24480715.410   100244414.2414   24480715.957  
                
  22648514.031   121154279.263                                                  
  22648511.875  
  22510180.250   118291798.091    22510186.469    92175455.9344                 
                
  21363398.844   112265421.411    21363405.496    87479578.9234   21363405.617  
                
  23598406.695   126014154.869                    98011024.364    23598410.887  
  23598404.324  
  20074215.820   107270515.945                    83432620.604    20074219.949  
  20074216.094  
  23674666.734   124411207.468    23674673.562    96943835.2174   23674673.797  
                
  20852517.852   109580723.315    20852524.773    85387609.8614   20852524.754  
                
  19636481.852   104673493.261                    81412712.665    19636486.094  
  19636481.758  
  23344318.445   122675215.528    23344324.828    95591097.7564   23344325.078  
                
  22282960.680   117097741.766    22282965.348    91245014.6504                 
                
  19771809.086   105728752.412                    82233476.309    19771813.406  
  19771808.320  
  19918104.664   106585795.399                    82900059.257    19918108.305  
  19918102.844  
  20041971.094   105321264.219    20041980.418    82068559.6654   20041980.844  
                
 21  8 14  3 45 10.0000000  0 14G 6R23G20G29R13R15G 5G12R14G31G 2R24
                                R17G25
  24487373.953   128682000.444    24487383.781   100271720.3374   24487384.316  
                
  22655428.133   121191265.318                                                  
  22655425.980  
  22507227.992   118276283.850    22507234.238    92163366.9294                 
                
  21360127.547   112248230.657    21360134.254    87466183.5334   21360134.367  
                
  23606726.430   126058580.760                    98045577.805    23606730.359  
  23606723.922  
  20070137.844   107248724.481                    83415671.676    20070141.980  
  20070138.125  
  23668546.203   124379043.857    23668553.027    96918772.6674   23668553.246  
                
  20856155.398   109599838.718    20856162.309    85402504.9664   20856162.297  
                
  19640368.273   104694210.049                    81428825.709    19640372.512  
  19640368.180  
  23341290.391   122659302.963    23341296.777    95578698.3574   23341297.020  
                
  22287180.078   117119914.761    22287184.727    91262292.3024                 
                
  19775421.656   105748070.437                    82248501.436    19775425.977  
  19775420.879  
  19914843.734   106568345.531                    82886487.137    19914847.375  
  19914841.902  
  20041687.867   105319775.819    20041697.188    82067399.8734   20041697.605  
                
 21  8 14  3 45 20.0000000  0 14G 6R23G20G29R13R15G 5G12R14G31G 2R24
                                R17G25
  24494044.930   128717056.526    24494054.707   100299036.7554   24494055.203  
                
  22662343.281   121228256.701                                                  
  22662341.180  
  22504285.570   118260821.349    22504291.832    92151318.2234                 
                
  21356861.836   112231069.232    21356868.578    87452811.0004   21356868.676  
                
  23615048.617   126103020.562                    98080142.073    23615052.500  
  23615046.938  
  20066072.875   107227002.531                    83398776.822    20066077.020  
  20066073.148  
  23662429.172   124346898.656    23662436.023    96893724.4744   23662436.219  
                
  20859801.680   109619000.054    20859808.590    85417435.8694   20859808.574  
                
  19644269.016   104715003.158                    81444998.122    19644273.262  
  19644268.930  
  23338273.258   122643447.858    23338279.668    95566343.7304   23338279.918  
                
  22291405.750   117142120.762    22291410.379    91279595.6734                 
                
  19779042.789   105767434.272                    82263562.193    19779047.113  
  19779042.023  
  19911593.133   106550950.914                    82872957.979    19911596.754  
  19911591.320  
  20041415.133   105318342.581    20041424.453    82066283.0604   20041424.875  
                
 21  8 14  3 45 30.0000000  0 14G 6R23G20G29R13R15G 5G12R14G31G 2R24
                                R17G25
  24500718.484   128752126.171    24500728.246   100326363.7374   24500728.723  
                
  22669259.461   121265253.670                                                  
  22669257.395  
  22501353.094   118245411.075    22501359.383    92139310.2224                 
                
  21353601.789   112213937.518    21353608.531    87439461.6134   21353608.629  
                
  23623373.375   126147474.259                    98114717.169    23623377.461  
  23623371.301  
  20062020.992   107205350.457                    83381936.316    20062025.152  
  20062021.270  
  23656315.742   124314772.400    23656322.594    96868691.0234   23656322.785  
                
  20863456.781   109638207.699    20863463.680    85432402.8594   20863463.664  
                
  19648184.102   104735872.743                    81461230.010    19648188.367  
  19648184.020  
  23335267.148   122627650.599    23335273.574    95554034.1734   23335273.840  
                
  22295637.781   117164360.156    22295642.402    91296925.0674                 
                
  19782672.562   105786844.234                    82278658.822    19782676.871  
  19782671.777  
  19908352.961   106533612.024                    82859472.169    19908356.555  
  19908351.180  
  20041152.992   105316964.980    20041162.309    82065209.5994   20041162.723  
                
 21  8 14  3 45 40.0000000  0 14G 6R23G20G29R13R15G 5G12R14G31G 2R24
                                R17G25
  24507394.555   128787208.988    24507404.301   100353700.9924   24507404.770  
                
  22676176.594   121302255.773                                                  
  22676174.547  
  22498430.508   118230052.807    22498436.848    92127342.7474                 
                
  21350347.344   112196835.304    21350354.070    87426135.2064   21350354.191  
                
  23631700.750   126191941.966                    98149303.161    23631704.871  
  23631698.738  
  20057982.164   107183768.207                    83365150.116    20057986.324  
  20057982.453  
  23650205.891   124282664.830    23650212.688    96843672.1354   23650212.895  
                
  20867120.609   109657461.242    20867127.488    85447405.6144   20867127.484  
                
  19652113.484   104756818.545                    81477521.182    19652117.754  
  19652113.402  
  23332272.008   122611911.000    23332278.426    95541769.5514   23332278.680  
                
  22299876.086   117186632.575    22299880.695    91314280.2014                 
                
  19786310.859   105806299.891                    82293790.996    19786315.156  
  19786310.082  
  19905123.125   106516328.525                    82846029.448    19905126.699  
  19905121.355  
  20040901.383   105315642.737    20040910.699    82064179.2764   20040911.102  
                
 21  8 14  3 45 50.0000000  0 13G 6R23G20G29R15G 5G12R14G31G 2R24R17
                                G25
  24514073.211   128822305.330    24514082.973   100381048.7784   24514083.406  
                
  22683094.758   121339263.386                                                  
  22683092.727  
  22495517.930   118214747.088    22495524.332    92115416.2064                 
                
  21347098.578   112179762.967    21347105.309    87412832.0844   21347105.430  
                
  20053956.531   107162256.408                    83348418.715    20053960.695  
  20053956.809  
  23644099.719   124250576.644    23644106.441    96818668.3354   23644106.676  
                
  20870793.273   109676761.174    20870800.125    85462444.5094   20870800.133  
                
  19656057.234   104777840.906                    81493871.901    19656061.512  
  19656057.152  
  23329287.938   122596229.550    23329294.348    95529550.2224   23329294.613  
                
  22304120.734   117208938.323    22304125.332    91331661.2954                 
                
  19789957.781   105825801.589                    82308958.972    19789962.066  
  19789957.000  
  19901903.727   106499100.877                    82832630.168    19901907.301  
  19901901.953  
  20040660.398   105314376.314    20040669.711    82063192.4464   20040670.117  
                
 21  8 14  3 46  0.0000000  0 13G 6R23G20G29R15G 5G12R14G31G 2R24R17
                                G25
  24520754.328   128857414.715    24520764.117   100408406.7254   24520764.547  
                
  22690013.898   121376276.143                                                  
  22690011.902  
  22492615.266   118199493.504    22492621.699    92103530.3004                 
                
  21343855.430   112162720.130    21343862.180    87399551.9514   21343862.305  
                
  20049943.992   107140814.581                    83331741.736    20049948.160  
  20049944.281  
  23637996.992   124218507.445    23638003.832    96793679.3594   23638004.098  
                
  20874474.680   109696107.078    20874481.504    85477519.2374   20874481.531  
                
  19660015.289   104798939.506                    81510281.915    19660019.559  
  19660015.199  
  23326314.867   122580605.909    23326321.273    95517375.9674   23326321.547  
                
  22308371.641   117231276.947    22308376.234    91349068.0084                 
                
  19793613.227   105845348.874                    82324162.416    19793617.500  
  19793612.434  
  19898694.703   106481928.731                    82819274.062    19898698.285  
  19898692.922  
  20040429.969   105313165.380    20040439.273    82062248.8594   20040439.680  
                
 21  8 14  3 46 10.0000000  0 13G 6R23G20G29R15G 5G12R14G31G 2R24R17
                                G25
  24527437.898   128892537.049    24527447.723   100435774.7334   24527448.152  
                
  22696933.930   121413293.853                                                  
  22696931.988  
  22489722.539   118184292.149    22489728.953    92091685.0864                 
                
  21340617.883   112145706.715    21340624.652    87386294.7604   21340624.770  
                
  20045944.562   107119442.854                    83315119.276    20045948.734  
  20045944.836  
  23631897.867   124186457.335    23631904.859    96768705.2634   23631905.137  
                
  20878164.828   109715498.877    20878171.625    85492629.7164   20878171.648  
                
  19663987.594   104820114.109                    81526751.056    19663991.871  
  19663987.492  
  23323352.781   122565040.053    23323359.172    95505246.7284   23323359.434  
                
  22312628.781   117253648.348    22312633.383    91366500.2624                 
                
  19797277.148   105864941.468                    82339401.090    19797281.406  
  19797276.355  
  19895496.000   106464811.871                    82805960.967    19895499.590  
  19895494.223  
  20040210.078   105312009.852    20040219.375    82061348.4414   20040219.785  
                
 21  8 14  3 46 20.0000000  0 13G 6R23G20G29R15G 5G12R14G31G 2R24R17
                                G25
  24534123.914   128927672.292    24534133.766   100463152.8114   24534134.195  
                
  22703854.969   121450316.473                                                  
  22703853.117  
  22486839.812   118169143.249    22486846.184    92079880.7474                 
                
  21337385.969   112128722.866    21337392.750    87373060.5954   21337392.859  
                
  20041958.312   107098141.518                    83298551.575    20041962.496  
  20041958.578  
  23625802.453   124154426.532    23625809.602    96743746.2154   23625809.871  
                
  20881863.719   109734936.630    20881870.496    85507776.0104   20881870.520  
                
  19667974.148   104841364.645                    81543279.235    19667978.418  
  19667974.035  
  23320401.734   122549532.140    23320408.133    95493162.6224   23320408.383  
                
  22316892.164   117276052.503    22316896.789    91383958.0414                 
                
  19800949.562   105884579.484                    82354675.103    19800953.797  
  19800948.789  
  19892307.688   106447750.573                    82792691.056    19892311.277  
  19892305.906  
  20040000.773   105310909.931    20040010.066    82060491.3584   20040010.484  
                
 21  8 14  3 46 30.0000000  0 13G 6R23G20G29R15G 5G12R14G31G 2R24R17
                                G25
  24540812.375   128962820.378    24540822.223   100490540.9154   24540822.664  
                
  22710776.898   121487343.997                                                  
  22710775.090  
  22483967.047   118154046.810    22483973.395    92068117.2754                 
                
  21334159.672   112111768.581    21334166.449    87359849.4584   21334166.555  
                
  20037985.242   107076910.670                    83282038.704    20037989.430  
  20037985.496  
  23619710.836   124122415.146    23619718.043    96718802.2964   23619718.316  
                
  20885571.352   109754420.336    20885578.105    85522958.1114   20885578.145  
                
  19671974.969   104862691.221                    81559866.552    19671979.242  
  19671974.852  
  23317461.727   122534082.287    23317468.129    95481123.7684   23317468.379  
                
  22321161.758   117298489.347    22321166.426    91401441.2904                 
                
  19804630.469   105904262.907                    82369984.433    19804634.711  
  19804629.695  
  19889129.758   106430744.803                    82779464.340    19889133.344  
  19889127.988  
  20039802.039   105309865.582    20039811.328    82059677.5764   20039811.750  
                
 21  8 14  3 46 40.0000000  0 13G 6R23G20G29R15G 5G12R14G31G 2R24R17
                                G25
  24547503.242   128997981.076    24547513.043   100517938.8494   24547513.488  
                
  22717699.656   121524376.113                                                  
  22717697.875  
  22481104.266   118139002.779    22481110.602    92056394.6604                 
                
  21330938.977   112094843.688    21330945.734    87346661.2334   21330945.852  
                
  20034025.367   107055750.281                    83265580.613    20034029.562  
  20034025.613  
  23613623.016   124090423.185    23613630.195    96693873.4974   23613630.461  
                
  20889287.688   109773949.805    20889294.418    85538175.8744   20889294.461  
                
  19675990.000   104884093.578                    81576512.822    19675994.273  
  19675989.875  
  23314532.750   122518690.347    23314539.195    95469130.0514   23314539.398  
                
  22325437.539   117320958.714    22325442.270    91418949.8704                 
                
  19808319.805   105923991.451                    82385328.856    19808324.043  
  19808319.043  
  19885962.172   106413794.386                    82766280.682    19885965.742  
  19885960.414  
  20039613.875   105308876.744    20039623.152    82058907.0514   20039623.582  
                
 21  8 14  3 46 50.0000000  0 13G 6R23G20G29R15G 5G12R14G31G 2R24R17
                                G25
  24554196.508   129033154.419    24554206.266   100545346.6414   24554206.699  
                
  22724623.297   121561413.005                                                  
  22724621.520  
  22478251.500   118124011.389    22478257.848    92044713.0624                 
                
  21327723.891   112077948.297    21327730.621    87333495.9894   21327730.750  
                
  20030078.742   107034660.733                    83249177.638    20030082.953  
  20030078.977  
  23607538.977   124058450.891    23607546.086    96668960.0134   23607546.336  
                
  20893012.750   109793525.121    20893019.449    85553429.3584   20893019.512  
                
  19680019.242   104905571.697                    81593218.021    19680023.543  
  19680019.105  
  23311614.812   122503356.471    23311621.301    95457181.5704   23311621.449  
                
  22329719.508   117343460.596    22329724.293    91436483.7964                 
                
  19812017.555   105943764.946                    82400708.235    19812021.785  
  19812016.801  
  19882804.953   106396899.520                    82753140.239    19882808.520  
  19882803.191  
  20039436.297   105307943.564    20039445.574    82058179.8984   20039446.016  
                
 21  8 14  3 47  0.0000000  0 13G 6R23G20G29R15G 5G12R14G31G 2R24R17
                                G25
  24560892.180   129068340.360    24560901.863   100572764.2544   24560902.328  
                
  22731547.820   121598454.571                                                  
  22731546.059  
  22475408.766   118109072.733    22475415.180    92033072.5484                 
                
  21324514.469   112061082.690    21324521.172    87320353.9544   21324521.309  
                
  20026145.359   107013641.944                    83232829.681    20026149.574  
  20026145.582  
  23601458.602   124026498.422    23601465.754    96644061.9914   23601465.973  
                
  20896746.547   109813146.318    20896753.215    85568718.5984   20896753.285  
                
  19684062.719   104927125.646                    81609982.194    19684067.012  
  19684062.586  
  23308707.945   122488080.781    23308714.449    95445278.4314   23308714.578  
                
  22334007.664   117365994.968    22334012.492    91454043.0454                 
                
  19815723.688   105963583.316                    82416122.514    19815727.922  
  19815722.938  
  19879658.141   106380060.270                    82740043.036    19879661.703  
  19879656.363  
  20039269.320   105307066.089    20039278.586    82057496.1414   20039279.039  
                
 21  8 14  3 47 10.0000000  0 13G 6R23G20G29R15G 5G12R14G31G 2R24R17
                                G25
  24567590.250   129103538.949    24567599.855   100600191.7214   24567600.355  
                
  22738473.188   121635500.758                                                  
  22738471.445  
  22472576.086   118094186.936    22472582.547    92021473.2284                 
                
  21321310.711   112044246.836    21321317.398    87307235.1174   21321317.555  
                
  20022225.297   106992694.333                    83216537.096    20022229.516  
  20022225.516  
  23595382.055   123994566.027    23595389.203    96619179.6064   23595389.414  
                
  20900489.094   109832813.506    20900495.723    85584043.6734   20900495.820  
                
  19688120.414   104948755.372                    81626805.310    19688124.703  
  19688120.277  
  23305812.188   122472863.456    23305818.680    95433420.7714   23305818.793  
                
  22338302.008   117388561.898    22338306.859    91471627.6564                 
                
  19819438.297   105983446.989                    82431572.038    19819442.539  
  19819437.543  
  19876521.719   106363276.654                    82726989.129    19876525.281  
  19876519.945  
  20039112.977   105306244.478    20039122.238    82056855.9234   20039122.695  
                
 21  8 14  3 47 20.0000000  0 13G 6R23G20G29R15G 5G12R14G31G 2R24R17
                                G25
  24574290.672   129138749.877    24574300.223   100627628.8004   24574300.754  
                
  22745399.406   121672551.466                                                  
  22745397.695  
  22469753.438   118079353.902    22469759.914    92009915.0194                 
                
  21318112.570   112027440.492    21318119.254    87294139.2554   21318119.402  
                
  20018318.523   106971817.751                    83200299.756    20018322.750  
  20018318.738  
  23589309.406   123962653.681    23589316.477    96594312.8484   23589316.668  
                
  20904240.328   109852526.329    20904246.918    85599404.3124   20904247.051  
                
  19692192.289   104970460.743                    81643687.267    19692196.578  
  19692192.148  
  23302927.500   122457704.323    23302933.980    95421608.4624   23302934.102  
                
  22342602.508   117411161.120    22342607.375    91489237.4314                 
                
  19823161.258   106003355.325                    82447056.292    19823165.492  
  19823160.496  
  19873395.664   106346548.516                    82713978.352    19873399.238  
  19873393.887  
  20038967.227   105305478.553    20038976.484    82056259.1004   20038976.949  
                
 21  8 14  3 47 30.0000000  0 13G 6R23G20G29R15G 5G12R14G31G 2R24R17
                                G25
  24580993.414   129173973.020    24581002.957   100655075.3934   24581003.480  
                
  22752326.430   121709606.377                                                  
  22752324.734  
  22466940.875   118064573.736    22466947.328    91998397.9994                 
                
  21314920.062   112010663.714    21314926.746    87281066.4444   21314926.879  
                
  20014425.062   106951012.266                    83184117.703    20014429.297  
  20014425.273  
  23583240.648   123930761.460    23583247.586    96569461.7614   23583247.762  
                
  20908000.250   109872284.861    20908006.805    85614800.5594   20908006.957  
                
  19696278.320   104992241.495                    81660627.833    19696282.609  
  19696278.180  
  23300053.906   122442603.476    23300060.355    95409841.5514   23300060.500  
                
  22346909.109   117433792.481    22346913.969    91506872.2474                 
                
  19826892.555   106023308.228                    82462575.214    19826896.773  
  19826891.785  
  19870279.969   106329875.808                    82701010.694    19870283.543  
  19870278.219  
  20038832.078   105304768.307    20038841.336    82055705.6544   20038841.809  
                
 21  8 14  3 47 40.0000000  0 13G 6R23G20G29R15G 5G12R14G31G 2R24R17
                                G25
  24587698.492   129209208.362    24587708.062   100682531.5034   24587708.570  
                
  22759254.258   121746665.652                                                  
  22759252.543  
  22464138.383   118049846.589    22464144.809    91986922.3014                 
                
  21311733.195   111993916.624    21311739.887    87268016.7664   21311740.020  
                
  20010544.945   106930278.119                    83167991.150    20010549.199  
  20010545.133  
  23577175.578   123898889.438    23577182.547    96544626.4174   23577182.719  
                
  20911768.883   109892089.152    20911775.414    85630232.4694   20911775.594  
                
  19700378.492   105014097.696                    81677627.095    19700382.770  
  19700378.359  
  23297191.406   122427560.972    23297197.832    95398120.1314   23297198.020  
                
  22351221.828   117456455.956    22351226.660    91524532.0904                 
                
  19830632.219   106043305.902                    82478128.956    19830636.438  
  19830631.430  
  19867174.664   106313258.638                    82688086.221    19867178.223  
  19867172.914  
  20038707.539   105304113.856    20038716.801    82055195.6894   20038717.270  
                
 21  8 14  3 47 50.0000000  0 13G 6R23G20G29R15G 5G12R14G31G 2R24R17
                                G25
  24594405.898   129244455.982    24594415.547   100709997.1554   24594416.027  
                
  22766182.867   121783729.184                                                  
  22766181.113  
  22461346.031   118035172.661    22461352.484    91975488.0804                 
                
  21308552.000   111977199.309    21308558.699    87254990.2894   21308558.832  
                
  20006678.211   106909615.436                    83151920.165    20006682.465  
  20006678.391  
  23571114.375   123867038.120    23571121.438    96519807.2144   23571121.598  
                
  20915546.250   109911939.324    20915552.770    85645700.1214   20915552.961  
                
  19704492.820   105036029.333                    81694685.026    19704497.102  
  19704492.695  
  23294340.070   122412577.063    23294346.469    95386444.3384   23294346.688  
                
  22355540.695   117479151.704    22355545.496    91542217.0784                 
                
  19834380.203   106063348.064                    82493717.298    19834384.418  
  19834379.422  
  19864079.734   106296697.042                    82675204.984    19864083.285  
  19864077.992  
  20038593.648   105303515.361    20038602.922    82054729.3244   20038603.387  
                
 21  8 14  3 48  0.0000000  0 13G 6R23G20G29R15G 5G12R14G31G 2R24R17
                                G25
  24601115.602   129279715.645    24601125.344   100737472.1914   24601125.789  
                
  22773112.266   121820796.841                                                  
  22773110.492  
  22458563.789   118020551.891    22458570.285    91964095.2624                 
                
  21305376.453   111960511.683    21305383.156    87241986.9454   21305383.277  
                
  20002824.875   106889024.396                    83135904.910    20002829.148  
  20002825.043  
  23565057.156   123835207.240    23565064.219    96495003.9394   23565064.379  
                
  20919332.305   109931835.144    20919338.832    85661203.3524   20919339.004  
                
  19708621.297   105058036.385                    81711801.618    19708625.562  
  19708621.176  
  23291499.875   122397651.652    23291506.250    95374814.1554   23291506.500  
                
  22359865.641   117501879.408    22359870.414    91559926.9864                 
                
  19838136.492   106083434.585                    82509340.148    19838140.711  
  19838135.711  
  19860995.188   106280191.019                    82662366.973    19860998.738  
  19860993.453  
  20038490.391   105302972.712    20038499.680    82054306.4794   20038500.133  
                
 21  8 14  3 48 10.0000000  0 13G 6R23G20G29R15G 5G12R14G31G 2R24R17
                                G25
  24607827.562   129314987.232    24607837.379   100764956.5054   24607837.816  
                
  22780042.383   121857868.527                                                  
  22780040.574  
  22455791.648   118005984.253    22455798.160    91952743.8514                 
                
  21302206.531   111943853.640    21302213.230    87229006.6494   21302213.348  
                
  19998984.930   106868504.886                    83119945.298    19998989.199  
  19998985.098  
  23559003.781   123803396.911    23559010.945    96470216.6794   23559011.094  
                
  20923127.031   109951776.575    20923133.559    85676742.1214   20923133.734  
                
  19712763.852   105080118.495                    81728976.587    19712768.098  
  19712763.746  
  23288670.805   122382784.750    23288677.160    95363229.5494   23288677.434  
                
  22364196.641   117524638.980    22364201.383    91577661.7064                 
                
  19841901.031   106103565.257                    82524997.342    19841905.242  
  19841900.258  
  19857921.016   106263740.488                    82649572.113    19857924.562  
  19857919.285  
  20038397.758   105302485.895    20038407.066    82053927.1404   20038407.504  
                
 21  8 14  3 48 20.0000000  0 13G 6R23G20G29R15G 5G12R14G31G 2R24R17
                                G25
  24614541.750   129350270.696    24614551.664   100792450.0664   24614552.086  
                
  22786973.266   121894944.151                                                  
  22786971.488  
  22453029.641   117991469.828    22453036.168    91941433.9194                 
                
  21299042.258   111927225.278    21299048.949    87216049.4794   21299049.066  
                
  19995158.445   106848057.307                    83104041.625    19995162.715  
  19995158.602  
  23552954.375   123771607.373    23552961.648    96445445.6284   23552961.789  
                
  20926930.438   109971763.618    20926936.965    85692316.4294   20926937.148  
                
  19716920.508   105102275.800                    81746210.029    19716924.734  
  19716920.402  
  23285852.875   122367976.478    23285859.262    95351690.6344   23285859.547  
                
  22368533.711   117547430.418    22368538.434    91595421.2574                 
                
  19845673.812   106123740.039                    82540688.826    19845678.012  
  19845673.020  
  19854857.219   106247345.524                    82636820.471    19854860.766  
  19854855.488  
  20038315.750   105302054.959    20038325.078    82053591.3364   20038325.492  
                
 21  8 14  3 48 30.0000000  0 13G 6R23G20G29R15G 5G12R14G31G 2R24R17
                                G25
  24621258.188   129385566.091    24621268.188   100819952.9204   24621268.602  
                
  22793904.898   121932023.730                                                  
  22793903.168  
  22450277.812   117977008.908    22450284.391    91930165.6704                 
                
  21295883.633   111910626.619    21295890.336    87203115.4614   21295890.453  
                
  19991345.430   106827681.754                    83088193.965    19991349.695  
  19991345.586  
  23546908.977   123739838.798    23546916.316    96420690.9034   23546916.457  
                
  20930742.539   109991796.362    20930749.078    85707926.3574   20930749.266  
                
  19721091.281   105124508.348                    81763502.008    19721095.500  
  19721091.160  
  23283046.141   122353226.969    23283052.602    95340197.5084   23283052.871  
                
  22372876.836   117570253.679    22372881.547    91613205.6124                 
                
  19849454.891   106143959.185                    82556414.829    19849459.086  
  19849454.082  
  19851803.836   106231006.232                    82624112.133    19851807.391  
  19851802.098  
  20038244.414   105301680.111    20038253.762    82053299.2514   20038254.160  
                
 21  8 14  3 48 40.0000000  0 13G 6R23G20G29R15G 5G12R14G31G 2R24R17
                                G25
  24627976.906   129420873.214    24627986.922   100847464.9514   24627987.344  
                
  22800837.250   121969107.166                                                  
  22800835.500  
  22447536.172   117962601.467    22447542.828    91918939.0994                 
                
  21292730.641   111894057.514    21292737.363    87190204.4734   21292737.465  
                
  19987545.922   106807378.281                    83072402.374    19987550.176  
  19987546.074  
  23540867.633   123708091.225    23540874.988    96395952.5444   23540875.125  
                
  20934563.344   110011874.749    20934569.902    85723571.8464   20934570.082  
                
  19725276.148   105146815.947                    81780852.357    19725280.348  
  19725276.020  
  23280250.570   122338536.133    23280257.086    95328750.0944   23280257.328  
                
  22377226.008   117593108.652    22377230.719    91631014.6834                 
                
  19853244.203   106164222.312                    82572175.033    19853248.395  
  19853243.371  
  19848760.812   106214722.396                    82611446.936    19848764.387  
  19848759.074  
  20038183.742   105301361.239    20038193.109    82053050.7764   20038193.496  
                
 21  8 14  3 48 50.0000000  0 13G 6R23G20G29R15G 5G12R14G31G 2R24R17
                                G25
  24634697.812   129456191.712    24634707.820   100874985.8384   24634708.254  
                
  22807770.281   122006194.109                                                  
  22807768.566  
  22444804.664   117948247.323    22444811.398    91907754.0474                 
                
  21289583.266   111877517.956    21289590.012    87177316.5034   21289590.078  
                
  19983759.867   106787146.760                    83056666.738    19983764.109  
  19983760.031  
  23534830.258   123676364.565    23534837.641    96371230.4754   23534837.785  
                
  20938392.758   110031998.490    20938399.324    85739252.6694   20938399.512  
                
  19729475.016   105169198.241                    81798260.794    19729479.203  
  19729474.883  
  23277466.141   122323903.824    23277472.711    95317348.3034   23277472.945  
                
  22381581.133   117615995.019    22381585.848    91648848.2044                 
                
  19857041.656   106184529.017                    82587969.129    19857045.863  
  19857040.797  
  19845728.125   106198493.910                    82598824.791    19845731.707  
  19845726.379  
  20038133.680   105301098.156    20038143.062    82052845.7714   20038143.453  
                
 21  8 14  3 49  0.0000000  0 13G 6R23G20G29R15G 5G12R14G31G 2R24R17
                                G25
  24641420.898   129491521.709    24641430.895   100902515.6994   24641431.340  
                
  22814704.000   122043284.686                                                  
  22814702.309  
  22442083.344   117933946.748    22442090.125    91896610.7554                 
                
  21286441.531   111861008.043    21286448.293    87164451.6434   21286448.336  
                
  19979987.320   106766987.403                    83040987.226    19979991.559  
  19979987.500  
  23528796.953   123644659.101    23528804.312    96346524.9204   23528804.457  
                
  20942230.828   110052167.684    20942237.414    85754968.9194   20942237.613  
                
  19733687.914   105191655.364                    81815727.438    19733692.086  
  19733687.777  
  23274692.883   122309330.259    23274699.457    95305992.2594   23274699.676  
                
  22385942.258   117638912.887    22385946.969    91666706.2774                 
                
  19860847.289   106204879.464                    82603797.254    19860851.508  
  19860846.418  
  19842705.805   106182320.882                    82586245.758    19842709.398  
  19842704.055  
  20038094.266   105300891.038    20038103.660    82052684.3794   20038104.035  
                
 21  8 14  3 49 10.0000000  0 13G 6R23G20G29R15G 5G12R14G31G 2R24R17
                                G25
  24648146.188   129526863.239    24648156.172   100930054.5384   24648156.625  
                
  22821638.406   122080378.896                                                  
  22821636.691  
  22439372.266   117919699.987    22439379.102    91885509.3784                 
                
  21283305.477   111844527.954    21283312.227    87151610.0094   21283312.273  
                
  19976228.344   106746900.565                    83025364.142    19976232.586  
  19976228.512  
  23522767.656   123612975.128    23522775.031    96321836.1114   23522775.180  
                
  20946077.586   110072382.494    20946084.203    85770720.7124   20946084.391  
                
  19737914.867   105214187.337                    81833252.308    19737919.035  
  19737914.719  
  23271930.852   122294815.641    23271937.434    95294682.1744   23271937.648  
                
  22390309.391   117661862.297    22390314.105    91684588.9234                 
                
  19864661.117   106225273.719                    82619659.453    19864665.348  
  19864660.230  
  19839693.891   106166203.509                    82573710.025    19839697.473  
  19839692.129  
  20038065.539   105300740.068    20038074.938    82052566.7354   20038075.312  
                
 21  8 14  3 49 20.0000000  0 13G 6R23G20G29R15G 5G12R14G31G 2R24R17
                                G25
  24654873.680   129562216.293    24654883.652   100957602.3604   24654884.121  
                
  22828573.469   122117476.714                                                  
  22828571.684  
  22436671.430   117905507.086    22436678.332    91874449.9864                 
                
  21280175.102   111828077.737    21280181.832    87138791.6584   21280181.879  
                
  19972482.977   106726886.448                    83009797.603    19972487.215  
  19972483.137  
  23516742.477   123581312.759    23516749.883    96297164.1554   23516750.020  
                
  20949933.023   110092642.919    20949939.668    85786508.0414   20949939.852  
                
  19742155.883   105236794.286                    81850835.490    19742160.062  
  19742155.742  
  23269180.047   122280360.079    23269186.637    95283418.1044   23269186.848  
                
  22394682.508   117684843.194    22394687.223    91702496.1074                 
                
  19868483.156   106245711.829                    82635555.756    19868487.379  
  19868482.254  
  19836692.383   106150141.829                    82561217.610    19836695.977  
  19836690.602  
  20038047.508   105300645.310    20038056.906    82052492.8974   20038057.281  
                
 21  8 14  3 49 30.0000000  0 13G 6R23G20G29R15G 5G12R14G31G 2R24R17
                                G25
  24661603.289   129597580.540    24661613.273   100985158.8954   24661613.742  
                
  22835509.180   122154577.931                                                  
  22835507.375  
  22433980.828   117891367.907    22433987.750    91863432.4374                 
                
  21277050.383   111811657.248    21277057.102    87125996.4774   21277057.160  
                
  19968751.188   106706944.910                    82994287.511    19968755.438  
  19968751.355  
  23510721.414   123549671.992    23510728.828    96272509.0184   23510728.965  
                
  20953797.094   110112948.677    20953803.766    85802330.7024   20953803.953  
                
  19746410.883   105259475.778                    81868476.635    19746415.047  
  19746410.742  
  23266440.445   122265963.392    23266447.035    95272199.9014   23266447.289  
                
  22399061.578   117707855.323    22399066.281    91720427.6294                 
                
  19872313.250   106266193.066                    82651485.590    19872317.469  
  19872312.348  
  19833701.242   106134135.592                    82548768.302    19833704.828  
  19833699.457  
  20038040.141   105300606.573    20038049.527    82052462.7064   20038049.910  
                
 21  8 14  3 49 40.0000000  0 13G 6R23G20G29R15G 5G12R14G31G 2R24R17
                                G25
  24668335.023   129632955.997    24668345.062   101012724.1564   24668345.531  
                
  22842445.531   122191682.369                                                  
  22842443.707  
  22431300.484   117877282.622    22431307.375    91852456.8824                 
                
  21273931.336   111795266.541    21273938.059    87113224.4964   21273938.121  
                
  19965033.008   106687076.061                    82978833.961    19965037.250  
  19965033.188  
  23504704.547   123518053.092    23504711.914    96247870.9084   23504712.066  
                
  20957669.797   110133299.847    20957676.496    85818188.7444   20957676.684  
                
  19750679.836   105282231.707                    81886175.680    19750683.988  
  19750679.695  
  23263712.078   122251625.701    23263718.668    95261027.6744   23263718.910  
                
  22403446.586   117730898.691    22403451.297    91738383.4934                 
                
  19876151.500   106286717.918                    82667449.364    19876155.723  
  19876150.613  
  19830720.477   106118184.884                    82536362.206    19830724.062  
  19830718.711  
  20038043.453   105300623.977    20038052.832    82052476.2634   20038053.227  
                
 21  8 14  3 49 50.0000000  0 13G 6R23G20G29R15G 5G12R14G31G 2R24R17
                                G25
  24675068.867   129668342.531    24675078.961   101040298.0454   24675079.441  
                
  22849382.500   122228790.064                                                  
  22849380.703  
  22428630.414   117863251.356    22428637.258    91841523.4304                 
                
  21270817.961   111778905.626    21270824.703    87100475.7334   21270824.758  
                
  19961328.469   106667280.088                    82963437.089    19961332.703  
  19961328.656  
  23498691.797   123486456.020    23498699.176    96223249.8124   23498699.344  
                
  20961551.109   110153696.259    20961557.824    85834082.0424   20961558.000  
                
  19754962.773   105305062.141                    81903932.681    19754966.926  
  19754962.605  
  23260994.961   122237347.103    23261001.543    95249901.4924   23261001.781  
                
  22407837.523   117753973.223    22407842.250    91756363.6454                 
                
  19879997.852   106307286.028                    82683446.780    19880002.074  
  19879996.977  
  19827750.070   106102289.626                    82523999.236    19827753.664  
  19827748.309  
  20038057.453   105300697.508    20038066.824    82052533.5624   20038067.227  
                
 21  8 14  3 50  0.0000000  0 13G 6R23G20G29R15G 5G12R14G31G 2R24R17
                                G25
  24681804.797   129703740.133    24681814.965   101067880.5574   24681815.445  
                
  22856320.094   122265901.011                                                  
  22856318.332  
  22425970.625   117849274.109    22425977.430    91830632.0724                 
                
  21267710.250   111762574.538    21267717.023    87087750.2144   21267717.074  
                
  19957637.578   106647557.082                    82948096.966    19957641.797  
  19957637.773  
  23492683.172   123454880.786    23492690.648    96198645.7584   23492690.809  
                
  20965441.047   110174138.006    20965447.777    85850010.6714   20965447.953  
                
  19759259.672   105327967.026                    81921747.581    19759263.824  
  19759259.488  
  23258289.094   122223127.655    23258295.652    95238821.3864   23258295.895  
                
  22412234.383   117777078.851    22412239.125    91774368.0164                 
                
  19883852.250   106327897.224                    82699477.699    19883856.473  
  19883851.395  
  19824790.055   106086450.015                    82511679.538    19824793.660  
  19824788.285  
  20038082.141   105300827.245    20038091.496    82052634.6514   20038091.910  
                
 21  8 14  3 50 10.0000000  0 13G 6R23G20G29R15G 5G12R14G31G 2R24R17
                                G25
  24688542.805   129739148.634    24688553.020   101095471.5654   24688553.504  
                
  22863258.242   122303015.038                                                  
  22863256.539  
  22423321.102   117835350.906    22423327.883    91819782.8274                 
                
  21264608.195   111746273.140    21264614.992    87075047.8244   21264615.035  
                
  19953960.359   106627907.146                    82932813.678    19953964.555  
  19953960.574  
  23486678.805   123423327.619    23486686.324    96174058.8994   23486686.465  
                
  20969339.625   110194625.136    20969346.379    85865974.6554   20969346.539  
                
  19763570.516   105350946.250                    81939620.294    19763574.672  
  19763570.309  
  23255594.469   122208967.298    23255600.992    95227787.3434   23255601.242  
                
  22416637.117   117800215.394    22416641.879    91792396.4834                 
                
  19887714.703   106348551.495                    82715542.128    19887718.934  
  19887713.863  
  19821840.391   106070665.799                    82499402.930    19821844.012  
  19821838.605  
  20038117.523   105301013.157    20038126.867    82052779.5144   20038127.293  
                
 21  8 14  3 50 20.0000000  0 13G 6R23G20G29R15G 5G12R14G31G 2R24R17
                                G25
  24695283.055   129774568.785    24695293.293   101123071.6574   24695293.793  
                
  22870197.078   122340132.823                                                  
  22870195.418  
  22420682.055   117821482.639    22420688.848    91808976.3934                 
                
  21261511.953   111730002.261    21261518.766    87062369.2254   21261518.801  
                
  19950297.023   106608331.304                    82917588.040    19950301.223  
  19950297.242  
  23480678.820   123391797.461    23480686.395    96149489.9444   23480686.504  
                
  20973246.984   110215158.419    20973253.762    85881974.6104   20973253.906  
                
  19767895.430   105374000.440                    81957551.330    19767899.590  
  19767895.207  
  23252911.273   122194866.923    23252917.719    95216800.0294   23252918.008  
                
  22421045.891   117823383.664    22421050.660    91810449.6754                 
                
  19891585.352   106369249.590                    82731640.646    19891589.590  
  19891584.523  
  19818901.266   106054937.921                    82487170.134    19818904.879  
  19818899.496  
  20038163.758   105301256.083    20038173.102    82052968.8034   20038173.527  
                
 21  8 14  3 50 30.0000000  0 13G 6R23G20G29R15G 5G12R14G31G 2R24R17
                                G25
  24702025.117   129809998.540    24702035.379   101150679.2234   24702035.875  
                
  22877136.227   122377252.357                                                  
  22877134.559  
  22418053.102   117807667.439    22418059.898    91798211.2944                 
                
  21258421.156   111713760.011    21258427.977    87049712.9204   21258428.023  
                
  19946647.195   106588827.717                    82902418.570    19946651.383  
  19946647.426  
  23474682.961   123360288.545    23474690.512    96124937.5424   23474690.602  
                
  20977162.742   110235735.841    20977169.555    85898008.9574   20977169.668  
                
  19772234.055   105397127.767                    81975539.242    19772238.238  
  19772233.832  
  23250239.117   122180824.680    23250245.465    95205858.0144   23250245.805  
                
  22425460.305   117846581.614    22425465.066    91828525.9924                 
                
  19895463.758   106389989.176                    82747771.423    19895467.984  
  19895462.949  
  19815972.312   106039264.508                    82474979.689    19815975.910  
  19815970.551  
  20038220.477   105301554.118    20038229.820    82053201.0364   20038230.254  
                
 21  8 14  3 50 40.0000000  0 13G 6R23G20G29R15G 5G12R14G31G 2R24R17
                                G25
  24708769.305   129845439.375    24708779.570   101178295.4414   24708780.066  
                
  22884076.023   122414375.162                                                  
  22884074.324  
  22415434.555   117793906.940    22415441.344    91787488.8284                 
                
  21255336.094   111697547.908    21255342.922    87037080.1134   21255342.961  
                
  19943011.156   106569397.842                    82887306.446    19943015.344  
  19943011.398  
  23468691.461   123328802.461    23468698.973    96100402.9404   23468699.055  
                
  20981087.195   110256358.920    20981094.043    85914078.8834   20981094.141  
                
  19776586.641   105420329.511                    81993585.032    19776590.828  
  19776586.414  
  23247578.320   122166842.132    23247584.602    95194962.5194   23247584.965  
                
  22429880.648   117869810.673    22429885.402    91846626.5554                 
                
  19899350.289   106410772.145                    82763935.951    19899354.520  
  19899349.500  
  19813053.805   106023646.937                    82462832.691    19813057.395  
  19813052.051  
  20038287.977   105301908.836    20038297.328    82053477.4354   20038297.754  
                
 21  8 14  3 50 50.0000000  0 13G 6R23G20G29R15G 5G12R14G31G 2R24R17
                                G25
  24715515.531   129880890.904    24715525.789   101205920.0004   24715526.285  
                
  22891016.359   122451500.841                                                  
  22891014.672  
  22412826.383   117780200.913    22412833.148    91776808.8144                 
                
  21252256.719   111681365.699    21252263.547    87024470.6054   21252263.578  
                
  19939388.930   106550041.715                    82872251.670    19939393.102  
  19939389.184  
  23462704.211   123297339.055    23462711.719    96075886.0144   23462711.809  
                
  20985020.266   110277027.304    20985027.141    85930184.1084   20985027.219  
                
  19780953.148   105443605.433                    82011688.525    19780957.348  
  19780952.914  
  23244928.859   122152919.094    23244935.105    95184113.3724   23244935.477  
                
  22434306.844   117893070.483    22434311.562    91864751.0774                 
                
  19903244.805   106431597.858                    82780133.733    19903249.020  
  19903244.039  
  19810145.680   106008084.947                    82450728.934    19810149.277  
  19810143.938  
  20038366.211   105302319.945    20038375.574    82053797.7754   20038375.992  
                
 21  8 14  3 51  0.0000000  0 14G 6R23G20G29R15G 5G12R14G31G 2R24R18
                                R17G25
  24722263.828   129916353.308    24722274.066   101233553.0444   24722274.551  
                
  22897957.281   122488629.538                                                  
  22897955.598  
  22410228.648   117766549.735    22410235.410    91766171.5434                 
                
  21249183.086   111665213.646    21249189.918    87011884.5914   21249189.945  
                
  19935780.570   106530759.688                    82857254.543    19935784.734  
  19935780.836  
  23456721.367   123265898.796    23456728.844    96051387.1134   23456728.941  
                
  20988962.008   110297741.253    20988968.895    85946324.8364   20988968.953  
                
  19785333.602   105466955.695                    82029849.829    19785337.805  
  19785333.355  
  23242290.758   122139055.815    23242296.977    95173310.8114   23242297.355  
                
  22438738.938   117916361.294    22438743.621    91882899.7544                 
                
  19907147.375   106452466.554                    82796364.939    19907151.578  
  19907146.609  
  23506631.047   125479986.018                    97595544.531    23506635.312  
  23506629.836  
  19807248.023   105992578.993                    82438668.746    19807251.625  
  19807246.281  
  20038455.234   105302787.764    20038464.609    82054162.3094   20038465.023  
                
 21  8 14  3 51 10.0000000  0 14G 6R23G20G29R15G 5G12R14G31G 2R24R18
                                R17G25
  24729014.266   129951826.971    24729024.516   101261194.8544   24729024.977  
                
  22904898.828   122525761.765                                                  
  22904897.141  
  22407641.445   117752953.916    22407648.211    91755577.3994                 
                
  21246115.273   111649092.207    21246122.121    86999322.4354   21246122.148  
                
  19932186.164   106511552.273                    82842315.447    19932190.324  
  19932186.441  
  23450743.016   123234482.104    23450750.426    96026906.5944   23450750.527  
                
  20992912.492   110318501.132    20992919.387    85962501.3664   20992919.438  
                
  19789728.055   105490380.555                    82048069.161    19789732.281  
  19789727.828  
  23239664.125   122125252.783    23239670.297    95162555.2064   23239670.707  
                
  22443177.000   117939683.452    22443181.637    91901072.8604                 
                
  19911058.047   106473378.608                    82812629.876    19911062.230  
  19911057.285  
  23499957.047   125444358.165                    97567833.992    23499961.074  
  23499955.559  
  19804360.883   105977129.350                    82426652.359    19804364.484  
  19804359.141  
  20038555.141   105303312.741    20038564.527    82054571.3824   20038564.938  
                
 21  8 14  3 51 20.0000000  0 14G 6R23G20G29R15G 5G12R14G31G 2R24R18
                                R17G25
  24735766.469   129987309.925    24735776.758   101288843.8984   24735777.195  
                
  22911840.672   122562895.485                                                  
  22911838.984  
  22405064.430   117739411.645    22405071.164    91745024.9824                 
                
  21243052.906   111632999.335    21243059.766    86986782.5334   21243059.793  
                
  19928605.367   106492417.591                    82827432.910    19928609.520  
  19928605.637  
  23444768.828   123203087.272    23444776.133    96002443.1034   23444776.273  
                
  20996871.352   110339305.049    20996878.238    85978712.1984   20996878.293  
                
  19794136.141   105513878.122                    82066345.047    19794140.379  
  19794135.922  
  23237048.609   122111508.198    23237054.758    95151845.1324   23237055.176  
                
  22447620.648   117963034.953    22447625.250    91919268.8284                 
                
  19914976.406   106494331.837                    82828926.826    19914980.602  
  19914975.633  
  23493287.016   125408752.568                    97540140.719    23493290.961  
  23493285.449  
  19801483.922   105961734.091                    82414678.263    19801487.520  
  19801482.180  
  20038665.570   105303893.050    20038674.965    82055023.5684   20038675.355  
                
 21  8 14  3 51 30.0000000  0 14G 6R23G20G29R15G 5G12R14G31G 2R24R18
                                R17G25
  24742520.609   130022803.046    24742530.957   101316500.8444   24742531.375  
                
  22918782.930   122600031.502                                                  
  22918781.246  
  22402497.812   117725923.959    22402504.512    91734515.0964                 
                
  21239996.195   111616936.216    21240003.070    86974265.8134   21240003.086  
                
  19925038.438   106473356.970                    82812607.985    19925042.578  
  19925038.699  
  23438799.031   123171715.404    23438806.227    95977997.4844   23438806.398  
                
  21000838.773   110360153.964    21000845.656    85994958.0914   21000845.711  
                
  19798558.031   105537449.252                    82084678.128    19798562.254  
  19798557.812  
  23234444.406   122097823.059    23234450.531    95141181.3824   23234450.977  
                
  22452070.062   117986416.754    22452074.621    91937488.4074                 
                
  19918902.688   106515327.375                    82845256.672    19918906.887  
  19918901.914  
  23486621.289   125373170.349                    97512465.651    23486625.227  
  23486619.684  
  19798617.305   105946394.184                    82402747.230    19798620.887  
  19798615.559  
  20038786.727   105304529.679    20038796.117    82055519.6334   20038796.512  
                
 21  8 14  3 51 40.0000000  0 14G 6R23G20G29R15G 5G12R14G31G 2R24R18
                                R17G25
  24749276.641   130058306.200    24749287.039   101344165.6044   24749287.430  
                
  22925725.562   122637169.704                                                  
  22925723.914  
  22399941.562   117712490.766    22399948.250    91724047.6734                 
                
  21236945.148   111600902.875    21236952.039    86961772.3074   21236952.047  
                
  19921485.336   106454370.277                    82797840.553    19921489.457  
  19921485.586  
  23432833.625   123140366.621    23432840.719    95953569.8564   23432840.930  
                
  21004814.773   110381047.939    21004821.660    86011239.1074   21004821.707  
                
  19802993.703   105561093.825                    82103068.352    19802997.934  
  19802993.496  
  23231851.508   122084197.282    23231857.633    95130563.8864   23231858.078  
                
  22456525.203   118009828.675    22456529.730    91955731.4594                 
                
  19922836.789   106536364.803                    82861619.113    19922841.004  
  19922836.023  
  23479959.945   125337611.367                    97484808.648    23479963.816  
  23479958.309  
  19795761.023   105931109.684                    82390859.278    19795764.613  
  19795759.293  
  20038918.578   105305222.554    20038927.965    82056059.5344   20038928.363  
                
 21  8 14  3 51 50.0000000  0 14G 6R23G20G29R15G 5G12R14G31G 2R24R18
                                R17G25
  24756034.594   130093819.531    24756045.035   101371838.3074   24756045.414  
                
  22932668.648   122674310.334                                                  
  22932666.984  
  22397395.766   117699112.536    22397402.488    91713623.0824                 
                
  21233899.820   111584899.585    21233906.715    86949302.2044   21233906.711  
                
  19917946.148   106435457.905                    82783130.933    19917950.266  
  19917946.406  
  23426872.586   123109041.215    23426879.648    95929160.4464   23426879.855  
                
  21008799.352   110401986.999    21008806.246    86027555.2544   21008806.289  
                
  19807443.188   105584812.028                    82121515.837    19807447.422  
  19807442.984  
  23229269.969   122070631.255    23229276.098    95119992.9614   23229276.555  
                
  22460986.117   118033270.911    22460990.598    91973998.1324                 
                
  19926778.789   106557444.430                    82878014.380    19926783.000  
  19926778.004  
  23473303.039   125302076.066                    97457170.048    23473306.828  
  23473301.340  
  19792915.141   105915880.841                    82379014.628    19792918.734  
  19792913.418  
  20039061.188   105305972.003    20039070.562    82056643.5144   20039070.965  
                
 21  8 14  3 52  0.0000000  0 14G 6R23G20G29R15G 5G12R14G31G 2R24R18
                                R17G25
  24762794.508   130129343.074    24762804.965   101399518.9494   24762805.359  
                
  22939612.195   122711453.480                                                  
  22939610.551  
  22394860.445   117685789.358    22394867.203    91703241.3934                 
                
  21230860.219   111568926.392    21230867.102    86936855.5664   21230867.102  
                
  19914420.938   106416620.205                    82768479.388    19914425.047  
  19914421.188  
  23420916.008   123077739.475    23420923.086    95904769.4944   23420923.312  
                
  21012792.523   110422971.242    21012799.414    86043906.6034   21012799.449  
                
  19811906.484   105608603.824                    82140020.553    19811910.715  
  19811906.289  
  23226699.852   122057125.203    23226705.988    95109468.7544   23226706.457  
                
  22465452.805   118056743.474    22465457.246    91992288.4344                 
                
  19930728.664   106578566.181                    82894442.393    19930732.883  
  19930727.879  
  23466650.398   125266564.408                    97429549.869    23466654.285  
  23466648.789  
  19790079.664   105900707.628                    82367213.244    19790083.254  
  19790077.926  
  20039214.586   105306778.098    20039223.953    82057271.6354   20039224.355  
                
 21  8 14  3 52 10.0000000  0 14G 6R23G20G29R15G 5G12R14G31G 2R24R18
                                R17G25
  24769556.312   130164876.557    24769566.766   101427207.3554   24769567.164  
                
  22946556.133   122748598.705                                                  
  22946554.477  
  22392335.586   117672521.142    22392342.324    91692902.5284                 
                
  21227826.305   111552983.124    21227833.172    86924432.2404   21227833.211  
                
  19910909.633   106397856.871                    82753885.687    19910913.723  
  19910909.875  
  23414963.945   123046461.351    23414971.051    95880396.9394   23414971.258  
                
  21016794.250   110444000.434    21016801.133    86060292.9834   21016801.160  
                
  19816383.562   105632469.122                    82158582.440    19816387.785  
  19816383.375  
  23224141.094   122043678.891    23224147.258    95098991.0914   23224147.691  
                
  22469925.211   118080246.114    22469929.633    92010602.1784                 
                
  19934686.383   106599729.857                    82910903.026    19934690.613  
  19934685.609  
  23460002.367   125231076.331                    97401948.036    23460006.199  
  23460000.688  
  19787254.562   105885589.985                    82355455.080    19787258.168  
  19787252.793  
  20039378.742   105307640.740    20039388.098    82057943.8194   20039388.516  
                
 21  8 14  3 52 20.0000000  0 13R23G20G29R15G 5G12R14G31G 2R24R18R17
                                G25
  22953500.602   122785746.692                                                  
  22953498.957  
  22389821.320   117659308.581    22389828.031    91682607.0134                 
                
  21224798.203   111537070.315    21224805.055    86912032.6484   21224805.105  
                
  19907412.430   106379168.858                    82739350.561    19907416.504  
  19907412.688  
  23409016.484   123015207.479    23409023.633    95856043.2764   23409023.816  
                
  21020804.648   110465075.166    21020811.531    86076714.8434   21020811.551  
                
  19820874.484   105656408.219                    82177201.733    19820878.711  
  19820874.305  
  23221593.836   122030292.953    23221600.023    95088560.5014   23221600.473  
                
  22474403.453   118103779.346    22474407.875    92028939.7574                 
                
  19938652.008   106620935.826                    82927396.550    19938656.238  
  19938651.250  
  23453358.914   125195612.614                    97374365.108    23453362.629  
  23453357.145  
  19784439.945   105870528.399                    82343740.509    19784443.539  
  19784438.164  
  20039553.773   105308560.514    20039563.129    82058660.5264   20039563.543  
                
 21  8 14  3 52 30.0000000  0 13R23G20G29R15G 5G12R14G31G 2R24R18R17
                                G25
  22960445.406   122822896.334                                                  
  22960443.738  
  22387317.461   117646150.725    22387324.191    91672354.1564                 
                
  21221775.711   111521187.031    21221782.551    86899656.0624   21221782.613  
                
  19903929.141   106360555.202                    82724873.278    19903933.199  
  19903929.406  
  23403073.461   122983977.141    23403080.688    95831707.9564   23403080.852  
                
  21024823.531   110486194.505    21024830.410    86093171.4624   21024830.422  
                
  19825379.094   105680420.255                    82195877.748    19825383.324  
  19825378.922  
  23219057.906   122016966.561    23219064.125    95078176.2874   23219064.555  
                
  22478887.312   118127342.141    22478891.750    92047300.3744                 
                
  19942625.383   106642183.194                    82943922.279    19942629.617  
  19942624.641  
  23446719.805   125160172.220                    97346800.374    23446723.488  
  23446717.973  
  19781635.656   105855522.097                    82332068.947    19781639.258  
  19781633.863  
  20039739.508   105309536.515    20039748.859    82059421.0354   20039749.277  
                
 21  8 14  3 52 40.0000000  0 13R23G20G29R15G 5G12R14G31G 2R24R18R17
                                G25
  22967390.477   122860047.734                                                  
  22967388.781  
  22384824.055   117633047.784    22384830.781    91662144.0794                 
                
  21218758.844   111505333.338    21218765.656    86887302.5434   21218765.727  
                
  19900459.820   106342016.165                    82710454.018    19900463.879  
  19900460.082  
  23397134.977   122952770.632    23397142.254    95807391.2134   23397142.398  
                
  21028850.898   110507358.453    21028857.754    86109662.8444   21028857.770  
                
  19829897.375   105704505.201                    82214610.474    19829901.621  
  19829897.203  
  23216533.305   122003699.808    23216539.551    95067838.5454   23216539.973  
                
  22483376.773   118150934.388    22483381.223    92065683.9364                 
                
  19946606.500   106663471.982                    82960480.221    19946610.746  
  19946605.766  
  23440084.969   125124755.414                    97319253.967    23440088.754  
  23440083.242  
  19778841.656   105840570.852                    82320440.209    19778845.270  
  19778839.855  
  20039935.953   105310568.831    20039945.305    82060225.4384   20039945.723  
                
 21  8 14  3 52 50.0000000  0 13R23G20G29R15G 5G12R14G31G 2R24R18R17
                                G25
  22974335.828   122897200.917                                                  
  22974334.121  
  22382341.156   117620000.062    22382347.832    91651977.0114                 
                
  21215747.672   111489509.518    21215754.441    86874972.2884   21215754.535  
                
  19897004.508   106323551.989                    82696092.994    19897008.559  
  19897004.781  
  23391201.102   122921587.983    23391208.395    95783093.0584   23391208.535  
                
  21032886.797   110528567.221    21032893.617    86126189.1514   21032893.660  
                
  19834429.336   105728663.027                    82233399.885    19834433.578  
  19834429.168  
  23214020.117   121990492.930    23214026.375    95057547.4724   23214026.801  
                
  22487871.883   118174556.333    22487876.348    92084090.6404                 
                
  19950595.336   106684802.031                    82977070.259    19950599.586  
  19950594.598  
  23433454.695   125089362.365                    97291726.031    23433458.453  
  23433452.945  
  19776058.031   105825675.123                    82308854.637    19776061.629  
  19776056.230  
  20040143.156   105311657.683    20040152.508    82061073.8914   20040152.922  
                
 21  8 14  3 53  0.0000000  0 14R23R 8G20G29R15G 5G12R14G31G 2R24R18
                                R17G25
  22981281.492   122934355.768                                                  
  22981279.762  
  23693428.555   126877233.070                    98682284.693    23693432.332  
  23693427.477  
  22379868.766   117607007.613    22379875.414    91641853.0284                 
                
  21212742.172   111473715.566    21212748.898    86862665.3094   21212749.023  
                
  19893563.203   106305162.718                    82681790.228    19893567.246  
  19893563.473  
  23385271.844   122890429.363    23385279.109    95758813.6134   23385279.242  
                
  21036931.211   110549820.750    21036938.004    86142750.3334   21036938.051  
                
  19838974.977   105752893.846                    82252246.073    19838979.203  
  19838974.824  
  23211518.336   121977346.054    23211524.617    95047303.1504   23211525.043  
                
  22492372.656   118198208.017    22492377.148    92102520.5134                 
                
  19954591.883   106706173.345                    82993692.385    19954596.129  
  19954591.125  
  23426828.891   125053993.045                    97264216.574    23426832.598  
  23426827.105  
  19773284.773   105810834.912                    82297312.251    19773288.371  
  19773282.961  
  20040361.117   105312803.121    20040370.473    82061966.4364   20040370.883  
                
 21  8 14  3 53 10.0000000  0 14R23R 8G20G29R15G 5G12R14G31G 2R24R18
                                R17G25
  22988227.523   122971512.291                                                  
  22988225.734  
  23690993.953   126864195.018                    98672143.992    23690997.551  
  23690993.121  
  22377406.906   117594070.467    22377413.562    91631772.1524                 
                
  21209742.359   111457951.424    21209749.039    86850381.5624   21209749.172  
                
  19890135.992   106286848.751                    82667546.029    19890140.031  
  19890136.266  
  23379347.195   122859294.990    23379354.422    95734553.0544   23379354.551  
                
  21040984.148   110571119.032    21040990.914    86159346.3944   21040990.980  
                
  19843534.258   105777197.302                    82271148.761    19843538.488  
  19843534.102  
  23209027.977   121964259.174    23209034.336    95037105.5754   23209034.707  
                
  22496879.055   118221889.268    22496883.566    92120973.4334                 
                
  19958596.164   106727586.047                    83010346.709    19958600.434  
  19958595.402  
  23420207.539   125018647.646                    97236725.703    23420211.266  
  23420205.754  
  19770521.859   105796050.070                    82285812.936    19770525.465  
  19770520.031  
  20040589.867   105314005.174    20040599.223    82062903.1004   20040599.633  
                
 21  8 14  3 53 20.0000000  0 15R23R 8G20G29G18R15G 5G12R14G31G 2R24
                                R18R17G25
  22995173.891   123008670.569                                                  
  22995172.078  
  23688572.898   126851230.127                    98662060.166    23688576.363  
  23688572.031  
  22374955.602   117581188.811    22374962.297    91621734.5014                 
                
  21206748.242   111442217.276    21206754.891    86838121.1894   21206755.043  
                
  24590179.203   129222258.368    24590187.688   100692706.6434   24590187.797  
                
  19886722.875   106268610.102                    82653360.415    19886726.918  
  19886723.141  
  23373427.281   122828185.155    23373434.426    95710311.6334   23373434.559  
                
  21045045.609   110592462.124    21045052.359    86175977.3704   21045052.441  
                
  19848107.258   105801573.930                    82290108.344    19848111.500  
  19848107.098  
  23206549.070   121951232.451    23206555.480    95026954.8824   23206555.820  
                
  22501391.086   118245600.124    22501395.602    92139449.4194                 
                
  19962608.180   106749040.064                    83027033.161    19962612.465  
  19962607.406  
  23413590.750   124983326.390                    97209253.620    23413594.441  
  23413588.934  
  19767769.336   105781320.723                    82274356.797    19767772.945  
  19767767.473  
  20040829.414   105315263.974    20040838.773    82063883.9794   20040839.184  
                
 21  8 14  3 53 30.0000000  0 15R23R 8G20G29G18R15G 5G12R14G31G 2R24
                                R18R17G25
  23002120.906   123045832.373                                                  
  23002119.070  
  23686165.641   126838340.086                    98652034.609    23686169.285  
  23686164.840  
  22372515.227   117568364.614    22372521.941    91611741.6294                 
                
  21203760.203   111426515.053    21203766.840    86825885.6994   21203767.012  
                
  24583102.297   129185068.677    24583110.797   100663727.6684   24583110.891  
                
  19883324.258   106250448.882                    82639235.013    19883328.293  
  19883324.520  
  23367512.297   122797101.801    23367519.465    95686090.8384   23367519.602  
                
  21049115.961   110613851.909    21049122.715    86192644.7284   21049122.785  
                
  19852694.227   105826025.048                    82309125.857    19852698.469  
  19852694.055  
  23204081.961   121938267.680    23204088.410    95016852.4714   23204088.711  
                
  22505909.094   118269342.363    22505913.633    92157949.8674                 
                
  19966628.211   106770536.980                    83043752.977    19966632.504  
  19966627.438  
  23406978.766   124948031.182                    97181801.775    23406982.480  
  23406976.984  
  19765027.547   105766648.895                    82262945.359    19765031.176  
  19765025.684  
  20041080.117   105316581.411    20041089.469    82064910.5494   20041089.883  
                
 21  8 14  3 53 40.0000000  0 15R23R 8G20G29G18R15G 5G12R14G31G 2R24
                                R18R17G25
  23009067.836   123082993.533                                                  
  23009066.035  
  23683771.812   126825520.961                    98642064.164    23683775.371  
  23683771.059  
  22370085.039   117555593.934    22370091.734    91601790.4624                 
                
  21200777.500   111410840.843    21200784.129    86813672.0284   21200784.289  
                
  24576026.859   129147887.046    24576035.426   100634754.9774   24576035.453  
                
  19879939.367   106232361.062                    82625166.717    19879943.418  
  19879939.617  
  23361601.609   122766040.987    23361608.820    95661887.6294   23361608.977  
                
  21053194.422   110635284.333    21053201.176    86209345.3094   21053201.242  
                
  19857294.445   105850546.744                    82328198.277    19857298.695  
  19857294.266  
  23201625.891   121925360.963    23201632.367    95006795.2794   23201632.645  
                
  22510432.297   118293111.872    22510436.863    92176471.5584                 
                
  19970655.539   106792072.864                    83060503.097    19970659.832  
  19970654.758  
  23400371.070   124912757.786                    97154366.891    23400374.598  
  23400369.137  
  19762295.734   105752030.440                    82251575.466    19762299.387  
  19762293.871  
  20041341.219   105317953.483    20041350.570    82065979.6974   20041350.980  
                
 21  8 14  3 53 50.0000000  0 15R23R 8G20G29G18R15G 5G12R14G31G 2R24
                                R18R17G25
  23016015.031   123120156.131                                                  
  23016013.262  
  23681391.594   126812774.827                    98632150.508    23681395.082  
  23681390.902  
  22367665.438   117542878.875    22367672.098    91591882.6194                 
                
  21197800.500   111395196.624    21197807.125    86801481.7284   21197807.289  
                
  24568953.414   129110715.655    24568961.949   100605790.2574   24568961.938  
                
  19876568.625   106214348.863                    82611157.230    19876572.684  
  19876568.863  
  23355695.617   122735005.076    23355702.922    95637703.8214   23355703.070  
                
  21057281.398   110656761.471    21057288.152    86226080.7324   21057288.230  
                
  19861908.273   105875141.003                    82347327.139    19861912.547  
  19861908.090  
  23199181.289   121912514.525    23199187.781    94996785.0534   23199188.066  
                
  22514961.078   118316910.730    22514965.656    92195016.1154                 
                
  19974690.500   106813649.600                    83077285.000    19974694.812  
  19974689.727  
  23393767.562   124877508.551                    97126950.823    23393771.207  
  23393765.738  
  19759574.297   105737467.491                    82240248.728    19759577.949  
  19759572.434  
  20041613.125   105319382.358    20041622.473    82067093.0994   20041622.887  
                
 21  8 14  3 54  0.0000000  0 15R23R 8G20G29G18R15G 5G12R14G31G 2R24
                                R18R17G25
  23022962.445   123157320.150                                                  
  23022960.645  
  23679025.102   126800102.059                    98622293.930    23679028.453  
  23679024.371  
  22365256.453   117530219.606    22365263.121    91582018.2604                 
                
  21194829.211   111379582.410    21194835.828    86789314.8064   21194835.996  
                
  24561881.961   129073554.628    24561890.406   100576833.6124   24561890.418  
                
  19873212.070   106196412.485                    82597206.703    19873216.133  
  19873212.301  
  23349794.484   122703994.128    23349801.801    95613539.4724   23349801.922  
                
  21061376.883   110678283.365    21061383.652    86242851.0324   21061383.738  
                
  19866535.688   105899807.730                    82366512.366    19866539.977  
  19866535.500  
  23196748.164   121899728.428    23196754.691    94986821.8554   23196754.977  
                
  22519495.430   118340738.876    22519500.016    92213583.4964                 
                
  19978733.117   106835267.266                    83094098.737    19978737.438  
  19978732.359  
  23387168.688   124842283.496                    97099553.525    23387172.336  
  23387166.891  
  19756863.219   105722959.999                    82228965.126    19756866.855  
  19756861.355  
  20041895.844   105320868.051    20041905.180    82068250.7734   20041905.602  
                
 21  8 14  3 54 10.0000000  0 15R23R 8G20G29G18R15G 5G12R14G31G 2R24
                                R18R17G25
  23029910.070   123194485.423                                                  
  23029908.242  
  23676672.344   126787502.583                    98612494.318    23676675.539  
  23676671.543  
  22362858.078   117517616.090    22362864.754    91572197.3384                 
                
  21191863.633   111363998.201    21191870.246    86777171.2624   21191870.414  
                
  24554812.484   129036403.937    24554820.867   100547885.0024   24554820.875  
                
  19869869.703   106178551.887                    82583315.134    19869873.773  
  19869869.934  
  23343898.180   122673008.115    23343905.414    95589394.5334   23343905.523  
                
  21065480.883   110699849.923    21065487.680    86259656.1314   21065487.762  
                
  19871176.688   105924546.819                    82385753.874    19871180.969  
  19871176.484  
  23194326.531   121887002.690    23194333.098    94976905.7014   23194333.387  
                
  22524035.336   118364596.180    22524039.930    92232173.6014                 
                
  19982783.336   106856925.576                    83110944.086    19982787.668  
  19982782.566  
  23380574.281   124807082.578                    97072175.035    23380577.988  
  23380572.574  
  19754162.500   105708507.923                    82217724.615    19754166.125  
  19754160.633  
  20042189.367   105322410.510    20042198.699    82069452.6914   20042199.137  
                
 21  8 14  3 54 20.0000000  0 15R23R 8G20G29G18R15G 5G12R14G31G 2R24
                                R18R17G25
  23036857.898   123231651.816                                                  
  23036856.066  
  23674333.219   126774976.450                    98602751.768    23674336.309  
  23674332.375  
  22360470.320   117505068.344    22360476.984    91562419.8894                 
                
  21188903.758   111348443.972    21188910.383    86765051.0904   21188910.562  
                
  24547744.992   128999263.613    24547753.305   100518944.5104   24547753.324  
                
  19866541.539   106160767.193                    82569482.597    19866545.621  
  19866541.746  
  23338006.547   122642047.172    23338013.797    95565269.1254   23338013.906  
                
  21069593.336   110721460.982    21069600.152    86276495.9144   21069600.219  
                
  19875831.227   105949358.107                    82405051.539    19875835.520  
  19875831.039  
  23191916.391   121874337.300    23191922.973    94967036.5614   23191923.281  
                
  22528580.742   118388482.432    22528585.359    92250786.2694                 
                
  19986841.125   106878624.412                    83127820.957    19986845.465  
  19986840.355  
  23373984.461   124771905.976                    97044815.458    23373988.195  
  23373982.852  
  19751472.133   105694111.237                    82206527.187    19751475.738  
  19751470.270  
  20042493.688   105324009.740    20042503.016    82070698.8384   20042503.465  
                
 21  8 14  3 54 30.0000000  0 15R23R 8G20G29G18R15G 5G12R14G31G 2R24
                                R18R17G25
  23043805.977   123268819.399                                                  
  23043804.117  
  23672007.734   126762523.710                    98593066.303    23672010.816  
  23672006.879  
  22358093.203   117492576.485    22358099.805    91552685.9674                 
                
  21185949.594   111332919.764    21185956.227    86752954.3044   21185956.406  
                
  24540679.484   128962133.807    24540687.750   100490012.1834   24540687.746  
                
  19863227.633   106143058.668                    82555709.297    19863231.719  
  19863227.844  
  23332119.727   122611111.470    23332126.973    95541163.3884   23332127.074  
                
  21073714.273   110743116.598    21073721.102    86293370.4114   21073721.168  
                
  19880499.328   105974241.676                    82424405.413    19880503.621  
  19880499.156  
  23189517.734   121861732.269    23189524.340    94957214.4854   23189524.648  
                
  22533131.672   118412397.719    22533136.301    92269421.5504                 
                
  19990906.508   106900363.825                    83144729.388    19990910.871  
  19990905.730  
  23367399.297   124736753.641                    97017474.730    23367402.984  
  23367397.660  
  19748792.156   105679770.135                    82195372.997    19748795.758  
  19748790.309  
  20042808.836   105325665.802    20042818.168    82071989.2744   20042818.617  
                
 21  8 14  3 54 40.0000000  0 15R23R 8G20G29G18R15G 5G12R14G31G 2R24
                                R18R17G25
  23050754.258   123305988.002                                                  
  23050752.371  
  23669695.977   126750144.401                    98583437.922    23669699.035  
  23669695.117  
  22355726.734   117480140.605    22355733.316    91542995.6684                 
                
  21183001.141   111317425.510    21183007.793    86740880.8604   21183007.977  
                
  24533615.984   128925014.551    24533624.207   100461088.0894   24533624.164  
                
  19859927.961   106125426.231                    82541995.183    19859932.047  
  19859928.156  
  23326237.750   122580201.124    23326244.965    95517077.4194   23326245.043  
                
  21077843.672   110764816.677    21077850.504    86310279.5474   21077850.562  
                
  19885180.961   105999197.358                    82443815.372    19885185.258  
  19885180.805  
  23187130.586   121849187.691    23187137.230    94947439.4774   23187137.496  
                
  22537688.102   118436341.892    22537692.742    92288079.3444                 
                
  19994979.406   106922143.501                    83161669.122    19994983.785  
  19994978.605  
  23360818.594   124701625.668                    96990152.976    23360822.309  
  23360816.965  
  19746122.547   105665484.446                    82184261.916    19746126.156  
  19746120.695  
  20043134.797   105327378.720    20043144.129    82073324.0084   20043144.578  
                
 21  8 14  3 54 50.0000000  0 15R23R 8G20G29G18R15G 5G12R14G31G 2R24
                                R18R17G25
  23057702.703   123343157.422                                                  
  23057700.812  
  23667397.945   126737838.557                    98573866.743    23667400.957  
  23667397.090  
  22353370.883   117467760.547    22353377.465    91533348.8804                 
                
  21180058.352   111301961.054    21180065.027    86728830.6404   21180065.184  
                
  24526554.445   128887905.761    24526562.668   100432172.1374   24526562.598  
                
  19856642.539   106107869.924                    82528340.265    19856646.629  
  19856642.727  
  23320360.516   122549316.203    23320367.738    95493011.2364   23320367.805  
                
  21081981.500   110786561.078    21081988.324    86327223.2304   21081988.379  
                
  19889876.070   106024224.906                    82463281.240    19889880.383  
  19889875.930  
  23184754.906   121836703.383    23184761.582    94937711.4434   23184761.812  
                
  22542249.977   118460314.705    22542254.637    92306759.4544                 
                
  19999059.852   106943963.505                    83178640.235    19999064.242  
  19999059.047  
  23354242.516   124666521.951                    96962850.072    23354246.242  
  23354240.832  
  19743463.227   105651253.947                    82173193.765    19743466.852  
  19743461.359  
  20043471.547   105329148.349    20043480.887    82074702.9344   20043481.336  
                
 21  8 14  3 55  0.0000000  0 15R23R 8G20G29G18R15G 5G12R14G31G 2R24
                                R18R17G25
  23064651.344   123380327.827                                                  
  23064649.461  
  23665113.664   126725606.530                    98564352.941    23665116.645  
  23665112.789  
  22351025.727   117455436.683    22351032.289    91523745.8664                 
                
  21177121.297   111286526.734    21177127.992    86716803.8974   21177128.145  
                
  24519494.898   128850807.732    24519503.188   100403264.5874   24519503.105  
                
  19853371.414   106090390.064                    82514744.816    19853375.504  
  19853371.621  
  23314488.172   122518456.938    23314495.418    95468965.0584   23314495.480  
                
  21086127.812   110808350.052    21086134.617    86344201.6474   21086134.688  
                
  19894584.680   106049324.398                    82482803.061    19894589.016  
  19894584.555  
  23182390.758   121824279.678    23182397.445    94928030.6274   23182397.660  
                
  22546817.344   118484316.323    22546822.023    92325462.0074                 
                
  20003147.789   106965823.604                    83195642.526    20003152.195  
  20003146.965  
  23347671.023   124631442.701                    96935566.220    23347674.730  
  23347669.297  
  19740814.281   105637078.960                    82162168.771    19740817.910  
  19740812.391  
  20043819.125   105330974.897    20043828.480    82076126.2114   20043828.922  
                
 21  8 14  3 55 10.0000000  0 15R23R 8G20G29G18R15G 5G12R14G31G 2R24
                                R18R17G25
  23071600.141   123417499.101                                                  
  23071598.293  
  23662843.180   126713448.403                    98554896.608    23662846.141  
  23662842.277  
  22348691.281   117443169.104    22348697.824    91514186.7074                 
                
  21174189.977   111271122.529    21174196.688    86704800.6254   21174196.840  
                
  24512437.383   128813720.554    24512445.742   100374365.5044   24512445.664  
                
  19850114.656   106072986.908                    82501209.029    19850118.750  
  19850114.863  
  23308620.781   122487623.535    23308628.055    95444939.0364   23308628.094  
                
  21090282.586   110830183.474    21090289.371    86361214.6924   21090289.457  
                
  19899306.789   106074495.865                    82502380.852    19899311.137  
  19899306.660  
  23180038.156   121811916.671    23180044.836    94918397.1124   23180045.055  
                
  22551390.195   118508346.820    22551394.863    92344187.0654                 
                
  20007243.250   106987723.876                    83212676.061    20007247.664  
  20007242.430  
  23341104.047   124596387.960                    96908301.427    23341107.848  
  23341102.379  
  19738175.711   105622959.473                    82151186.965    19738179.332  
  19738173.820  
  20044177.562   105332858.471    20044186.934    82077593.9324   20044187.367  
                
 21  8 14  3 55 20.0000000  0 15R23R 8G20G29G18R15G 5G12R14G31G 2R24
                                R18R17G25
  23078549.141   123454671.295                                                  
  23078547.285  
  23660586.531   126701364.254                    98545497.864    23660589.477  
  23660585.641  
  22346367.547   117430957.825    22346374.102    91504671.4304                 
                
  21171264.383   111255748.430    21171271.102    86692820.8084   21171271.242  
                
  24505381.938   128776644.318    24505390.359   100345474.9164   24505390.293  
                
  19846872.242   106055660.446                    82487732.883    19846876.332  
  19846872.461  
  23302758.352   122456816.070    23302765.641    95420933.2334   23302765.664  
                
  21094445.797   110852061.258    21094452.543    86378262.3044   21094452.652  
                
  19904042.352   106099739.062                    82522014.447    19904046.711  
  19904042.227  
  23177697.117   121799614.383    23177703.785    94908810.9034   23177704.008  
                
  22555968.508   118532405.986    22555973.164    92362934.4674                 
                
  20011346.195   107009664.190                    83229740.749    20011350.617  
  20011345.391  
  23334541.750   124561357.886                    96881055.797    23334545.523  
  23334540.090  
  19735547.508   105608895.428                    82140248.250    19735551.121  
  19735545.641  
  20044546.844   105334799.055    20044556.230    82079106.0684   20044556.652  
                
 21  8 14  3 55 30.0000000  0 15R23R 8G20G29G18R15G 5G12R14G31G 2R24
                                R18R17G25
  23085498.234   123491844.050                                                  
  23085496.430  
  23658343.664   126689354.028                    98536156.593    23658346.633  
  23658342.750  
  22344054.516   117418802.769    22344061.094    91495199.9604                 
                
  21168344.508   111240404.334    21168351.242    86680864.3744   21168351.375  
                
  24498328.570   128739578.954    24498337.043   100316592.8154   24498337.008  
                
  19843644.188   106038410.646                    82474316.373    19843648.277  
  19843644.387  
  23296900.852   122426034.548    23296908.137    95396947.6374   23296908.160  
                
  21098617.453   110873983.388    21098624.141    86395344.4784   21098624.289  
                
  19908791.375   106125053.939                    82541703.794    19908795.742  
  19908791.258  
  23175367.594   121787372.654    23175374.258    94899271.8964   23175374.500  
                
  22560552.250   118556493.624    22560556.879    92381704.0554                 
                
  20015456.594   107031644.248                    83246836.343    20015461.012  
  20015455.797  
  23327984.133   124526352.469                    96853829.369    23327987.820  
  23327982.387  
  19732929.664   105594886.763                    82129352.611    19732933.258  
  19732927.812  
  20044926.961   105336796.566    20044936.363    82080662.5634   20044936.770  
                
 21  8 14  3 55 40.0000000  0 15R23R 8G20G29G18R15G 5G12R14G31G 2R24
                                R18R17G25
  23092447.398   123529017.153                                                  
  23092445.629  
  23656114.578   126677417.587                    98526872.658    23656117.531  
  23656113.633  
  22341752.211   117406704.111    22341758.785    91485772.4314                 
                
  21165430.320   111225090.125    21165437.066    86668931.2224   21165437.191  
                
  24491277.359   128702524.398    24491285.766   100287719.1474   24491285.699  
                
  19840430.445   106021237.425                    82460959.416    19840434.523  
  19840430.648  
  23291048.258   122395279.049    23291055.562    95372982.3114   23291055.590  
                
  21102797.516   110895949.709    21102804.156    86412461.0894   21102804.324  
                
  19913553.789   106150440.231                    82561448.685    19913558.156  
  19913553.668  
  23173049.594   121775191.449    23173056.281    94889780.0434   23173056.516  
                
  22565141.344   118580609.452    22565145.965    92400495.6044                 
                
  20019574.414   107053664.072                    83263962.867    20019578.828  
  20019573.637  
  23321431.000   124491371.454                    96826621.899    23321434.656  
  23321429.266  
  19730322.125   105580933.295                    82118499.911    19730325.707  
  19730320.293  
  20045317.883   105338850.848    20045327.312    82082263.2974   20045327.703  
                
 21  8 14  3 55 50.0000000  0 15R23R 8G20G29G18R15G 5G12R14G31G 2R24
                                R18R17G25
  23099396.656   123566190.943                                                  
  23099394.902  
  23653899.383   126665555.403                    98517646.563    23653902.332  
  23653898.441  
  22339460.656   117394661.928    22339467.211    91476388.9194                 
                
  21162521.836   111209805.929    21162528.598    86657021.4604   21162528.715  
                
  24484228.281   128665480.991    24484236.586   100258854.1394   24484236.512  
                
  19837231.125   106004141.195                    82447662.356    19837235.184  
  19837231.316  
  23285200.562   122364549.783    23285207.957    95349037.4524   23285208.000  
                
  21106986.023   110917960.419    21106992.625    86429612.2844   21106992.805  
                
  19918329.617   106175898.092                    82581249.229    19918333.984  
  19918329.496  
  23170743.164   121763071.085    23170749.859    94880335.6204   23170750.090  
                
  22569735.859   118604753.768    22569740.484    92419309.3484                 
                
  20023699.656   107075723.562                    83281120.250    20023704.059  
  20023698.879  
  23314882.555   124456415.145                    96799433.648    23314886.109  
  23314880.797  
  19727724.930   105567035.230                    82107690.326    19727728.523  
  19727723.086  
  20045719.656   105340962.188    20045729.113    82083908.4974   20045729.484  
                
 21  8 14  3 56  0.0000000  0 15R23R 8G20G29G18R15G 5G12R14G31G 2R24
                                R18R17G25
  23106346.047   123603365.238                                                  
  23106344.277  
  23651698.102   126653767.597                    98508478.258    23651701.012  
  23651697.086  
  22337179.859   117382676.227    22337186.402    91467049.4014                 
                
  21159619.109   111194551.955    21159625.883    86645135.2464   21159625.980  
                
  24477181.281   128628448.768    24477189.508   100229997.8444   24477189.457  
                
  19834046.219   105987122.038                    82434425.226    19834050.270  
  19834046.402  
  23279357.898   122333846.953    23279365.367    95325113.1624   23279365.418  
                
  21111182.977   110940015.477    21111189.543    86446798.0334   21111189.742  
                
  19923118.852   106201427.378                    82601105.328    19923123.230  
  19923118.719  
  23168448.320   121751011.544    23168455.008    94870938.5674   23168455.242  
                
  22574335.797   118628926.493    22574340.426    92438145.2304                 
                
  20027832.328   107097822.796                    83298308.533    20027836.738  
  20027831.547  
  23308338.750   124421483.582                    96772264.652    23308342.230  
  23308336.961  
  19725138.125   105553192.658                    82096923.894    19725141.719  
  19725136.273  
  20046132.297   105343130.613    20046141.773    82085598.1704   20046142.133  
                
 21  8 14  3 56 10.0000000  0 15R23R 8G20G29G18R15G 5G12R14G31G 2R24
                                R18R17G25
  23113295.477   123640539.864                                                  
  23113293.703  
  23649510.633   126642054.065                    98499367.717    23649513.496  
  23649509.586  
  22334909.789   117370746.957    22334916.324    91457753.8614                 
                
  21156722.078   111179328.013    21156728.859    86633272.4364   21156728.973  
                
  24470136.352   128591427.664    24470144.539   100201150.2424   24470144.500  
                
  19830875.758   105970180.075                    82421248.132    19830879.793  
  19830875.926  
  23273520.203   122303170.514    23273527.832    95301209.4624   23273527.895  
                
  21115388.312   110962114.683    21115394.852    86464018.1934   21115395.074  
                
  19927921.438   106227027.900                    82621016.833    19927925.812  
  19927921.297  
  23166165.016   121739012.749    23166171.676    94861588.8594   23166171.922  
                
  22578941.062   118653127.366    22578945.715    92457003.0544                 
                
  20031972.344   107119961.384                    83315527.422    20031976.758  
  20031971.562  
  23301799.555   124386576.846                    96745114.953    23301802.988  
  23301797.742  
  19722561.625   105539405.305                    82086200.388    19722565.199  
  19722559.785  
  20046555.766   105345355.981    20046565.258    82087332.2204   20046565.613  
                
 21  8 14  3 56 20.0000000  0 15R23R 8G20G29G18R15G 5G12R14G31G 2R24
                                R18R17G25
  23120244.953   123677714.911                                                  
  23120243.094  
  23647337.055   126630414.853                    98490315.023    23647339.875  
  23647336.008  
  22332650.508   117358874.338    22332657.059    91448502.4864                 
                
  21153830.781   111164134.140    21153837.566    86621433.0564   21153837.664  
                
  24463093.539   128554417.907    24463101.758   100172311.4664   24463101.715  
                
  19827719.758   105953315.353                    82408131.134    19827723.797  
  19827719.918  
  23267687.633   122272520.776    23267695.391    95277326.5894   23267695.453  
                
  21119602.086   110984258.122    21119608.625    86481272.8124   21119608.852  
                
  19932737.422   106252699.772                    82640983.834    19932741.801  
  19932737.258  
  23163893.344   121727074.967    23163899.980    94852286.6974   23163900.258  
                
  22583551.711   118677356.431    22583556.395    92475882.8354                 
                
  20036119.773   107142139.504                    83332777.069    20036124.180  
  20036118.988  
  23295264.945   124351695.002                    96717984.629    23295268.477  
  23295263.195  
  19719995.523   105525673.497                    82075520.088    19719999.086  
  19719993.719  
  20046990.125   105347638.523    20046999.629    82089110.8204   20046999.977  
                
 21  8 14  3 56 30.0000000  0 15R23R 8G20G29G18R15G 5G12R14G31G 2R24
                                R18R17G25
  23127194.406   123714889.963                                                  
  23127192.535  
  23645177.406   126618850.146                    98481320.228    23645180.227  
  23645176.359  
  22330401.969   117347058.155    22330408.523    91439295.0714                 
                
  21150945.188   111148970.216    21150951.957    86609617.0084   21150952.066  
                
  24456052.859   128517419.262    24456061.137   100143481.3814   24456061.074  
                
  19824578.211   105936527.883                    82395074.200    19824582.246  
  19824578.379  
  23261860.203   122241897.551    23261867.945    95253464.3464   23261868.039  
                
  21123824.203   111006445.421    21123830.758    86498561.6064   21123830.969  
                
  19937566.695   106278442.541                    82661005.985    19937571.074  
  19937566.520  
  23161633.219   121715197.857    23161639.816    94843031.8144   23161640.125  
                
  22588167.641   118701613.289    22588172.344    92494784.2774                 
                
  20040274.484   107164356.609                    83350057.035    20040278.898  
  20040273.711  
  23288734.953   124316837.809                    96690873.486    23288738.613  
  23288733.297  
  19717439.711   105511996.827                    82064882.670    19717443.262  
  19717437.930  
  20047435.297   105349977.890    20047444.801    82090933.7004   20047445.148  
                
 21  8 14  3 56 40.0000000  0 15R23R 8G20G29G18R15G 5G12R14G31G 2R24
                                R18R17G25
  23134144.047   123752065.841                                                  
  23134142.180  
  23643031.758   126607360.413                    98472383.789    23643034.617  
  23643030.660  
  22328164.344   117335299.326    22328170.871    91430132.3514                 
                
  21148065.445   111133837.080    21148072.199    86597824.9544   21148072.324  
                
  24449014.500   128480432.677    24449022.762   100114660.6534   24449022.688  
                
  19821451.281   105919818.480                    82382077.998    19821455.316  
  19821451.465  
  23256038.047   122211301.797    23256045.711    95229623.4924   23256045.816  
                
  21128054.844   111028677.538    21128061.418    86515885.3334   21128061.621  
                
  19942409.422   106304256.963                    82681083.871    19942413.793  
  19942409.238  
  23159384.812   121703382.314    23159391.375    94833824.8934   23159391.699  
                
  22592789.031   118725898.798    22592793.727    92513708.0454                 
                
  20044436.641   107186613.551                    83367367.991    20044441.051  
  20044435.871  
  23282209.758   124282006.174                    96663782.209    23282213.500  
  23282208.164  
  19714894.328   105498376.019                    82054288.705    19714897.859  
  19714892.527  
  20047891.445   105352374.962    20047900.945    82092801.5424   20047901.309  
                
 21  8 14  3 56 50.0000000  0 15R23R 8G20G29G18R15G 5G12R14G31G 2R24
                                R18R17G25
  23141093.594   123789241.344                                                  
  23141091.703  
  23640899.977   126595944.849                    98463505.003    23640902.848  
  23640898.875  
  22325937.438   117323596.864    22325943.941    91421013.5324                 
                
  21145191.367   111118733.681    21145198.102    86586056.0724   21145198.238  
                
  24441978.273   128443457.125    24441986.504   100085848.5414   24441986.422  
                
  19818338.773   105903186.229                    82369141.790    19818342.812  
  19818338.973  
  23250220.875   122180732.679    23250228.512    95205803.4084   23250228.641  
                
  21132293.781   111050953.294    21132300.391    86533243.0554   21132300.598  
                
  19947265.359   106330141.792                    82701216.513    19947269.715  
  19947265.156  
  23157147.914   121691627.301    23157154.457    94824665.1324   23157154.797  
                
  22597415.633   118750211.746    22597420.324    92532653.2004                 
                
  20048606.047   107208909.193                    83384709.042    20048610.445  
  20048605.273  
  23275689.234   124247199.077                    96636710.024    23275692.996  
  23275687.602  
  19712359.219   105484810.143                    82043737.468    19712362.750  
  19712357.379  
  20048358.375   105354828.691    20048367.863    82094713.5374   20048368.238  
                
 21  8 14  3 57  0.0000000  0 15R23R 8G20G29G18R15G 5G12R14G31G 2R24
                                R18R17G25
  23148043.133   123826416.854                                                  
  23148041.250  
  23638782.102   126584603.993                    98454684.317    23638785.059  
  23638781.039  
  22323721.359   117311951.312    22323727.891    91411939.0924                 
                
  21142323.023   111103660.431    21142329.746    86574310.6824   21142329.883  
                
  24434944.266   128406493.156    24434952.402   100057045.4504   24434952.355  
                
  19815240.820   105886631.669                    82356266.021    19815244.867  
  19815241.023  
  23244408.875   122150190.645    23244416.441    95182004.4384   23244416.613  
                
  21136541.117   111073273.123    21136547.770    86550635.1184   21136547.957  
                
  19952134.578   106356097.512                    82721404.279    19952138.922  
  19952134.348  
  23154922.625   121679933.295    23154929.160    94815552.9294   23154929.504  
                
  22602047.523   118774552.501    22602052.211    92551620.0274                 
                
  20052782.719   107231243.726                    83402080.332    20052787.121  
  20052781.930  
  23269173.375   124212416.989                    96609657.273    23269177.164  
  23269171.734  
  19709834.438   105471299.535                    82033229.222    19709837.957  
  19709832.605  
  20048836.180   105357339.559    20048845.656    82096670.0514   20048846.055  
                
 21  8 14  3 57 10.0000000  0 15R23R 8G20G29G18R15G 5G12R14G31G 2R24
                                R18R17G25
  23154992.641   123863592.087                                                  
  23154990.711  
  23636678.148   126573337.656                    98445921.650    23636681.270  
  23636677.055  
  22321516.078   117300362.550    22321522.656    91402908.8944                 
                
  21139460.344   111088617.019    21139467.066    86562588.5474   21139467.211  
                
  24427912.500   128369540.553    24427920.461   100028251.2134   24427920.457  
                
  19812157.359   105870154.616                    82343450.538    19812161.422  
  19812157.562  
  23238601.992   122119675.509    23238609.461    95158226.4114   23238609.684  
                
  21140796.750   111095636.660    21140803.438    86568061.2414   21140803.598  
                
  19957017.047   106382123.843                    82741646.980    19957021.383  
  19957016.797  
  23152708.906   121668300.121    23152715.457    94806488.1114   23152715.785  
                
  22606684.648   118798920.768    22606689.328    92570608.2754                 
                
  20056966.602   107253616.820                    83419481.629    20056970.996  
  20056965.797  
  23262662.258   124177659.543                    96582623.675    23262665.926  
  23262660.504  
  19707319.961   105457844.050                    82022763.840    19707323.469  
  19707318.160  
  20049324.805   105359907.332    20049334.273    82098670.9094   20049334.691  
                
 21  8 14  3 57 20.0000000  0 15R23R 8G20G29G18R15G 5G12R14G31G 2R24
                                R18R17G25
  23161942.109   123900767.252                                                  
  23161940.090  
  23634588.203   126562146.220                    98437217.195    23634591.414  
  23634587.109  
  22319321.648   117288830.715    22319328.266    91393923.0564                 
                
  21136603.406   111073603.708    21136610.129    86550889.8694   21136610.270  
                
  24420882.969   128332599.628    24420890.777    99999466.0694   24420890.820  
                
  19809088.477   105853755.447                    82330695.624    19809092.559  
  19809088.695  
  23232800.281   122089187.596    23232807.707    95134469.5944   23232807.949  
                
  21145060.766   111118044.158    21145067.473    86585521.6224   21145067.629  
                
  19961912.789   106408220.832                    82761944.626    19961917.125  
  19961912.543  
  23150506.820   121656727.979    23150513.398    94797470.8594   23150513.695  
                
  22611327.039   118823316.696    22611331.707    92589618.0814                 
                
  20061157.766   107276028.823                    83436913.182    20061162.148  
  20061156.961  
  23256155.781   124142927.266                    96555609.687    23256159.473  
  23256153.969  
  19704815.820   105444443.818                    82012341.445    19704819.309  
  19704814.020  
  20049824.312   105362532.231    20049833.770    82100716.2784   20049834.211  
                
 21  8 14  3 57 30.0000000  0 15R23R 8G20G29G18R15G 5G12R14G31G 2R24
                                R18R17G25
  23168891.531   123937942.279                                                  
  23168889.414  
  23632512.266   126551029.673                    98428570.979    23632515.492  
  23632511.219  
  22317138.062   117277355.886    22317144.672    91384981.6154                 
                
  21133752.219   111058620.559    21133758.934    86539214.6834   21133759.066  
                
  24413855.625   128295670.434    24413863.355    99970690.0754   24413863.445  
                
  19806034.203   105837434.307                    82318001.395    19806038.293  
  19806034.430  
  23227003.844   122058727.177    23227011.195    95110734.2114   23227011.449  
                
  21149333.164   111140495.672    21149339.902    86603016.2984   21149340.039  
                
  19966821.750   106434388.350                    82782297.131    19966826.094  
  19966821.527  
  23148316.375   121645217.029    23148322.980    94788501.2824   23148323.277  
                
  22615974.688   118847740.188    22615979.344    92608649.3724                 
                
  20065356.180   107298479.550                    83454374.855    20065360.555  
  20065355.367  
  23249653.977   124108220.195                    96528615.290    23249657.695  
  23249652.145  
  19702321.992   105431098.833                    82001962.011    19702325.465  
  19702320.176  
  20050334.695   105365214.286    20050344.141    82102806.1834   20050344.602  
                
 21  8 14  3 57 40.0000000  0 15R23R 8G20G29G18R15G 5G12R14G31G 2R24
                                R18R17G25
  23175840.945   123975117.260                                                  
  23175838.797  
  23630450.461   126539988.564                    98419983.437    23630453.668  
  23630449.453  
  22314965.391   117265938.459    22314971.965    91376084.9194                 
                
  21130906.828   111043667.887    21130913.547    86527563.2454   21130913.680  
                
  24406830.469   128258753.376    24406838.266    99941923.5544   24406838.363  
                
  19802994.586   105821191.471                    82305368.078    19802998.695  
  19802994.828  
  23221212.711   122028294.555    23221219.977    95087020.4884   23221220.238  
                
  21153613.969   111162991.381    21153620.750    86620545.4174   21153620.863  
                
  19971744.008   106460626.702                    82802704.736    19971748.359  
  19971743.812  
  23146137.602   121633767.462    23146144.234    94779579.5324   23146144.531  
                
  22620627.609   118872191.483    22620632.281    92627702.3364                 
                
  20069561.844   107320969.147                    83471866.747    20069566.207  
  20069561.023  
  23243156.922   124073538.449                    96501640.595    23243160.621  
  23243155.078  
  19699838.539   105417809.461                    81991625.829    19699842.020  
  19699836.703  
  20050856.016   105367953.840    20050865.457    82104940.8984   20050865.934  
                
 21  8 14  3 57 50.0000000  0 15R23R 8G20G29G18R15G 5G12R14G31G 2R24
                                R18R17G25
  23182790.289   124012291.841                                                  
  23182788.191  
  23628402.641   126529022.506                    98411454.313    23628405.887  
  23628401.680  
  22312803.578   117254578.073    22312810.145    91367232.6754                 
                
  21128067.148   111028745.270    21128073.863    86515935.2314   21128074.004  
                
  24399807.688   128221848.118    24399815.434    99913166.2034   24399815.520  
                
  19799969.586   105805026.758                    82292795.518    19799973.711  
  19799969.836  
  23215426.852   121997889.559    23215434.055    95063328.2994   23215434.328  
                
  21157903.094   111185530.865    21157909.910    86638108.6464   21157910.016  
                
  19976679.414   106486935.149                    82823166.859    19976683.773  
  19976679.234  
  23143970.453   121622379.021    23143977.117    94770705.4304   23143977.395  
                
  22625285.742   118896670.137    22625290.441    92646776.6044                 
                
  20073774.664   107343496.992                    83489388.404    20073779.020  
  20073773.863  
  23236664.562   124038881.936                    96474685.532    23236668.316  
  23236662.738  
  19697365.398   105404575.233                    81981332.534    19697368.863  
  19697363.566  
  20051388.203   105370750.491    20051397.633    82107120.1024   20051398.121  
                
 21  8 14  3 58  0.0000000  0 15R23R 8G20G29G18R15G 5G12R14G31G 2R24
                                R18R17G25
  23189739.547   124049465.877                                                  
  23189737.504  
  23626368.812   126518131.496                    98402983.519    23626372.098  
  23626367.871  
  22310652.641   117243274.839    22310659.199    91358424.9594                 
                
  21125233.195   111013852.751    21125239.914    86504330.6704   21125240.051  
                
  24392787.086   128184954.746    24392794.824    99884418.1124   24392794.922  
                
  19796959.227   105788940.265                    82280283.803    19796963.359  
  19796959.492  
  23209646.203   121967512.324    23209653.434    95039657.7374   23209653.719  
                
  21162200.555   111208114.127    21162207.387    86655705.9784   21162207.496  
                
  19981628.016   106513313.952                    82843683.695    19981632.375  
  19981627.820  
  23141814.977   121611051.827    23141821.652    94761879.0384   23141821.930  
                
  22629949.078   118921176.111    22629953.812    92665872.1624                 
                
  20077994.664   107366063.251                    83506939.942    20077999.020  
  20077993.852  
  23230176.953   124004250.642                    96447750.075    23230180.734  
  23230175.113  
  19694902.602   105391396.218                    81971082.181    19694906.051  
  19694900.797  
  20051931.266   105373604.286    20051940.688    82109343.8334   20051941.180  
                
 21  8 14  3 58 10.0000000  0 15R23R 8G20G29G18R15G 5G12R14G31G 2R24
                                R18R17G25
  23196688.773   124086639.495                                                  
  23196686.805  
  23624349.070   126507315.864                    98394571.364    23624352.418  
  23624348.125  
  22308512.609   117232028.973    22308519.184    91349661.9564                 
                
  21122404.984   110998990.394    21122411.711    86492749.6084   21122411.848  
                
  24385768.883   128148073.487    24385776.582    99855679.4884   24385776.680  
                
  19793963.547   105772932.265                    82267833.134    19793967.699  
  19793963.820  
  23203870.930   121937163.227    23203878.211    95016009.1084   23203878.484  
                
  21166506.375   111230741.292    21166513.223    86673337.5294   21166513.324  
                
  19986589.773   106539762.890                    82864255.087    19986594.148  
  19986589.582  
  23139671.172   121599785.996    23139677.836    94753100.4574   23139678.125  
                
  22634617.617   118945709.445    22634622.410    92684989.0364                 
                
  20082221.859   107388667.973                    83524521.373    20082226.203  
  20082221.020  
  23223693.977   123969644.625                    96420834.271    23223697.859  
  23223692.242  
  19692450.125   105378272.482                    81960874.841    19692453.578  
  19692448.352  
  20052485.234   105376515.393    20052494.656    82111612.2254   20052495.156  
                
 21  8 14  3 58 20.0000000  0 15R23R 8G20G29G18R15G 5G12R14G31G 2R24
                                R18R17G25
  23203637.930   124123812.563                                                  
  23203635.949  
  23622343.383   126496575.422                    98386217.677    23622346.754  
  23622342.441  
  22306383.492   117220840.377    22306390.082    91340943.5784                 
                
  21119582.516   110984158.212    21119589.258    86481192.0754   21119589.387  
                
  24378752.938   128111204.322    24378760.668    99826950.2624   24378760.758  
                
  19790982.578   105757002.843                    82255443.575    19790986.758  
  19790982.855  
  23198100.992   121906842.011    23198108.266    94992382.2024   23198108.539  
                
  21170820.516   111253412.215    21170827.379    86691003.1774   21170827.465  
                
  19991564.703   106566282.018                    82884881.058    19991569.074  
  19991564.527  
  23137539.039   121588581.445    23137545.695    94744369.6344   23137545.965  
                
  22639291.328   118970269.973    22639296.176    92704127.1054                 
                
  20086456.203   107411310.895                    83542132.522    20086460.535  
  20086455.355  
  23217215.812   123935063.942                    96393938.176    23217219.785  
  23217214.094  
  19690007.953   105365203.929                    81950710.422    19690011.418  
  19690006.176  
  20053050.094   105379483.739    20053059.512    82113925.2124   20053060.020  
                
 21  8 14  3 58 30.0000000  0 15R23R 8G20G29G18R15G 5G12R14G31G 2R24
                                R18R17G25
  23210586.969   124160985.045                                                  
  23210584.938  
  23620351.805   126485910.542                    98377922.777    23620355.211  
  23620350.891  
  22304265.281   117209709.145    22304271.863    91332269.8894                 
                
  21116765.797   110969356.213    21116772.543    86469658.0464   21116772.664  
                
  24371739.195   128074347.253    24371747.047    99798230.4834   24371747.137  
                
  19788016.289   105741151.897                    82243115.066    19788020.488  
  19788016.559  
  23192336.445   121876548.961    23192343.664    94968777.2294   23192343.953  
                
  21175142.969   111276126.812    21175149.836    86708702.8524   21175149.922  
                
  19996552.750   106592871.089                    82905561.450    19996557.105  
  19996552.594  
  23135418.555   121577438.194    23135425.195    94735686.5824   23135425.449  
                
  22643970.188   118994857.522    22643975.059    92723286.2174                 
                
  20090697.664   107433991.865                    83559773.272    20090701.980  
  20090696.824  
  23210742.414   123900508.794                    96367061.972    23210746.469  
  23210740.719  
  19687576.094   105352190.589                    81940588.938    19687579.555  
  19687574.285  
  20053625.836   105382509.289    20053635.262    82116282.7854   20053635.758  
                
 21  8 14  3 58 40.0000000  0 15R23R 8G20G29G18R15G 5G12R14G31G 2R24
                                R18R17G25
  23217535.875   124198156.742                                                  
  23217533.848  
  23618374.320   126475321.148                    98369686.584    23618377.742  
  23618373.441  
  22302158.000   117198635.368    22302164.582    91323640.9754                 
                
  21113954.820   110954584.401    21113961.570    86458147.5434   21113961.680  
                
  24364727.883   128037502.468    24364735.746    99769520.2674   24364735.824  
                
  19785064.719   105725379.578                    82230847.699    19785068.934  
  19785064.992  
  23186577.219   121846284.205    23186584.453    94945194.3104   23186584.742  
                
  21179473.734   111298885.112    21179480.609    86726436.5834   21179480.695  
                
  20001553.922   106619530.085                    82926296.215    20001558.273  
  20001553.777  
  23133309.766   121566356.405    23133316.379    94727051.4044   23133316.605  
                
  22648654.180   119019472.100    22648659.070    92742466.4094                 
                
  20094946.219   107456710.775                    83577443.539    20094950.527  
  20094945.410  
  23204273.836   123865978.864                    96340205.342    23204277.867  
  23204272.113  
  19685154.547   105339232.430                    81930510.344    19685158.008  
  19685152.723  
  20054212.484   105385592.144    20054221.922    82118684.9954   20054222.418  
                
 21  8 14  3 58 50.0000000  0 15R23R 8G20G29G18R15G 5G12R14G31G 2R24
                                R18R17G25
  23224484.617   124235327.727                                                  
  23224482.645  
  23616410.930   126464807.125                    98361509.017    23616414.379  
  23616410.047  
  22300061.672   117187619.120    22300068.234    91315056.8854                 
                
  21111149.586   110939842.817    21111156.324    86446660.5884   21111156.430  
                
  24357718.984   128000670.015    24357726.789    99740819.6584   24357726.875  
                
  19782127.898   105709686.111                    82218641.678    19782132.129  
  19782128.168  
  23180823.367   121816047.805    23180830.656    94921633.5074   23180830.930  
                
  21183812.820   111321687.124    21183819.715    86744204.3804   21183819.789  
                
  20006568.164   106646258.783                    82947085.180    20006572.512  
  20006568.020  
  23131212.672   121555336.057    23131219.246    94718464.1054   23131219.473  
                
  22653343.312   119044113.657    22653348.219    92761667.6174                 
                
  20099201.875   107479467.678                    83595143.346    20099206.195  
  20099201.078  
  23197810.117   123831474.624                    96313368.695    23197814.059  
  23197808.305  
  19682743.328   105326329.511                    81920474.730    19682746.793  
  19682741.531  
  20054810.039   105388732.316    20054819.492    82121131.8844   20054819.980  
                
 21  8 14  3 59  0.0000000  0 15R23R 8G20G29G18R15G 5G12R14G31G 2R24
                                R18R17G25
  23231433.219   124272497.885                                                  
  23231431.262  
  23614461.648   126454368.859                    98353390.390    23614465.117  
  23614460.746  
  22297976.312   117176660.456    22297982.867    91306517.6674                 
                
  21108350.086   110925131.328    21108356.805    86435197.0964   21108356.922  
                
  24350712.383   127963849.903    24350720.188    99712128.6644   24350720.289  
                
  19779205.859   105694071.581                    82206497.034    19779210.086  
  19779206.117  
  23175075.047   121785839.891    23175082.309    94898094.8904   23175082.562  
                
  21188160.203   111344532.738    21188167.094    86762006.1484   21188167.176  
                
  20011595.516   106673057.347                    82967928.508    20011599.867  
  20011595.352  
  23129127.273   121544377.138    23129133.828    94709924.6794   23129134.051  
                
  22658037.570   119068782.163    22658042.496    92780889.8254                 
                
  20103464.555   107502262.152                    83612872.375    20103468.887  
  20103463.766  
  23191351.219   123796995.857                    96286551.878    23191355.051  
  23191349.301  
  19680342.422   105313481.691                    81910481.982    19680345.895  
  19680340.652  
  20055418.508   105391929.771    20055427.973    82123623.4004   20055428.449  
                
 21  8 14  3 59 10.0000000  0 15R23R 8G20G29G18R15G 5G12R14G31G 2R24
                                R18R17G25
  23238381.656   124309666.990                                                  
  23238379.691  
  23612526.492   126444006.185                    98345330.508    23612529.961  
  23612525.555  
  22295901.891   117165759.319    22295908.426    91298023.2694                 
                
  21105556.312   110910449.942    21105563.004    86423757.0534   21105563.133  
                
  24343708.188   127927042.093    24343715.926    99683447.2484   24343716.000  
                
  19776298.562   105678535.871                    82194413.710    19776302.793  
  19776298.824  
  23169332.156   121755660.425    23169339.332    94874578.4244   23169339.582  
                
  21192515.828   111367421.686    21192522.703    86779841.6804   21192522.809  
                
  20016635.852   106699925.213                    82988825.733    20016640.207  
  20016635.691  
  23127053.539   121533479.561    23127060.086    94701433.0714   23127060.309  
                
  22662736.898   119093477.354    22662741.828    92800132.8184                 
                
  20107734.258   107525094.167                    83630630.610    20107738.594  
  20107733.457  
  23184896.914   123762542.447                    96259754.785    23184900.793  
  23184895.055  
  19677951.781   105300688.905                    81900532.053    19677955.297  
  19677950.012  
  20056037.844   105395184.393    20056047.324    82126159.4654   20056047.785  
                
 21  8 14  3 59 20.0000000  0 15R23R 8G20G29G18R15G 5G12R14G31G 2R24
                                R18R17G25
  23245329.938   124346835.253                                                  
  23245328.012  
  23610605.477   126433719.222                    98337329.573    23610608.922  
  23610604.500  
  22293838.469   117154915.953    22293844.996    91289573.8964                 
                
  21102768.320   110895798.936    21102774.992    86412340.6884   21102775.148  
                
  24336706.375   127890246.920    24336714.066    99654775.6834   24336714.098  
                
  19773406.109   105663079.446                    82182392.040    19773410.348  
  19773406.359  
  23163594.680   121725509.759    23163601.816    94851084.4124   23163602.082  
                
  21196879.758   111390354.257    21196886.629    86797711.2064   21196886.742  
                
  20021689.273   106726862.771                    83009777.157    20021693.621  
  20021689.109  
  23124991.531   121522643.620    23124998.070    94692989.4784   23124998.301  
                
  22667441.352   119118199.404    22667446.285    92819396.7464                 
                
  20112011.016   107547963.930                    83648418.197    20112015.359  
  20112010.199  
  23178447.500   123728114.836                    96232977.758    23178451.348  
  23178445.617  
  19675571.469   105287951.372                    81890625.104    19675575.016  
  19675569.668  
  20056668.109   105398496.453    20056677.605    82128740.2894   20056678.059  
                
 21  8 14  3 59 30.0000000  0 15R23R 8G20G29G18R15G 5G12R14G31G 2R24
                                R18R17G25
  23252278.039   124384002.533                                                  
  23252276.137  
  23608698.672   126423508.327                    98329387.748    23608702.098  
  23608697.680  
  22291786.055   117144130.476    22291792.598    91281169.6284                 
                
  21099986.125   110881178.361    21099992.789    86400948.0244   21099992.949  
                
  24329706.867   127853464.475    24329714.625    99626114.0304   24329714.648  
                
  19770528.469   105647702.253                    82170432.003    19770532.723  
  19770528.711  
  23157862.703   121695388.184    23157869.828    94827613.0544   23157870.105  
                
  21201252.000   111413330.544    21201258.871    86815614.7974   21201258.992  
                
  20026755.750   106753869.876                    83030782.683    20026760.105  
  20026755.594  
  23122941.281   121511869.441    23122947.805    94684594.0084   23122948.062  
                
  22672150.891   119142948.248    22672155.836    92838681.5484                 
                
  20116294.789   107570871.187                    83666234.932    20116299.121  
  20116293.945  
  23172002.852   123693712.976                    96206220.754    23172006.695  
  23172001.000  
  19673201.484   105275269.135                    81880761.126    19673205.047  
  19673199.680  
  20057309.320   105401866.027    20057318.836    82131365.9224   20057319.273  
                
 21  8 14  3 59 40.0000000  0 15R23R 8G20G29G18R15G 5G12R14G31G 2R24
                                R18R17G25
  23259225.938   124421168.825                                                  
  23259223.996  
  23606806.016   126413373.354                    98321505.015    23606809.504  
  23606805.004  
  22289744.672   117133402.927    22289751.219    91272810.4964                 
                
  21097209.703   110866588.164    21097216.375    86389579.0424   21097216.535  
                
  24322709.828   127816694.788    24322717.586    99597462.3384   24322717.594  
                
  19767665.703   105632404.498                    82158533.758    19767669.953  
  19767665.934  
  23152136.266   121665295.624    23152143.398    94804164.3254   23152143.660  
                
  21205632.539   111436350.422    21205639.406    86833552.3634   21205639.539  
                
  20031835.242   106780946.385                    83051842.189    20031839.594  
  20031835.082  
  23120902.766   121501156.963    23120909.254    94676246.6124   23120909.543  
                
  22676865.500   119167723.724    22676870.465    92857987.1004                 
                
  20120585.609   107593816.121                    83684080.996    20120589.949  
  20120584.785  
  23165562.906   123659336.833                    96179483.760    23165566.918  
  23165561.176  
  19670841.836   105262642.067                    81870940.062    19670845.379  
  19670840.051  
  20057961.469   105405293.042    20057970.996    82134036.3224   20057971.422  
                
 21  8 14  3 59 50.0000000  0 15R23R 8G20G29G18R15G 5G12R14G31G 2R24
                                R18R17G25
  23266173.617   124458334.027                                                  
  23266171.680  
  23604927.570   126403314.548                    98313681.481    23604931.109  
  23604926.551  
  22287714.312   117122733.303    22287720.887    91264496.5014                 
                
  21094439.039   110852028.191    21094445.730    86378233.6124   21094445.875  
                
  24315715.109   127779937.838    24315722.980    99568820.5514   24315722.973  
                
  19764817.820   105617186.241                    82146697.330    19764822.074  
  19764818.047  
  23146415.406   121635232.298    23146422.527    94780738.3634   23146422.777  
                
  21210021.352   111459413.738    21210028.215    86851523.7654   21210028.348  
                
  20036927.742   106808092.211                    83072955.587    20036932.066  
  20036927.574  
  23118876.008   121490506.181    23118882.434    94667947.2884   23118882.754  
                
  22681585.164   119192525.723    22681590.152    92877313.3344                 
                
  20124883.406   107616798.305                    83701956.012    20124887.750  
  20124882.605  
  23159127.891   123624986.659                    96152766.947    23159132.012  
  23159126.246  
  19668492.477   105250070.146                    81861161.893    19668496.020  
  19668490.715  
  20058624.547   105408777.486    20058634.086    82136751.4674   20058634.500  
                
 21  8 14  4  0  0.0000000  0 15R23R 8G20G29G18R15G 5G12R14G31G 2R24
                                R18R17G25
  23273121.062   124495497.815                                                  
  23273119.141  
  23603063.297   126393331.598                    98305916.989    23603066.898  
  23603062.289  
  22285694.961   117112121.554    22285701.535    91256227.6124                 
                
  21091674.086   110837498.281    21091680.777    86366911.6084   21091680.918  
                
  24308722.914   127743193.537    24308730.758    99540188.6254   24308730.750  
                
  19761984.750   105602047.212                    82134922.525    19761988.996  
  19761984.992  
  23140700.023   121605198.085    23140707.160    94757335.0804   23140707.426  
                
  21214418.375   111482520.279    21214425.246    86869528.8544   21214425.379  
                
  20042033.172   106835306.985                    83094122.633    20042037.512  
  20042033.012  
  23116860.938   121479916.954    23116867.316    94659695.9284   23116867.652  
                
  22686309.820   119217354.000    22686314.844    92896660.0424                 
                
  20129188.102   107639817.446                    83719859.786    20129192.441  
  20129187.309  
  23152697.680   123590662.061                    96126070.056    23152701.883  
  23152696.078  
  19666153.375   105237553.149                    81851426.461    19666156.938  
  19666151.629  
  20059298.500   105412319.146    20059308.047    82139511.2024   20059308.457  
                
 21  8 14  4  0 10.0000000  0 15R23R 8G20G29G18R15G 5G12R14G31G 2R24
                                R18R17G25
  23280068.242   124532660.206                                                  
  23280066.273  
  23601213.203   126383424.571                    98298211.543    23601216.875  
  23601212.215  
  22283686.609   117101567.587    22283693.195    91248003.7534                 
                
  21088914.844   110822998.370    21088921.523    86355612.9764   21088921.672  
                
  24301733.156   127706461.885    24301740.953    99511566.5694   24301740.930  
                
  19759166.555   105586987.587                    82123209.484    19759170.809  
  19759166.805  
  23134990.133   121575193.072    23134997.379    94733954.5664   23134997.660  
                
  21218823.625   111505669.981    21218830.496    86887567.5764   21218830.629  
                
  20047151.508   106862590.537                    83115343.162    20047155.855  
  20047151.355  
  23114857.578   121469389.180    23114863.918    94651492.4714   23114864.266  
                
  22691039.469   119242208.438    22691044.520    92916027.1314                 
                
  20133499.758   107662873.763                    83737792.468    20133504.094  
  20133498.980  
  23146272.422   123556363.141                    96099393.099    23146276.543  
  23146270.762  
  19663824.508   105225090.952                    81841733.658    19663828.117  
  19663822.758  
  20059983.352   105415918.033    20059992.906    82142315.5254   20059993.309  
                
 21  8 14  4  0 20.0000000  0 15R23R 8G20G29G18R15G 5G12R14G31G 2R24
                                R18R17G25
  23287015.164   124569821.381                                                  
  23287013.223  
  23599377.406   126373594.161                    98290565.685    23599381.141  
  23599376.363  
  22281689.352   117091071.893    22281695.930    91239825.2804                 
                
  21086161.422   110808529.038    21086168.070    86344338.1674   21086168.234  
                
  24294745.789   127669743.434    24294753.672    99482954.7734   24294753.652  
                
  19756363.328   105572007.984                    82111558.681    19756367.582  
  19756363.574  
  23129285.984   121545217.934    23129293.305    94710597.3414   23129293.578  
                
  21223237.156   111528863.220    21223244.023    86905640.2224   21223244.160  
                
  20052282.828   106889943.322                    83136617.541    20052287.191  
  20052282.680  
  23112865.992   121458923.287    23112872.277    94643337.2374   23112872.637  
                
  22695774.180   119267089.439    22695779.242    92935414.9174                 
                
  20137818.320   107685967.002                    83755753.870    20137822.656  
  20137817.559  
  23139851.953   123522090.263                    96072736.424    23139856.082  
  23139850.293  
  19661506.000   105212684.170                    81832083.950    19661509.652  
  19661504.230  
  20060679.180   105419574.602    20060688.742    82145164.7934   20060689.148  
                
 21  8 14  4  0 30.0000000  0 15R23R 8G20G29G18R15G 5G12R14G31G 2R24
                                R18R17G25
  23293961.742   124606980.909                                                  
  23293959.840  
  23597555.836   126363839.875                    98282979.005    23597559.617  
  23597554.754  
  22279703.109   117080634.096    22279709.672    91231691.9224                 
                
  21083413.750   110794089.895    21083420.367    86333086.8884   21083420.555  
                
  24287760.883   127633037.847    24287768.844    99454353.0334   24287768.844  
                
  19753575.031   105557108.145                    82099969.911    19753579.289  
  19753575.285  
  23123587.477   121515272.207    23123594.820    94687263.0194   23123595.082  
                
  21227658.906   111552099.601    21227665.773    86923746.4884   21227665.910  
                
  20057427.023   106917364.714                    83157945.282    20057431.398  
  20057426.887  
  23110886.164   121448519.139    23110892.379    94635230.1024   23110892.770  
                
  22700513.828   119291996.421    22700518.902    92954822.9404                 
                
  20142143.773   107709097.097                    83773743.942    20142148.105  
  20142143.023  
  23133436.375   123487843.209                    96046099.830    23133440.477  
  23133434.684  
  19659197.773   105200332.314                    81822476.950    19659201.453  
  19659196.012  
  20061385.914   105423288.472    20061395.477    82148058.7164   20061395.879  
                
 21  8 14  4  0 40.0000000  0 15R23R 8G20G29G18R15G 5G12R14G31G 2R24
                                R18R17G25
  23300908.000   124644138.667                                                  
  23300906.098  
  23595748.430   126354161.535                    98275451.422    23595752.254  
  23595747.375  
  22277727.859   117070254.114    22277734.406    91223603.6214                 
                
  21080671.773   110779680.703    21080678.375    86321858.9444   21080678.578  
                
  24280778.328   127596345.012    24280786.445    99425761.2324   24280786.434  
                
  19750801.594   105542287.716                    82088442.902    19750805.848  
  19750801.859  
  23117894.523   121485355.820    23117901.840    94663951.5504   23117902.125  
                
  21232088.797   111575378.862    21232095.668    86941886.1644   21232095.801  
                
  20062584.047   106944854.547                    83179326.262    20062588.422  
  20062583.895  
  23108918.039   121438176.542    23108924.211    94627170.9314   23108924.641  
                
  22705258.367   119316929.161    22705263.457    92974251.0394                 
                
  20146476.047   107732263.716                    83791762.411    20146480.375  
  20146475.297  
  23127025.555   123453621.855                    96019483.227    23127029.676  
  23127023.891  
  19656899.758   105188035.164                    81812912.499    19656903.445  
  19656898.027  
  20062103.516   105427059.501    20062113.086    82150997.1704   20062113.480  
                
 21  8 14  4  0 50.0000000  0 15R23R 8G20G29G18R15G 5G12R14G31G 2R24
                                R18R17G25
  23307854.039   124681295.323                                                  
  23307852.148  
  23593955.367   126344559.935                    98267983.543    23593959.223  
  23593954.316  
  22275763.766   117059932.774    22275770.332    91215561.0274                 
                
  21077935.617   110765302.136    21077942.203    86310654.8634   21077942.402  
                
  24273798.484   127559665.804    24273806.617    99397180.0274   24273806.625  
                
  19748043.211   105527547.727                    82076978.462    19748047.473  
  19748043.484  
  23112207.359   121455469.664    23112214.656    94640663.6444   23112214.918  
                
  21236527.023   111598701.853    21236533.898    86960059.9124   21236534.031  
                
  20067754.055   106972413.544                    83200761.039    20067758.430  
  20067753.891  
  23106961.781   121427896.267    23106967.973    94619160.3154   23106968.379  
                
  22710007.977   119341888.491    22710013.074    92993699.8654                 
                
  20150815.320   107755467.685                    83809809.938    20150819.652  
  20150814.570  
  23120619.688   123419426.829                    95992887.085    23120623.812  
  23120618.027  
  19654612.109   105175793.499                    81803391.193    19654615.789  
  19654610.379  
  20062832.148   105430888.432    20062841.727    82153980.7474   20062842.117  
                
 21  8 14  4  1  0.0000000  0 15R23R 8G20G29G18R15G 5G12R14G31G 2R24
                                R18R17G25
  23314799.836   124718450.425                                                  
  23314797.906  
  23592176.633   126335035.071                    98260575.318    23592180.527  
  23592175.559  
  22273810.805   117049669.874    22273817.363    91207563.9584                 
                
  21075205.281   110750954.103    21075211.863    86299474.5854   21075212.055  
                
  24266821.172   127522999.938    24266829.293    99368609.2064   24266829.309  
                
  19745299.875   105512888.118                    82065576.545    19745304.137  
  19745300.156  
  23106525.938   121425613.632    23106533.227    94617399.2084   23106533.477  
                
  21240973.484   111622068.116    21240980.344    86978267.3884   21240980.484  
                
  20072936.914   107000041.116                    83222249.132    20072941.309  
  20072936.746  
  23105017.305   121417677.962    23105023.527    94611197.9884   23105023.895  
                
  22714762.555   119366873.943    22714767.660    93013169.0474                 
                
  20155161.414   107778708.187                    83827885.885    20155165.758  
  20155160.652  
  23114218.672   123385258.130                    95966311.424    23114222.871  
  23114217.074  
  19652334.766   105163607.015                    81793912.828    19652338.461  
  19652333.035  
  20063571.742   105434775.001    20063581.328    82157009.2404   20063581.707  
                
 21  8 14  4  1 10.0000000  0 15R23R 8G20G29G18R15G 5G12R14G31G 2R24
                                R18R17G25
  23321745.289   124755603.883                                                  
  23321743.367  
  23590412.242   126325586.949                    98253226.779    23590416.148  
  23590411.164  
  22271868.945   117039465.356    22271875.453    91199612.3724                 
                
  21072480.703   110736636.371    21072487.285    86288317.9104   21072487.461  
                
  24259846.367   127486347.347    24259854.473    99340048.7504   24259854.508  
                
  19742571.523   105498308.646                    82054236.959    19742575.785  
  19742571.809  
  23100850.219   121395787.632    23100857.535    94594158.1844   23100857.762  
                
  21245428.141   111645477.498    21245434.977    86996508.4604   21245435.133  
                
  20078132.625   107027737.148                    83243790.478    20078137.023  
  20078132.445  
  23103084.602   121407521.567    23103090.883    94603283.9174   23103091.195  
                
  22719522.062   119391885.325    22719527.176    93032658.4224                 
                
  20159514.344   107801985.265                    83845990.276    20159518.699  
  20159513.594  
  23107822.539   123351115.457                    95939756.008    23107826.816  
  23107820.965  
  19650067.695   105151475.491                    81784477.197    19650071.395  
  19650065.957  
  20064322.273   105438719.042    20064331.863    82160082.5144   20064332.242  
                
 21  8 14  4  1 20.0000000  0 15R23R 8G20G29G18R15G 5G12R14G31G 2R24
                                R18R17G25
  23328690.375   124792755.639                                                  
  23328688.469  
  23588662.188   126316215.523                    98245937.889    23588666.098  
  23588661.113  
  22269938.234   117029319.365    22269944.715    91191706.4064                 
                
  21069761.938   110722349.116    21069768.516    86277184.9824   21069768.688  
                
  24252874.195   127449708.281    24252882.199    99311498.8244   24252882.266  
                
  19739858.234   105483809.615                    82042959.937    19739862.508  
  19739858.527  
  23095180.352   121365992.029    23095187.633    94570940.8484   23095187.832  
                
  21249891.031   111668930.110    21249897.879    87014783.2084   21249898.023  
                
  20083341.172   107055501.652                    83265385.077    20083345.586  
  20083340.969  
  23101163.734   121397427.343    23101170.078    94595418.2724   23101170.359  
                
  22724286.516   119416922.635    22724291.637    93052168.0104                 
                
  20163874.102   107825298.822                    83864123.033    20163878.465  
  20163873.344  
  23101431.297   123316999.084                    95913221.027    23101435.656  
  23101429.793  
  19647810.953   105139399.166                    81775084.501    19647814.676  
  19647809.223  
  20065083.781   105442720.757    20065093.383    82163200.7314   20065093.754  
                
 21  8 14  4  1 30.0000000  0 15R23R 8G20G29G18R15G 5G12R14G31G 2R24
                                R18R17G25
  23335635.078   124829905.356                                                  
  23335633.117  
  23586926.445   126306920.686                    98238708.590    23586930.371  
  23586925.359  
  22268018.586   117019231.530    22268025.062    91183845.7554                 
                
  21067048.898   110708092.007    21067055.469    86266075.5404   21067055.652  
                
  24245904.531   127413082.433    24245912.438    99282959.1934   24245912.539  
                
  19737159.945   105469390.722                    82031745.224    19737164.223  
  19737160.238  
  23089516.180   121336226.516    23089523.410    94547746.9414   23089523.613  
                
  21254362.086   111692425.591    21254368.949    87033091.3734   21254369.078  
                
  20088562.500   107083334.229                    83287032.640    20088566.918  
  20088562.293  
  23099254.625   121387394.937    23099261.023    94587600.8054   23099261.293  
                
  22729055.812   119441985.429    22729060.922    93071697.4494                 
                
  20168240.625   107848648.497                    83882283.886    20168244.992  
  20168239.863  
  23095045.031   123282908.768                    95886706.343    23095049.426  
  23095043.492  
  19645564.430   105127377.530                    81765734.352    19645568.188  
  19645562.715  
  20065856.195   105446779.786    20065865.812    82166363.6064   20065866.176  
                
 21  8 14  4  1 40.0000000  0 15R23R 8G20G29G18R15G 5G12R14G31G 2R24
                                R18R17G25
  23342579.438   124867053.238                                                  
  23342577.535  
  23585205.023   126297702.612                    98231538.957    23585208.949  
  23585203.957  
  22266110.070   117009202.219    22266116.590    91176030.7144                 
                
  21064341.641   110693865.259    21064348.199    86254989.7684   21064348.395  
                
  24238937.383   127376470.099    24238945.305    99254430.0964   24238945.418  
                
  19734476.719   105455052.365                    82020593.178    19734481.000  
  19734477.020  
  23083857.781   121306491.430    23083864.988    94524576.7634   23083865.211  
                
  21258841.328   111715964.153    21258848.203    87051433.1014   21258848.332  
                
  20093796.594   107111234.874                    83308733.139    20093801.031  
  20093796.387  
  23097357.336   121377424.569    23097363.762    94579831.6824   23097364.008  
                
  22733829.977   119467073.898    22733835.066    93091246.8984                 
                
  20172613.930   107872034.474                    83900472.971    20172618.293  
  20172613.180  
  23088663.750   123248844.715                    95860212.085    23088668.078  
  23088662.125  
  19643328.164   105115410.800                    81756426.897    19643331.918  
  19643326.438  
  20066639.555   105450896.360    20066649.184    82169571.3174   20066649.543  
                
 21  8 14  4  1 50.0000000  0 15R23R 8G20G29G18R15G 5G12R14G31G 2R24
                                R18R17G25
  23349523.445   124904199.070                                                  
  23349521.543  
  23583497.945   126288561.318                    98224429.094    23583501.895  
  23583496.836  
  22264212.711   116999231.471    22264219.266    91168261.3044                 
                
  21061640.164   110679668.896    21061646.711    86243927.6614   21061646.918  
                
  24231972.867   127339871.313    24231980.805    99225911.5674   24231980.902  
                
  19731808.547   105440794.442                    82009503.678    19731812.828  
  19731808.848  
  23078205.281   121276786.994    23078212.410    94501430.4524   23078212.648  
                
  21263328.734   111739545.654    21263335.617    87069808.2864   21263335.758  
                
  20099043.453   107139203.559                    83330486.550    20099047.879  
  20099043.230  
  23095471.836   121367516.206    23095478.293    94572110.8874   23095478.512  
                
  22738609.031   119492187.978    22738614.098    93110816.3014                 
                
  20176993.977   107895456.502                    83918690.110    20176998.348  
  20176993.230  
  23082287.375   123214806.917                    95833738.232    23082291.656  
  23082285.660  
  19641102.164   105103499.044                    81747162.194    19641105.914  
  19641100.414  
  20067433.859   105455070.462    20067443.508    82172823.8634   20067443.852  
                
 21  8 14  4  2  0.0000000  0 15R23R 8G20G29G18R15G 5G12R14G31G 2R24
                                R18R17G25
  23356467.055   124941342.896                                                  
  23356465.172  
  23581805.266   126279497.164                    98217379.198    23581809.266  
  23581804.176  
  22262326.492   116989319.339    22262333.074    91160537.5684                 
                
  21058944.477   110665502.960    21058951.027    86232889.2744   21058951.230  
                
  24225010.969   127303286.224    24225018.922    99197403.7174   24225019.012  
                
  19729155.500   105426617.361                    81998477.058    19729159.789  
  19729155.805  
  23072558.633   121247113.352    23072565.707    94478308.1344   23072565.938  
                
  21267824.344   111763170.182    21267831.246    87088217.0014   21267831.375  
                
  20104303.062   107167240.220                    83352292.840    20104307.504  
  20104302.832  
  23093598.172   121357669.996    23093604.648    94564438.5124   23093604.867  
                
  22743392.961   119517327.654    22743398.035    93130405.6524                 
                
  20181380.789   107918914.749                    83936935.402    20181385.176  
  20181380.051  
  23075915.945   123180795.378                    95807284.824    23075920.215  
  23075914.160  
  19638886.430   105091642.241                    81737940.231    19638890.168  
  19638884.648  
  20068239.141   105459302.180    20068248.809    82176121.3004   20068249.125  
                
 21  8 14  4  2 10.0000000  0 15R23R 8G20G29G18R15G 5G12R14G31G 2R24
                                R18R17G25
  23363410.312   124978484.674                                                  
  23363408.457  
  23580126.961   126270509.916                    98210389.113    23580130.984  
  23580125.836  
  22260451.453   116979465.924    22260458.051    91152859.5744                 
                
  21056254.578   110651367.425    21056261.141    86221874.5734   21056261.348  
                
  24218051.641   127266714.858    24218059.668    99168906.5584   24218059.715  
                
  19726517.594   105412521.145                    81987513.340    19726521.887  
  19726517.891  
  23066917.773   121217470.464    23066924.871    94455209.7854   23066925.098  
                
  21272328.125   111786837.719    21272335.031    87106659.2304   21272335.172  
                
  20109575.414   107195344.848                    83374151.984    20109579.844  
  20109575.184  
  23091736.336   121347885.944    23091742.855    94556814.5724   23091743.066  
                
  22748181.742   119542492.826    22748186.824    93150014.8654                 
                
  20185774.305   107942408.783                    83955208.538    20185778.707  
  20185773.570  
  23069549.430   123146810.307                    95780851.969    23069553.688  
  23069547.641  
  19636680.992   105079840.501                    81728761.102    19636684.719  
  19636679.211  
  20069055.383   105463591.520    20069065.066    82179463.6384   20069065.371  
                
 21  8 14  4  2 20.0000000  0 15R23R 8G20G29G18R15G 5G12R14G31G 2R24
                                R18R17G25
  23370353.164   125015624.225                                                  
  23370351.316  
  23578463.102   126261599.944                    98203459.120    23578467.102  
  23578462.012  
  22258587.609   116969671.364    22258594.238    91145227.4514                 
                
  21053570.453   110637262.266    21053577.035    86210883.5424   21053577.227  
                
  24211094.977   127230157.310    24211103.020    99140420.1664   24211103.039  
                
  19723894.812   105398505.785                    81976612.497    19723899.109  
  19723895.105  
  23061282.828   121187858.486    23061289.898    94432135.5194   23061290.125  
                
  21276840.070   111810548.095    21276846.984    87125134.8454   21276847.141  
                
  20114860.477   107223517.177                    83396063.788    20114864.918  
  20114860.250  
  23089886.312   121338164.006    23089892.891    94549239.0534   23089893.098  
                
  22752975.344   119567683.391    22752980.441    93169643.8764                 
                
  20190174.523   107965938.741                    83973509.606    20190178.938  
  20190173.805  
  23063187.703   123112851.658                    95754439.688    23063192.090  
  23063186.000  
  19634485.805   105068093.600                    81719624.628    19634489.535  
  19634484.020  
  20069882.586   105467938.475    20069892.281    82182850.8684   20069892.578  
                
 21  8 14  4  2 30.0000000  0 15R23R 8G20G29G18R15G 5G12R14G31G 2R24
                                R18R17G25
  23377295.609   125052761.701                                                  
  23377293.773  
  23576813.625   126252767.008                    98196589.067    23576817.617  
  23576812.547  
  22256734.969   116959935.628    22256741.641    91137641.1684                 
                
  21050892.133   110623187.616    21050898.738    86199916.2874   21050898.910  
                
  24204140.977   127193613.704    24204148.980    99111944.6124   24204149.000  
                
  19721287.188   105384571.389                    81965774.641    19721291.488  
  19721287.480  
  23055653.797   121158277.635    23055660.863    94409085.5054   23055661.086  
                
  21281360.164   111834301.331    21281367.117    87143643.8504   21281367.262  
                
  20120158.266   107251757.321                    83418028.342    20120162.719  
  20120158.031  
  23088048.141   121328504.365    23088054.754    94541712.0444   23088054.961  
                
  22757773.781   119592899.309    22757778.891    93189292.6444                 
                
  20194581.461   107989504.577                    83991838.575    20194585.883  
  20194580.738  
  23056831.047   123078919.429                    95728047.975    23056835.453  
  23056829.332  
  19632300.883   105056401.673                    81710530.916    19632304.605  
  19632299.070  
  20070720.758   105472343.095    20070730.453    82186283.0374   20070730.750  
                
 21  8 14  4  2 40.0000000  0 15R23R 8G20G29G18R15G 5G12R14G31G 2R24
                                R18R17G25
  23384237.609   125089896.700                                                  
  23384235.805  
  23575178.547   126244011.131                    98189778.965    23575182.512  
  23575177.484  
  22254893.469   116950258.507    22254900.184    91130100.5534                 
                
  21048219.578   110609143.226    21048226.184    86188972.6014   21048226.344  
                
  24197189.625   127157083.891    24197197.531    99083479.8334   24197197.570  
                
  19718694.719   105370717.992                    81954999.784    19718699.035  
  19718695.004  
  23050030.656   121128727.802    23050037.719    94386059.6714   23050037.949  
                
  21285888.383   111858097.250    21285895.387    87162186.1134   21285895.516  
                
  20125468.656   107280064.693                    83440045.176    20125473.102  
  20125468.426  
  23086221.789   121318906.809    23086228.434    94534233.4344   23086228.629  
                
  22762577.000   119618140.373    22762582.086    93208960.9884                 
                
  20198995.031   108013105.925                    84010195.182    20198999.461  
  20198994.301  
  23050479.359   123045013.690                    95701676.834    23050483.746  
  23050477.633  
  19630126.195   105044764.510                    81701479.790    19630129.898  
  19630124.363  
  20071569.875   105476805.219    20071579.578    82189760.0154   20071579.871  
                
 21  8 14  4  2 50.0000000  0 15R23R 8G20G29G18R15G 5G12R14G31G 2R24
                                R18R17G25
  23391179.211   125127029.382                                                  
  23391177.418  
  23573557.914   126235332.709                    98183029.054    23573561.840  
  23573556.879  
  22253063.180   116940640.227    22253069.930    91122605.7944                 
                
  21045552.773   110595129.081    21045559.367    86178052.4904   21045559.531  
                
  24190240.977   127120568.010    24190248.730    99055025.8774   24190248.777  
                
  19716117.406   105356945.608                    81944287.923    19716121.715  
  19716117.688  
  23044413.492   121099209.278    23044420.543    94363058.2354   23044420.773  
                
  21290424.719   111881935.844    21290431.758    87180761.6324   21290431.883  
                
  20130791.711   107308439.490                    83462114.459    20130796.152  
  20130791.492  
  23084407.250   121309371.379    23084413.926    94526803.2454   23084414.125  
                
  22767384.984   119643406.477    22767390.031    93228648.8474                 
                
  20203415.203   108036742.561                    84028579.217    20203419.637  
  20203414.449  
  23044132.648   123011134.433                    95675326.297    23044137.027  
  23044130.887  
  19627961.727   105033182.036                    81692471.193    19627965.406  
  19627959.879  
  20072429.945   105481324.886    20072439.648    82193281.8244   20072439.934  
                
 21  8 14  4  3  0.0000000  0 15R23R 8G20G29G18R15G 5G12R14G31G 2R24
                                R18R17G25
  23398120.344   125164159.516                                                  
  23398118.582  
  23571951.711   126226731.466                    98176339.232    23571955.637  
  23571950.684  
  22251244.102   116931080.925    22251250.855    91115156.9874                 
                
  21042891.781   110581145.460    21042898.359    86167156.1654   21042898.539  
                
  24183294.945   127084066.196    24183302.641    99026582.8954   24183302.684  
                
  19713555.305   105343254.478                    81933639.262    19713559.609  
  19713555.590  
  23038802.312   121069722.165    23038809.352    94340081.2674   23038809.570  
                
  21294969.188   111905817.183    21294976.242    87199370.4494   21294976.371  
                
  20136127.375   107336881.585                    83484236.083    20136131.816  
  20136127.168  
  23082604.586   121299898.278    23082611.281    94519421.5994   23082611.504  
                
  22772197.734   119668697.626    22772202.750    93248356.2304                 
                
  20207842.023   108060414.730                    84046990.888    20207846.457  
  20207841.262  
  23037790.875   122977281.709                    95648996.395    23037795.281  
  23037789.145  
  19625807.523   105021654.485                    81683505.299    19625811.172  
  19625805.664  
  20073300.977   105485902.164    20073310.684    82196848.5364   20073310.969  
                
