     2.11           OBSERVATION DATA    M (MIXED)           RINEX VERSION / TYPE
EFT-CORS.RU                             20210817 145053 UTC PGM / RUN BY / DATE 
MDNG                                                        MARKER NAME         
                                                            MARKER NUMBER       
MDNG                EFT-CORS.RU                             OBSERVER / AGENCY   
0                   TRIMBLE BD970       2.0                 REC # / TYPE / VERS 
0                   UNKNOWN EXT NONE                        ANT # / TYPE        
  3463911.2830  3030468.2400  4402179.3760                  APPROX POSITION XYZ 
        0.0000        0.0000        0.0000                  ANTENNA: DELTA H/E/N
     1     1                                                WAVELENGTH FACT L1/2
     6    C1    L1    P2    L2    C2    P1                  # / TYPES OF OBSERV 
    10.000                                                  INTERVAL            
  2021     8    15     0    30    0.0000000     GPS         TIME OF FIRST OBS   
  2021     8    15     1    30    0.0000000     GPS         TIME OF LAST OBS    
     0                                                      RCV CLOCK OFFS APPL 
                                                            END OF HEADER       
 21  8 15  0 30  0.0000000  0 17G 6G12G17G15R 5R24G14R14G13R23G24R13
                                R 4R17R15G 2G19
  22417611.172   117805340.832    22417620.121    91796406.5864   22417620.660  
                
  22070473.586   115981131.121    22070479.562    90374936.9184   22070479.672  
                
  22739524.578   119497020.027    22739530.348    93114592.5544   22739530.387  
                
  24306706.656   127732616.007    24306713.160    99531941.0074   24306713.059  
                
  22857643.938   122187208.534                    95034487.916    22857647.957  
  22857643.586  
  19922015.461   106531970.690                    82858202.077    19922019.746  
  19922014.660  
  24357498.648   127999533.465    24357504.641    99739941.2574   24357504.781  
                
  19697594.688   104999280.201                    81666099.409    19697598.508  
  19697594.352  
  24748532.789   130054428.408    24748538.855   101341147.6064                 
                
  19899833.047   106450700.827                                                  
  19899831.113  
  20366111.336   107024657.517    20366119.805    83395867.5034   20366119.902  
                
  20631155.516   110169260.752                    85687206.065    20631158.301  
  20631153.715  
  23581659.086   126278715.137                    98216771.633    23581662.586  
  23581658.316  
  23253251.852   124432854.827                    96781094.069    23253254.723  
  23253249.449  
  23010656.461   122961973.729                    95637084.889    23010660.762  
  23010656.543  
  23639238.352   124225033.347    23639241.461    96798743.4974                 
                
  20645305.430   108491830.477    20645309.281    84539105.9144                 
                
 21  8 15  0 30 10.0000000  0 17G 6G12G17G15R 5R24G14R14G13R23G24R13
                                R 4R17R15G 2G19
  22413008.383   117781153.011    22413017.352    91777558.9214   22413017.875  
                
  22065801.141   115956577.275    22065807.125    90355804.0564   22065807.211  
                
  22744878.031   119525152.492    22744883.781    93136513.9594   22744883.816  
                
  24312904.930   127765188.540    24312911.520    99557322.1914   24312911.422  
                
  22859654.883   122197958.125                    95042848.724    22859658.887  
  22859654.566  
  19917583.797   106508272.610                    82839770.234    19917588.082  
  19917582.996  
  24363090.656   128028919.431    24363096.680    99762839.4064   24363096.805  
                
  19694903.508   104984934.692                    81654941.789    19694907.320  
  19694903.180  
  24755593.750   130091533.859    24755599.770   101370060.9374                 
                
  19901998.656   106462285.430                                                  
  19901996.719  
  20365269.039   107020231.200    20365277.492    83392418.4264   20365277.605  
                
  20635019.648   110189895.051                    85703254.956    20635022.438  
  20635017.875  
  23588166.289   126313560.695                    98243873.707    23588169.734  
  23588165.465  
  23244688.750   124387031.799                    96745453.934    23244691.590  
  23244686.355  
  23004247.961   122927728.763                    95610449.919    23004252.273  
  23004248.062  
  23633225.648   124193437.038    23633228.992    96774123.0214                 
                
  20648147.828   108506767.379    20648151.641    84550745.0694                 
                
 21  8 15  0 30 20.0000000  0 16G 6G12G17G15R 5R24G14R14G13R23G24R13
                                R17R15G 2G19
  22408414.336   117757011.145    22408423.258    91758747.0734   22408423.793  
                
  22061132.859   115932045.299    22061138.848    90336688.2294   22061138.930  
                
  22750235.797   119553307.683    22750241.535    93158453.0694   22750241.559  
                
  24319104.562   127797767.898    24319111.156    99582708.7074   24319111.070  
                
  22861680.672   122208787.174                    95051271.343    22861684.691  
  22861680.332  
  19913166.648   106484652.177                    82821398.780    19913170.930  
  19913165.855  
  24368683.820   128058311.810    24368689.930    99785742.5424   24368690.051  
                
  19692219.836   104970629.246                    81643815.320    19692223.656  
  19692219.504  
  24762653.891   130128635.006    24762659.863   101398970.9434                 
                
  19904180.953   106473959.295                                                  
  19904179.027  
  20364438.188   107015865.098    20364446.633    83389016.2714   20364446.754  
                
  20638891.727   110210571.742                    85719336.837    20638894.512  
  20638889.973  
  23236127.938   124341221.496                    96709823.703    23236130.828  
  23236125.625  
  22997839.602   122893484.367                    95583815.369    22997843.859  
  22997839.691  
  23627216.391   124161858.636    23627219.922    96749516.4834                 
                
  20651000.961   108521760.695    20651004.750    84562428.1744                 
                
 21  8 15  0 30 30.0000000  0 16G 6G12G17G15R 5R24G14R14G13R23G24R13
                                R17R15G 2G19
  22403829.039   117732915.210    22403837.930    91739971.0084   22403838.484  
                
  22056468.703   115907534.969    22056474.691    90317589.2754   22056474.758  
                
  22755597.883   119581485.536    22755603.602    93180409.8344   22755603.629  
                
  24325305.398   127830353.811    24325312.078    99608100.3334   24325311.988  
                
  22863721.266   122219695.337                    95059755.471    22863725.270  
  22863720.930  
  19908763.992   106461109.175                    82803087.564    19908768.281  
  19908763.184  
  24374278.148   128087710.455    24374284.387    99808650.5464   24374284.441  
                
  19689543.633   104956363.558                    81632719.778    19689547.445  
  19689543.293  
  24769713.180   130165731.578    24769719.090   101427877.3594                 
                
  19906379.883   106485722.073                                                  
  19906377.965  
  20363618.781   107011559.080    20363627.219    83385660.9284   20363627.340  
                
  20642771.688   110231290.532                    85735451.449    20642774.438  
  20642769.918  
  23227569.516   124295423.691                    96674203.196    23227572.391  
  23227567.238  
  22991431.312   122859240.354                    95557181.146    22991435.547  
  22991431.375  
  23621210.461   124130298.152    23621214.262    96724923.9304                 
                
  20653864.781   108536810.144    20653868.562    84574155.0164                 
                
 21  8 15  0 30 40.0000000  0 16G 6G12G17G15R 5R24G14R14G13R23G24R13
                                R17R15G 2G19
  22399252.461   117708865.106    22399261.375    91721230.6674   22399261.918  
                
  22051808.641   115883046.178    22051814.594    90298507.0924   22051814.680  
                
  22760964.203   119609685.731    22760969.910    93202384.0154   22760969.934  
                
  24331507.406   127862946.053    24331514.238    99633496.8694   24331514.117  
                
  22865776.648   122230682.418                    95068300.959    22865780.676  
  22865776.320  
  19904375.875   106437643.955                    82784836.839    19904380.172  
  19904375.039  
  24379873.617   128117115.103    24379879.953    99831563.2364   24379879.988  
                
  19686874.883   104942137.622                    81621655.166    19686878.699  
  19686874.543  
  24776771.555   130202823.473    24776777.441   101456780.1354                 
                
  19908595.383   106497573.550                                                  
  19908593.473  
  20362810.781   107007312.992    20362819.219    83382352.2864   20362819.336  
                
  20646659.477   110252051.086                    85751598.540    20646662.227  
  20646657.711  
  23219013.320   124249638.450                    96638592.464    23219016.320  
  23219011.164  
  22985023.055   122824996.618                    95530547.154    22985027.293  
  22985023.070  
  23615207.875   124098755.461    23615211.969    96700345.2224                 
                
  20656739.219   108551915.427    20656743.004    84585925.3764                 
                
 21  8 15  0 30 50.0000000  0 15G 6G12G17G15R 5R24G14R14R23G24R13R17
                                R15G 2G19
  22394684.539   117684860.507    22394693.539    91702525.7794   22394694.035  
                
  22047152.578   115858578.443    22047158.520    90279441.3394   22047158.617  
                
  22766334.688   119637907.726    22766340.398    93224375.1824   22766340.422  
                
  24337710.516   127895543.977    24337717.500    99658897.8454   24337717.316  
                
  22867846.680   122241747.885                    95076907.446    22867850.750  
  22867846.391  
  19900002.148   106414255.735                    82766646.007    19900006.445  
  19900001.301  
  24385470.156   128146525.326    24385476.551    99854480.2984   24385476.598  
                
  19684213.508   104927951.020                    81610621.146    19684217.316  
  19684213.156  
  19910827.367   106509513.137                                                  
  19910825.465  
  20362014.102   107003126.413    20362022.547    83379090.0234   20362022.664  
                
  20650555.070   110272853.353                    85767778.090    20650557.789  
  20650553.297  
  23210459.367   124203865.339                    96602991.173    23210462.508  
  23210457.301  
  22978614.766   122790752.705                    95503913.002    22978619.043  
  22978614.785  
  23609208.727   124067230.195    23609212.953    96675780.1024                 
                
  20659624.211   108567076.131    20659627.996    84597738.9164                 
                
 21  8 15  0 31  0.0000000  0 15G 6G12G17G15R 5R24G14R14R23G24R13R17
                                R15G 2G19
  22390125.594   117660903.121    22390134.699    91683857.6914   22390135.141  
                
  22042500.859   115834133.490    22042506.789    90260393.3214   22042506.887  
                
  22771709.609   119666153.083    22771715.332    93246384.5444   22771715.367  
                
  24343915.016   127928149.095    24343922.125    99684304.4274   24343921.902  
                
  22869931.664   122252893.238                    95085576.043    22869935.680  
  22869931.367  
  19895643.203   106390946.554                    82748516.653    19895647.508  
  19895642.340  
  24391068.070   128175942.739    24391074.516    99877402.9704   24391074.559  
                
  19681559.828   104913805.433                    81599619.032    19681563.641  
  19681559.473  
  19913076.109   106521542.394                                                  
  19913074.227  
  20361229.070   106999001.027    20361237.520    83375875.4314   20361237.633  
                
  20654458.750   110293698.812                    85783991.234    20654461.477  
  20654456.953  
  23201908.102   124158106.183                    96567400.718    23201911.277  
  23201906.082  
  22972206.758   122756510.406                    95477280.121    22972211.094  
  22972206.797  
  23603213.289   124035724.077    23603217.570    96651229.8784                 
                
  20662520.031   108582293.802    20662523.816    84609596.8384                 
                
 21  8 15  0 31 10.0000000  0 15G 6G12G17G15R 5R24G14R14R23G24R13R17
                                R15G 2G19
  22385575.531   117636992.359    22385584.695    91665225.9484   22385585.125  
                
  22037853.328   115809710.638    22037859.199    90241362.5284   22037859.309  
                
  22777088.812   119694420.960    22777094.551    93268411.4624   22777094.578  
                
  24350120.773   127960760.592    24350127.922    99709715.9684   24350127.684  
                
  22872031.438   122264117.775                    95094306.254    22872035.438  
  22872031.102  
  19891298.844   106367715.365                    82730447.949    19891303.145  
  19891297.977  
  24396667.258   128205366.623    24396673.707    99900330.6674   24396673.750  
                
  19678913.727   104899700.198                    81588648.283    19678917.531  
  19678913.387  
  19915341.477   106533660.576                                                  
  19915339.609  
  20360455.547   106994936.147    20360463.996    83372707.9954   20360464.102  
                
  20658370.391   110314586.763                    85800237.396    20658373.070  
  20658368.578  
  23193359.328   124112360.464                    96531820.724    23193362.590  
  23193357.359  
  22965798.938   122722269.076                    95450648.008    22965803.312  
  22965798.988  
  23597221.461   124004236.627    23597225.699    96626694.1994                 
                
  20665426.547   108597567.626    20665430.344    84621498.5214                 
                
 21  8 15  0 31 20.0000000  0 15G 6G12G17G15R 5R24G14R14R23G24R13R17
                                R15G 2G19
  22381034.328   117613128.175    22381043.484    91646630.4764   22381043.930  
                
  22033209.969   115785309.636    22033215.785    90222348.7524   22033215.926  
                
  22782472.250   119722711.146    22782478.004    93290455.7614   22782478.031  
                
  24356327.727   127993378.139    24356334.867    99735132.2534   24356334.621  
                
  22874145.992   122275421.243                    95103097.838    22874149.992  
  22874145.676  
  19886969.156   106344562.640                    82712440.286    19886973.457  
  19886968.281  
  24402267.633   128234796.780    24402274.074    99923263.2594   24402274.117  
                
  19676275.188   104885635.320                    81577708.935    19676278.988  
  19676274.863  
  19917623.438   106545867.530                                                  
  19917621.590  
  20359693.508   106990931.635    20359701.953    83369587.5944   20359702.059  
                
  20662289.930   110335516.931                    85816516.412    20662292.602  
  20662288.137  
  23184813.094   124066628.034                    96496251.061    23184816.383  
  23184811.105  
  22959391.289   122688028.500                    95424016.436    22959395.617  
  22959391.363  
  23591233.203   123972767.747    23591237.312    96602172.9824                 
                
  20668343.641   108612897.118    20668347.465    84633443.5814                 
                
 21  8 15  0 31 30.0000000  0 15G 6G12G17G15R 5R24G14R14R23G24R13R17
                                R15G 2G19
  22376502.000   117589310.589    22376511.176    91628071.3104   22376511.605  
                
  22028570.773   115760930.463    22028576.598    90203352.0114   22028576.738  
                
  22787859.914   119751023.477    22787865.672    93312517.3144   22787865.707  
                
  24362535.820   128026001.653    24362542.945    99760553.1844   24362542.707  
                
  22876275.273   122286803.452                    95111950.659    22876279.305  
  22876275.000  
  19882654.109   106321488.139                    82694493.445    19882658.402  
  19882653.238  
  24407869.203   128264233.117    24407875.617    99946200.6534   24407875.652  
                
  19673644.227   104871610.798                    81566800.966    19673648.008  
  19673643.895  
  19919921.914   106558162.819                                                  
  19919920.066  
  20358942.961   106986987.431    20358951.410    83366514.1864   20358951.512  
                
  20666217.438   110356489.591                    85832828.499    20666220.109  
  20666215.656  
  23176269.406   124020909.000                    96460691.816    23176272.684  
  23176267.391  
  22952983.820   122653788.803                    95397385.559    22952988.078  
  22952983.867  
  23585248.453   123941317.443    23585252.422    96577666.2304                 
                
  20671271.383   108628282.491    20671275.242    84645432.1814                 
                
 21  8 15  0 31 40.0000000  0 15G 6G12G17G15R 5R24G14R14R23G24R13R17
                                R15G 2G19
  22371978.539   117565539.677    22371987.773    91609548.5394   22371988.172  
                
  22023935.742   115736573.251    22023941.586    90184372.3544   22023941.715  
                
  22793251.766   119779357.880    22793257.539    93334596.0674   22793257.582  
                
  24368745.031   128058631.038    24368752.098    99785978.6854   24368751.855  
                
  22878419.250   122298264.167                    95120864.519    22878423.285  
  22878418.984  
  19878353.703   106298491.922                    82676607.497    19878357.984  
  19878352.832  
  24413471.977   128293675.633    24413478.301    99969142.8964   24413478.352  
                
  19671020.828   104857626.634                    81555924.404    19671024.609  
  19671020.496  
  19922236.914   106570546.530                                                  
  19922235.051  
  20358203.891   106983103.598    20358212.340    83363487.8204   20358212.438  
                
  20670152.758   110377504.025                    85849173.061    20670155.438  
  20670150.949  
  23167728.180   123975203.534                    96425143.119    23167731.496  
  23167726.223  
  22946576.461   122619549.818                    95370755.216    22946580.664  
  22946576.512  
  23579267.266   123909885.796    23579271.035    96553174.0194                 
                
  20674209.711   108643723.555    20674213.633    84657464.1744                 
                
 21  8 15  0 31 50.0000000  0 15G 6G12G17G15R 5R24G14R14R23G24R13R17
                                R15G 2G19
  22367464.016   117541815.667    22367473.289    91591062.3054   22367473.672  
                
  22019304.914   115712238.087    22019310.762    90165409.9004   22019310.914  
                
  22798647.836   119807714.419    22798653.633    93356692.0674   22798653.664  
                
  24374955.312   128091266.296    24374962.359    99811408.7524   24374962.137  
                
  22880577.961   122309803.746                    95129839.785    22880581.953  
  22880577.672  
  19874068.008   106275574.414                    82658782.788    19874072.285  
  19874067.121  
  24419075.914   128323124.444    24419082.184    99992090.0304   24419082.293  
                
  19668405.039   104843683.006                    81545079.352    19668408.812  
  19668404.711  
  19924568.445   106583018.655                                                  
  19924566.598  
  20357476.336   106979280.259    20357484.785    83360508.5964   20357484.879  
                
  20674096.047   110398560.941                    85865550.659    20674098.730  
  20674094.238  
  23159189.555   123929511.906                    96389605.192    23159192.902  
  23159187.676  
  22940169.305   122585311.958                    95344125.787    22940173.504  
  22940169.352  
  23573289.555   123878472.995    23573293.258    96528696.5024                 
                
  20677158.656   108659220.407    20677162.637    84669539.6474                 
                
 21  8 15  0 32  0.0000000  0 15G 6G12G17G15R 5R24G14R14R23G24R13R17
                                R15G 2G19
  22362958.453   117518138.761    22362967.758    91572612.7824   22362968.148  
                
  22014678.289   115687925.024    22014684.152    90146464.6474   22014684.293  
                
  22804048.102   119836092.995    22804053.902    93378805.2434   22804053.941  
                
  24381166.641   128123907.325    24381173.781    99836843.3054   24381173.539  
                
  22882751.367   122321421.833                    95138876.085    22882755.277  
  22882751.059  
  19869797.000   106252735.418                    82641019.111    19869801.258  
  19869796.105  
  24424681.070   128352579.541    24424687.293   100015042.0414   24424687.418  
                
  19665796.891   104829780.064                    81534265.960    19665800.672  
  19665796.559  
  19926916.539   106595579.343                                                  
  19926914.688  
  20356760.305   106975517.510    20356768.762    83357576.5864   20356768.859  
                
  20678047.211   110419659.946                    85881960.982    20678049.867  
  20678045.387  
  23150653.633   123883834.327                    96354078.199    23150656.957  
  23150651.719  
  22933762.367   122551075.143                    95317497.175    22933766.574  
  22933762.398  
  23567315.484   123847079.276    23567319.141    96504233.8524                 
                
  20680118.211   108674773.019    20680122.254    84681658.5604                 
                
 21  8 15  0 32 10.0000000  0 15G 6G12G17G15R 5R24G14R14R23G24R13R17
                                R15G 2G19
  22358461.836   117494508.877    22358471.160    91554199.8984   22358471.547  
                
  22010055.844   115663633.954    22010061.746    90127536.5484   22010061.867  
                
  22809452.523   119864493.376    22809458.305    93400935.4114   22809458.363  
                
  24387379.016   128156553.923    24387386.223    99862282.2074   24387385.988  
                
  22884939.445   122333118.419                    95147973.410    22884943.297  
  22884939.117  
  19865540.719   106229975.175                    82623316.702    19865544.965  
  19865539.812  
  24430287.359   128382040.780    24430293.586   100037998.8474   24430293.715  
                
  19663196.367   104815917.839                    81523484.228    19663200.156  
  19663196.031  
  19929281.094   106608228.103                                                  
  19929279.250  
  20356055.781   106971815.225    20356064.250    83354691.6884   20356064.340  
                
  20682006.250   110440801.008                    85898404.044    20682008.879  
  20682004.438  
  23142120.250   123838170.618                    96318561.982    23142123.559  
  23142118.348  
  22927355.594   122516839.376                    95290869.360    22927359.797  
  22927355.637  
  23561344.938   123815704.532    23561348.652    96479785.9854                 
                
  20683088.328   108690381.104    20683092.430    84693820.7034                 
                
 21  8 15  0 32 20.0000000  0 15G 6G12G17G15R 5R24G14R14R23G24R13R17
                                R15G 2G19
  22353974.234   117470926.295    22353983.555    91535823.8624   22353983.926  
                
  22005437.594   115639364.921    22005443.500    90108625.6124   22005443.613  
                
  22814861.125   119892915.726    22814866.879    93423082.7054   22814866.945  
                
  24393592.445   128189205.940    24393599.645    99887725.3364   24393599.422  
                
  22887142.211   122344893.382                    95157131.718    22887146.062  
  22887141.906  
  19861299.188   106207293.854                    82605675.677    19861303.426  
  19861298.285  
  24435894.781   128411508.293    24435901.105   100060960.5254   24435901.250  
                
  19660603.500   104802096.392                    81512734.198    19660607.277  
  19660603.180  
  19931662.148   106620965.136                                                  
  19931660.332  
  20355362.797   106968173.571    20355371.277    83351854.0314   20355371.352  
                
  20685973.203   110461984.331                    85914879.950    20685975.840  
  20685971.402  
  23133589.555   123792521.148                    96283056.828    23133592.836  
  23133587.605  
  22920949.031   122482604.685                    95264242.375    22920953.188  
  22920949.102  
  23555377.992   123784349.031    23555381.879    96455353.1274                 
                
  20686069.016   108706044.733    20686073.160    84706026.1324                 
                
 21  8 15  0 32 30.0000000  0 15G 6G12G17G15R 5R24G14R14R23G24R13R17
                                R15G 2G19
  22349495.648   117447391.137    22349504.930    91517484.7754   22349505.312  
                
  22000823.570   115615118.090    22000829.473    90089731.9884   22000829.605  
                
  22820273.898   119921359.981    22820279.621    93445247.0624   22820279.684  
                
  24399806.961   128221863.490    24399814.098    99913172.7854   24399813.906  
                
  22889359.648   122356746.865                    95166351.094    22889363.516  
  22889359.312  
  19857072.461   106184691.670                    82588096.199    19857076.688  
  19857071.559  
  24441503.406   128440982.116    24441509.832   100083927.1384   24441509.969  
                
  19658018.312   104788315.870                    81502016.023    19658022.109  
  19658017.996  
  19934059.688   106633790.330                                                  
  19934057.902  
  20354681.375   106964592.667    20354689.875    83349063.7174   20354689.938  
                
  20689948.125   110483210.124                    85931388.901    20689950.770  
  20689946.324  
  23125061.484   123746886.091                    96247562.897    23125064.832  
  23125059.535  
  22914542.734   122448371.355                    95237616.444    22914546.820  
  22914542.777  
  23549414.734   123753012.856    23549418.844    96430935.3514                 
                
  20689060.273   108721763.931    20689064.453    84718274.8524                 
                
 21  8 15  0 32 40.0000000  0 15G 6G12G17G15R 5R24G14R14R23G24R13R17
                                R15G 2G19
  22345026.078   117423903.333    22345035.309    91499182.5874   22345035.715  
                
  21996213.773   115590893.413    21996219.652    90070855.6124   21996219.785  
                
  22825690.781   119949825.837    22825696.477    93467428.2514   22825696.527  
                
  24406022.422   128254526.390    24406029.547    99938624.3814   24406029.387  
                
  22891591.672   122368678.396                    95175631.163    22891595.586  
  22891591.340  
  19852860.484   106162168.349                    82570578.068    19852864.703  
  19852859.570  
  24447113.250   128470462.024    24447119.719   100106898.4814   24447119.844  
                
  19655440.781   104774576.146                    81491329.559    19655444.586  
  19655440.457  
  19936473.680   106646703.495                                                  
  19936471.914  
  20354011.469   106961072.314    20354019.977    83346320.5814   20354020.031  
                
  20693930.898   110504477.875                    85947930.488    20693933.523  
  20693929.094  
  23116535.984   123701265.383                    96212080.123    23116539.504  
  23116534.129  
  22908136.617   122414139.239                    95210991.505    22908140.730  
  22908136.594  
  23543455.219   123721695.985    23543459.496    96406532.6104                 
                
  20692062.055   108737538.384    20692066.266    84730566.6304                 
                
 21  8 15  0 32 50.0000000  0 15G 6G12G17G15R 5R24G14R14R23G24R13R17
                                R15G 2G19
  22340565.508   117400462.887    22340574.703    91480917.3054   22340575.121  
                
  21991608.164   115566690.791    21991614.016    90051996.4214   21991614.145  
                
  22831111.758   119978313.214    22831117.430    93489626.2124   22831117.484  
                
  24412238.883   128287194.348    24412245.945    99964079.9394   24412245.824  
                
  22893838.312   122380688.020                    95184971.974    22893842.219  
  22893837.973  
  19848663.258   106139723.924                    82553121.300    19848667.480  
  19848662.340  
  24452724.242   128499947.947    24452730.727   100129874.5224   24452730.879  
                
  19652870.930   104760877.403                    81480674.976    19652874.734  
  19652870.621  
  19938904.055   106659704.378                                                  
  19938902.309  
  20353353.086   106957612.463    20353361.602    83343624.5924   20353361.648  
                
  20697921.547   110525787.687                    85964504.773    20697924.148  
  20697919.746  
  23108013.258   123655659.130                    96176608.598    23108016.863  
  23108011.422  
  22901730.766   122379908.290                    95184367.426    22901734.895  
  22901730.738  
  23537499.422   123690398.381    23537503.832    96382144.8814                 
                
  20695074.312   108753367.945    20695078.547    84742901.3584                 
                
 21  8 15  0 33  0.0000000  0 15G 6G12G17G15R 5R24G14R14R23G24R13R17
                                R15G 2G19
  22336113.992   117377070.039    22336123.152    91462689.1194   22336123.578  
                
  21987006.773   115542510.246    21987012.590    90033154.4424   21987012.719  
                
  22836536.820   120006822.118    22836542.492    93511840.9514   22836542.539  
                
  24418456.273   128319867.369    24418463.391    99989539.4324   24418463.266  
                
  22896099.547   122392775.615                    95194373.431    22896103.445  
  22896099.164  
  19844480.828   106117358.656                    82535726.081    19844485.043  
  19844479.891  
  24458336.383   128529439.993    24458342.879   100152855.3374   24458343.051  
                
  19650308.766   104747219.628                    81470052.267    19650312.594  
  19650308.469  
  19941350.844   106672793.038                                                  
  19941349.117  
  20352706.242   106954213.276    20352714.762    83340975.8754   20352714.805  
                
  20701920.070   110547139.613                    85981111.839    20701922.648  
  20701918.305  
  23099493.359   123610067.573                    96141148.501    23099496.992  
  23099491.500  
  22895325.164   122345678.609                    95157744.361    22895329.309  
  22895325.129  
  23531547.438   123659120.383    23531551.902    96357772.4264                 
                
  20698097.062   108769252.622    20698101.309    84755279.0274                 
                
 21  8 15  0 33 10.0000000  0 15G 6G12G17G15R 5R24G14R14R23G24R13R17
                                R15G 2G19
  22331671.539   117353724.776    22331680.684    91444498.0124   22331681.113  
                
  21982409.570   115518351.801    21982415.355    90014329.6704   21982415.512  
                
  22841965.953   120035352.386    22841971.645    93534072.3214   22841971.680  
                
  24424674.641   128352545.314    24424681.773   100015002.7404   24424681.660  
                
  22898375.352   122404941.140                    95203835.541    22898379.191  
  22898374.949  
  19840313.203   106095072.573                    82518392.473    19840317.434  
  19840312.234  
  24463949.656   128558938.024    24463956.172   100175840.8004   24463956.383  
                
  19647754.320   104733602.944                    81459461.506    19647758.152  
  19647754.023  
  19943814.008   106685969.241                                                  
  19943812.293  
  20352070.930   106950874.682    20352079.453    83338374.3784   20352079.500  
                
  20705926.539   110568533.885                    85997751.832    20705929.145  
  20705924.770  
  23090976.242   123564490.681                    96105699.808    23090979.836  
  23090974.363  
  22888919.805   122311450.208                    95131122.262    22888923.961  
  22888919.785  
  23525599.305   123627862.025    23525603.715    96333415.2604                 
                
  20701130.273   108785192.269    20701134.527    84767699.5304                 
                
 21  8 15  0 33 20.0000000  0 15G 6G12G17G15R 5R24G14R14R23G24R13R17
                                R15G 2G19
  22327238.188   117330427.304    22327247.320    91426344.1394   22327247.773  
                
  21977816.594   115494215.554    21977822.387    89995522.2014   21977822.559  
                
  22847399.141   120063903.971    22847404.859    93556320.3024   22847404.883  
                
  24430893.953   128385228.112    24430901.090   100040469.8604   24430900.996  
                
  22900665.734   122417184.558                    95213358.201    22900669.547  
  22900665.320  
  19836160.461   106072866.019                    82501120.706    19836164.684  
  19836159.484  
  24469564.133   128588442.101    24469570.648   100198830.9774   24469570.824  
                
  19645207.570   104720027.340                    81448902.700    19645211.406  
  19645207.285  
  19946293.547   106699233.101                                                  
  19946291.848  
  20351447.164   106947596.799    20351455.684    83335820.1764   20351455.734  
                
  20709940.875   110589970.266                    86014424.561    20709943.480  
  20709939.105  
  23082461.906   123518928.777                    96070262.776    23082465.500  
  23082460.055  
  22882514.680   122277223.156                    95104501.251    22882518.852  
  22882514.613  
  23519654.883   123596623.457    23519659.270    96309073.5144                 
                
  20704173.938   108801186.850    20704178.195    84780162.8394                 
                
 21  8 15  0 33 30.0000000  0 15G 6G12G17G15R 5R24G14R14R23G24R13R17
                                R15G 2G19
  22322813.930   117307177.636    22322823.027    91408227.5234   22322823.504  
                
  21973227.828   115470101.431    21973233.641    89976731.9764   21973233.812  
                
  22852836.328   120092476.628    22852842.062    93578584.7034   22852842.070  
                
  24437114.195   128417915.581    24437121.332   100065940.6204   24437121.223  
                
  22902970.602   122429505.490                    95222941.152    22902974.426  
  22902970.188  
  19832022.516   106050738.602                    82483910.493    19832026.742  
  19832021.527  
  24475179.766   128617952.114    24475186.262   100221825.7854   24475186.367  
                
  19642668.531   104706492.813                    81438375.842    19642672.367  
  19642668.250  
  19948789.422   106712584.347                                                  
  19948787.723  
  20350834.945   106944379.544    20350843.453    83333313.2284   20350843.516  
                
  20713963.078   110611448.531                    86031129.875    20713965.688  
  20713961.289  
  23073950.414   123473381.798                    96034837.343    23073953.938  
  23073948.523  
  22876109.789   122242997.464                    95077881.304    22876113.980  
  22876109.664  
  23513714.227   123565404.618    23513718.570    96284747.1444                 
                
  20707228.031   108817236.188    20707232.289    84792668.8114                 
                
 21  8 15  0 33 40.0000000  0 15G 6G12G17G15R 5R24G14R14R23G24R13R17
                                R15G 2G19
  22318398.797   117283975.897    22318407.875    91390148.2484   22318408.355  
                
  21968643.242   115446009.341    21968649.105    89957958.9334   21968649.250  
                
  22858277.539   120121070.402    22858283.277    93600865.5674   22858283.289  
                
  24443335.336   128450607.543    24443342.434   100091414.8704   24443342.309  
                
  22905290.000   122441904.043                    95232584.444    22905293.871  
  22905289.562  
  19827899.461   106028690.861                    82466762.262    19827903.719  
  19827898.453  
  24480796.492   128647468.095    24480802.965   100244825.2394   24480803.059  
                
  19640137.234   104692999.601                    81427881.124    19640141.070  
  19640136.953  
  19951301.648   106726023.028                                                  
  19951299.953  
  20350234.266   106941222.980    20350242.770    83330853.5664   20350242.832  
                
  20717993.148   110632968.898                    86047867.941    20717995.773  
  20717991.359  
  23065441.758   123427849.963                    95999423.703    23065445.203  
  23065439.836  
  22869705.211   122208773.285                    95051262.473    22869709.355  
  22869705.031  
  23507777.281   123534205.678    23507781.617    96260436.2714                 
                
  20710292.539   108833340.296    20710296.797    84805217.4714                 
                
 21  8 15  0 33 50.0000000  0 15G 6G12G17G15R 5R24G14R14R23G24R13R17
                                R15G 2G19
  22313992.797   117260822.195    22314001.852    91372106.4024   22314002.344  
                
  21964062.906   115421939.533    21964068.789    89939203.2424   21964068.910  
                
  22863722.750   120149685.163    22863728.492    93623162.7824   22863728.512  
                
  24449557.359   128483303.753    24449564.301   100116892.4404   24449564.172  
                
  22907623.906   122454380.123                    95242288.067    22907627.828  
  22907623.496  
  19823791.258   106006722.496                    82449675.764    19823795.531  
  19823790.230  
  24486414.359   128676990.059    24486420.805   100267829.3724   24486420.902  
                
  19637613.672   104679547.570                    81417418.443    19637617.512  
  19637613.387  
  19953830.180   106739548.934                                                  
  19953828.508  
  20349645.156   106938127.170    20349653.652    83328441.2504   20349653.727  
                
  20722031.062   110654531.151                    86064638.575    20722033.703  
  20722029.266  
  23056935.875   123382333.400                    95964021.950    23056939.344  
  23056934.008  
  22863300.914   122174550.629                    95024644.858    22863305.039  
  22863300.719  
  23501844.047   123503026.752    23501848.441    96236140.9984                 
                
  20713367.461   108849499.088    20713371.703    84817808.7414                 
                
 21  8 15  0 34  0.0000000  0 15G 6G12G17G15R 5R24G14R14R23G24R13R17
                                R15G 2G19
  22309595.984   117237716.832    22309605.023    91354102.2284   22309605.520  
                
  21959486.859   115397892.203    21959492.723    89920465.0634   21959492.867  
                
  22869171.969   120178320.972    22869177.715    93645476.3984   22869177.746  
                
  24455780.195   128516004.606    24455787.016   100142373.6284   24455786.922  
                
  22909972.352   122466933.825                    95252052.031    22909976.328  
  22909971.922  
  19819697.992   105984834.024                    82432651.386    19819702.273  
  19819696.953  
  24492033.414   128706518.154    24492039.824   100290838.2914   24492039.887  
                
  19635097.922   104666137.200                    81406988.152    19635101.766  
  19635097.637  
  19956375.070   106753162.318                                                  
  19956373.402  
  20349067.648   106935092.334    20349076.125    83326076.4394   20349076.219  
                
  20726076.938   110676135.872                    86081442.250    20726079.598  
  20726075.121  
  23048432.969   123336832.484                    95928632.347    23048436.363  
  23048431.062  
  22856896.914   122140329.661                    94998028.564    22856901.023  
  22856896.719  
  23495914.633   123471868.102    23495919.152    96211861.5464                 
                
  20716452.828   108865712.789    20716457.051    84830442.7874                 
                
 21  8 15  0 34 10.0000000  0 15G 6G12G17G15R 5R24G14R14R23G24R13R17
                                R15G 2G19
  22305208.375   117214659.849    22305217.430    91336135.7564   22305217.930  
                
  21954915.062   115373867.291    21954920.922    89901744.3514   21954921.082  
                
  22874625.188   120206977.917    22874630.953    93667806.4884   22874630.973  
                
  24462003.773   128548709.901    24462010.559   100167858.2774   24462010.496  
                
  22912335.273   122479565.077                    95261876.344    22912339.301  
  22912334.781  
  19815619.695   105963025.559                    82415689.253    19815623.980  
  19815618.664  
  24497653.625   128736052.313    24497660.000   100313851.9244   24497660.043  
                
  19632589.984   104652768.453                    81396590.243    19632593.836  
  19632589.707  
  19958936.234   106766862.862                                                  
  19958934.578  
  20348501.734   106932118.414    20348510.199    83323759.1004   20348510.293  
                
  20730130.664   110697782.655                    86098278.629    20730133.344  
  20730128.852  
  23039933.070   123291347.332                    95893255.008    23039936.359  
  23039931.051  
  22850493.234   122106110.456                    94971413.634    22850497.332  
  22850493.031  
  23489989.031   123440729.761    23489993.680    96187597.9164                 
                
  20719548.602   108881981.160    20719552.797    84843119.4434                 
                
 21  8 15  0 34 20.0000000  0 15G 6G12G17G15R 5R24G14R14R23G24R13R17
                                R15G 2G19
  22300829.984   117191651.253    22300839.043    91318206.9814   22300839.547  
                
  21950347.531   115349864.694    21950353.375    89883041.0234   21950353.547  
                
  22880082.398   120235655.767    22880088.172    93690152.8554   22880088.184  
                
  24468228.133   128581419.402    24468234.945   100193346.1994   24468234.879  
                
  22914712.672   122492273.639                    95271760.765    22914716.742  
  22914712.164  
  19811556.328   105941296.895                    82398789.192    19811560.605  
  19811555.316  
  24503275.023   128765592.448    24503281.348   100336870.2114   24503281.375  
                
  19630089.867   104639441.419                    81386224.770    19630093.715  
  19630089.582  
  19961513.719   106780650.581                                                  
  19961512.059  
  20347947.406   106929205.372    20347955.859    83321489.1974   20347955.957  
                
  20734192.266   110719471.328                    86115147.598    20734194.930  
  20734190.445  
  23031436.117   123245877.873                    95857889.862    23031439.305  
  23031434.004  
  22844089.906   122071893.078                    94944800.142    22844094.039  
  22844089.688  
  23484067.391   123409611.863    23484072.094    96163350.2064                 
                
  20722654.766   108898304.068    20722658.930    84855838.5914                 
                
 21  8 15  0 34 30.0000000  0 15G 6G12G17G15R 5R24G14R14R23G24R13R17
                                R15G 2G19
  22296460.805   117168691.109    22296469.875    91300315.9584   22296470.371  
                
  21945784.234   115325884.457    21945790.043    89864355.1294   21945790.227  
                
  22885543.555   120264354.355    22885549.328    93712515.3844   22885549.332  
                
  24474453.312   128614132.891    24474460.102   100218837.2304   24474460.008  
                
  22917104.469   122505059.257                    95281705.121    22917108.551  
  22917104.000  
  19807507.922   105919648.259                    82381951.362    19807512.184  
  19807506.930  
  24508897.461   128795138.486    24508903.789   100359893.0994   24508903.816  
                
  19627597.539   104626155.905                    81375891.601    19627601.383  
  19627597.258  
  19964107.398   106794525.095                                                  
  19964105.730  
  20347404.641   106926353.187    20347413.082    83319266.7154   20347413.199  
                
  20738261.750   110741202.179                    86132049.371    20738264.395  
  20738259.922  
  23022941.992   123200424.163                    95822536.992    23022945.207  
  23022939.891  
  22837686.914   122037677.394                    94918187.944    22837691.016  
  22837686.691  
  23478149.664   123378514.472    23478154.387    96139118.4664                 
                
  20725771.266   108914681.400    20725775.391    84868600.1534                 
                
 21  8 15  0 34 40.0000000  0 15G 6G12G17G15R 5R24G14R14R23G24R13R17
                                R15G 2G19
  22292100.883   117145779.603    22292109.961    91282462.8374   22292110.449  
                
  21941225.195   115301926.592    21941230.941    89845686.6594   21941231.168  
                
  22891008.656   120293073.673    22891014.453    93734894.0724   22891014.434  
                
  24480679.266   128646850.423    24480685.992   100244331.4234   24480685.910  
                
  22919510.734   122517922.124                    95291709.557    22919514.852  
  22919510.238  
  19803474.516   105898079.822                    82365175.899    19803478.762  
  19803473.543  
  24514521.016   128824690.473    24514527.301   100382920.6064   24514527.379  
                
  19625113.047   104612912.160                    81365590.903    19625116.891  
  19625112.773  
  19966717.383   106808486.723                                                  
  19966715.715  
  20346873.492   106923561.948    20346881.926    83317091.7224   20346882.043  
                
  20742339.125   110762975.062                    86148983.817    20742341.781  
  20742337.277  
  23014450.914   123154986.534                    95787196.620    23014454.113  
  23014448.797  
  22831284.242   122003463.567                    94891577.214    22831288.383  
  22831284.055  
  23472235.898   123347437.719    23472240.645    96114902.8404                 
                
  20728898.117   108931113.109    20728902.199    84881404.0784                 
                
 21  8 15  0 34 50.0000000  0 15G 6G12G17G15R 5R24G14R14R23G24R13R17
                                R15G 2G19
  22287750.266   117122916.954    22287759.301    91264647.7804   22287759.805  
                
  21936670.461   115277991.344    21936676.164    89827035.8164   21936676.418  
                
  22896477.711   120321813.773    22896483.531    93757288.9564   22896483.500  
                
  24486905.930   128679571.902    24486912.633   100269828.6864   24486912.562  
                
  22921931.445   122530862.176                    95301774.045    22921935.566  
  22921930.938  
  19799456.109   105876591.568                    82348462.826    19799460.344  
  19799455.133  
  24520145.719   128854248.510    24520152.016   100405952.8614   24520152.117  
                
  19622636.445   104599710.438                    81355322.911    19622640.289  
  19622636.164  
  19969343.602   106822535.149                                                  
  19969341.945  
  20346353.969   106920831.828    20346362.398    83314964.3584   20346362.520  
                
  20746424.398   110784790.150                    86165951.125    20746427.066  
  20746422.566  
  23005962.812   123109565.134                    95751868.876    23005966.039  
  23005960.738  
  22824881.977   121969251.813                    94864968.080    22824886.098  
  22824881.777  
  23466326.188   123316381.873    23466330.891    96090703.4784                 
                
  20732035.328   108947599.213    20732039.359    84894250.4014                 
                
 21  8 15  0 35  0.0000000  0 15G 6G12G17G15R 5R24G14R14R23G24R13R17
                                R15G 2G19
  22283408.898   117100103.014    22283417.855    91246870.6824   22283418.410  
                
  21932119.984   115254078.474    21932125.648    89808402.4034   21932125.930  
                
  22901950.656   120350574.335    22901956.473    93779699.7714   22901956.461  
                
  24493133.344   128712297.050    24493139.965   100295328.8114   24493139.914  
                
  22924366.500   122543878.976                    95311898.223    22924370.609  
  22924366.023  
  19795452.711   105855183.584                    82331812.169    19795456.922  
  19795451.754  
  24525771.539   128883812.371    24525777.840   100428989.6284   24525777.961  
                
  19620167.680   104586550.544                    81345087.433    19620171.508  
  19620167.402  
  19971985.992   106836670.166                                                  
  19971984.352  
  20345846.023   106918162.578    20345854.449    83312884.4224   20345854.566  
                
  20750517.547   110806647.387                    86182951.192    20750520.227  
  20750515.707  
  22997477.742   123064159.973                    95716553.748    22997480.977  
  22997475.723  
  22818480.047   121935041.891                    94838360.370    22818484.160  
  22818479.840  
  23460420.398   123285346.672    23460425.055    96066520.2094                 
                
  20735182.812   108964139.392    20735186.801    84907138.8494                 
                
 21  8 15  0 35 10.0000000  0 15G 6G12G17G15R 5R24G14R14R23G24R13R17
                                R15G 2G19
  22279076.844   117077337.964    22279085.730    91229131.6854   22279086.324  
                
  21927573.758   115230187.932    21927579.406    89789786.4064   21927579.688  
                
  22907427.492   120379355.310    22907433.312    93802126.5094   22907433.316  
                
  24499361.406   128745025.875    24499368.035   100320831.7854   24499367.992  
                
  22926815.961   122556972.738                    95322082.266    22926820.059  
  22926815.531  
  19791464.352   105833856.035                    82315224.073    19791468.555  
  19791463.414  
  24531398.492   128913382.118    24531404.812   100452031.0024   24531404.914  
                
  19617706.781   104573432.586                    81334884.586    19617710.609  
  19617706.520  
  19974644.594   106850891.886                                                  
  19974642.961  
  20345349.695   106915554.339    20345358.125    83310852.0314   20345358.230  
                
  20754618.555   110828546.594                    86199983.900    20754621.273  
  20754616.691  
  22988995.727   123018771.109                    95681251.292    22988998.969  
  22988993.770  
  22812078.531   121900834.129                    94811754.351    22812082.664  
  22812078.312  
  23454518.625   123254332.377    23454523.215    96042353.2214                 
                
  20738340.602   108980733.679    20738344.547    84920069.4634                 
                
 21  8 15  0 35 20.0000000  0 15G 6G12G17G15R 5R24G14R14R23G24R13R17
                                R15G 2G19
  22274754.156   117054622.064    22274763.004    91211430.9704   22274763.621  
                
  21923031.836   115206319.954    21923037.484    89771187.9854   21923037.777  
                
  22912908.219   120408156.764    22912914.051    93824569.2044   22912914.055  
                
  24505590.109   128777758.340    24505596.824   100346337.5924   24505596.777  
                
  22929279.805   122570143.294                    95332326.034    22929283.891  
  22929279.395  
  19787491.039   105812608.918                    82298698.540    19787495.238  
  19787490.137  
  24537026.555   128942957.860    24537032.938   100475077.0304   24537032.980  
                
  19615253.805   104560356.769                    81324714.504    19615257.617  
  19615253.543  
  19977319.383   106865200.162                                                  
  19977317.738  
  20344865.000   106913007.250    20344873.426    83308867.2834   20344873.543  
                
  20758727.469   110850487.984                    86217049.416    20758730.188  
  20758725.590  
  22980516.883   122973398.833                    95645961.745    22980520.059  
  22980514.891  
  22805677.398   121866628.413                    94785149.904    22805681.523  
  22805677.199  
  23448620.914   123223339.190    23448625.402    96018202.6794                 
                
  20741508.703   108997382.162    20741512.617    84933042.3114                 
                
 21  8 15  0 35 30.0000000  0 15G 6G12G17G15R 5R24G14R14R23G24R13R17
                                R15G 2G19
  22270440.797   117031955.254    22270449.637    91193768.5184   22270450.266  
                
  21918494.203   115182474.581    21918499.848    89752607.1804   21918500.133  
                
  22918392.812   120436978.555    22918398.660    93847027.7344   22918398.652  
                
  24511819.430   128810494.262    24511826.227   100371846.0974   24511826.227  
                
  22931757.977   122583390.536                    95342629.422    22931762.066  
  22931757.559  
  19783532.781   105791442.356                    82282235.679    19783536.969  
  19783531.902  
  24542655.727   128972539.443    24542662.156   100498127.6094   24542662.180  
                
  19612808.719   104547323.144                    81314577.243    19612812.531  
  19612808.441  
  19980010.344   106879594.923                                                  
  19980008.707  
  20344391.922   106910521.238    20344400.348    83306930.1294   20344400.461  
                
  20762844.273   110872471.357                    86234147.588    20762846.969  
  20762842.383  
  22972041.125   122928043.334                    95610685.245    22972044.320  
  22972039.156  
  22799276.617   121832424.770                    94758547.139    22799280.793  
  22799276.398  
  23442727.227   123192367.061    23442731.617    95994068.5574                 
                
  20744687.078   109014084.631    20744690.957    84946057.2214                 
                
 21  8 15  0 35 40.0000000  0 15G 6G12G17G15R 5R24G14R14R23G24R13R17
                                R15G 2G19
  22266136.797   117009337.640    22266145.660    91176144.4034   22266146.281  
                
  21913960.883   115158651.754    21913966.543    89734043.9404   21913966.809  
                
  22923881.250   120465820.542    22923887.109    93869502.0024   22923887.090  
                
  24518049.539   128843233.471    24518056.254   100397357.1794   24518056.285  
                
  22934250.469   122596714.248                    95352992.309    22934254.582  
  22934250.062  
  19779589.625   105770356.506                    82265835.562    19779593.812  
  19779588.762  
  24548286.023   129002126.848    24548292.461   100521182.7114   24548292.492  
                
  19610371.555   104534331.673                    81304472.761    19610375.371  
  19610371.273  
  19982717.414   106894075.899                                                  
  19982715.777  
  20343930.469   106908096.268    20343938.895    83305040.5454   20343939.012  
                
  20766968.906   110894496.658                    86251278.369    20766971.586  
  20766967.012  
  22963568.633   122882704.564                    95575421.746    22963571.703  
  22963566.570  
  22792876.250   121798223.365                    94731946.037    22792880.430  
  22792876.074  
  23436837.539   123161416.167    23436841.902    95969950.9694                 
                
  20747875.703   109030840.980    20747879.555    84959114.1194                 
                
 21  8 15  0 35 50.0000000  0 15G 6G12G17G15R 5R24G14R14R23G24R13R17
                                R15G 2G19
  22261842.133   116986769.139    22261851.074    91158558.5624   22261851.672  
                
  21909431.805   115134851.308    21909437.488    89715498.1304   21909437.719  
                
  22929373.477   120494682.447    22929379.344    93891991.7954   22929379.324  
                
  24524280.234   128875975.728    24524286.867   100422870.6304   24524286.945  
                
  22936757.219   122610114.313                    95363414.581    22936761.344  
  22936756.816  
  19775661.492   105749351.042                    82249497.988    19775665.699  
  19775660.637  
  24553917.383   129031719.861    24553923.852   100544242.1944   24553923.855  
                
  19607942.266   104521382.212                    81294400.952    19607946.078  
  19607941.992  
  19985440.570   106908642.933                                                  
  19985438.922  
  20343480.609   106905732.215    20343489.035    83303198.4214   20343489.141  
                
  20771101.336   110916563.568                    86268441.521    20771104.012  
  20771099.453  
  22955099.195   122837382.532                    95540171.283    22955102.227  
  22955097.074  
  22786476.297   121764023.880                    94705346.433    22786480.398  
  22786476.133  
  23430951.766   123130486.369    23430956.184    95945849.8284                 
                
  20751074.547   109047651.022    20751078.383    84972212.8484                 
                
 21  8 15  0 36  0.0000000  0 15G 6G12G17G15R 5R24G14R14R23G24R13R17
                                R15G 2G19
  22257556.891   116964250.097    22257565.891    91141011.2694   22257566.469  
                
  21904907.039   115111073.534    21904912.734    89696970.0034   21904912.973  
                
  22934869.547   120523564.524    22934875.426    93914497.3094   22934875.402  
                
  24530511.508   128908721.157    24530518.141   100448386.5454   24530518.230  
                
  22939278.258   122623590.706                    95373896.232    22939282.379  
  22939277.863  
  19771748.477   105728426.374                    82233223.235    19771752.699  
  19771747.621  
  24559549.844   129061318.766    24559556.348   100567306.2574   24559556.320  
                
  19605520.922   104508475.070                    81284362.068    19605524.719  
  19605520.648  
  19988179.844   106923296.190                                                  
  19988178.176  
  20343042.391   106903429.351    20343050.816    83301403.9794   20343050.918  
                
  20775241.664   110938672.671                    86285637.487    20775244.348  
  20775239.812  
  22946632.891   122792077.616                    95504934.130    22946635.906  
  22946630.809  
  22780076.805   121729826.823                    94678748.745    22780080.871  
  22780076.637  
  23425070.023   123099578.085    23425074.539    95921765.4524                 
                
  20754283.641   109064514.890    20754287.465    84985353.5294                 
                
 21  8 15  0 36 10.0000000  0 15G 6G12G17G15R 5R24G14R14R23G24R13R17
                                R15G 2G19
  22253281.102   116941780.765    22253290.102    91123502.6964   22253290.676  
                
  21900386.594   115087318.402    21900392.262    89678459.5134   21900392.512  
                
  22940369.453   120552466.822    22940375.355    93937018.5834   22940375.316  
                
  24536743.336   128941469.691    24536750.008   100473904.8724   24536750.086  
                
  22941813.617   122637143.641                    95384437.387    22941817.730  
  22941813.242  
  19767850.680   105707583.106                    82217011.815    19767854.930  
  19767849.816  
  24565183.406   129090923.656    24565189.965   100590375.0144   24565189.918  
                
  19603107.594   104495610.656                    81274356.418    19603111.391  
  19603107.309  
  19990935.227   106938035.650                                                  
  19990933.551  
  20342615.844   106901187.853    20342624.285    83299657.3614   20342624.383  
                
  20779389.914   110960824.024                    86302866.311    20779392.586  
  20779388.066  
  22938169.773   122746790.026                    95469710.449    22938172.859  
  22938167.758  
  22773677.750   121695632.214                    94652152.919    22773681.766  
  22773677.582  
  23419192.406   123068691.512    23419197.047    95897698.0154                 
                
  20757502.961   109081432.557    20757506.781    84998536.1274                 
                
 21  8 15  0 36 20.0000000  0 15G 6G12G17G15R 5R24G14R14R23G24R13R17
                                R15G 2G19
  22249014.766   116919361.118    22249023.746    91106032.8284   22249024.352  
                
  21895870.484   115063586.072    21895876.152    89659966.7864   21895876.402  
                
  22945873.172   120581389.134    22945879.090    93959555.4404   22945879.051  
                
  24542975.688   128974221.185    24542982.418   100499425.5064   24542982.469  
                
  22944363.250   122650772.847                    95395037.871    22944367.371  
  22944362.934  
  19763968.008   105686820.741                    82200863.312    19763972.301  
  19763967.129  
  24570818.102   129120534.377    24570824.676   100613448.2984   24570824.625  
                
  19600702.227   104482788.676                    81264383.776    19600706.016  
  19600701.934  
  19993706.703   106952861.187                                                  
  19993705.016  
  20342200.953   106899007.605    20342209.406    83297958.4614   20342209.496  
                
  20783545.953   110983017.015                    86320127.537    20783548.625  
  20783544.121  
  22929710.008   122701519.857                    95434500.322    22929713.102  
  22929707.992  
  22767279.164   121661440.123                    94625559.059    22767283.168  
  22767279.008  
  23413318.922   123037826.661    23413323.691    95873647.5094                 
                
  20760732.492   109098403.905    20760736.324    85011760.5554                 
                
 21  8 15  0 36 30.0000000  0 15G 6G12G17G15R 5R24G14R14R23G24R13R17
                                R15G 2G19
  22244757.820   116896990.849    22244766.816    91088601.4694   22244767.434  
                
  21891358.641   115039876.188    21891364.320    89641491.5544   21891364.566  
                
  22951380.609   120610330.979    22951386.566    93982107.5274   22951386.492  
                
  24549208.664   129006975.197    24549215.309   100524948.1254   24549215.359  
                
  22946927.086   122664477.938                    95405697.384    22946931.215  
  22946926.785  
  19760100.406   105666138.953                    82184777.485    19760104.727  
  19760099.520  
  24576453.883   129150150.549    24576460.414   100636525.8254   24576460.387  
                
  19598304.789   104470008.997                    81254444.024    19598308.582  
  19598304.492  
  19996494.164   106967772.229                                                  
  19996492.469  
  20341797.664   106896888.281    20341806.129    83296307.0394   20341806.203  
                
  20787709.828   111005251.862                    86337421.313    20787712.492  
  20787708.031  
  22921253.453   122656266.947                    95399303.626    22921256.559  
  22921251.461  
  22760880.953   121627250.141                    94598966.909    22760885.000  
  22760880.812  
  23407449.625   123006983.252    23407454.406    95849613.7034                 
                
  20763972.156   109115428.436    20763975.992    85025026.4244                 
                
 21  8 15  0 36 40.0000000  0 15G 6G12G17G15R 5R24G14R14R23G24R13R17
                                R15G 2G19
  22240510.383   116874670.426    22240519.414    91071208.9424   22240520.008  
                
  21886851.125   115016189.000    21886856.812    89623034.0064   21886857.062  
                
  22956891.805   120639292.534    22956897.805    94004674.9654   22956897.699  
                
  24555442.156   129039731.903    24555448.746   100550472.8424   24555448.789  
                
  22949505.109   122678258.927                    95416415.924    22949509.258  
  22949504.805  
  19756247.992   105645538.400                    82168754.849    19756252.359  
  19756247.105  
  24582090.773   129179772.472    24582097.219   100659607.8624   24582097.242  
                
  19595915.352   104457271.945                    81244537.435    19595919.156  
  19595915.055  
  19999297.672   106982769.091                                                  
  19999295.977  
  20341406.016   106894830.177    20341414.480    83294703.3264   20341414.559  
                
  20791881.594   111027528.743                    86354747.762    20791884.215  
  20791879.812  
  22912800.258   122611031.639                    95364120.605    22912803.293  
  22912798.195  
  22754483.273   121593062.710                    94572376.678    22754487.301  
  22754483.129  
  23401584.539   122976161.694    23401589.281    95825596.9114                 
                
  20767221.977   109132506.365    20767225.816    85038333.9004                 
                
 21  8 15  0 36 50.0000000  0 15G 6G12G17G15R 5R24G14R14R23G24R13R17
                                R15G 2G19
  22236272.430   116852399.928    22236281.496    91053855.3034   22236282.047  
                
  21882347.930   114992524.572    21882353.621    89604594.1914   21882353.871  
                
  22962406.742   120668273.759    22962412.734    94027257.7334   22962412.656  
                
  24561676.047   129072491.249    24561682.668   100575999.5894   24561682.703  
                
  22952097.336   122692115.889                    95427193.544    22952101.539  
  22952097.020  
  19752410.789   105625019.149                    82152795.425    19752415.172  
  19752409.891  
  24587728.688   129209400.156    24587735.137   100682694.3824   24587735.188  
                
  19593533.914   104444577.576                    81234664.040    19593537.723  
  19593533.617  
  20002117.180   106997851.550                                                  
  20002115.469  
  20341026.039   106892833.366    20341034.488    83293147.3654   20341034.582  
                
  20796061.188   111049847.545                    86372106.821    20796063.801  
  20796059.414  
  22904350.422   122565814.054                    95328951.376    22904353.305  
  22904348.230  
  22748086.039   121558877.859                    94545788.483    22748090.098  
  22748085.918  
  23395723.641   122945362.037    23395728.297    95801597.1634                 
                
  20770481.945   109149637.655    20770485.801    85051682.9514                 
                
 21  8 15  0 37  0.0000000  0 15G 6G12G17G15R 5R24G14R14R23G24R13R17
                                R15G 2G19
  22232044.008   116830179.481    22232053.086    91036540.6684   22232053.633  
                
  21877849.070   114968882.936    21877854.770    89586172.1354   21877855.023  
                
  22967925.422   120697274.622    22967931.406    94049855.8124   22967931.336  
                
  24567910.453   129105253.059    24567917.051   100601528.2874   24567917.090  
                
  22954703.766   122706048.716                    95438030.182    22954708.023  
  22954703.414  
  19748588.773   105604581.152                    82136899.221    19748593.172  
  19748587.859  
  24593367.719   129239033.591    24593374.199   100705785.3894   24593374.250  
                
  19591160.516   104431925.986                    81224823.907    19591164.340  
  19591160.215  
  20004952.695   107013019.635                                                  
  20004950.969  
  20340657.727   106890897.880    20340666.164    83291639.1954   20340666.262  
                
  20800248.680   111072208.424                    86389498.613    20800251.305  
  20800246.922  
  22895903.914   122520614.440                    95293796.117    22895906.660  
  22895901.633  
  22741689.289   121524695.635                    94519202.340    22741693.367  
  22741689.199  
  23389867.000   122914584.472    23389871.512    95777614.6394                 
                
  20773752.062   109166822.228    20773755.930    85065073.5264                 
                
 21  8 15  0 37 10.0000000  0 15G 6G12G17G15R 5R24G14R14R23G24R13R17
                                R15G 2G19
  22227825.117   116808009.107    22227834.215    91019265.0564   22227834.750  
                
  21873354.539   114945264.053    21873360.273    89567767.8234   21873360.520  
                
  22973447.820   120726295.020    22973453.812    94072469.1054   22973453.734  
                
  24574145.336   129138017.204    24574151.895   100627058.7974   24574151.910  
                
  22957324.336   122720057.138                    95448925.597    22957328.641  
  22957323.973  
  19744781.992   105584224.591                    82121066.328    19744786.406  
  19744781.070  
  24599007.859   129268672.694    24599014.336   100728880.7874   24599014.359  
                
  19588795.164   104419317.321                    81215017.176    19588798.984  
  19588794.855  
  20007804.172   107028273.149                                                  
  20007802.422  
  20340301.078   106889023.672    20340309.500    83290178.7754   20340309.609  
                
  20804443.961   111094610.932                    86406922.782    20804446.594  
  20804442.203  
  22887460.555   122475432.744                    95258654.805    22887463.363  
  22887458.367  
  22735293.078   121490516.131                    94492618.249    22735297.102  
  22735293.000  
  23384014.531   122883829.053    23384018.965    95753649.3664                 
                
  20777032.289   109184059.943    20777036.160    85078505.5144                 
                
 21  8 15  0 37 20.0000000  0 15G 6G12G17G15R 5R24G14R14R23G24R13R17
                                R15G 2G19
  22223615.812   116785889.047    22223624.980    91002028.6554   22223625.465  
                
  21868864.375   114921668.084    21868870.152    89549381.3574   21868870.375  
                
  22978973.953   120755335.009    22978979.965    94095097.6724   22978979.879  
                
  24580380.586   129170783.689    24580387.184   100652591.1034   24580387.180  
                
  22959959.102   122734141.302                    95459879.968    22959963.387  
  22959958.781  
  19740990.445   105563949.503                    82105296.824    19740994.879  
  19740989.535  
  24604649.109   129298317.585    24604655.602   100751980.6794   24604655.605  
                
  19586437.844   104406751.511                    81205243.768    19586441.676  
  19586437.551  
  20010671.648   107043612.231                                                  
  20010669.867  
  20339956.117   106887210.879    20339964.527    83288766.2144   20339964.641  
                
  20808647.102   111117055.396                    86424379.579    20808649.730  
  20808645.344  
  22879020.578   122430269.341                    95223527.724    22879023.488  
  22879018.523  
  22728897.367   121456339.375                    94466036.338    22728901.355  
  22728897.273  
  23378166.266   122853095.965    23378170.680    95729701.5074                 
                
  20780322.656   109201350.941    20780326.535    85091979.0214                 
                
 21  8 15  0 37 30.0000000  0 15G 6G12G17G15R 5R24G14R14R23G24R13R17
                                R15G 2G19
  22219416.070   116763819.307    22219425.293    90984831.4644   22219425.734  
                
  21864378.555   114898094.925    21864384.375    89531012.6694   21864384.574  
                
  22984503.773   120784394.398    22984509.801    94117741.3574   22984509.688  
                
  24586616.352   129203552.373    24586622.898   100678125.1444   24586622.859  
                
  22962607.977   122748301.051                    95470893.126    22962612.258  
  22962607.672  
  19737214.203   105543756.204                    82089590.920    19737218.625  
  19737213.285  
  24610291.422   129327968.164    24610297.961   100775085.0344   24610297.922  
                
  19584088.609   104394228.730                    81195503.823    19584092.430  
  19584088.305  
  20013555.062   107059036.574                                                  
  20013553.262  
  20339622.844   106885459.489    20339631.246    83287401.4904   20339631.355  
                
  20812858.094   111139541.831                    86441869.051    20812860.754  
  20812856.332  
  22870583.984   122385124.162                    95188414.819    22870587.059  
  22870582.070  
  22722502.188   121422165.554                    94439456.724    22722506.137  
  22722502.086  
  23372322.234   122822385.285    23372326.688    95705771.1144                 
                
  20783623.125   109218694.984    20783627.004    85105493.8664                 
                
 21  8 15  0 37 40.0000000  0 15G 6G12G17G15R 5R24G14R14R23G24R13R17
                                R15G 2G19
  22215225.930   116741799.949    22215235.145    90967673.5174   22215235.586  
                
  21859897.086   114874544.632    21859902.926    89512661.7904   21859903.109  
                
  22990037.281   120813473.117    22990043.324    94140400.0984   22990043.203  
                
  24592852.516   129236323.219    24592858.988   100703660.8704   24592858.922  
                
  22965270.961   122762536.179                    95481964.873    22965275.191  
  22965270.680  
  19733453.203   105523644.457                    82073948.462    19733457.621  
  19733452.301  
  24615934.773   129357624.386    24615941.379   100798193.7694   24615941.281  
                
  19581747.469   104381749.114                    81185797.459    19581751.289  
  19581747.160  
  20016454.367   107074545.984                                                  
  20016452.527  
  20339301.242   106883769.453    20339309.633    83286084.5804   20339309.746  
                
  20817076.945   111162070.292                    86459391.177    20817079.633  
  20817075.172  
  22862150.922   122339997.367                    95153316.201    22862154.055  
  22862149.055  
  22716107.516   121387994.491                    94412879.220    22716111.410  
  22716107.430  
  23366482.477   122791697.049    23366486.949    95681858.2094                 
                
  20786933.664   109236091.938    20786937.539    85119049.9344                 
                
 21  8 15  0 37 50.0000000  0 15G 6G12G17G15R 5R24G14R14R23G24R13R17
                                R15G 2G19
  22211045.547   116719831.921    22211054.762    90950555.5734   22211055.207  
                
  21855420.125   114851018.087    21855426.012    89494329.4164   21855426.168  
                
  22995574.586   120842571.892    22995580.613    94163074.4644   22995580.508  
                
  24599089.141   129269096.905    24599095.613   100729198.7974   24599095.527  
                
  22967948.195   122776847.485                    95493095.900    22967952.395  
  22967947.945  
  19729707.633   105503615.184                    82058370.150    19729712.043  
  19729706.734  
  24621579.359   129387287.080    24621585.965   100821307.5374   24621585.891  
                
  19579414.570   104369313.470                    81176125.284    19579418.398  
  19579414.266  
  20019369.727   107090141.271                                                  
  20019367.836  
  20338991.484   106882141.662    20338999.863    83284816.1704   20338999.977  
                
  20821303.828   111184641.632                    86476946.645    20821306.508  
  20821302.055  
  22853721.586   122294889.975                    95118232.667    22853724.637  
  22853719.648  
  22709713.508   121353827.086                    94386304.582    22709717.418  
  22709713.441  
  23360647.188   122761032.243    23360651.641    95657963.5494                 
                
  20790254.375   109253542.427    20790258.246    85132647.7184                 
                
 21  8 15  0 38  0.0000000  0 15G 6G12G17G15R 5R24G14R14R23G24R13R17
                                R15G 2G19
  22206874.539   116697913.116    22206883.773    90933475.9914   22206884.219  
                
  21850947.250   114827513.029    21850953.180    89476013.8004   21850953.312  
                
  23001115.273   120871688.401    23001121.289    94185762.6584   23001121.184  
                
  24605325.852   129301871.005    24605332.328   100754737.0554   24605332.227  
                
  22970639.219   122791232.484                    95504284.222    22970643.430  
  22970638.973  
  19725977.133   105483666.516                    82042854.517    19725981.535  
  19725976.230  
  24627224.789   129416953.984    24627231.355   100844424.5974   24627231.328  
                
  19577089.523   104356919.647                    81166485.643    19577093.336  
  19577089.230  
  20022300.719   107105820.194                                                  
  20022298.781  
  20338693.148   106880573.896    20338701.508    83283594.5374   20338701.625  
                
  20825538.289   111207253.416                    86494533.592    20825540.996  
  20825536.523  
  22845295.344   122249799.842                    95083162.574    22845298.480  
  22845293.477  
  22703319.859   121319661.389                    94359731.266    22703323.801  
  22703319.777  
  23354815.852   122730388.712    23354820.352    95634085.4714                 
                
  20793584.898   109271044.405    20793588.777    85146285.6264                 
                
 21  8 15  0 38 10.0000000  0 15G 6G12G17G15R 5R24G14R14R23G24R13R17
                                R15G 2G19
  22202713.250   116676045.390    22202722.488    90916436.2014   22202722.949  
                
  21846478.820   114804031.296    21846484.754    89457716.3514   21846484.867  
                
  23006659.648   120900824.319    23006665.680    94208465.9754   23006665.570  
                
  24611563.000   129334647.208    24611569.445   100780276.9594   24611569.352  
                
  22973344.352   122805693.080                    95515531.345    22973348.594  
  22973344.102  
  19722262.000   105463800.039                    82027402.803    19722266.391  
  19722261.102  
  24632871.352   129446626.843    24632877.887   100867546.3084   24632877.887  
                
  19574772.672   104344569.499                    81156879.984    19574776.473  
  19574772.391  
  20025247.648   107121584.412                                                  
  20025245.672  
  20338406.578   106879067.947    20338414.914    83282421.0714   20338415.039  
                
  20829780.617   111229907.179                    86512153.181    20829783.297  
  20829778.859  
  22836872.766   122204728.877                    95048107.382    22836875.906  
  22836870.895  
  22696926.805   121285498.929                    94333160.469    22696930.777  
  22696926.672  
  23348988.898   122699768.281    23348993.402    95610225.3914                 
                
  20796925.531   109288599.564    20796929.418    85159964.9684                 
                
 21  8 15  0 38 20.0000000  0 15G 6G12G17G15R 5R24G14R14R23G24R13R17
                                R15G 2G19
  22198561.656   116654228.622    22198570.883    90899436.1254   22198571.352  
                
  21842014.797   114780572.660    21842020.695    89439436.8954   21842020.840  
                
  23012207.672   120929979.421    23012213.723    94231184.2314   23012213.594  
                
  24617800.477   129367425.240    24617806.914   100805818.2754   24617806.797  
                
  22976063.562   122820228.763                    95526836.858    22976067.801  
  22976063.352  
  19718562.188   105444015.479                    82012014.818    19718566.562  
  19718561.305  
  24638518.984   129476305.466    24638525.484   100890672.5284   24638525.523  
                
  19572463.977   104332262.835                    81147308.121    19572467.773  
  19572463.703  
  20028210.469   107137433.571                                                  
  20028208.465  
  20338131.742   106877623.634    20338140.047    83281295.6304   20338140.188  
                
  20834030.789   111252602.850                    86529805.371    20834033.508  
  20834029.023  
  22828453.664   122159677.045                    95013067.068    22828456.906  
  22828451.883  
  22690534.383   121251339.833                    94306592.312    22690538.371  
  22690534.254  
  23343166.398   122669170.925    23343170.871    95586383.2984                 
                
  20800276.211   109306207.481    20800280.113    85173685.4254                 
                
 21  8 15  0 38 30.0000000  0 15G 6G12G17G15R 5R24G14R14R23G24R13R17
                                R15G 2G19
  22194419.750   116632462.750    22194428.938    90882475.7084   22194429.414  
                
  21837555.133   114757136.973    21837561.027    89421175.3204   21837561.184  
                
  23017759.305   120959153.422    23017765.352    94253917.2324   23017765.215  
                
  24624038.305   129400204.784    24624044.672   100831360.7834   24624044.527  
                
  22978796.797   122834839.411                    95538200.710    22978801.020  
  22978796.586  
  19714877.766   105424313.226                    81996690.836    19714882.121  
  19714876.887  
  24644167.703   129505989.683    24644174.129   100913803.1014   24644174.191  
                
  19570163.430   104319999.621                    81137770.069    19570167.238  
  19570163.160  
  20031189.125   107153367.416                                                  
  20031187.094  
  20337868.602   106876240.825    20337876.887    83280218.1154   20337877.035  
                
  20838288.781   111275340.241                    86547489.991    20838291.484  
  20838287.020  
  22820038.203   122114644.232                    94978041.542    22820041.438  
  22820036.406  
  22684142.578   121217183.885                    94280026.571    22684146.559  
  22684142.488  
  23337348.250   122638596.574    23337352.773    95562559.1264                 
                
  20803636.906   109323868.041    20803640.820    85187446.9024                 
                
 21  8 15  0 38 40.0000000  0 15G 6G12G17G15R 5R24G14R14R23G24R13R17
                                R15G 2G19
  22190287.539   116610747.792    22190296.676    90865554.9654   22190297.176  
                
  21833099.828   114733724.223    21833105.758    89402931.6264   21833105.895  
                
  23023314.492   120988346.153    23023320.512    94276664.8144   23023320.379  
                
  24630276.375   129432985.654    24630282.723   100856904.3234   24630282.574  
                
  22981544.008   122849524.832                    95549622.703    22981548.254  
  22981543.797  
  19711208.711   105404693.118                    81981430.755    19711213.043  
  19711207.840  
  24649817.523   129535679.369    24649823.801   100936937.9184   24649823.914  
                
  19567871.023   104307779.815                    81128265.782    19567874.848  
  19567870.754  
  20034183.562   107169385.754                                                  
  20034181.527  
  20337617.156   106874919.429    20337625.422    83279188.4534   20337625.582  
                
  20842554.578   111298119.398                    86565207.134    20842557.262  
  20842552.836  
  22811626.234   122069630.593                    94943030.935    22811629.539  
  22811624.496  
  22677751.344   121183031.038                    94253463.248    22677755.320  
  22677751.262  
  23331534.438   122608045.210    23331539.105    95538752.8734                 
                
  20807007.555   109341580.957    20807011.480    85201249.1694                 
                
 21  8 15  0 38 50.0000000  0 15G 6G12G17G15R 5R24G14R14R23G24R13R17
                                R15G 2G19
  22186165.086   116589084.051    22186174.156    90848674.1204   22186174.672  
                
  21828648.953   114710334.675    21828654.883    89384706.0054   21828655.008  
                
  23028873.289   121017557.757    23028879.270    94299427.1124   23028879.160  
                
  24636514.602   129465767.768    24636521.051   100882448.8284   24636520.871  
                
  22984305.203   122864285.062                    95561102.834    22984309.488  
  22984304.961  
  19707555.008   105385155.171                    81966234.576    19707559.328  
  19707554.145  
  24655468.414   129565374.700    24655474.578   100960077.1504   24655474.711  
                
  19565586.812   104295603.670                    81118795.445    19565590.648  
  19565586.527  
  20037193.820   107185488.620                                                  
  20037191.766  
  20337377.438   106873659.674    20337385.691    83278206.8274   20337385.852  
                
  20846828.297   111320940.744                    86582957.066    20846830.988  
  20846826.535  
  22803217.953   122024636.375                    94908035.418    22803221.301  
  22803216.238  
  22671360.750   121148881.733                    94226902.685    22671364.727  
  22671360.668  
  23325725.125   122577517.145    23325729.887    95514964.7904                 
                
  20810388.211   109359346.419    20810392.137    85215092.3864                 
                
 21  8 15  0 39  0.0000000  0 15G 6G12G17G15R 5R24G14R14R23G24R13R17
                                R15G 2G19
  22182052.383   116567471.557    22182061.418    90831833.2084   22182061.930  
                
  21824202.469   114686968.272    21824208.406    89366498.4094   21824208.531  
                
  23034435.641   121046788.119    23034441.613    94322204.0184   23034441.508  
                
  24642753.078   129498551.304    24642759.645   100907994.4374   24642759.434  
                
  22987080.383   122879119.944                    95572641.112    22987084.648  
  22987080.090  
  19703916.719   105365699.595                    81951102.468    19703921.035  
  19703915.828  
  24661120.383   129595075.638    24661126.473   100983220.7514   24661126.598  
                
  19563310.797   104283471.223                    81109359.100    19563314.645  
  19563310.508  
  20040219.852   107201675.897                                                  
  20040217.797  
  20337149.438   106872461.546    20337157.676    83277273.2164   20337157.840  
                
  20851109.781   111343803.702                    86600739.356    20851112.445  
  20851108.004  
  22794813.477   121979661.772                    94873055.163    22794816.734  
  22794811.621  
  22664970.727   121114735.578                    94200344.590    22664974.707  
  22664970.672  
  23319920.312   122547012.413    23319925.113    95491194.8954                 
                
  20813778.844   109377164.303    20813782.750    85228976.4524                 
                
 21  8 15  0 39 10.0000000  0 15G 6G12G17G15R 5R24G14R14R23G24R13R17
                                R15G 2G19
  22177949.383   116545910.140    22177958.453    90815032.1264   22177958.922  
                
  21819760.328   114663624.684    21819766.324    89348308.6174   21819766.414  
                
  23040001.461   121076036.786    23040007.438    94344995.1874   23040007.324  
                
  24648991.766   129531335.819    24648998.355   100933540.8114   24648998.129  
                
  22989869.461   122894029.193                    95584237.172    22989873.688  
  22989869.133  
  19700293.805   105346326.320                    81936034.365    19700298.113  
  19700292.887  
  24666773.312   129624781.892    24666779.430   101006368.4734   24666779.527  
                
  19561042.953   104271382.388                    81099956.673    19561046.812  
  19561042.660  
  20043261.609   107217947.323                                                  
  20043259.562  
  20336933.117   106871324.776    20336941.340    83276387.4254   20336941.512  
                
  20855399.070   111366708.368                    86618554.086    20855401.734  
  20855397.277  
  22786412.492   121934706.561                    94838090.007    22786415.797  
  22786410.645  
  22658581.336   121080592.651                    94173788.970    22658585.289  
  22658581.270  
  23314120.008   122516530.958    23314124.762    95467443.1164                 
                
  20817179.367   109395034.203    20817183.250    85242901.0484                 
                
 21  8 15  0 39 20.0000000  0 15G 6G12G17G15R 5R24G14R14R23G24R13R17
                                R15G 2G19
  22173856.188   116524400.206    22173865.277    90798271.1514   22173865.719  
                
  21815322.617   114640304.341    21815328.664    89330136.9254   21815328.719  
                
  23045570.844   121105304.115    23045576.797    94367800.8994   23045576.691  
                
  24655230.633   129564121.489    24655237.234   100959088.0844   24655237.023  
                
  22992672.469   122909012.941                    95595891.210    22992676.609  
  22992672.105  
  19696686.281   105327035.345                    81921030.275    19696690.582  
  19696685.344  
  24672427.266   129654493.774    24672433.477   101029520.5814   24672433.512  
                
  19558783.344   104259337.405                    81090588.351    19558787.207  
  19558783.031  
  20046319.125   107234302.994                                                  
  20046317.090  
  20336728.539   106870249.720    20336736.746    83275549.7144   20336736.926  
                
  20859696.219   111389654.848                    86636401.355    20859698.891  
  20859694.402  
  22778015.219   121889771.074                    94803140.198    22778018.539  
  22778013.359  
  22652192.594   121046453.288                    94147236.143    22652196.547  
  22652192.504  
  23308324.141   122486073.073    23308328.855    95443709.6994                 
                
  20820589.844   109412956.328    20820593.699    85256866.3484                 
                
 21  8 15  0 39 30.0000000  0 15G 6G12G17G15R 5R24G14R14R23G24R13R17
                                R15G 2G19
  22169772.836   116502941.924    22169781.922    90781550.4174   22169782.348  
                
  21810889.336   114617007.297    21810895.387    89311983.3854   21810895.449  
                
  23051143.797   121134590.139    23051149.695    94390621.1864   23051149.621  
                
  24661469.742   129596908.213    24661476.305   100984636.1894   24661476.129  
                
  22995489.414   122924071.131                    95607603.153    22995493.457  
  22995488.977  
  19693094.297   105307827.409                    81906090.778    19693098.590  
  19693093.344  
  24678082.273   129684211.282    24678088.574   101052677.0764   24678088.562  
                
  19556531.984   104247336.375                    81081254.223    19556535.855  
  19556531.664  
  20049392.383   107250742.880                                                  
  20049390.352  
  20336535.719   106869236.423    20336543.914    83274760.1334   20336544.102  
                
  20864001.180   111412643.104                    86654281.118    20864003.832  
  20863999.383  
  22769621.750   121844855.806                    94768206.117    22769625.082  
  22769619.859  
  22645804.492   121012317.459                    94120686.066    22645808.488  
  22645804.379  
  23302532.797   122455638.925    23302537.398    95419994.7724                 
                
  20824010.258   109430930.691    20824014.094    85270872.3494                 
                
 21  8 15  0 39 40.0000000  0 15G 6G12G17G15R 5R24G14R14R23G24R13R17
                                R15G 2G19
  22165699.289   116481535.180    22165708.352    90764869.8394   22165708.789  
                
  21806460.461   114593733.385    21806466.488    89293847.8714   21806466.559  
                
  23056720.242   121163894.508    23056726.090    94413455.7714   23056726.051  
                
  24667709.055   129629695.666    24667715.504   101010184.8664   24667715.375  
                
  22998320.219   122939203.423                    95619372.698    22998324.203  
  22998319.750  
  19689517.742   105288701.935                    81891215.407    19689522.031  
  19689516.770  
  24683738.328   129713934.210    24683744.660   101075837.7814   24683744.656  
                
  19554288.867   104235379.294                    81071954.278    19554292.750  
  19554288.535  
  20052481.328   107267266.670                                                  
  20052479.312  
  20336354.617   106868284.730    20336362.805    83274018.5614   20336362.984  
                
  20868313.961   111435673.081                    86672193.314    20868316.598  
  20868312.152  
  22761231.961   121799960.461                    94733287.533    22761235.332  
  22761230.074  
  22639417.086   120978185.176                    94094138.734    22639421.102  
  22639416.953  
  23296745.852   122425228.403    23296750.391    95396298.2494                 
                
  20827440.555   109448957.005    20827444.359    85284918.8404                 
                
 21  8 15  0 39 50.0000000  0 14G 6G12G17G15R 5R24R14R23G24R13R17R15
                                G 2G19
  22161635.578   116460180.196    22161644.605    90748229.5824   22161645.066  
                
  21802036.008   114570482.714    21802042.047    89275730.4684   21802042.094  
                
  23062300.180   121193217.266    23062306.020    94436304.6604   23062306.000  
                
  24673948.430   129662483.881    24673954.879   101035734.1404   24673954.750  
                
  23001164.930   122954409.913                    95631200.004    23001168.879  
  23001164.477  
  19685956.633   105269659.119                    81876404.325    19685960.922  
  19685955.660  
  19552054.031   104223466.360                    81062688.663    19552057.914  
  19552053.711  
  20055585.961   107283874.407                                                  
  20055583.969  
  20336185.266   106867394.765    20336193.441    83273325.0764   20336193.621  
                
  20872634.570   111458744.950                    86690138.098    20872637.211  
  20872632.758  
  22752845.867   121755085.326                    94698384.654    22752849.348  
  22752844.039  
  22633030.430   120944056.717                    94067594.375    22633034.465  
  22633030.324  
  23290963.414   122394841.753    23290967.895    95372620.3434                 
                
  20830880.742   109467035.311    20830884.508    85299005.8304                 
                
 21  8 15  0 40  0.0000000  0 14G 6G12G17G15R 5R24R14R23G24R13R17R15
                                G 2G19
  22157581.695   116438876.901    22157590.723    90731629.6204   22157591.199  
                
  21797615.953   114547255.190    21797622.012    89257631.0984   21797622.031  
                
  23067883.586   121222558.190    23067889.445    94459167.7104   23067889.422  
                
  24680187.945   129695272.664    24680194.422   101061283.8534   24680194.262  
                
  23004023.438   122969690.343                    95643084.694    23004027.441  
  23004022.922  
  19682411.016   105250699.152                    81861657.696    19682415.316  
  19682410.043  
  19549827.453   104211597.441                    81053457.285    19549831.344  
  19549827.137  
  20058706.250   107300565.870                                                  
  20058704.277  
  20336027.641   106866566.455    20336035.809    83272679.6414   20336035.992  
                
  20876962.977   111481858.434                    86708115.234    20876965.648  
  20876961.141  
  22744463.617   121710230.411                    94663497.503    22744467.137  
  22744461.770  
  22626644.430   120909931.811                    94041052.771    22626648.480  
  22626644.359  
  23285185.547   122364479.010    23285189.938    95348961.0554                 
                
  20834330.766   109485165.349    20834334.508    85313133.1274                 
                
 21  8 15  0 40 10.0000000  0 14G 6G12G17G15R 5R24R14R23G24R13R17R15
                                G 2G19
  22153537.695   116417625.504    22153546.746    90715070.1124   22153547.223  
                
  21793200.320   114524050.877    21793206.371    89239549.8114   21793206.410  
                
  23073470.445   121251917.253    23073476.309    94482044.9094   23073476.281  
                
  24686427.539   129728061.974    24686434.078   101086833.9714   24686433.891  
                
  23006895.812   122985044.674                    95655027.025    23006899.781  
  23006895.363  
  19678880.906   105231822.062                    81846975.519    19678885.227  
  19678879.922  
  19547609.172   104199772.756                    81044260.297    19547613.062  
  19547608.855  
  20061842.188   107317341.014                                                  
  20061840.238  
  20335881.758   106865799.837    20335889.922    83272082.2744   20335890.109  
                
  20881299.195   111505013.519                    86726124.730    20881301.863  
  20881297.375  
  22736085.219   121665395.999                    94628626.296    22736088.762  
  22736083.312  
  22620259.102   120875810.578                    94014514.073    22620263.203  
  22620259.023  
  23279412.273   122334140.297    23279416.578    95325320.5004                 
                
  20837790.648   109503347.135    20837794.367    85327300.7584                 
                
 21  8 15  0 40 20.0000000  0 14G 6G12G17G15R 5R24R14R23G24R13R17R15
                                G 2G19
  22149503.578   116396426.027    22149512.641    90698551.0434   22149513.125  
                
  21788789.102   114500869.810    21788795.141    89221486.6504   21788795.195  
                
  23079060.734   121281294.337    23079066.574    94504936.1574   23079066.543  
                
  24692667.109   129760851.530    24692673.746   101112384.2794   24692673.551  
                
  23009781.984   123000472.907                    95667026.764    23009785.898  
  23009781.449  
  19675366.297   105213027.820                    81832357.768    19675370.605  
  19675365.309  
  19545399.172   104187992.217                    81035097.669    19545403.070  
  19545398.867  
  20064993.703   107334199.491                                                  
  20064991.777  
  20335747.609   106865094.895    20335755.762    83271532.9674   20335755.953  
                
  20885643.172   111528210.055                    86744166.508    20885645.863  
  20885641.387  
  22727710.711   121620582.055                    94593770.994    22727714.176  
  22727708.723  
  22613874.461   120841693.141                    93987978.277    22613878.590  
  22613874.410  
  23273643.594   122303825.658    23273647.820    95301698.7114                 
                
  20841260.344   109521580.556    20841264.055    85341508.6154                 
                
 21  8 15  0 40 30.0000000  0 14G 6G12G17G15R 5R24R14R23G24R13R17R15
                                G 2G19
  22145479.352   116375278.564    22145488.426    90682072.5004   22145488.902  
                
  21784382.320   114477712.019    21784388.348    89203441.6114   21784388.398  
                
  23084654.430   121310689.346    23084660.262    94527841.3614   23084660.242  
                
  24698906.789   129793641.365    24698913.445   101137934.7964   24698913.254  
                
  23012681.898   123015974.669                    95679083.651    23012685.832  
  23012681.316  
  19671867.164   105194316.387                    81817804.440    19671871.477  
  19671866.176  
  19543197.477   104176255.922                    81025969.434    19543201.375  
  19543197.168  
  20068160.820   107351141.438                                                  
  20068158.934  
  20335625.203   106864451.631    20335633.348    83271031.7264   20335633.539  
                
  20889994.922   111551448.150                    86762240.566    20889997.625  
  20889993.133  
  22719340.023   121575788.688                    94558931.705    22719343.422  
  22719338.000  
  22607490.562   120807579.462                    93961445.419    22607494.656  
  22607490.504  
  23267879.500   122273535.180    23267883.711    95278095.7484                 
                
  20844739.859   109539865.565    20844743.566    85355756.6694                 
                
 21  8 15  0 40 40.0000000  0 14G 6G12G17G15R 5R24R14R23G24R13R17R15
                                G 2G19
  22141465.047   116354183.251    22141474.156    90665634.6104   22141474.629  
                
  21779979.953   114454577.462    21779985.965    89185414.6904   21779986.020  
                
  23090251.523   121340102.235    23090257.383    94550760.4904   23090257.375  
                
  24705146.547   129826431.296    24705153.160   101163485.4074   24705152.965  
                
  23015595.578   123031550.039                    95691197.832    23015599.527  
  23015594.969  
  19668383.578   105175688.117                    81803315.789    19668387.898  
  19668382.605  
  19541004.086   104164563.937                    81016875.674    19541007.996  
  19541003.770  
  20071343.516   107368166.696                                                  
  20071341.656  
  20335514.555   106863870.138    20335522.695    83270578.6084   20335522.887  
                
  20894354.484   111574727.914                    86780347.060    20894357.211  
  20894352.691  
  22710973.141   121531016.162                    94524108.631    22710976.602  
  22710971.176  
  22601107.414   120773469.813                    93934915.701    22601111.477  
  22601107.340  
  23262120.055   122243269.018    23262124.262    95254511.7244                 
                
  20848229.172   109558202.033    20848232.891    85370044.8324                 
                
 21  8 15  0 40 50.0000000  0 14G 6G12G17G15R 5R24R14R23G24R13R17R15
                                G 2G19
  22137460.672   116333140.124    22137469.805    90649237.3754   22137470.266  
                
  21775582.008   114431466.184    21775587.996    89167405.9104   21775588.059  
                
  23095852.008   121369532.917    23095857.891    94573693.4874   23095857.898  
                
  24711386.234   129859221.274    24711392.871   101189036.0404   24711392.699  
                
  23018523.016   123047198.807                    95703369.106    23018526.977  
  23018522.418  
  19664915.539   105157142.940                    81788891.761    19664919.848  
  19664914.586  
  19538819.047   104152916.471                    81007816.539    19538822.973  
  19538818.727  
  20074541.766   107385275.110                                                  
  20074539.941  
  20335415.641   106863350.352    20335423.781    83270173.5804   20335423.965  
                
  20898721.844   111598049.422                    86798485.998    20898724.602  
  20898720.066  
  22702610.219   121486264.551                    94489301.834    22702613.680  
  22702608.273  
  22594724.977   120739364.021                    93908388.957    22594729.012  
  22594724.941  
  23256365.258   122213027.222    23256369.457    95230946.7054                 
                
  20851728.258   109576589.875    20851731.992    85384373.0234                 
                
 21  8 15  0 41  0.0000000  0 14G 6G12G17G15R 5R24R14R23G24R13R17R15
                                G 2G19
  22133466.273   116312149.432    22133475.406    90632880.9884   22133475.863  
                
  21771188.539   114408378.335    21771194.512    89149415.3804   21771194.582  
                
  23101455.883   121398981.499    23101461.777    94596640.4384   23101461.785  
                
  24717625.953   129892011.300    24717632.605   101214586.7054   24717632.449  
                
  23021464.164   123062921.038                    95715597.503    23021468.137  
  23021463.559  
  19661463.102   105138681.203                    81774532.638    19661467.410  
  19661462.156  
  19536642.383   104141313.632                    80998792.118    19536646.309  
  19536642.047  
  20077755.578   107402466.792                                                  
  20077753.785  
  20335328.508   106862892.454    20335336.645    83269816.7734   20335336.828  
                
  20903097.000   111621412.460                    86816657.250    20903099.789  
  20903095.242  
  22694251.180   121441534.213                    94454511.567    22694254.734  
  22694249.305  
  22588343.312   120705262.319                    93881865.397    22588347.297  
  22588343.285  
  23250615.125   122182810.094    23250619.371    95207400.9004                 
                
  20855237.133   109595029.156    20855240.895    85398741.2924                 
                
 21  8 15  0 41 10.0000000  0 14G 6G12G17G15R 5R24R14R23G24R13R17R15
                                G 2G19
  22129481.852   116291211.168    22129490.941    90616565.4634   22129491.434  
                
  21766799.547   114385314.010    21766805.523    89131443.1734   21766805.582  
                
  23107063.148   121428447.738    23107069.039    94619601.1434   23107069.039  
                
  24723865.617   129924801.145    24723872.344   101240137.2374   24723872.168  
                
  23024419.031   123078716.449                    95727882.823    23024423.004  
  23024418.484  
  19658026.219   105120302.631                    81760238.189    19658030.527  
  19658025.289  
  19534474.078   104129755.365                    80989802.337    19534477.984  
  19534473.738  
  20080984.906   107419741.455                                                  
  20080983.137  
  20335253.133   106862496.337    20335261.266    83269508.1124   20335261.453  
                
  20907480.031   111644817.477                    86834861.134    20907482.812  
  20907478.277  
  22685896.195   121396824.966                    94419737.697    22685899.734  
  22685894.305  
  22581962.414   120671164.736                    93855345.048    22581966.406  
  22581962.398  
  23244869.625   122152617.535    23244873.957    95183874.2474                 
                
  20858755.773   109613519.700    20858759.570    85413149.5104                 
                
 21  8 15  0 41 20.0000000  0 14G 6G12G17G15R 5R24R14R23G24R13R17R15
                                G 2G19
  22125507.414   116270325.373    22125516.465    90600290.8274   22125516.992  
                
  21762415.016   114362273.123    21762421.000    89113489.2474   21762421.043  
                
  23112673.758   121457931.549    23112679.648    94642575.5384   23112679.621  
                
  24730105.188   129957590.753    24730112.027   101265687.5884   24730111.820  
                
  23027387.609   123094585.127                    95740225.135    23027391.559  
  23027387.074  
  19654604.922   105102007.411                    81746008.578    19654609.207  
  19654604.000  
  19532314.148   104118241.726                    80980847.280    19532318.055  
  19532313.816  
  20084229.719   107437099.004                                                  
  20084227.961  
  20335189.516   106862162.023    20335197.648    83269247.6074   20335197.836  
                
  20911870.867   111668264.212                    86853097.492    20911873.637  
  20911869.129  
  22677545.227   121352136.971                    94384980.374    22677548.742  
  22677543.324  
  22575582.305   120637071.295                    93828827.928    22575586.305  
  22575582.297  
  23239128.883   122122449.728    23239133.234    95160366.8684                 
                
  20862284.141   109632061.382    20862287.984    85427597.5814                 
                
 21  8 15  0 41 30.0000000  0 14G 6G12G17G15R 5R24R14R23G24R13R17R15
                                G 2G19
  22121543.008   116249492.284    22121552.070    90584057.2504   22121552.602  
                
  21758034.953   114339255.739    21758040.918    89095553.6194   21758040.957  
                
  23118287.703   121487432.925    23118293.609    94665563.6264   23118293.562  
                
  24736344.758   129990380.106    24736351.633   101291237.7404   24736351.395  
                
  23030369.859   123110526.697                    95752624.176    23030373.789  
  23030369.406  
  19651199.227   105083795.649                    81731843.881    19651203.496  
  19651198.312  
  19530162.641   104106772.989                    80971927.150    19530166.555  
  19530162.297  
  20087490.016   107454539.394                                                  
  20087488.273  
  20335137.672   106861889.592    20335145.801    83269035.3224   20335145.984  
                
  20916269.383   111691751.964                    86871365.752    20916272.168  
  20916267.672  
  22669198.398   121307470.595                    94350239.860    22669201.793  
  22669196.406  
  22569202.977   120602982.073                    93802314.097    22569206.984  
  22569202.977  
  23233392.938   122092306.773    23233397.223    95136878.8474                 
                
  20865822.242   109650654.242    20865826.137    85442085.5264                 
                
 21  8 15  0 41 40.0000000  0 14G 6G12G17G15R 5R24R14R23G24R13R17R15
                                G 2G19
  22117588.625   116228711.863    22117597.723    90567864.7264   22117598.242  
                
  21753659.367   114316261.867    21753665.309    89077636.3024   21753665.355  
                
  23123904.977   121516951.765    23123910.887    94688565.3224   23123910.816  
                
  24742584.219   130023168.881    24742591.160   101316787.4394   24742590.926  
                
  23033365.727   123126541.278                    95765079.937    23033369.734  
  23033365.270  
  19647809.156   105065667.397                    81717744.129    19647813.426  
  19647808.246  
  19528019.516   104095348.891                    80963041.746    19528023.434  
  19528019.172  
  20090765.766   107472062.397                                                  
  20090764.016  
  20335097.609   106861679.006    20335105.742    83268871.2244   20335105.926  
                
  20920675.695   111715281.319                    86889666.349    20920678.461  
  20920673.980  
  22660855.602   121262825.777                    94315516.113    22660858.852  
  22660853.480  
  22562824.422   120568897.057                    93775803.519    22562828.406  
  22562824.441  
  23227661.734   122062188.726    23227665.961    95113410.2334                 
                
  20869370.047   109669298.087    20869373.984    85456613.1934                 
                
 21  8 15  0 41 50.0000000  0 14G 6G12G17G15R 5R24R14R23G24R13R17R15
                                G 2G19
  22113644.281   116207984.234    22113653.348    90551713.3334   22113653.867  
                
  21749288.234   114293291.486    21749294.180    89059737.3244   21749294.230  
                
  23129525.539   121546487.952    23129531.441    94711580.5294   23129531.352  
                
  24748823.578   130055957.046    24748830.570   101342336.6524   24748830.344  
                
  23036375.195   123142628.715                    95777592.368    23036379.238  
  23036374.758  
  19644434.742   105047622.887                    81703709.507    19644438.992  
  19644433.840  
  19525884.805   104083969.728                    80954191.289    19525888.738  
  19525884.461  
  20094056.930   107489667.946                                                  
  20094055.176  
  20335069.297   106861530.235    20335077.434    83268755.2994   20335077.617  
                
  20925089.773   111738852.271                    86907999.310    20925092.574  
  20925088.074  
  22652516.805   121218202.769                    94280809.340    22652520.004  
  22652514.621  
  22556446.688   120534816.396                    93749296.328    22556450.605  
  22556446.699  
  23221935.180   122032095.692    23221939.438    95089961.1164                 
                
  20872927.531   109687992.849    20872931.504    85471180.5404                 
                
 21  8 15  0 42  0.0000000  0 14G 6G12G17G15R 5R24R14R23G24R13R17R15
                                G 2G19
  22109710.023   116187309.590    22109719.039    90535603.2224   22109719.586  
                
  21744921.602   114270344.720    21744927.535    89041856.7264   21744927.566  
                
  23135149.406   121576041.573    23135155.277    94734609.3264   23135155.188  
                
  24755062.766   130088744.618    24755069.855   101367885.4094   24755069.609  
                
  23039398.305   123158788.900                    95790161.428    23039402.379  
  23039397.875  
  19641075.969   105029662.029                    81689739.954    19641080.215  
  19641075.094  
  19523758.539   104072635.562                    80945375.824    19523762.473  
  19523758.180  
  20097363.531   107507356.046                                                  
  20097361.750  
  20335052.781   106861443.455    20335060.926    83268687.6764   20335061.113  
                
  20929511.672   111762465.009                    86926364.771    20929514.496  
  20929509.953  
  22644181.977   121173601.740                    94246119.669    22644185.262  
  22644179.840  
  22550069.773   120500740.160                    93722792.580    22550073.691  
  22550069.797  
  23216213.398   122002027.899    23216217.727    95066531.6694                 
                
  20876494.711   109706738.517    20876498.730    85485787.5464                 
                
 21  8 15  0 42 10.0000000  0 14G 6G12G17G15R 5R24R14R23G24R13R17R15
                                G 2G19
  22105785.867   116166688.005    22105794.871    90519534.4614   22105795.414  
                
  21740559.445   114247421.475    21740565.352    89023994.4594   21740565.410  
                
  23140776.570   121605612.480    23140782.402    94757651.5884   23140782.312  
                
  24761301.938   130121531.602    24761308.980   101393433.7104   24761308.750  
                
  23042435.016   123175021.767                    95802786.948    23042439.148  
  23042434.598  
  19637732.867   105011784.948                    81675835.562    19637737.105  
  19637731.988  
  19521640.742   104061346.477                    80936595.420    19521644.688  
  19521640.383  
  20100685.547   107525126.630                                                  
  20100683.754  
  20335048.062   106861418.623    20335056.219    83268668.3274   20335056.395  
                
  20933941.383   111786119.386                    86944762.615    20933944.195  
  20933939.625  
  22635851.344   121129022.729                    94211447.109    22635854.609  
  22635849.188  
  22543693.711   120466668.468                    93696292.388    22543697.648  
  22543693.750  
  23210496.516   121971985.393    23210500.859    95043121.9284                 
                
  20880071.555   109725534.972    20880075.625    85500434.1344                 
                
 21  8 15  0 42 20.0000000  0 14G 6G12G17G15R 5R24R14R23G24R13R17R15
                                G 2G19
  22101871.781   116146119.361    22101880.793    90503506.9444   22101881.320  
                
  21736201.750   114224521.622    21736207.633    89006150.4264   21736207.707  
                
  23146406.969   121635200.397    23146412.770    94780707.1174   23146412.695  
                
  24767540.898   130154317.580    24767547.891   101418981.2444   24767547.664  
                
  23045485.250   123191326.899                    95815468.791    23045489.387  
  23045484.863  
  19634405.398   104993991.503                    81661996.219    19634409.633  
  19634404.535  
  19519531.359   104050102.332                    80927849.981    19519535.316  
  19519530.992  
  20104022.906   107542979.298                                                  
  20104021.090  
  20335055.094   106861455.579    20335063.258    83268697.1224   20335063.434  
                
  20938378.797   111809814.972                    86963192.516    20938381.637  
  20938377.039  
  22627524.898   121084465.796                    94176791.705    22627528.070  
  22627522.664  
  22537318.445   120432601.023                    93669795.500    22537322.387  
  22537318.465  
  23204784.461   121941968.119    23204788.801    95019731.8534                 
                
  20883658.023   109744381.981    20883662.141    85515120.1174                 
                
 21  8 15  0 42 30.0000000  0 14G 6G12G17G15R 5R24R14R23G24R13R17R15
                                G 2G19
  22097967.812   116125603.884    22097976.832    90487520.8634   22097977.355  
                
  21731848.570   114201645.459    21731854.449    88988324.8344   21731854.492  
                
  23152040.641   121664805.423    23152046.430    94803775.9804   23152046.363  
                
  24773779.703   130187102.582    24773786.629   101444528.0054   24773786.402  
                
  23048549.023   123207704.453                    95828206.894    23048553.168  
  23048548.633  
  19631093.609   104976281.839                    81648222.038    19631097.832  
  19631092.746  
  19517430.469   104038903.379                    80919139.684    19517434.406  
  19517430.094  
  20107375.633   107560914.153                                                  
  20107373.793  
  20335073.914   106861554.461    20335082.086    83268774.1774   20335082.254  
                
  20942823.961   111833551.871                    86981654.540    20942826.793  
  20942822.164  
  22619202.539   121039931.102                    94142153.604    22619205.699  
  22619200.305  
  22530944.039   120398538.250                    93643302.219    22530948.039  
  22530944.016  
  23199077.195   121911976.266    23199081.574    94996361.5874                 
                
  20887254.125   109763279.628    20887258.273    85529845.5554                 
                
 21  8 15  0 42 40.0000000  0 14G 6G12G17G15R 5R24R14R23G24R13R17R15
                                G 2G19
  22094074.000   116105141.793    22094083.004    90471576.3904   22094083.531  
                
  21727499.914   114178793.116    21727505.793    88970517.8164   21727505.816  
                
  23157677.547   121694427.528    23157683.383    94826858.1424   23157683.305  
                
  24780018.203   130219886.690    24780025.211   101470074.0604   24780025.004  
                
  23051626.352   123224154.503                    95841001.360    23051630.504  
  23051625.996  
  19627797.539   104958656.264                    81634513.252    19627801.773  
  19627796.660  
  19515338.102   104027749.882                    80910464.741    19515342.027  
  19515337.723  
  20110743.711   107578931.158                                                  
  20110741.855  
  20335104.547   106861715.427    20335112.727    83268899.5994   20335112.887  
                
  20947276.953   111857330.605                    87000149.106    20947279.793  
  20947275.137  
  22610884.414   120995419.014                    94107533.102    22610887.523  
  22610882.160  
  22524570.562   120364480.292                    93616812.692    22524574.582  
  22524570.520  
  23193374.773   121882010.080    23193379.230    94973011.3274                 
                
  20890859.867   109782227.921    20890864.039    85544610.4634                 
                
 21  8 15  0 42 50.0000000  0 15G 6G12G17G15R 5R24R14R23G24R13G25R17
                                R15G 2G19
  22090190.312   116084732.914    22090199.293    90455673.3744   22090199.816  
                
  21723155.734   114155964.286    21723161.598    88952729.1184   21723161.633  
                
  23163317.633   121724066.356    23163323.531    94849953.3234   23163323.434  
                
  24786256.477   130252669.339    24786263.578   101495618.9804   24786263.355  
                
  23054717.133   123240676.378                    95853851.758    23054721.246  
  23054716.797  
  19624517.164   104941114.664                    81620869.802    19624521.406  
  19624516.293  
  19513254.172   104016641.404                    80901824.812    19513258.098  
  19513253.785  
  20114127.047   107597029.739                                                  
  20114125.172  
  20335146.930   106861938.167    20335155.113    83269073.1634   20335155.277  
                
  20951737.656   111881150.547                    87018675.724    20951740.539  
  20951735.844  
  24382830.734   128132635.322    24382839.184    99843651.6534   24382839.191  
                
  22602570.383   120950929.178                    94072929.909    22602573.516  
  22602568.141  
  22518197.930   120330426.856                    93590326.704    22518201.973  
  22518197.863  
  23187677.281   121852069.449    23187681.719    94949680.9784                 
                
  20894475.180   109801226.522    20894479.379    85559414.5674                 
                
 21  8 15  0 43  0.0000000  0 15G 6G12G17G15R 5R24R14R23G24R13G25R17
                                R15G 2G19
  22086316.656   116064376.747    22086325.582    90439811.4274   22086326.129  
                
  21718815.930   114133158.429    21718821.777    88934958.3164   21718821.840  
                
  23168960.766   121753721.314    23168966.695    94873061.0684   23168966.586  
                
  24792494.383   130285449.910    24792501.527   101521162.2924   24792501.293  
                
  23057821.234   123257269.619                    95866757.599    23057825.375  
  23057820.875  
  19621252.375   104923656.413                    81607291.165    19621256.602  
  19621251.500  
  19511178.641   104005577.648                    80893219.671    19511182.555  
  19511178.250  
  20117525.531   107615209.418                                                  
  20117523.668  
  20335200.969   106862222.162    20335209.152    83269294.4614   20335209.309  
                
  20956205.984   111905011.214                    87037234.005    20956208.895  
  20956204.180  
  24376822.266   128101060.658    24376830.758    99819048.0694   24376830.805  
                
  22594260.438   120906461.384                    94038343.847    22594263.621  
  22594258.238  
  22511826.055   120296377.490                    93563843.853    22511830.102  
  22511825.988  
  23181984.594   121822153.798    23181988.930    94926370.0794                 
                
  20898099.922   109820274.676    20898104.160    85574257.2864                 
                
 21  8 15  0 43 10.0000000  0 15G 6G12G17G15R 5R24R14R23G24R13G25R17
                                R15G 2G19
  22082453.312   116044074.752    22082462.172    90423991.6984   22082462.754  
                
  21714480.727   114110376.775    21714486.566    88917206.3784   21714486.656  
                
  23174607.234   121783393.665    23174613.156    94896182.3834   23174613.062  
                
  24798732.227   130318229.773    24798739.305   101546705.0414   24798739.090  
                
  23060938.922   123273935.485                    95879719.862    23060943.172  
  23060938.531  
  19618003.430   104906282.804                    81593778.356    19618007.664  
  19618002.547  
  19509111.758   103994559.964                    80884650.357    19509115.664  
  19509111.371  
  20120939.414   107633471.402                                                  
  20120937.539  
  20335266.938   106862568.768    20335275.125    83269564.5474   20335275.285  
                
  20960682.188   111928913.862                    87055824.956    20960685.094  
  20960680.371  
  24370815.000   128069492.012    24370823.395    99794449.0994   24370823.523  
                
  22585954.914   120862016.880                    94003775.904    22585958.109  
  22585952.695  
  22505455.203   120262333.525                    93537365.191    22505459.223  
  22505455.148  
  23176296.859   121792264.539    23176301.148    94903079.7504                 
                
  20901734.352   109839373.688    20901738.625    85589139.6304                 
                
 21  8 15  0 43 20.0000000  0 15G 6G12G17G15R 5R24R14R23G24R13G25R17
                                R15G 2G19
  22078600.203   116023826.560    22078609.012    90408213.8804   22078609.625  
                
  21710150.055   114087618.949    21710155.879    88899473.0124   21710155.980  
                
  23180256.898   121813082.895    23180262.797    94919316.8494   23180262.723  
                
  24804969.719   130351008.303    24804976.746   101572246.7584   24804976.594  
                
  23064070.070   123290673.277                    95892738.182    23064074.328  
  23064069.629  
  19614770.250   104888993.559                    81580331.159    19614774.484  
  19614769.367  
  19507053.438   103983587.998                    80876116.609    19507057.344  
  19507053.031  
  20124368.594   107651815.229                                                  
  20124366.699  
  20335344.719   106862977.539    20335352.914    83269883.0664   20335353.066  
                
  20965166.141   111952857.882                    87074448.074    20965169.031  
  20965164.332  
  24364808.797   128037928.994    24364817.055    99769854.5194   24364817.234  
                
  22577653.781   120817595.626                    93969226.033    22577656.902  
  22577651.527  
  22499085.242   120228294.503                    93510890.420    22499089.289  
  22499085.160  
  23170614.062   121762401.392    23170618.336    94879809.7704                 
                
  20905378.344   109858523.013    20905382.633    85604061.1814                 
                
 21  8 15  0 43 30.0000000  0 15G 6G12G17G15R 5R24R14R23G24R13G25R17
                                R15G 2G19
  22074757.328   116003632.173    22074766.137    90392477.9954   22074766.754  
                
  21705823.938   114064885.043    21705829.754    88881758.2774   21705829.879  
                
  23185909.742   121842788.785    23185915.652    94942464.2954   23185915.570  
                
  24811207.039   130383785.375    24811213.898   101597787.3454   24811213.793  
                
  23067214.625   123307482.916                    95905812.317    23067218.941  
  23067214.105  
  19611552.867   104871788.773                    81566949.665    19611557.090  
  19611551.988  
  19505003.695   103972661.713                    80867618.383    19505007.590  
  19505003.285  
  20127812.992   107670240.475                                                  
  20127811.070  
  20335434.328   106863448.401    20335442.539    83270249.9734   20335442.676  
                
  20969657.867   111976843.397                    87093103.482    20969660.777  
  20969656.082  
  24358803.672   128006371.476    24358811.859    99745264.2934   24358812.074  
                
  22569356.977   120773197.538                    93934694.181    22569360.039  
  22569354.703  
  22492716.258   120194260.564                    93484419.572    22492720.289  
  22492716.199  
  23164936.336   121732564.424    23164940.523    94856560.1894                 
                
  20909031.891   109877722.559    20909036.191    85619021.8714                 
                
 21  8 15  0 43 40.0000000  0 15G 6G12G17G15R 5R24R14R23G24R13G25R17
                                R15G 2G19
  22070924.711   115983491.583    22070933.543    90376784.0424   22070934.133  
                
  21701502.359   114042174.970    21701508.180    88864062.1104   21701508.293  
                
  23191565.742   121872511.213    23191571.652    94965624.6334   23191571.582  
                
  24817443.969   130416560.726    24817450.781   101623326.5944   24817450.676  
                
  23070372.586   123324364.106                    95918942.087    23070376.988  
  23070372.066  
  19608351.242   104854668.236                    81553633.695    19608355.465  
  19608350.367  
  19502962.523   103961781.106                    80859155.684    19502966.430  
  19502962.121  
  20131272.602   107688747.056                                                  
  20131270.664  
  20335535.734   106863981.276    20335543.965    83270665.2014   20335544.090  
                
  20974157.383   112000870.450                    87111791.198    20974160.281  
  20974155.586  
  24352799.516   127974819.465    24352807.695    99720678.2784   24352807.902  
                
  22561064.547   120728822.687                    93900180.407    22561067.535  
  22561062.258  
  22486348.242   120160231.719                    93457952.701    22486352.250  
  22486348.227  
  23159263.602   121702753.629    23159267.684    94833330.9924                 
                
  20912694.953   109896972.075    20912699.262    85634021.4874                 
                
 21  8 15  0 43 50.0000000  0 15G 6G12G17G15R 5R24R14R23G24R13G25R17
                                R15G 2G19
  22067102.328   115963404.922    22067111.168    90361132.1064   22067111.750  
                
  21697185.305   114019488.746    21697191.121    88846384.5404   21697191.242  
                
  23197224.875   121902250.148    23197230.781    94988797.8354   23197230.703  
                
  24823680.469   130449334.282    24823687.367   101648864.4264   24823687.215  
                
  23073543.914   123341316.892                    95932127.596    23073548.309  
  23073543.352  
  19605165.383   104837632.060                    81540383.342    19605169.609  
  19605164.508  
  19500929.930   103950946.245                    80850728.566    19500933.852  
  19500929.531  
  20134747.391   107707334.910                                                  
  20134745.445  
  20335648.945   106864576.226    20335657.195    83271128.7954   20335657.305  
                
  20978664.609   112024938.887                    87130511.084    20978667.516  
  20978662.824  
  24346796.414   127943272.991    24346804.555    99696096.5634   24346804.773  
                
  22552776.391   120684471.202                    93865684.806    22552779.379  
  22552774.160  
  22479981.148   120126207.871                    93431489.730    22479985.172  
  22479981.160  
  23153595.945   121672969.070    23153599.875    94810122.2474                 
                
  20916367.508   109916271.497    20916371.789    85649059.9954                 
                
 21  8 15  0 44  0.0000000  0 15G 6G12G17G15R 5R24R14R23G24R13G25R17
                                R15G 2G19
  22063290.266   115943372.361    22063299.109    90345522.3274   22063299.680  
                
  21692872.820   113996826.457    21692878.617    88828725.6114   21692878.750  
                
  23202887.156   121932005.586    23202893.078    95011983.9014   23202892.992  
                
  24829916.703   130482106.057    24829923.629   101674400.8634   24829923.453  
                
  23076728.680   123358341.105                    95945368.710    23076733.031  
  23076728.211  
  19601995.352   104820680.501                    81527198.802    19601999.586  
  19601994.465  
  19498905.961   103940157.331                    80842337.190    19498909.887  
  19498905.570  
  20138237.359   107726003.945                                                  
  20138235.418  
  20335773.992   106865233.318    20335782.258    83271640.8164   20335782.355  
                
  20983179.609   112049048.628                    87149263.095    20983182.523  
  20983177.832  
  24340794.328   127911732.087    24340802.562    99671519.3174   24340802.797  
                
  22544492.570   120640143.246                    93831207.505    22544495.648  
  22544490.441  
  22473615.039   120092189.215                    93405030.769    22473619.047  
  22473615.023  
  23147933.328   121643210.963    23147937.152    94786934.1074                 
                
  20920049.570   109935620.859    20920053.809    85664137.4254                 
                
 21  8 15  0 44 10.0000000  0 15G 6G12G17G15R 5R24R14R23G24R13G25R17
                                R15G 2G19
  22059488.477   115923393.859    22059497.344    90329954.6644   22059497.887  
                
  21688564.844   113974187.927    21688570.613    88811085.1914   21688570.762  
                
  23208552.516   121961777.293    23208558.465    95035182.6234   23208558.363  
                
  24836152.609   130514875.757    24836159.504   101699935.6954   24836159.328  
                
  23079926.695   123375436.633                    95958665.132    23079931.074  
  23079926.145  
  19598841.117   104803813.460                    81514079.995    19598845.383  
  19598840.203  
  19496890.586   103929414.253                    80833981.457    19496894.512  
  19496890.215  
  20141742.477   107744753.984                                                  
  20141740.539  
  20335910.828   106865952.459    20335919.109    83272201.1834   20335919.188  
                
  20987702.312   112073199.646                    87168047.230    20987705.262  
  20987700.547  
  24334793.375   127880196.743    24334801.602    99646946.3414   24334801.832  
                
  22536213.156   120595838.943                    93796748.599    22536216.332  
  22536211.109  
  22467249.875   120058175.819                    93378575.901    22467253.887  
  22467249.840  
  23142275.641   121613479.278    23142279.492    94763766.5744                 
                
  20923741.094   109955019.947    20923745.270    85679253.5994                 
                
 21  8 15  0 44 20.0000000  0 15G 6G12G17G15R 5R24R14R23G24R13G25R17
                                R15G 2G19
  22055697.008   115903469.544    22055705.895    90314429.2274   22055706.418  
                
  21684261.406   113951573.204    21684267.156    88793463.3424   21684267.324  
                
  23214220.977   121991565.256    23214226.949    95058394.0174   23214226.828  
                
  24842388.188   130547643.350    24842394.957   101725468.8924   24842394.777  
                
  23083138.078   123392603.266                    95972017.080    23083142.332  
  23083137.523  
  19595702.727   104787031.066                    81501027.017    19595707.004  
  19595701.797  
  19494883.828   103918717.077                    80825661.433    19494887.746  
  19494883.457  
  20145262.727   107763584.966                                                  
  20145260.805  
  20336059.500   106866733.680    20336067.797    83272809.9304   20336067.871  
                
  20992232.703   112097391.729                    87186863.277    20992235.688  
  20992230.891  
  24328793.422   127848666.981    24328801.652    99622377.6624   24328801.902  
                
  22527938.234   120551558.310                    93762308.101    22527941.453  
  22527936.211  
  22460885.703   120024167.616                    93352125.097    22460889.746  
  22460885.691  
  23136622.945   121583774.169    23136626.887    94740619.7494                 
                
  20927442.078   109974468.709    20927446.188    85694408.4874                 
                
 21  8 15  0 44 30.0000000  0 15G 6G12G17G15R 5R24R14R23G24R13G25R17
                                R15G 2G19
  22051915.867   115883599.491    22051924.730    90298946.0714   22051925.254  
                
  21679962.547   113928982.519    21679968.285    88775860.2024   21679968.465  
                
  23219892.516   122021369.426    23219898.488    95081618.0454   23219898.375  
                
  24848623.312   130580408.681    24848629.957   101751000.3334   24848629.777  
                
  23086362.680   123409840.853                    95985424.042    23086366.863  
  23086361.953  
  19592580.156   104770333.330                    81488039.900    19592584.430  
  19592579.215  
  19492885.719   103908066.047                    80817377.295    19492889.633  
  19492885.352  
  20148798.078   107782496.732                                                  
  20148796.188  
  20336219.984   106867577.000    20336228.293    83273467.0604   20336228.359  
                
  20996770.812   112121625.054                    87205711.429    20996773.816  
  20996769.004  
  24322794.516   127817142.767    24322802.816    99597813.3604   24322803.059  
                
  22519667.781   120507301.570                    93727886.208    22519671.082  
  22519665.738  
  22454522.531   119990164.725                    93325678.390    22454526.598  
  22454522.555  
  23130975.297   121554095.706    23130979.324    94717493.6864                 
                
  20931152.508   109993967.100    20931156.559    85709602.0374                 
                
 21  8 15  0 44 40.0000000  0 15G 6G12G17G15R 5R24R14R23G24R13G25R17
                                R15G 2G19
  22048145.078   115863783.891    22048153.941    90283505.3604   22048154.477  
                
  21675668.258   113906415.909    21675673.992    88758275.8324   21675674.176  
                
  23225567.125   122051189.777    23225573.086    95104854.6854   23225572.977  
                
  24854857.922   130613171.806    24854864.531   101776530.0544   24854864.375  
                
  23089600.617   123427149.514                    95998886.347    23089604.730  
  23089599.934  
  19589473.438   104753720.318                    81475118.675    19589477.727  
  19589472.480  
  19490896.266   103897461.133                    80809129.034    19490900.180  
  19490895.906  
  20152348.500   107801489.070                                                  
  20152346.625  
  20336392.297   106868482.515    20336400.617    83274172.6514   20336400.676  
                
  21001316.688   112145899.758                    87224591.749    21001319.684  
  21001314.859  
  24316796.789   127785624.303    24316805.117    99573253.5374   24316805.336  
                
  22511401.789   120463068.910                    93693483.045    22511405.191  
  22511399.750  
  22448160.359   119956167.266                    93299235.927    22448164.477  
  22448160.422  
  23125332.789   121524444.155    23125336.863    94694388.5834                 
                
  20934872.367   110013515.068    20934876.367    85724834.2274                 
                
 21  8 15  0 44 50.0000000  0 15G 6G12G17G15R 5R24R14R23G24R13G25R17
                                R15G 2G19
  22044384.656   115844022.771    22044393.527    90268107.0824   22044394.055  
                
  21671378.547   113883873.320    21671384.281    88740710.1914   21671384.469  
                
  23231244.781   122081026.186    23231250.758    95128103.8274   23231250.641  
                
  24861091.953   130645932.583    24861098.703   101802057.9264   24861098.543  
                
  23092851.781   123444528.950                    96012403.705    23092855.875  
  23092851.133  
  19586382.594   104737192.271                    81462263.529    19586386.895  
  19586381.629  
  19488915.492   103886902.489                    80800916.749    19488919.395  
  19488915.129  
  20155914.000   107820562.109                                                  
  20155912.141  
  20336576.430   106869450.161    20336584.766    83274926.6664   20336584.816  
                
  21005870.289   112170215.704                    87243504.142    21005873.270  
  21005868.477  
  24310800.016   127754111.466    24310808.438    99548698.1084   24310808.629  
                
  22503140.320   120418860.467                    93659098.701    22503143.836  
  22503138.332  
  22441799.211   119922175.296                    93272797.740    22441803.344  
  22441799.285  
  23119695.359   121494819.449    23119699.453    94671304.3924                 
                
  20938601.633   110033112.473    20938605.590    85740104.9384                 
                
 21  8 15  0 45  0.0000000  0 15G 6G12G17G15R 5R24R14R23G24R13G25R17
                                R15G 2G19
  22040634.672   115824316.435    22040643.543    90252751.5114   22040644.090  
                
  21667093.453   113861354.990    21667099.191    88723163.4354   21667099.371  
                
  23236925.516   122110878.742    23236931.539    95151365.5574   23236931.418  
                
  24867325.609   130678691.104    24867332.504   101827584.0524   24867332.320  
                
  23096116.258   123461979.368                    96025976.205    23096120.363  
  23096115.617  
  19583307.672   104720749.294                    81449474.551    19583311.980  
  19583306.703  
  19486943.438   103876390.331                    80792740.620    19486947.344  
  19486943.078  
  20159494.586   107839715.824                                                  
  20159492.730  
  20336772.445   106870480.210    20336780.801    83275729.2954   20336780.840  
                
  21010431.680   112194573.209                    87262448.877    21010434.633  
  21010429.887  
  24304804.500   127722604.621    24304812.887    99524147.3004   24304813.062  
                
  22494883.477   120374676.589                    93624733.472    22494887.043  
  22494881.551  
  22435439.180   119888189.088                    93246363.997    22435443.258  
  22435439.273  
  23114063.156   121465221.918    23114067.215    94648241.3884                 
                
  20942340.344   110052759.494    20942344.277    85755414.3104                 
                
 21  8 15  0 45 10.0000000  0 15G 6G12G17G15R 5R24R14R23G24R13G25R17
                                R15G 2G19
  22036895.023   115804664.472    22036903.887    90237438.2884   22036904.449  
                
  21662812.883   113838860.399    21662818.621    88705635.1874   21662818.785  
                
  23242609.219   122140746.873    23242615.285    95174639.4374   23242615.160  
                
  24873558.727   130711446.732    24873565.742   101853107.9064   24873565.527  
                
  23099393.875   123479499.904                    96039603.333    23099397.883  
  23099393.281  
  19580248.578   104704390.920                    81436751.363    19580252.887  
  19580247.602  
  19484980.031   103865924.245                    80784600.339    19484983.938  
  19484979.664  
  20163090.141   107858949.539                                                  
  20163088.297  
  20336980.234   106871572.122    20336988.613    83276580.1404   20336988.641  
                
  21015000.742   112218971.687                    87281425.473    21015003.691  
  21014998.957  
  24298809.914   127691103.129    24298818.312    99499600.6824   24298818.520  
                
  22486631.109   120330516.795                    93590386.959    22486634.746  
  22486629.258  
  22429080.133   119854208.249                    93219934.453    22429084.199  
  22429080.242  
  23108436.008   121435651.189    23108440.078    94625199.2644                 
                
  20946088.367   110072455.475    20946092.281    85770761.8254                 
                
 21  8 15  0 45 20.0000000  0 15G 6G12G17G15R 5R24R14R23G24R13G25R17
                                R15G 2G19
  22033165.797   115785067.291    22033174.656    90222167.7684   22033175.242  
                
  21658536.898   113816389.908    21658542.617    88688125.7154   21658542.793  
                
  23248295.953   122170630.942    23248302.059    95197925.7114   23248301.926  
                
  24879791.469   130744199.619    24879798.441   101878629.6454   24879798.203  
                
  23102684.711   123497091.142                    96053285.439    23102688.621  
  23102684.156  
  19577205.391   104688117.637                    81424094.364    19577209.711  
  19577204.434  
  19483025.336   103855504.664                    80776496.216    19483029.238  
  19483024.977  
  20166700.688   107878263.508                                                  
  20166698.844  
  20337199.859   106872726.254    20337208.254    83277479.4584   20337208.270  
                
  21019577.562   112243411.550                    87300434.241    21019580.477  
  21019575.754  
  24292816.539   127659607.428    24292824.805    99475058.5734   24292825.051  
                
  22478383.383   120286381.694                    93556059.657    22478387.070  
  22478381.543  
  22422722.141   119820233.180                    93193509.409    22422726.242  
  22422722.254  
  23102814.062   121406107.704    23102818.105    94602178.3804                 
                
  20949845.758   110092200.700    20949849.664    85786147.7204                 
                
 21  8 15  0 45 30.0000000  0 15G 6G12G17G15R 5R24R14R23G24R13G25R17
                                R15G 2G19
  22029446.969   115765524.689    22029455.812    90206939.7714   22029456.422  
                
  21654265.453   113793943.286    21654271.160    88670634.8314   21654271.352  
                
  23253985.633   122200530.536    23253991.750    95221224.0694   23253991.625  
                
  24886023.633   130776949.449    24886030.543   101904149.0114   24886030.309  
                
  23105988.633   123514752.407                    96067021.994    23105992.504  
  23105988.098  
  19574178.062   104671929.169                    81411503.341    19574182.402  
  19574177.113  
  19481079.320   103845131.265                    80768428.015    19481083.227  
  19481078.961  
  20170326.172   107897657.417                                                  
  20170324.352  
  20337431.273   106873942.331    20337439.680    83278427.0534   20337439.680  
                
  21024162.023   112267892.301                    87319474.811    21024164.934  
  21024160.203  
  24286824.320   127628117.264    24286832.430    99450520.8254   24286832.699  
                
  22470140.180   120242271.109                    93521751.431    22470143.992  
  22470138.402  
  22416365.188   119786263.593                    93167088.619    22416369.336  
  22416365.305  
  23097197.336   121376591.298    23097201.270    94579178.5944                 
                
  20953612.445   110111994.783    20953616.367    85801571.6874                 
                
 21  8 15  0 45 40.0000000  0 15G 6G12G17G15R 5R24R14R23G24R13G25R17
                                R15G 2G19
  22025738.594   115746037.078    22025747.418    90191754.6214   22025748.059  
                
  21649998.586   113771520.804    21650004.289    88653162.7754   21650004.504  
                
  23259678.297   122230445.783    23259684.375    95244534.6564   23259684.305  
                
  24892255.172   130809696.410    24892262.078   101929666.1244   24892261.859  
                
  23109305.680   123532484.008                    96080813.251    23109309.504  
  23109305.141  
  19571166.641   104655825.776                    81398978.478    19571170.984  
  19571165.688  
  19479142.039   103834804.461                    80760396.055    19479145.941  
  19479141.680  
  20173966.609   107917131.271                                                  
  20173964.793  
  20337674.531   106875220.668    20337682.938    83279423.1544   20337682.938  
                
  21028754.203   112292414.203                    87338547.390    21028757.102  
  21028752.398  
  24280833.055   127596632.935    24280841.176    99425987.5834   24280841.426  
                
  22461901.617   120198185.365                    93487462.534    22461905.562  
  22461899.875  
  22410009.305   119752299.773                    93140672.339    22410013.516  
  22410009.414  
  23091585.867   121347102.360    23091589.648    94556200.1924                 
                
  20957388.461   110131837.901    20957392.406    85817033.8574                 
                
 21  8 15  0 45 50.0000000  0 15G 6G12G17G15R 5R24R14R23G24R13G25R17
                                R15G 2G19
  22022040.719   115726604.618    22022049.570    90176612.4584   22022050.207  
                
  21645736.336   113749122.499    21645742.016    88635709.5544   21645742.258  
                
  23265373.969   122260376.770    23265380.016    95267857.5004   23265379.973  
                
  24898486.094   130842440.561    24898493.109   101955181.0464   24898492.930  
                
  23112635.922   123550285.981                    96094659.185    23112639.742  
  23112635.375  
  19568171.195   104639807.803                    81386520.062    19568175.547  
  19568170.227  
  19477213.531   103824524.441                    80752400.477    19477217.426  
  19477213.180  
  20177622.031   107936685.312                                                  
  20177620.211  
  20337929.664   106876561.372    20337938.066    83280467.8554   20337938.066  
                
  21033354.094   112316977.372                    87357652.095    21033357.000  
  21033352.301  
  24274842.883   127565154.564    24274851.012    99401458.9744   24274851.285  
                
  22453667.812   120154124.739                    93453193.159    22453671.762  
  22453666.090  
  22403654.562   119718341.975                    93114260.710    22403658.781  
  22403654.656  
  23085979.641   121317641.078    23085983.305    94533243.3504                 
                
  20961173.828   110151730.135    20961177.789    85832534.3004                 
                
 21  8 15  0 46  0.0000000  0 15G 6G12G17G15R 5R24R14R23G24R13G25R17
                                R15G 2G19
  22018353.336   115707227.367    22018362.219    90161513.3074   22018362.836  
                
  21641478.711   113726748.554    21641484.383    88618275.3144   21641484.629  
                
  23271072.609   122290323.326    23271078.645    95291192.4804   23271078.609  
                
  24904716.492   130875181.649    24904723.559   101980693.5734   24904723.371  
                
  23115979.273   123568158.102                    96108559.692    23115983.094  
  23115978.742  
  19565191.727   104623875.297                    81374128.110    19565196.082  
  19565190.754  
  19475293.805   103814291.231                    80744441.320    19475297.699  
  19475293.461  
  20181292.367   107956319.167                                                  
  20181290.551  
  20338196.648   106877964.392    20338205.043    83281561.1154   20338205.059  
                
  21037961.719   112341581.749                    87376788.845    21037964.570  
  21037959.922  
  24268853.852   127533682.125    24268862.039    99376935.0404   24268862.336  
                
  22445438.820   120110089.281                    93418943.345    22445442.676  
  22445437.031  
  22397300.938   119684390.191                    93087853.783    22397305.168  
  22397300.988  
  23080378.617   121288207.545    23080382.254    94510308.1324                 
                
  20964968.492   110171671.307    20964972.477    85848072.8814                 
                
 21  8 15  0 46 10.0000000  0 15G 6G12G17G15R 5R24R14R23G24R13G25R17
                                R15G 2G19
  22014676.469   115687905.212    22014685.348    90146457.0924   22014685.984  
                
  21637225.711   113704398.792    21637231.371    88600859.9224   21637231.605  
                
  23276774.180   122320285.272    23276780.195    95314539.4464   23276780.195  
                
  24910946.258   130907919.292    24910953.375   102006203.4304   24910953.156  
                
  23119335.719   123586100.062                    96122514.602    23119339.484  
  23119335.188  
  19562228.164   104608027.758                    81361802.247    19562232.523  
  19562227.195  
  19473382.852   103804104.757                    80736518.512    19473386.738  
  19473382.500  
  20184977.562   107976032.436                                                  
  20184975.730  
  20338475.477   106879429.568    20338483.863    83282702.8144   20338483.883  
                
  21042577.008   112366227.080                    87395957.432    21042579.844  
  21042575.219  
  24262866.086   127502215.512    24262874.152    99352415.5524   24262874.426  
                
  22437214.492   120066079.029                    93384713.150    22437218.281  
  22437212.695  
  22390948.414   119650444.354                    93061451.468    22390952.648  
  22390948.477  
  23074782.820   121258801.591    23074786.488    94487394.4064                 
                
  20968772.445   110191661.187    20968776.457    85863649.4074                 
                
 21  8 15  0 46 20.0000000  0 15G 6G12G17G15R 5R24R14R23G24R13G25R17
                                R15G 2G19
  22011010.094   115668638.299    22011018.941    90131443.9054   22011019.598  
                
  21632977.289   113682073.224    21632982.949    88583463.3714   21632983.176  
                
  23282478.672   122350262.561    23282484.695    95337898.3694   23282484.695  
                
  24917175.383   130940653.661    24917182.527   102031710.7284   24917182.293  
                
  23122705.133   123604111.591                    96136523.547    23122708.938  
  23122704.594  
  19559280.586   104592265.724                    81349542.895    19559284.949  
  19559279.629  
  19471480.672   103793965.084                    80728632.091    19471484.547  
  19471480.328  
  20188677.609   107995825.254                                                  
  20188675.770  
  20338766.125   106880956.934    20338774.500    83283892.9624   20338774.516  
                
  21047199.961   112390913.416                    87415157.901    21047202.801  
  21047198.176  
  24256879.266   127470754.692    24256887.383    99327900.6484   24256887.652  
                
  22428994.859   120022094.096                    93350502.621    22428998.605  
  22428993.086  
  22384597.016   119616504.533                    93035053.825    22384601.207  
  22384597.125  
  23069192.305   121229423.361    23069195.973    94464502.2794                 
                
  20972585.633   110211699.671    20972589.680    85879263.8084                 
                
 21  8 15  0 46 30.0000000  0 15G 6G12G17G15R 5R24R14R23G24R13G25R17
                                R15G 2G19
  22007354.273   115649426.867    22007363.094    90116473.9654   22007363.773  
                
  21628733.516   113659772.053    21628739.191    88566085.8434   21628739.414  
                
  23288186.109   122380255.296    23288192.156    95361269.3334   23288192.141  
                
  24923403.961   130973384.747    24923411.031   102057215.4804   24923410.781  
                
  23126087.625   123622192.948                    96150586.813    23126091.484  
  23126087.113  
  19556348.984   104576589.201                    81337350.043    19556353.363  
  19556348.027  
  19469587.320   103783872.485                    80720782.294    19469591.195  
  19469586.984  
  20192392.531   108015697.611                                                  
  20192390.680  
  20339068.648   106882546.689    20339077.012    83285131.7364   20339077.035  
                
  21051830.672   112415641.045                    87434390.520    21051833.508  
  21051828.895  
  24250893.578   127439299.910    24250901.789    99303390.4694   24250902.066  
                
  22420780.141   119978134.874                    93316312.110    22420783.750  
  22420778.281  
  22378246.797   119582570.873                    93008660.979    22378250.945  
  22378246.922  
  23063607.117   121200073.192    23063610.789    94441632.0244                 
                
  20976408.094   110231786.883    20976412.168    85894916.1854                 
                
 21  8 15  0 46 40.0000000  0 15G 6G12G17G15R 5R24R14R23G24R13G25R17
                                R15G 2G19
  22003708.984   115630270.756    22003717.777    90101547.1224   22003718.469  
                
  21624494.344   113637495.080    21624500.023    88548727.1694   21624500.242  
                
  23293896.406   122410263.105    23293902.441    95384652.0314   23293902.434  
                
  24929631.859   131006112.189    24929638.809   102082717.3824   24929638.586  
                
  23129483.094   123640343.706                    96164704.109    23129486.977  
  23129482.559  
  19553433.359   104560998.092                    81325223.646    19553437.750  
  19553432.367  
  19467702.766   103773826.715                    80712968.920    19467706.629  
  19467702.430  
  20196122.234   108035649.045                                                  
  20196120.379  
  20339382.992   106884198.560    20339391.344    83286418.9034   20339391.371  
                
  21056469.008   112440409.510                    87453654.880    21056471.859  
  21056467.258  
  24244909.023   127407850.969    24244917.238    99278884.7594   24244917.531  
                
  22412570.000   119934201.069                    93282141.395    22412573.680  
  22412568.211  
  22371897.773   119548643.428                    92982272.944    22371901.875  
  22371897.914  
  23058027.242   121170750.839    23058030.863    94418783.4394                 
                
  20980239.766   110251922.446    20980243.867    85910606.2344                 
                
 21  8 15  0 46 50.0000000  0 15G 6G12G17G15R 5R24R14R23G24R13G25R17
                                R15G 2G19
  22000074.258   115611170.160    22000083.027    90086663.5354   22000083.719  
                
  21620259.812   113615242.459    21620265.488    88531387.4704   21620265.707  
                
  23299609.602   122440286.039    23299615.617    95408046.5274   23299615.613  
                
  24935859.086   131038835.986    24935865.910   102108216.4594   24935865.715  
                
  23132891.555   123658563.914                    96178875.369    23132895.457  
  23132890.992  
  19550533.734   104545492.515                    81313163.746    19550538.129  
  19550532.738  
  19465827.039   103763828.011                    80705192.148    19465830.895  
  19465826.707  
  20199866.734   108055679.609                                                  
  20199864.875  
  20339709.180   106885912.673    20339717.512    83287754.5714   20339717.551  
                
  21061115.039   112465219.011                    87472951.145    21061117.875  
  21061113.270  
  24238925.578   127376407.923    24238933.828    99254383.6974   24238934.148  
                
  22404364.758   119890293.107                    93247990.764    22404368.430  
  22404362.973  
  22365549.875   119514722.092                    92955889.677    22365553.941  
  22365550.031  
  23052452.711   121141456.505    23052456.246    94395956.6714                 
                
  20984080.625   110272106.355    20984084.766    85926333.9564                 
                
 21  8 15  0 47  0.0000000  0 15G 6G12G17G15R 5R24R14R23G24R13G25R17
                                R15G 2G19
  21996450.125   115592125.246    21996458.867    90071823.3474   21996459.562  
                
  21616029.930   113593014.298    21616035.605    88514066.8234   21616035.828  
                
  23305325.664   122470324.129    23305331.637    95431452.8244   23305331.641  
                
  24942085.586   131071556.101    24942092.340   102133712.6594   24942092.145  
                
  23136312.992   123676853.454                    96193100.553    23136316.926  
  23136312.449  
  19547650.109   104530072.479                    81301170.384    19547654.512  
  19547649.109  
  19463960.180   103753876.602                    80697452.153    19463964.020  
  19463959.852  
  20203626.039   108075789.328                                                  
  20203624.188  
  20340047.242   106887689.130    20340055.559    83289138.8264   20340055.605  
                
  21065768.781   112490069.705                    87492279.468    21065771.617  
  21065766.996  
  24232943.289   127344970.910    24232951.586    99229887.3494   24232951.906  
                
  22396164.352   119846411.031                    93213860.265    22396167.988  
  22396162.566  
  22359203.156   119480807.154                    92929511.390    22359207.219  
  22359203.312  
  23046883.547   121112190.473    23046887.035    94373151.9614                 
                
  20987930.719   110292338.759    20987934.922    85942099.4604                 
                
 21  8 15  0 47 10.0000000  0 15G 6G12G17G15R 5R24R14R23G24R13G25R17
                                R15G 2G19
  21992836.570   115573135.951    21992845.262    90057026.5044   21992845.980  
                
  21611804.664   113570810.382    21611810.336    88496765.0864   21611810.570  
                
  23311044.570   122500377.158    23311050.512    95454870.7644   23311050.512  
                
  24948311.320   131104272.312    24948318.043   102159205.8144   24948317.832  
                
  23139747.320   123695212.095                    96207379.492    23139751.324  
  23139746.723  
  19544782.484   104514738.029                    81289243.593    19544786.891  
  19544781.496  
  19462102.148   103743972.229                    80689748.748    19462105.980  
  19462101.824  
  20207400.055   108095977.814                                                  
  20207398.195  
  20340397.125   106889527.781    20340405.422    83290571.5354   20340405.484  
                
  21070430.148   112514961.189                    87511639.510    21070432.973  
  21070428.363  
  24226962.117   127313539.814    24226970.449    99205395.5614   24226970.758  
                
  22387968.773   119802554.926                    93179749.953    22387972.375  
  22387966.973  
  22352857.617   119446898.505                    92903137.978    22352861.660  
  22352857.789  
  23041319.758   121082952.648    23041323.223    94350369.2464                 
                
  20991789.969   110312619.347    20991794.246    85957902.5224                 
                
 21  8 15  0 47 20.0000000  0 15G 6G12G17G15R 5R24R14R23G24R13G25R17
                                R15G 2G19
  21989233.656   115554202.574    21989242.293    90042273.2304   21989243.039  
                
  21607584.055   113548630.992    21607589.719    88479482.4434   21607589.965  
                
  23316766.336   122530445.220    23316772.273    95478300.4224   23316772.254  
                
  24954536.266   131136984.676    24954543.008   102184695.9714   24954542.809  
                
  23143194.602   123713639.873                    96221712.220    23143198.656  
  23143194.016  
  19541930.930   104499489.515                    81277383.630    19541935.336  
  19541929.949  
  19460253.000   103734115.238                    80682082.196    19460256.820  
  19460252.680  
  20211188.836   108116245.258                                                  
  20211186.965  
  20340758.883   106891428.848    20340767.164    83292052.8784   20340767.246  
                
  21075099.203   112539893.753                    87531031.522    21075102.035  
  21075097.383  
  24220982.070   127282114.875    24220990.477    99180908.5964   24220990.809  
                
  22379778.188   119758725.081                    93145660.070    22379781.715  
  22379776.293  
  22346513.297   119412996.337                    92876769.635    22346517.344  
  22346513.438  
  23035761.406   121053743.339    23035764.871    94327608.7434                 
                
  20995658.422   110332948.230    20995662.758    85973743.2084                 
                
 21  8 15  0 47 30.0000000  0 15G 6G12G17G15R 5R24R14R23G24R13G25R17
                                R15G 2G19
  21985641.398   115535325.098    21985650.004    90027563.5034   21985650.754  
                
  21603368.102   113526476.012    21603373.789    88462218.8264   21603374.016  
                
  23322490.938   122560528.115    23322496.852    95501741.6414   23322496.832  
                
  24960760.508   131169693.117    24960767.219   102210183.0724   24960767.008  
                
  23146654.797   123732136.781                    96236098.666    23146658.926  
  23146654.172  
  19539095.414   104484326.754                    81265590.391    19539099.820  
  19539094.422  
  19458412.750   103724305.638                    80674452.507    19458416.566  
  19458412.430  
  20214992.336   108136591.418                                                  
  20214990.461  
  20341132.508   106893392.233    20341140.785    83293582.7894   20341140.867  
                
  21079775.953   112564867.356                    87550455.417    21079778.816  
  21079774.113  
  24215003.164   127250695.943    24215011.684    99156426.3434   24215012.008  
                
  22371592.555   119714921.554                    93111590.653    22371596.000  
  22371590.562  
  22340170.234   119379100.793                    92850406.419    22340174.242  
  22340170.359  
  23030208.492   121024562.509    23030211.977    94304870.4484                 
                
  20999536.031   110353325.201    20999540.410    85989621.3684                 
                
 21  8 15  0 47 40.0000000  0 15G 6G12G17G15R 5R24R14R23G24R13G25R17
                                R15G 2G19
  21982059.766   115516503.535    21982068.359    90012897.3544   21982069.098  
                
  21599156.789   113504345.424    21599162.496    88444974.2174   21599162.707  
                
  23328218.344   122590625.764    23328224.199    95525194.3614   23328224.199  
                
  24966983.953   131202397.344    24966990.621   102235666.8854   24966990.387  
                
  23150127.852   123750702.385                    96250538.543    23150132.039  
  23150127.250  
  19536275.953   104469249.849                    81253863.910    19536280.363  
  19536274.941  
  19456581.383   103714543.435                    80666859.679    19456585.211  
  19456581.070  
  20218810.516   108157016.157                                                  
  20218808.637  
  20341517.984   106895417.876    20341526.254    83295161.2044   20341526.340  
                
  21084460.328   112589881.759                    87569911.056    21084463.211  
  21084458.465  
  24209025.508   127219283.086    24209034.078    99131948.7784   24209034.340  
                
  22363411.734   119671144.445                    93077541.803    22363415.223  
  22363409.762  
  22333828.367   119345211.740                    92824048.272    22333832.336  
  22333828.465  
  23024661.008   120995410.267    23024664.516    94282154.4154                 
                
  21003422.766   110373750.154    21003427.184    86005536.9134                 
                
 21  8 15  0 47 50.0000000  0 15G 6G12G17G15R 5R24R14R23G24R13G25R17
                                R15G 2G19
  21978488.805   115497738.039    21978497.414    89998274.8974   21978498.121  
                
  21594950.133   113482239.303    21594955.840    88427748.6764   21594956.055  
                
  23333948.531   122620738.097    23333954.348    95548658.5094   23333954.363  
                
  24973206.578   131235097.178    24973213.211   102261147.2994   24973212.984  
                
  23153613.773   123769336.645                    96265031.870    23153617.949  
  23153613.172  
  19533472.555   104454258.863                    81242204.245    19533476.957  
  19533471.543  
  19454758.906   103704828.635                    80659303.734    19454762.734  
  19454758.582  
  20222643.344   108177519.186                                                  
  20222641.461  
  20341915.312   106897505.850    20341923.582    83296788.1914   20341923.668  
                
  21089152.359   112614936.996                    87589398.477    21089155.242  
  21089150.449  
  24203048.969   127187876.301    24203057.625    99107475.9664   24203057.855  
                
  22355235.859   119627393.997                    93043513.690    22355239.430  
  22355233.977  
  22327487.719   119311329.336                    92797695.284    22327491.695  
  22327487.812  
  23019118.977   120966286.707    23019122.520    94259460.7304                 
                
  21007318.617   110394223.011    21007323.070    86021489.7914                 
                
 21  8 15  0 48  0.0000000  0 15G 6G12G17G15R 5R24R14R23G24R13G25R17
                                R15G 2G19
  21974928.539   115479028.740    21974937.184    89983696.2244   21974937.848  
                
  21590748.141   113460157.718    21590753.844    88410542.2504   21590754.078  
                
  23339681.523   122650865.149    23339687.273    95572134.1354   23339687.332  
                
  24979428.328   131267792.763    24979435.012   102286624.3824   24979434.770  
                
  23157112.539   123788039.574                    96279578.623    23157116.660  
  23157111.965  
  19530685.203   104439353.683                    81230611.334    19530689.598  
  19530684.191  
  19452945.359   103695161.395                    80651784.763    19452949.184  
  19452945.039  
  20226490.844   108198100.687                                                  
  20226488.969  
  20342324.508   106899656.193    20342332.770    83298463.7834   20342332.863  
                
  21093852.070   112640033.225                    87608917.757    21093854.922  
  21093850.152  
  24197073.531   127156475.676    24197082.352    99083007.9604   24197082.559  
                
  22347064.984   119583670.199                    93009506.290    22347068.598  
  22347063.156  
  22321148.359   119277453.709                    92771347.576    22321152.363  
  22321148.465  
  23013582.383   120937191.999    23013585.992    94236789.5354                 
                
  21011223.570   110414743.657    21011228.047    86037479.9074                 
                
 21  8 15  0 48 10.0000000  0 15G 6G12G17G15R 5R24R14R23G24R13G25R17
                                R15G 2G19
  21971379.008   115460375.832    21971387.680    89969161.5004   21971388.320  
                
  21586550.875   113438100.888    21586556.578    88393355.1124   21586556.809  
                
  23345417.320   122681006.974    23345423.020    95595621.2614   23345423.086  
                
  24985649.281   131300484.124    24985656.039   102312098.1624   24985655.773  
                
  23160624.117   123806810.981                    96294178.589    23160628.246  
  23160623.551  
  19527913.992   104424534.780                    81219085.525    19527918.375  
  19527912.977  
  19451140.797   103685542.053                    80644303.058    19451144.617  
  19451140.477  
  20230352.984   108218760.539                                                  
  20230351.105  
  20342745.609   106901869.054    20342753.863    83300188.0884   20342753.957  
                
  21098559.453   112665170.381                    87628468.891    21098562.277  
  21098557.551  
  24191099.383   127125081.418    24191108.293    99058544.9114   24191108.465  
                
  22338899.227   119539973.535                    92975519.994    22338902.828  
  22338897.391  
  22314810.320   119243585.096                    92745005.322    22314814.344  
  22314810.457  
  23008051.305   120908126.373    23008054.988    94214141.0074                 
                
  21015137.633   110435312.192    21015142.129    86053507.3384                 
                
 21  8 15  0 48 20.0000000  0 15G 6G12G17G15R 5R24R14R23G24R13G25R17
                                R15G 2G19
  21967840.164   115441779.082    21967848.848    89954670.5304   21967849.477  
                
  21582358.234   113416068.415    21582363.918    88376186.9464   21582364.148  
                
  23351155.844   122711163.135    23351161.520    95619119.5734   23351161.559  
                
  24991869.406   131333170.881    24991876.164   102337568.3524   24991875.883  
                
  23164148.500   123825650.772                    96308831.777    23164152.605  
  23164147.895  
  19525158.820   104409801.660                    81207626.432    19525163.191  
  19525157.805  
  19449345.156   103675970.251                    80636858.319    19449348.969  
  19449344.832  
  20234229.672   108239498.206                                                  
  20234227.793  
  20343178.531   106904144.076    20343186.777    83301960.8354   20343186.879  
                
  21103274.500   112690348.395                    87648051.792    21103277.285  
  21103272.602  
  24185126.359   127093693.167    24185135.383    99034086.5654   24185135.520  
                
  22330738.406   119496303.629                    92941554.516    22330742.066  
  22330736.578  
  22308473.539   119209723.163                    92718668.280    22308477.555  
  22308473.695  
  23002525.773   120879089.605    23002529.480    94191514.9784                 
                
  21019060.742   110455928.254    21019065.246    86069571.8074                 
                
 21  8 15  0 48 30.0000000  0 15G 6G12G17G15R 5R24R14R23G24R13G25R17
                                R15G 2G19
  21964312.008   115423238.552    21964320.684    89940223.3614   21964321.305  
                
  21578170.219   113394060.302    21578175.887    88359037.7774   21578176.129  
                
  23356897.078   122741333.519    23356902.738    95642628.9734   23356902.781  
                
  24998088.578   131365852.830    24998095.344   102363034.8064   24998095.055  
                
  23167685.594   123844558.588                    96323537.878    23167689.629  
  23167684.973  
  19522419.727   104395154.521                    81196234.221    19522424.090  
  19522418.711  
  19447558.422   103666445.991                    80629450.550    19447562.238  
  19447558.102  
  20238120.914   108260313.741                                                  
  20238119.027  
  20343623.281   106906481.267    20343631.523    83303782.0184   20343631.625  
                
  21107997.102   112715566.794                    87667666.108    21107999.922  
  21107995.207  
  24179154.602   127062310.925    24179163.566    99009632.8574   24179163.680  
                
  22322582.570   119452660.660                    92907609.969    22322586.328  
  22322580.820  
  22302137.977   119175867.931                    92692336.412    22302141.980  
  22302138.148  
  22997005.789   120850081.746    22997009.504    94168911.4604                 
                
  21022992.859   110476591.705    21022997.352    86085673.2014                 
                
 21  8 15  0 48 40.0000000  0 15G 6G12G17G15R 5R24R14R23G24R13G25R17
                                R15G 2G19
  21960794.633   115404754.588    21960803.258    89925820.2654   21960803.910  
                
  21573986.922   113372076.926    21573992.586    88341907.8824   21573992.816  
                
  23362641.047   122771518.339    23362646.730    95666149.6054   23362646.750  
                
  25004306.914   131398530.116    25004313.641   102388497.6324   25004313.367  
                
  23171235.438   123863534.492                    96338296.910    23171239.461  
  23171234.828  
  19519696.781   104380593.678                    81184909.123    19519701.125  
  19519695.770  
  19445780.703   103656969.685                    80622080.081    19445784.512  
  19445780.387  
  20242026.711   108281207.113                                                  
  20242024.809  
  20344079.922   106908880.896    20344088.168    83305651.8604   20344088.266  
                
  21112727.391   112740826.294                    87687312.363    21112730.250  
  21112725.492  
  24173184.062   127030935.026    24173192.977    98985184.1014   24173193.086  
                
  22314431.852   119409045.055                    92873686.732    22314435.695  
  22314430.219  
  22295803.727   119142019.676                    92666010.021    22295807.750  
  22295803.895  
  22991491.406   120821103.160    22991495.105    94146330.7354                 
                
  21026934.047   110497302.762    21026938.504    86101811.6814                 
                
 21  8 15  0 48 50.0000000  0 15G 6G12G17G15R 5R24R14R23G24R13G25R17
                                R15G 2G19
  21957288.016   115386327.246    21957296.602    89911461.2984   21957297.273  
                
  21569808.328   113350118.307    21569813.973    88324797.2684   21569814.195  
                
  23368387.742   122801717.517    23368393.434    95689681.4194   23368393.457  
                
  25010524.305   131431202.643    25010530.973   102413956.7374   25010530.727  
                
  23174797.969   123882578.362                    96353108.807    23174802.012  
  23174797.359  
  19516989.922   104366118.894                    81173650.945    19516994.246  
  19516988.945  
  19444011.977   103647541.429                    80614747.004    19444015.789  
  19444011.668  
  20245947.031   108302178.259                                                  
  20245945.121  
  20344548.430   106911342.941    20344556.688    83307570.3384   20344556.773  
                
  21117465.344   112766126.646                    87706990.423    21117468.219  
  21117463.445  
  24167214.609   126999565.402    24167223.574    98960740.2454   24167223.703  
                
  22306286.312   119365456.791                    92839784.756    22306290.168  
  22306284.668  
  22289470.805   119108178.536                    92639689.147    22289474.875  
  22289470.957  
  22985982.609   120792154.017    22985986.266    94123772.9574                 
                
  21030884.258   110518061.274    21030888.672    86117987.1474                 
                
 21  8 15  0 49  0.0000000  0 15G 6G12G17G15R 5R24R14R23G24R13G25R17
                                R15G 2G19
  21953792.195   115367956.545    21953800.773    89897146.4704   21953801.461  
                
  21565634.414   113328184.227    21565640.027    88307705.7894   21565640.250  
                
  23374137.164   122831930.939    23374142.820    95713224.3464   23374142.863  
                
  25016740.703   131463870.179    25016747.316   102439411.9464   25016747.121  
                
  23178373.195   123901690.120                    96367973.506    23178377.250  
  23178372.586  
  19514299.203   104351730.386                    81162459.885    19514303.496  
  19514298.246  
  19442252.266   103638161.177                    80607451.240    19442256.090  
  19442251.961  
  20249881.867   108323227.011                                                  
  20249879.957  
  20345028.812   106913867.324    20345037.074    83309537.3904   20345037.145  
                
  21122210.945   112791467.884                    87726700.290    21122213.820  
  21122209.066  
  24161246.219   126968202.021    24161255.363    98936301.2774   24161255.484  
                
  22298145.961   119321896.077                    92805904.195    22298149.777  
  22298144.254  
  22283139.242   119074344.595                    92613373.858    22283143.355  
  22283139.387  
  22980479.430   120763234.254    22980483.035    94101238.0644                 
                
  21034843.477   110538867.093    21034847.840    86134199.4814                 
                
 21  8 15  0 49 10.0000000  0 15G 6G12G17G15R 5R24R14R23G24R13G25R17
                                R15G 2G19
  21950307.188   115349642.742    21950315.793    89882875.9734   21950316.453  
                
  21561465.234   113306275.029    21561470.832    88290633.6804   21561471.055  
                
  23379889.289   122862158.588    23379894.918    95736778.3624   23379894.969  
                
  25022956.125   131496532.575    25022962.707   102464863.1754   25022962.535  
                
  23181961.141   123920869.703                    96382890.923    23181965.203  
  23181960.520  
  19511624.625   104337428.244                    81151336.004    19511628.898  
  19511623.672  
  19440501.578   103628829.005                    80600192.890    19440505.418  
  19440501.273  
  20253831.203   108344353.307                                                  
  20253829.270  
  20345521.086   106916454.226    20345529.340    83311553.1524   20345529.406  
                
  21126964.195   112816850.013                    87746441.938    21126967.094  
  21126962.289  
  24155279.195   126936845.077    24155288.344    98911867.2834   24155288.477  
                
  22290010.789   119278363.190                    92772045.281    22290014.625  
  22290009.082  
  22276809.062   119040518.024                    92587064.305    22276813.203  
  22276809.207  
  22974981.844   120734344.095    22974985.461    94078726.2634                 
                
  21038811.703   110559720.275    21038816.035    86150448.7174                 
                
 21  8 15  0 49 20.0000000  0 14G 6G12G17R 5R24R14R23G24R13G25R17R15
                                G 2G19
  21946832.641   115331383.854    21946841.281    89868648.2784   21946841.902  
                
  21557300.383   113284388.625    21557305.984    88273579.3494   21557306.199  
                
  23385643.750   122892398.445    23385649.387    95760341.8844   23385649.430  
                
  23185561.430   123940115.109                    96397859.536    23185565.516  
  23185560.832  
  19508965.859   104323210.632                    81140277.857    19508970.121  
  19508964.914  
  19438759.570   103619543.105                    80592970.509    19438763.398  
  19438759.277  
  20257794.641   108365555.091                                                  
  20257792.691  
  20346024.875   106919101.634    20346033.121    83313616.0704   20346033.195  
                
  21131724.711   112842270.828                    87766213.671    21131727.578  
  21131722.832  
  24149313.016   126905492.586    24149322.176    98887436.7924   24149322.320  
                
  22281880.500   119234856.186                    92738206.507    22281884.309  
  22281878.766  
  22270479.867   119006696.740                    92560758.853    22270484.004  
  22270480.012  
  22969489.492   120705481.607    22969493.129    94056236.0184                 
                
  21042788.555   110580618.729    21042792.859    86166733.2334                 
                
 21  8 15  0 49 30.0000000  0 14G 6G12G17R 5R24R14R23G24R13G25R17R15
                                G 2G19
  21943369.141   115313183.022    21943377.809    89854465.8094   21943378.395  
                
  21553140.469   113262528.066    21553146.059    88256545.1464   21553146.277  
                
  23391401.070   122922653.397    23391406.707    95783917.1644   23391406.750  
                
  23189174.539   123959429.123                    96412881.544    23189178.625  
  23189173.988  
  19506323.516   104309080.784                    81129287.977    19506327.754  
  19506322.570  
  19437026.836   103610306.630                    80585786.588    19437030.652  
  19437026.547  
  20261772.727   108386835.191                                                  
  20261770.777  
  20346540.750   106921812.563    20346548.984    83315728.4784   20346549.062  
                
  21136493.086   112867733.637                    87786018.080    21136495.969  
  21136491.199  
  24143348.297   126874147.561    24143357.402    98863012.0954   24143357.539  
                
  22273755.656   119191378.264                    92704390.347    22273759.418  
  22273753.871  
  22264152.266   118972883.944                    92534460.020    22264156.387  
  22264152.410  
  22964002.961   120676649.951    22964006.672    94033769.8084                 
                
  21046774.570   110601565.351    21046778.859    86183055.2794                 
                
 21  8 15  0 49 40.0000000  0 14G 6G12G17R 5R24R14R23G24R13G25R17R15
                                G 2G19
  21939916.555   115295039.551    21939925.242    89840328.0604   21939925.812  
                
  21548985.328   113240692.684    21548990.934    88239530.5644   21548991.141  
                
  23397161.109   122952922.692    23397166.746    95807503.6244   23397166.781  
                
  23192800.328   123978810.862                    96427956.248    23192804.336  
  23192799.801  
  19503697.398   104295037.763                    81118365.624    19503701.617  
  19503696.469  
  19435303.211   103601118.747                    80578640.460    19435307.035  
  19435302.918  
  20265765.305   108408192.875                                                  
  20265763.375  
  20347068.578   106924586.289    20347076.801    83317889.8244   20347076.883  
                
  21141269.148   112893237.525                    87805854.448    21141272.016  
  21141267.262  
  24137384.859   126842809.353    24137393.934    98838592.7544   24137394.098  
                
  22265636.086   119147928.755                    92670596.281    22265639.805  
  22265634.281  
  22257826.125   118939078.940                    92508167.235    22257830.266  
  22257826.289  
  22958522.164   120647848.517    22958525.957    94011327.1464                 
                
  21050769.586   110622559.341    21050773.859    86199414.2324                 
                
 21  8 15  0 49 50.0000000  0 14G 6G12G17R 5R24R14R23G24R13G25R17R15
                                G 2G19
  21936474.875   115276953.409    21936483.562    89826234.9494   21936484.117  
                
  21544834.961   113218882.418    21544840.625    88222535.5574   21544840.805  
                
  23402923.859   122983206.105    23402929.480    95831101.0894   23402929.520  
                
  23196438.727   123998260.051                    96443083.382    23196442.703  
  23196438.234  
  19501087.469   104281081.271                    81107510.583    19501091.664  
  19501086.555  
  19433588.719   103591979.491                    80571532.134    19433592.543  
  19433588.426  
  20269772.320   108429627.683                                                  
  20269770.383  
  20347608.305   106927422.600    20347616.516    83320099.9334   20347616.605  
                
  21146052.875   112918782.339                    87825722.646    21146055.750  
  21146051.008  
  24131422.562   126811477.713    24131431.699    98814178.4854   24131431.887  
                
  22257521.914   119104507.588                    92636824.258    22257525.520  
  22257520.023  
  22251501.406   118905281.591                    92481880.418    22251505.566  
  22251501.594  
  22953047.102   120619077.150    22953050.984    93988907.9294                 
                
  21054773.570   110643600.398    21054777.840    86215809.8544                 
                
 21  8 15  0 50  0.0000000  0 14G 6G12G17R 5R24R14R23G24R13G25R17R15
                                G 2G19
  21933044.086   115258924.435    21933052.773    89812186.4014   21933053.320  
                
  21540689.344   113197097.077    21540695.035    88205559.9774   21540695.188  
                
  23408689.258   123013503.431    23408694.852    95854709.3914   23408694.906  
                
  23200089.664   124017776.285                    96458262.678    23200093.652  
  23200089.191  
  19498493.758   104267211.510                    81096722.988    19498497.938  
  19498492.840  
  19431883.312   103582888.750                    80564461.576    19431887.145  
  19431883.023  
  20273793.703   108451139.413                                                  
  20273791.773  
  20348159.922   106930321.334    20348168.109    83322358.6854   20348168.211  
                
  21150844.188   112944367.718                    87845622.368    21150847.059  
  21150842.312  
  24125461.500   126780152.531    24125470.648    98789769.2504   24125470.871  
                
  22249413.156   119061114.822                    92603074.319    22249416.523  
  22249411.098  
  22245178.109   118871491.823                    92455599.498    22245182.277  
  22245178.297  
  22947577.773   120590335.806    22947581.672    93966512.0814                 
                
  21058786.453   110664688.249    21058790.727    86232241.9484                 
                
 21  8 15  0 50 10.0000000  0 14G 6G12G17R 5R24R14R23G24R13G25R17R15
                                G 2G19
  21929624.148   115240952.578    21929632.828    89798182.3534   21929633.379  
                
  21536548.430   113175336.507    21536554.125    88188603.6914   21536554.289  
                
  23414457.258   123043814.414    23414462.812    95878328.3404   23414462.887  
                
  23203753.102   124037359.467                    96473494.095    23203757.004  
  23203752.625  
  19495916.203   104253428.167                    81086002.614    19495920.371  
  19495915.293  
  19430186.969   103573846.243                    80557428.509    19430190.801  
  19430186.684  
  20277829.414   108472727.737                                                  
  20277827.484  
  20348723.383   106933282.337    20348731.547    83324665.9624   20348731.668  
                
  21155643.047   112969993.484                    87865553.513    21155645.918  
  21155641.180  
  24119501.672   126748833.676    24119510.828    98765364.9464   24119511.078  
                
  22241309.609   119017750.342                    92569346.378    22241312.805  
  22241307.453  
  22238856.219   118837709.564                    92429324.399    22238860.363  
  22238856.398  
  22942114.195   120561624.492    22942118.059    93944139.6284                 
                
  21062808.188   110685822.649    21062812.438    86248710.3104                 
                
 21  8 15  0 50 20.0000000  0 14G 6G12G17R 5R24R14R23G24R13G25R17R15
                                G 2G19
  21926215.156   115223038.209    21926223.855    89784223.1164   21926224.391  
                
  21532412.297   113153601.032    21532418.039    88171666.9754   21532418.199  
                
  23420227.875   123074139.144    23420233.441    95901957.9964   23420233.496  
                
  23207429.070   124057009.706                    96488777.587    23207432.977  
  23207428.566  
  19493354.875   104239731.607                    81075349.733    19493359.051  
  19493353.977  
  19428499.758   103564852.484                    80550433.349    19428503.574  
  19428499.477  
  20281879.445   108494392.726                                                  
  20281877.520  
  20349298.758   106936305.943    20349306.895    83327022.0124   20349307.043  
                
  21160449.617   112995660.271                    87885516.593    21160452.461  
  21160447.766  
  24113543.008   126717521.426    24113552.230    98740965.8154   24113552.500  
                
  22233211.258   118974414.572                    92535640.782    22233214.469  
  22233209.164  
  22232535.758   118803935.104                    92403055.393    22232539.910  
  22232535.914  
  22936656.391   120532943.573    22936660.211    93921790.8514                 
                
  21066838.828   110707003.842    21066843.062    86265215.1414                 
                
 21  8 15  0 50 30.0000000  0 14G 6G12G17R 5R24R14R23G24R13G25R17R15
                                G 2G19
  21922817.078   115205181.173    21922825.816    89770308.5484   21922826.332  
                
  21528280.906   113131890.435    21528286.691    88154749.6304   21528286.816  
                
  23426001.047   123104477.245    23426006.613    95925598.0754   23426006.621  
                
  23211117.508   124076726.548                    96504112.858    23211121.449  
  23211116.973  
  19490809.766   104226121.733                    81064764.278    19490813.934  
  19490808.879  
  19426821.680   103555907.382                    80543476.045    19426825.488  
  19426821.387  
  20285943.797   108516134.276                                                  
  20285941.863  
  20349885.992   106939391.874    20349894.102    83329426.6324   20349894.266  
                
  21165263.734   113021367.470                    87905511.070    21165266.602  
  21165261.848  
  24107585.828   126686215.690    24107594.895    98716571.7354   24107595.168  
                
  22225118.250   118931107.541                    92501957.531    22225121.496  
  22225116.223  
  22226216.773   118770168.381                    92376792.369    22226220.918  
  22226216.918  
  22931204.312   120504292.802    22931208.098    93899465.5794                 
                
  21070878.320   110728231.534    21070882.551    86281756.2024                 
                
 21  8 15  0 50 40.0000000  0 14G 6G12G17R 5R24R14R23G24R13G25R17R15
                                G 2G19
  21919429.961   115187381.688    21919438.734    89756438.8114   21919439.230  
                
  21524154.266   113110204.854    21524160.062    88137851.7844   21524160.195  
                
  23431776.781   123134828.827    23431782.305    95949248.6624   23431782.305  
                
  23214818.430   124096510.183                    96519500.142    23214822.383  
  23214817.863  
  19488280.906   104212598.762                    81054246.399    19488285.074  
  19488280.039  
  19425152.750   103547011.000                    80536556.643    19425156.578  
  19425152.449  
  20290022.422   108537952.167                                                  
  20290020.492  
  20350485.117   106942540.276    20350493.199    83331879.9314   20350493.383  
                
  21170085.438   113047115.257                    87925537.122    21170088.336  
  21170083.566  
  24101629.703   126654916.438    24101638.809    98692182.7064   24101639.039  
                
  22217030.609   118887829.305                    92468296.670    22217033.910  
  22217028.609  
  22219899.266   118736409.530                    92350535.506    22219903.426  
  22219899.418  
  22925758.039   120475672.534    22925761.852    93877164.0824                 
                
  21074926.672   110749505.776    21074930.910    86298333.5404                 
                
 21  8 15  0 50 50.0000000  0 14G 6G12G17R 5R24R14R23G24R13G25R17R15
                                G 2G19
  21916053.750   115169639.610    21916062.551    89742613.8234   21916063.027  
                
  21520032.352   113088544.046    21520038.156    88120973.2434   21520038.297  
                
  23437555.008   123165193.551    23437560.473    95972909.4914   23437560.484  
                
  23218531.734   124116359.989                    96534938.863    23218535.703  
  23218531.211  
  19485768.227   104199162.297                    81043795.826    19485772.410  
  19485767.379  
  19423492.930   103538163.197                    80529675.008    19423496.750  
  19423492.621  
  20294115.242   108559846.012                                                  
  20294113.309  
  20351096.086   106945750.917    20351104.141    83334381.7254   20351104.332  
                
  21174914.742   113072903.488                    87945594.652    21174917.621  
  21174912.887  
  24095675.086   126623623.666    24095683.984    98667798.7404   24095684.207  
                
  22208948.477   118844579.899                    92434658.230    22208951.699  
  22208946.395  
  22213583.180   118702658.254                    92324284.515    22213587.363  
  22213583.352  
  22920317.562   120447082.601    22920321.430    93854886.2144                 
                
  21078983.820   110770826.276    21078988.070    86314946.9144                 
                
 21  8 15  0 51  0.0000000  0 14G 6G12G17R 5R24R14R23G24R13G25R17R15
                                G 2G19
  21912688.484   115151955.063    21912697.285    89728833.6554   21912697.762  
                
  21515915.172   113066908.160    21515920.984    88104114.1154   21515921.148  
                
  23443335.758   123195571.591    23443341.145    95996580.7004   23443341.191  
                
  23222257.453   124136276.004                    96550429.063    23222261.457  
  23222256.965  
  19483271.758   104185812.581                    81033412.722    19483275.949  
  19483270.918  
  19421842.227   103529364.048                    80522831.228    19421846.039  
  19421841.918  
  20298222.258   108581815.823                                                  
  20298220.328  
  20351718.906   106949023.868    20351726.941    83336932.0744   20351727.152  
                
  21179751.570   113098732.019                    87965683.509    21179754.461  
  21179749.734  
  24089721.578   126592337.294    24089730.391    98643419.7464   24089730.555  
                
  22200871.719   118801359.539                    92401042.400    22200874.949  
  22200869.641  
  22207268.594   118668915.001                    92298039.774    22207272.766  
  22207268.777  
  22914882.914   120418523.158    22914886.805    93832632.1104                 
                
  21083049.750   110792192.904    21083054.023    86331596.2324                 
                
 21  8 15  0 51 10.0000000  0 14G 6G12G17R 5R24R14R23G24R13G25R17R15
                                G 2G19
  21909334.234   115134328.341    21909343.035    89715098.5524   21909343.512  
                
  21511802.781   113045297.388    21511808.574    88087274.5614   21511808.746  
                
  23449119.039   123225962.896    23449124.359    96020262.2454   23449124.438  
                
  23225995.586   124156258.356                    96565970.865    23225999.605  
  23225995.102  
  19480791.578   104172549.902                    81023097.311    19480795.781  
  19480790.738  
  19420200.742   103520613.969                    80516025.611    19420204.559  
  19420200.426  
  20302343.500   108603861.663                                                  
  20302341.582  
  20352353.625   106952359.327    20352361.641    83339531.1284   20352361.863  
                
  21184596.000   113124600.993                    87985803.801    21184598.867  
  21184594.137  
  24083769.406   126561057.651    24083778.059    98619046.0034   24083778.234  
                
  22192800.438   118758168.494                    92367449.371    22192803.676  
  22192798.379  
  22200955.492   118635179.731                    92271801.225    22200959.648  
  22200955.680  
  22909454.117   120389994.477    22909458.055    93810401.9824                 
                
  21087124.484   110813605.786    21087128.770    86348281.5914                 
                
 21  8 15  0 51 20.0000000  0 14G 6G12G17R 5R24R14R23G24R13G25R17R15
                                G 2G19
  21905990.977   115116759.422    21905999.816    89701408.4894   21906000.277  
                
  21507695.156   113023711.650    21507700.949    88070454.5074   21507701.121  
                
  23454904.820   123256367.365    23454910.125    96043954.0384   23454910.219  
                
  23229746.094   124176306.838                    96581564.093    23229750.086  
  23229745.598  
  19478327.617   104159373.991                    81012849.380    19478331.848  
  19478326.785  
  19418568.453   103511912.946                    80509258.131    19418572.258  
  19418568.145  
  20306478.906   108625983.287                                                  
  20306476.992  
  20353000.219   106955757.193    20353008.207    83342178.8154   20353008.441  
                
  21189447.992   113150510.370                    88005955.546    21189450.863  
  21189446.105  
  24077818.469   126529784.608    24077827.008    98594677.4064   24077827.199  
                
  22184734.664   118715006.805                    92333879.180    22184737.883  
  22184732.594  
  22194643.898   118601452.549                    92245568.954    22194648.027  
  22194644.102  
  22904031.133   120361496.550    22904035.117    93788195.8184                 
                
  21091208.000   110835064.837    21091212.309    86365002.9374                 
                
 21  8 15  0 51 30.0000000  0 14G 6G12G17R 5R24R14R23G24R13G25R17R15
                                G 2G19
  21902658.766   115099248.554    21902667.656    89687763.6644   21902668.082  
                
  21503592.320   113002151.088    21503598.133    88053654.0804   21503598.293  
                
  23460693.125   123286785.151    23460698.426    96067656.2004   23460698.523  
                
  23233508.969   124196421.339                    96597208.724    23233512.863  
  23233508.473  
  19475879.984   104146285.376                    81002669.343    19475884.230  
  19475879.160  
  19416945.375   103503261.020                    80502528.860    19416949.191  
  19416945.066  
  20310628.500   108648180.830                                                  
  20310626.602  
  20353658.727   106959217.659    20353666.695    83344875.2824   20353666.941  
                
  21194307.609   113176460.474                    88026138.940    21194310.457  
  21194305.730  
  24071868.750   126498518.391    24071877.188    98570314.0824   24071877.398  
                
  22176674.445   118671874.793                    92300332.046    22176677.629  
  22176672.379  
  22188333.852   118567733.632                    92219343.165    22188338.000  
  22188334.047  
  22898614.070   120333029.659    22898618.062    93766013.8294                 
                
  21095300.312   110856570.001    21095304.648    86381760.2084                 
                
 21  8 15  0 51 40.0000000  0 14G 6G12G17R 5R24R14R23G24R13G25R17R15
                                G 2G19
  21899337.586   115081795.709    21899346.516    89674164.0424   21899346.941  
                
  21499494.250   112980615.574    21499500.051    88036873.1694   21499500.211  
                
  23466483.930   123317216.052    23466489.207    96091368.5964   23466489.328  
                
  23237284.156   124216601.760                    96612904.607    23237288.039  
  23237283.672  
  19473448.625   104133283.764                    80992556.989    19473452.891  
  19473447.809  
  19415331.531   103494658.308                    80495837.870    19415335.352  
  19415331.230  
  20314792.242   108670454.026                                                  
  20314790.352  
  20354329.117   106962740.600    20354337.062    83347620.4284   20354337.332  
                
  21199174.797   113202450.954                    88046353.759    21199177.609  
  21199172.938  
  24065920.203   126467258.884    24065928.730    98545956.0704   24065928.965  
                
  22168619.727   118628772.354                    92266807.914    22168622.914  
  22168617.684  
  22182025.352   118534022.996                    92193123.791    22182029.496  
  22182025.523  
  22893202.922   120304593.862    22893206.891    93743856.0694                 
                
  21099401.336   110878121.053    21099405.695    86398553.2354                 
                
 21  8 15  0 51 50.0000000  0 14G 6G12G17R 5R24R14R23G24R13G25R17R15
                                G 2G19
  21896027.445   115064400.867    21896036.426    89660609.6384   21896036.840  
                
  21495400.984   112959105.289    21495406.758    88020111.9114   21495406.918  
                
  23472277.195   123347659.910    23472282.461    96115091.0884   23472282.582  
                
  23241071.641   124236847.840                    96628651.555    23241075.500  
  23241071.191  
  19471033.523   104120369.134                    80982512.279    19471037.797  
  19471032.730  
  19413726.922   103486104.820                    80489185.152    19413730.730  
  19413726.641  
  20318970.078   108692802.605                                                  
  20318968.227  
  20355011.375   106966325.905    20355019.293    83350414.1764   20355019.582  
                
  21204049.547   113228481.771                    88066599.955    21204052.344  
  21204047.711  
  24059973.055   126436006.074    24059981.473    98521603.1754   24059981.723  
                
  22160570.719   118585699.844                    92233307.089    22160573.824  
  22160568.582  
  22175718.445   118500320.726                    92166910.926    22175722.574  
  22175718.605  
  22887797.688   120276189.083    22887801.598    93721722.4714                 
                
  21103511.094   110899717.952    21103515.484    86415381.9934                 
                
 21  8 15  0 52  0.0000000  0 14G 6G12G17R 5R24R14R23G24R13G25R17R15
                                G 2G19
  21892728.383   115047064.228    21892737.375    89647100.5684   21892737.793  
                
  21491312.523   112937620.309    21491318.273    88003370.3704   21491318.418  
                
  23478072.930   123378116.767    23478078.219    96138823.7014   23478078.336  
                
  23244871.375   124257159.570                    96644449.625    23244875.184  
  23244870.922  
  19468634.719   104107541.638                    80972535.327    19468639.000  
  19468633.938  
  19412131.555   103477600.636                    80482570.785    19412135.355  
  19412131.270  
  20323161.992   108715226.492                                                  
  20323160.180  
  20355705.531   106969973.723    20355713.422    83353256.6234   20355713.730  
                
  21208931.891   113254553.254                    88086877.761    21208934.684  
  21208930.082  
  24054026.930   126404759.948    24054035.531    98497255.6214   24054035.816  
                
  22152527.266   118542657.275                    92199829.534    22152530.301  
  22152525.094  
  22169413.086   118466626.826                    92140704.535    22169417.199  
  22169413.234  
  22882398.383   120247815.600    22882402.242    93699613.2404                 
                
  21107629.555   110921360.647    21107633.977    86432246.4324                 
                
 21  8 15  0 52 10.0000000  0 14G 6G12G17R 5R24R14R23G24R13G25R17R15
                                G 2G19
  21889440.406   115029785.821    21889449.391    89633636.8704   21889449.820  
                
  21487228.867   112916160.557    21487234.594    87986648.4884   21487234.723  
                
  23483871.102   123408586.431    23483876.461    96162566.2924   23483876.551  
                
  23248683.336   124277536.742                    96660298.537    23248687.102  
  23248682.852  
  19466252.211   104094801.262                    80962626.158    19466256.492  
  19466251.426  
  19410545.445   103469145.751                    80475994.767    19410549.242  
  19410545.176  
  20327367.969   108737725.601                                                  
  20327366.176  
  20356411.562   106973683.962    20356419.418    83356147.7184   20356419.754  
                
  21213821.781   113280664.891                    88107186.816    21213824.520  
  21213819.988  
  24048082.336   126373520.704    24048090.945    98472913.3254   24048091.242  
                
  22144489.328   118499644.701                    92166375.326    22144492.383  
  22144487.164  
  22163109.312   118432941.381                    92114504.725    22163113.410  
  22163109.492  
  22877005.031   120219473.489    22877008.895    93677528.4814                 
                
  21111756.711   110943049.013    21111761.152    86449146.4574                 
                
 21  8 15  0 52 20.0000000  0 14G 6G12G17R 5R24R14R23G24R13G25R17R15
                                G 2G19
  21886163.586   115012566.054    21886172.602    89620218.8784   21886173.039  
                
  21483150.070   112894726.353    21483155.762    87969946.5154   21483155.910  
                
  23489671.750   123439069.056    23489677.188    96186318.9964   23489677.234  
                
  23252507.609   124297979.701                    96676198.584    23252511.383  
  23252507.156  
  19463886.070   104082148.439                    80952785.073    19463890.363  
  19463885.301  
  19408968.672   103460740.654                    80469457.465    19408972.453  
  19408968.410  
  20331588.055   108760300.159                                                  
  20331586.285  
  20357129.555   106977457.003    20357137.375    83359087.7494   20357137.742  
                
  21218719.312   113306817.330                    88127527.596    21218722.027  
  21218717.527  
  24042138.797   126342288.448    24042147.637    98448576.5494   24042147.918  
                
  22136457.008   118456662.575                    92132944.791    22136460.141  
  22136454.922  
  22156807.211   118399264.805                    92088311.860    22156811.316  
  22156807.398  
  22871617.727   120191163.082    22871621.629    93655468.4244                 
                
  21115892.625   110964783.355    21115897.070    86466082.3064                 
                
 21  8 15  0 52 30.0000000  0 14G 6G12G17R 5R24R14R23G24R13G25R17R15
                                G 2G19
  21882897.820   114995404.392    21882906.922    89606846.1674   21882907.328  
                
  21479076.031   112873317.133    21479081.699    87953264.0154   21479081.855  
                
  23495474.781   123469564.200    23495480.254    96210081.4384   23495480.301  
                
  23256344.039   124318487.472                    96692149.085    23256347.742  
  23256343.660  
  19461536.195   104069582.604                    80943011.646    19461540.477  
  19461535.414  
  19407401.117   103452384.688                    80462958.380    19407404.898  
  19407400.848  
  20335822.094   108782949.393                                                  
  20335820.305  
  20357859.359   106981292.175    20357867.148    83362076.1924   20357867.543  
                
  21223624.352   113333009.921                    88147899.588    21223627.035  
  21223622.543  
  24036196.719   126311062.827    24036205.598    98424244.8914   24036205.887  
                
  22128430.375   118413710.572                    92099537.669    22128433.504  
  22128428.309  
  22150506.648   118365596.516                    92062125.413    22150510.734  
  22150506.816  
  22866236.328   120162883.839    22866240.277    93633432.6544                 
                
  21120037.133   110986562.866    21120041.570    86483053.3564                 
                
 21  8 15  0 52 40.0000000  0 14G 6G12G17R 5R24R14R23G24R13G25R17R15
                                G 2G19
  21879643.234   114978301.461    21879652.402    89593519.2154   21879652.777  
                
  21475006.859   112851933.509    21475012.516    87936601.4574   21475012.676  
                
  23501280.289   123500072.312    23501285.805    96233853.9904   23501285.832  
                
  23260192.688   124339060.532                    96708150.363    23260196.340  
  23260192.320  
  19459202.703   104057104.354                    80933306.348    19459206.984  
  19459201.898  
  19405842.906   103444078.556                    80456498.047    19405846.684  
  19405842.625  
  20340070.148   108805673.639                                                  
  20340068.348  
  20358601.102   106985190.071    20358608.867    83365113.5204   20358609.281  
                
  21228536.945   113359242.910                    88168303.051    21228539.629  
  21228535.148  
  24030255.797   126279844.275    24030264.895    98399918.7834   24030265.227  
                
  22120409.500   118370789.302                    92066154.454    22120412.590  
  22120407.449  
  22144207.734   118331937.120                    92035945.881    22144211.852  
  22144207.871  
  22860860.992   120134636.339    22860864.996    93611421.6254                 
                
  21124190.336   111008388.060    21124194.762    86500060.0084                 
                
 21  8 15  0 52 50.0000000  0 14G 6G12G17R 5R24R14R23G24R13G25R17R15
                                G 2G19
  21876399.773   114961256.993    21876408.938    89580237.8144   21876409.324  
                
  21470942.445   112830574.890    21470948.055    87919958.3824   21470948.215  
                
  23507088.164   123530592.908    23507093.746    96257636.2684   23507093.754  
                
  23264053.477   124359698.590                    96724202.146    23264057.125  
  23264053.137  
  19456885.547   104044713.457                    80923669.002    19456889.828  
  19456884.734  
  19404293.984   103435821.960                    80450076.245    19404297.773  
  19404293.699  
  20344332.156   108828472.488                                                  
  20344330.363  
  20359354.719   106989150.310    20359362.457    83368199.4184   20359362.887  
                
  21233457.070   113385516.123                    88188737.783    21233459.758  
  21233455.281  
  24024316.242   126248632.481    24024325.484    98375597.9384   24024325.859  
                
  22112394.359   118327898.496                    92032794.924    22112397.395  
  22112392.305  
  22137910.461   118298286.423                    92009773.120    22137914.574  
  22137910.613  
  22855491.688   120106420.456    22855495.742    93589435.2364                 
                
  21128352.133   111030258.439    21128356.547    86517101.8584                 
                
 21  8 15  0 53  0.0000000  0 14G 6G12G17R 5R24R14R23G24R13G25R17R15
                                G 2G19
  21873167.406   114944270.850    21873176.543    89567001.8534   21873176.965  
                
  21466882.781   112809241.257    21466888.355    87903334.7754   21466888.539  
                
  23512898.359   123561125.715    23512904.020    96281428.0614   23512903.996  
                
  23267926.352   124380401.142                    96740304.142    23267930.016  
  23267926.016  
  19454584.633   104032409.451                    80914099.213    19454588.902  
  19454583.820  
  19402754.312   103427614.667                    80443692.790    19402758.098  
  19402754.020  
  20348608.047   108851345.664                                                  
  20348606.242  
  20360120.148   106993172.711    20360127.871    83371333.7504   20360128.312  
                
  21238384.672   113411829.268                    88209203.550    21238387.309  
  21238382.875  
  24018378.117   126217427.327    24018387.363    98351282.2284   24018387.750  
                
  22104384.859   118285038.045                    91999459.018    22104387.891  
  22104382.812  
  22131614.805   118264644.339                    91983607.061    22131618.891  
  22131614.969  
  22850128.375   120078236.068    22850132.449    93567473.3684                 
                
  21132522.477   111052173.792    21132526.871    86534178.7624                 
                
 21  8 15  0 53 10.0000000  0 14G 6G12G17R 5R24R14R23G24R13G25R17R15
                                G 2G19
  21869946.258   114927343.602    21869955.383    89553811.8054   21869955.828  
                
  21462828.016   112787933.352    21462833.578    87886731.2254   21462833.770  
                
  23518710.969   123591671.224    23518716.688    96305229.7504   23518716.652  
                
  23271811.336   124401168.528                    96756456.533    23271815.043  
  23271810.969  
  19452300.117   104020193.122                    80904597.620    19452304.379  
  19452299.301  
  19401224.047   103419457.464                    80437348.301    19401227.836  
  19401223.758  
  20352897.898   108874293.447                                                  
  20352896.113  
  20360897.508   106997257.746    20360905.207    83374516.8934   20360905.668  
                
  21243319.844   113438182.835                    88229700.762    21243322.402  
  21243318.000  
  24012441.312   126186229.235    24012450.633    98326972.0984   24012451.020  
                
  22096381.203   118242208.845                    91966147.420    22096384.242  
  22096379.156  
  22125320.836   118231011.237                    91957447.997    22125324.918  
  22125320.988  
  22844771.188   120050083.751    22844775.227    93545536.4954                 
                
  21136701.469   111074134.525    21136705.836    86551291.0184                 
                
 21  8 15  0 53 20.0000000  0 14G 6G12G17R 5R24R14R23G24R13G25R17R15
                                G 2G19
  21866736.250   114910474.864    21866745.355    89540667.3334   21866745.809  
                
  21458778.047   112766650.615    21458783.594    87870147.2814   21458783.789  
                
  23524525.867   123622228.783    23524531.598    96329040.8384   23524531.582  
                
  23275708.328   124422000.245                    96772659.013    23275712.047  
  23275707.949  
  19450031.906   104008063.980                    80895163.853    19450036.168  
  19450031.090  
  19399703.055   103411349.728                    80431042.285    19399706.855  
  19399702.758  
  20357201.586   108897315.236                                                  
  20357199.812  
  20361686.695   107001404.932    20361694.379    83377748.4684   20361694.855  
                
  21248262.500   113464576.431                    88250229.106    21248265.062  
  21248260.648  
  24006505.906   126155037.889    24006515.121    98302667.1204   24006515.484  
                
  22088383.133   118199410.235                    91932859.625    22088386.320  
  22088381.188  
  22119028.477   118197386.775                    91931295.636    22119032.547  
  22119028.641  
  22839420.039   120021963.169    22839424.020    93523624.3464                 
                
  21140888.984   111096140.062    21140893.309    86568438.1884                 
                
 21  8 15  0 53 30.0000000  0 14G 6G12G17R 5R24R14R23G24R13G25R17R15
                                G 2G19
  21863537.445   114893665.067    21863546.543    89527568.7894   21863547.004  
                
  21454732.938   112745393.412    21454738.496    87853583.2374   21454738.676  
                
  23530343.117   123652798.729    23530348.887    96352861.5614   23530348.879  
                
  23279617.375   124442896.503                    96788911.625    23279621.086  
  23279616.941  
  19447780.070   103996022.407                    80885798.181    19447784.316  
  19447779.250  
  19398191.453   103403292.002                    80424775.156    19398195.238  
  19398191.145  
  20361519.148   108920411.210                                                  
  20361517.391  
  20362487.781   107005614.661    20362495.445    83381028.7684   20362495.930  
                
  21253212.688   113491010.134                    88270788.670    21253215.238  
  21253210.852  
  24000571.820   126123853.549    24000580.891    98278367.6464   24000581.285  
                
  22080390.875   118156642.779                    91899596.056    22080394.219  
  22080389.027  
  22112737.859   118163771.579                    91905150.481    22112741.910  
  22112738.031  
  22834075.031   119993874.770    22834078.953    93501737.2744                 
                
  21145085.070   111118190.637    21145089.344    86585620.4574                 
                
 21  8 15  0 53 40.0000000  0 14G 6G12G17R 5R24R14R23G24R13G25R17R15
                                G 2G19
  21860349.922   114876914.606    21860359.027    89514516.4904   21860359.477  
                
  21450692.750   112724162.129    21450698.340    87837039.3824   21450698.512  
                
  23536162.750   123683381.266    23536168.574    96376692.0964   23536168.559  
                
  23283538.516   124463857.310                    96805214.462    23283542.262  
  23283538.031  
  19445544.664   103984068.698                    80876500.856    19445548.906  
  19445543.832  
  19396689.297   103395284.697                    80418547.259    19396693.090  
  19396688.988  
  20365850.594   108943581.584                                                  
  20365848.840  
  20363300.812   107009887.214    20363308.473    83384358.0314   20363308.957  
                
  21258170.445   113517484.313                    88291379.694    21258173.012  
  21258168.605  
  23994639.148   126092676.621    23994648.105    98254073.9514   23994648.500  
                
  22072404.688   118113906.956                    91866357.077    22072408.008  
  22072402.820  
  22106448.953   118130165.650                    91879012.531    22106453.012  
  22106449.160  
  22828736.195   119965818.912    22828740.113    93479875.5784                 
                
  21149289.766   111140286.475    21149293.977    86602837.9994                 
                
 21  8 15  0 53 50.0000000  0 14G 6G12G17R 5R24R14R23G24R13G25R17R15
                                G 2G19
  21857173.500   114860222.387    21857182.598    89501509.5794   21857183.047  
                
  21446657.266   112702955.523    21446662.883    87820514.7644   21446663.035  
                
  23541984.562   123713975.179    23541990.430    96400531.5094   23541990.418  
                
  23287471.484   124484881.580                    96821566.659    23287475.309  
  23287471.004  
  19443325.492   103972201.823                    80867271.076    19443329.730  
  19443324.645  
  19395196.383   103387326.608                    80412357.635    19395200.184  
  19395196.055  
  20370195.750   108966825.192                                                  
  20370194.004  
  20364125.594   107014221.447    20364133.246    83387735.3514   20364133.738  
                
  21263135.594   113543997.884                    88312001.366    21263138.176  
  21263133.742  
  23988707.641   126061505.947    23988716.457    98229785.0924   23988716.840  
                
  22064424.266   118071201.715                    91833141.886    22064427.500  
  22064422.367  
  22100161.641   118096568.144                    91852881.156    22100165.723  
  22100161.848  
  22823403.312   119937794.425    22823407.270    93458038.3144                 
                
  21153502.867   111162426.408    21153507.008    86620089.8964                 
                
 21  8 15  0 54  0.0000000  0 14G 6G12G17R 5R24R14R23G24R13G25R17R15
                                G 2G19
  21854008.375   114843589.520    21854017.426    89488548.9024   21854017.898  
                
  21442626.672   112681774.627    21442632.301    87804010.1694   21442632.418  
                
  23547808.711   123744581.410    23547814.625    96424380.5264   23547814.613  
                
  23291416.508   124505970.134                    96837968.846    23291420.359  
  23291416.086  
  19441122.742   103960422.776                    80858109.594    19441126.965  
  19441121.859  
  19393712.922   103379418.948                    80406207.233    19393716.730  
  19393712.590  
  20374554.727   108990142.797                                                  
  20374552.977  
  20364962.289   107018618.360    20364969.938    83391161.5134   20364970.430  
                
  21268108.250   113570551.698                    88332654.331    21268110.867  
  21268106.410  
  23982777.547   126030342.576    23982786.184    98205501.9204   23982786.582  
                
  22056449.727   118028528.273                    91799951.421    22056452.941  
  22056447.848  
  22093876.102   118062980.219                    91826757.228    22093880.188  
  22093876.297  
  22818076.633   119909802.586    22818080.598    93436226.4984                 
                
  21157724.508   111184611.319    21157728.598    86637376.8444                 
                
 21  8 15  0 54 10.0000000  0 14G 6G12G17R 5R24R14R23G24R13G25R17R15
                                G 2G19
  21850854.516   114827015.890    21850863.516    89475634.3864   21850864.020  
                
  21438600.953   112660619.351    21438606.594    87787525.5484   21438606.715  
                
  23553635.180   123775199.757    23553641.145    96448238.9644   23553641.113  
                
  23295373.508   124527122.573                    96854420.702    23295377.375  
  23295373.098  
  19438936.383   103948731.324                    80849016.248    19438940.602  
  19438935.465  
  19392238.891   103371561.534                    80400095.899    19392242.688  
  19392238.547  
  20378927.477   109013534.080                                                  
  20378925.770  
  20365810.891   107023077.781    20365818.539    83394636.3834   20365819.031  
                
  21273088.453   113597145.684                    88353338.532    21273091.074  
  21273086.637  
  23976848.695   125999186.350    23976857.230    98181224.3404   23976857.621  
                
  22048481.141   117985886.574                    91766785.656    22048484.301  
  22048479.227  
  22087592.352   118029401.750                    91800640.636    22087596.434  
  22087592.559  
  22812756.125   119881843.299    22812760.074    93414440.0434                 
                
  21161954.664   111206840.918    21161958.707    86654698.6074                 
                
 21  8 15  0 54 20.0000000  0 15G 6G12G17R 5R24R14R23G24R13G32G25R17
                                R15G 2G19
  21847711.945   114810501.613    21847720.891    89462766.1164   21847721.418  
                
  21434580.141   112639489.829    21434585.777    87771060.9864   21434585.875  
                
  23559463.938   123805830.163    23559469.918    96472106.8074   23559469.883  
                
  23299342.461   124548338.990                    96870922.315    23299346.395  
  23299342.047  
  19436766.438   103937127.706                    80839991.219    19436770.645  
  19436765.508  
  19390774.289   103363754.398                    80394023.684    19390778.094  
  19390773.953  
  20383314.008   109036999.025                                                  
  20383312.297  
  20366671.391   107027599.749    20366679.039    83398159.9954   20366679.531  
                
  21278076.180   113623779.841                    88374053.984    21278078.797  
  21278074.355  
  24777639.312   130207373.627    24777646.672   101460315.7474   24777647.508  
                
  23970921.188   125968037.332    23970929.672    98156952.3574   23970930.086  
                
  22040518.391   117943276.743                    91733644.677    22040521.590  
  22040516.512  
  22081310.359   117995832.685                    91774531.380    22081314.449  
  22081310.562  
  22807441.836   119853916.713    22807445.793    93392679.0584                 
                
  21166193.297   111229115.119    21166197.305    86672055.1284                 
                
 21  8 15  0 54 30.0000000  0 15G 6G12G17R 5R24R14R23G24R13G32G25R17
                                R15G 2G19
  21844580.680   114794046.656    21844589.578    89449944.0684   21844590.113  
                
  21430564.211   112618385.961    21430569.848    87754616.4264   21430569.938  
                
  23565294.961   123836472.447    23565300.957    96495983.9024   23565300.926  
                
  23303323.352   124569618.903                    96887473.358    23303327.277  
  23303322.953  
  19434612.922   103925611.922                    80831034.488    19434617.125  
  19434611.984  
  19389319.148   103355997.648                    80387990.642    19389322.953  
  19389318.816  
  20387714.250   109060537.315                                                  
  20387712.531  
  20367543.766   107032184.139    20367551.422    83401732.2434   20367551.914  
                
  21283071.430   113650454.180                    88394800.675    21283074.047  
  21283069.625  
  24774512.453   130190942.269    24774520.148   101447512.1204   24774520.723  
                
  23964995.008   125936895.421    23965003.516    98132685.9674   23965003.918  
                
  22032561.617   117900698.815                    91700528.494    22032564.867  
  22032559.770  
  22075030.133   117962273.101                    91748429.490    22075034.215  
  22075030.309  
  22802133.766   119826022.813    22802137.770    93370943.5624                 
                
  21170440.375   111251433.701    21170444.375    86689446.2324                 
                
 21  8 15  0 54 40.0000000  0 15G 6G12G17R 5R24R14R23G24R13G32G25R17
                                R15G 2G19
  21841460.734   114777651.264    21841469.629    89437168.4454   21841470.156  
                
  21426553.195   112597307.915    21426558.836    87738191.9754   21426558.910  
                
  23571128.242   123867126.731    23571134.242    96519870.3494   23571134.215  
                
  23307316.094   124590962.492                    96904074.001    23307320.027  
  23307315.688  
  19432475.836   103914183.966                    80822146.086    19432480.027  
  19432474.887  
  19387873.484   103348291.455                    80381996.946    19387877.293  
  19387873.145  
  20392128.211   109084149.056                                                  
  20392126.504  
  20368428.055   107036831.123    20368435.719    83405353.2714   20368436.199  
                
  21288074.172   113677168.454                    88415578.442    21288076.855  
  21288072.387  
  24771395.805   130174564.921    24771403.824   101434750.5374   24771404.152  
                
  23959070.312   125905760.853    23959078.750    98108425.2324   23959079.160  
                
  22024610.820   117858153.084                    91667437.364    22024614.172  
  22024609.062  
  22068751.727   117928723.231                    91722335.145    22068755.809  
  22068751.910  
  22796831.992   119798161.851    22796836.016    93349233.7434                 
                
  21174695.930   111273796.799    21174699.941    86706872.0254                 
                
 21  8 15  0 54 50.0000000  0 15G 6G12G17R 5R24R14R23G24R13G32G25R17
                                R15G 2G19
  21838352.125   114761315.402    21838361.039    89424439.2004   21838361.531  
                
  21422547.078   112576255.622    21422552.711    87721787.5894   21422552.797  
                
  23576963.773   123897792.759    23576969.770    96543765.9544   23576969.750  
                
  23311320.734   124612369.567                    96920723.930    23311324.695  
  23311320.320  
  19430355.180   103902843.902                    80813326.032    19430359.367  
  19430354.230  
  19386437.281   103340635.714                    80376042.465    19386441.082  
  19386436.938  
  20396555.836   109107833.881                                                  
  20396554.102  
  20369324.227   107041540.587    20369331.902    83409022.9744   20369332.371  
                
  21293084.422   113703922.835                    88436387.411    21293087.117  
  21293082.652  
  24768289.516   130158241.530    24768297.641   101422031.0284   24768297.902  
                
  23953146.781   125874633.489    23953155.426    98084170.2024   23953155.828  
                
  22016666.109   117815639.559                    91634371.276    22016669.516  
  22016664.410  
  22062475.141   117895183.084                    91696248.374    22062479.227  
  22062475.332  
  22791536.500   119770333.845    22791540.504    93327549.5834                 
                
  21178959.922   111296204.268    21178963.953    86724332.3874                 
                
 21  8 15  0 55  0.0000000  0 15G 6G12G17R 5R24R14R23G24R13G32G25R17
                                R15G 2G19
  21835254.844   114745039.027    21835263.727    89411756.3124   21835264.211  
                
  21418545.836   112555228.927    21418551.461    87705403.1574   21418551.559  
                
  23582801.516   123928470.400    23582807.523    96567670.5934   23582807.523  
                
  23315337.195   124633839.673                    96937422.853    23315341.219  
  23315336.809  
  19428250.914   103891591.456                    80804574.150    19428255.090  
  19428249.965  
  19385010.555   103333030.425                    80370127.256    19385014.363  
  19385010.188  
  20400997.102   109131591.681                                                  
  20400995.352  
  20370232.273   107046312.402    20370239.965    83412741.2774   20370240.430  
                
  21298102.109   113730716.920                    88457227.248    21298104.824  
  21298100.379  
  24765193.531   130141972.039    24765201.570   101409353.3854   24765201.875  
                
  23947224.805   125843513.319    23947233.465    98059920.6974   23947233.848  
                
  22008727.391   117773158.254                    91601330.266    22008730.898  
  22008725.773  
  22056200.352   117861652.496                    91670169.053    22056204.434  
  22056200.539  
  22786247.281   119742538.728    22786251.266    93305891.0484                 
                
  21183232.312   111318655.819    21183236.355    86741827.1014                 
                
 21  8 15  0 55 10.0000000  0 15G 6G12G17R 5R24R14R23G24R13G32G25R17
                                R15G 2G19
  21832168.891   114728822.249    21832177.699    89399119.8574   21832178.223  
                
  21414549.461   112534227.844    21414555.074    87689038.6814   21414555.188  
                
  23588641.453   123959159.530    23588647.465    96591584.1944   23588647.449  
                
  23319365.414   124655372.870                    96954170.923    23319369.480  
  23319365.031  
  19426163.102   103880426.984                    80795890.679    19426167.262  
  19426162.137  
  19383593.312   103325475.753                    80364251.390    19383597.105  
  19383592.945  
  20405451.969   109155422.243                                                  
  20405450.207  
  20371152.188   107051146.618    20371159.895    83416508.1904   20371160.348  
                
  21303127.305   113757550.990                    88478098.179    21303130.027  
  21303125.574  
  24762107.883   130125756.529    24762115.750   101396718.0934   24762116.133  
                
  23941304.102   125812400.307    23941312.863    98035676.8164   23941313.254  
                
  22000794.797   117730709.346                    91568314.470    22000798.367  
  22000793.148  
  22049927.359   117828131.606                    91644097.253    22049931.422  
  22049927.547  
  22780964.320   119714776.644    22780968.320    93284258.2594                 
                
  21187513.094   111341151.487    21187517.152    86759356.1994                 
                
 21  8 15  0 55 20.0000000  0 15G 6G12G17R 5R24R14R23G24R13G32G25R17
                                R15G 2G19
  21829094.289   114712665.071    21829103.043    89386529.8434   21829103.598  
                
  21410557.969   112513252.395    21410563.566    87672694.1764   21410563.684  
                
  23594483.562   123989860.057    23594489.543    96615506.6844   23594489.527  
                
  23323405.414   124676968.925                    96970967.860    23323409.445  
  23323405.031  
  19424091.672   103869350.091                    80787275.321    19424095.824  
  19424090.715  
  19382185.555   103317971.627                    80358414.843    19382189.348  
  19382185.180  
  20409920.406   109179325.356                                                  
  20409918.641  
  20372083.961   107056043.115    20372091.680    83420323.6434   20372092.121  
                
  21308159.891   113784424.819                    88499000.038    21308162.688  
  21308158.156  
  24759032.469   130109594.968    24759040.195   101384124.6754   24759040.652  
                
  23935384.891   125781294.463    23935393.719    98011438.5394   23935394.113  
                
  21992868.312   117688292.859                    91535323.884    21992871.891  
  21992866.582  
  22043656.203   117794620.465                    91618033.029    22043660.250  
  22043656.398  
  22775687.625   119687047.543    22775691.645    93262651.1744                 
                
  21191802.242   111363691.041    21191806.316    86776919.4934                 
                
 21  8 15  0 55 30.0000000  0 15G 6G12G17R 5R24R14R23G24R13G32G25R17
                                R15G 2G19
  21826031.047   114696567.605    21826039.770    89373986.3784   21826040.336  
                
  21406571.391   112492302.770    21406576.977    87656369.8024   21406577.105  
                
  23600327.852   124020572.032    23600333.770    96639438.0904   23600333.777  
                
  23327457.195   124698627.873                    96987813.676    23327461.281  
  23327456.805  
  19422036.664   103858361.017                    80778728.254    19422040.801  
  19422035.719  
  19380787.289   103310518.095                    80352617.653    19380791.086  
  19380786.898  
  20414402.398   109203300.990                                                  
  20414400.645  
  20373027.594   107061001.980    20373035.328    83424187.6964   20373035.773  
                
  21313199.977   113811338.560                    88519932.931    21313202.777  
  21313198.234  
  24755967.328   130093487.477    24755974.863   101371573.3454   24755975.516  
                
  23929466.961   125750195.837    23929475.926    97987205.8494   23929476.277  
                
  21984947.969   117645909.078                    91502358.730    21984951.527  
  21984946.172  
  22037386.891   117761119.204                    91591976.505    22037390.949  
  22037387.066  
  22770417.258   119659351.632    22770421.277    93241069.9404                 
                
  21196099.750   111386274.548    21196103.828    86794517.0324                 
                
 21  8 15  0 55 40.0000000  0 15G 6G12G17R 5R24R14R23G24R13G32G25R17
                                R15G 2G19
  21822979.188   114680529.987    21822987.879    89361489.5324   21822988.449  
                
  21402589.719   112471378.951    21402595.293    87640065.5264   21402595.438  
                
  23606174.320   124051295.413    23606180.184    96663378.3964   23606180.219  
                
  23331520.641   124720349.392                    97004708.130    23331524.820  
  23331520.242  
  19419998.109   103847459.930                    80770249.637    19420002.242  
  19419997.176  
  19379398.562   103303115.421                    80346860.009    19379402.359  
  19379398.172  
  20418897.945   109227349.099                                                  
  20418896.184  
  20373983.102   107066023.226    20373990.852    83428100.3534   20373991.293  
                
  21318247.492   113838291.963                    88540896.688    21318250.258  
  21318245.727  
  24752912.523   130077434.155    24752920.320   101359064.1874   24752920.723  
                
  23923550.508   125719104.521    23923559.547    97962978.8864   23923559.906  
                
  21977033.836   117603558.045                    91469419.027    21977037.227  
  21977031.918  
  22031119.414   117727627.839                    91565927.690    22031123.496  
  22031119.578  
  22765153.258   119631689.095    22765157.258    93219514.7054                 
                
  21200405.578   111408901.810    21200409.676    86812148.6684                 
                
 21  8 15  0 55 50.0000000  0 15G 6G12G17R 5R24R14R23G24R13G32G25R17
                                R15G 2G19
  21819938.758   114664552.364    21819947.422    89349039.4344   21819947.996  
                
  21398612.969   112450481.004    21398618.527    87623781.4154   21398618.676  
                
  23612022.945   124082030.162    23612028.750    96687327.5574   23612028.836  
                
  23335595.836   124742133.497                    97021651.352    23335599.977  
  23335595.508  
  19417976.016   103836646.870                    80761839.481    19417980.145  
  19417975.086  
  19378019.391   103295763.639                    80341141.958    19378023.191  
  19378018.992  
  20423407.008   109251469.515                                                  
  20423405.238  
  20374950.500   107071106.942    20374958.270    83432061.6844   20374958.703  
                
  21323302.453   113865285.119                    88561891.367    21323305.230  
  21323300.668  
  24749867.992   130061435.140    24749876.242   101346597.4824   24749876.273  
                
  23917635.438   125688020.612    23917644.551    97938757.6564   23917644.867  
                
  21969125.797   117561240.082                    91436505.039    21969129.098  
  21969123.848  
  22024853.859   117694146.650                    91539886.752    22024857.938  
  22024854.039  
  22759895.656   119604060.138    22759899.660    93197985.6464                 
                
  21204719.758   111431572.889    21204723.871    86829814.4464                 
                
 21  8 15  0 56  0.0000000  0 15G 6G12G17R 5R24R14R23G24R13G32G25R17
                                R15G 2G19
  21816909.727   114648634.682    21816918.391    89336636.0494   21816918.957  
                
  21394641.109   112429608.780    21394646.645    87607517.3524   21394646.805  
                
  23617873.719   124112776.105    23617879.504    96711285.4514   23617879.617  
                
  23339682.711   124763980.103                    97038643.239    23339686.754  
  23339682.449  
  19415970.391   103825921.886                    80753497.823    19415974.516  
  19415969.473  
  19376649.766   103288462.783                    80335463.514    19376653.555  
  19376649.375  
  20427929.562   109275662.124                                                  
  20427927.801  
  20375929.750   107076253.005    20375937.539    83436071.5974   20375937.957  
                
  21328364.922   113892318.417                    88582917.278    21328367.707  
  21328363.117  
  24746833.750   130045490.347    24746842.184   101334172.9444   24746842.125  
                
  23911721.828   125656944.038    23911730.906    97914542.1574   23911731.223  
                
  21961223.828   117518955.182                    91403616.795    21961227.148  
  21961221.895  
  22018590.211   117660675.545                    91513853.659    22018594.273  
  22018590.430  
  22754644.414   119576464.648    22754648.457    93176482.6714                 
                
  21209042.219   111454287.561    21209046.332    86847514.1934                 
                
 21  8 15  0 56 10.0000000  0 15G 6G12G17R 5R24R14R23G24R13G32G25R17
                                R15G 2G19
  21813892.125   114632777.087    21813900.762    89324279.4834   21813901.352  
                
  21390674.188   112408762.486    21390679.715    87591273.4874   21390679.887  
                
  23623726.633   124143533.357    23623732.465    96735252.1294   23623732.570  
                
  23343781.242   124785889.032                    97055683.455    23343785.270  
  23343780.961  
  19413981.203   103815284.768                    80745224.525    19413985.340  
  19413980.309  
  19375289.711   103281212.970                    80329824.776    19375293.488  
  19375289.332  
  20432465.586   109299926.750                                                  
  20432463.816  
  20376920.883   107081461.455    20376928.691    83440130.1324   20376929.105  
                
  21333434.812   113919391.347                    88603973.983    21333437.613  
  21333433.000  
  24743809.875   130029599.904    24743818.449   101321790.7754   24743818.316  
                
  23905809.672   125625874.877    23905818.707    97890332.4344   23905819.027  
                
  21953327.961   117476703.461                    91370754.340    21953331.375  
  21953326.137  
  22012328.469   117627214.637                    91487828.513    22012332.504  
  22012328.695  
  22749399.555   119548902.788    22749403.688    93155005.8994                 
                
  21213372.961   111477045.772    21213377.066    86865247.8584                 
                
 21  8 15  0 56 20.0000000  0 15G 6G12G17R 5R24R14R23G24R13G32G25R17
                                R15G 2G19
  21810885.953   114616979.565    21810894.559    89311969.7264   21810895.160  
                
  21386712.188   112387942.056    21386717.699    87575049.7824   21386717.863  
                
  23629581.641   124174301.524    23629587.539    96759227.3254   23629587.621  
                
  23347891.430   124807859.964                    97072771.943    23347895.414  
  23347891.102  
  19412008.453   103804735.573                    80737019.579    19412012.582  
  19412007.582  
  19373939.219   103274014.055                    80324225.609    19373942.984  
  19373938.836  
  20437015.039   109324263.238                                                  
  20437013.285  
  20377923.875   107086732.233    20377931.699    83444237.2274   20377932.109  
                
  21338512.125   113946503.812                    88625061.461    21338514.910  
  21338510.301  
  24740796.328   130013763.791    24740805.051   101309450.9584   24740804.848  
                
  23899898.852   125594813.041    23899907.805    97866128.3904   23899908.117  
                
  21945438.469   117434485.028                    91337917.774    21945441.824  
  21945436.629  
  22006068.609   117593763.908                    91461811.292    22006072.641  
  22006068.824  
  22744161.086   119521374.533    22744165.324    93133555.3164                 
                
  21217711.969   111499847.394    21217716.078    86883015.3644                 
                
 21  8 15  0 56 30.0000000  0 15G 6G12G17R 5R24R14R23G24R13G32G25R17
                                R15G 2G19
  21807891.250   114601242.348    21807899.844    89299706.9614   21807900.453  
                
  21382755.117   112367147.545    21382760.625    87558846.2694   21382760.781  
                
  23635438.742   124205080.737    23635444.652    96783211.1304   23635444.742  
                
  23352013.211   124829892.970                    97089908.813    23352017.070  
  23352012.887  
  19410052.219   103794274.703                    80728883.354    19410056.363  
  19410051.359  
  19372598.336   103266866.419                    80318666.332    19372602.098  
  19372597.957  
  20441577.922   109348671.585                                                  
  20441576.168  
  20378938.750   107092065.445    20378946.582    83448392.9774   20378946.996  
                
  21343596.875   113973656.070                    88646179.883    21343599.676  
  21343595.070  
  24737793.164   129997982.191    24737801.922   101297153.6074   24737801.727  
                
  23893989.438   125563758.736    23893998.422    97841930.2614   23893998.742  
                
  21937555.234   117392300.200                    91305107.352    21937558.570  
  21937553.379  
  21999810.703   117560323.650                    91435802.204    21999814.754  
  21999810.930  
  22738929.055   119493880.108    22738933.367    93112131.0944                 
                
  21222059.234   111522692.436    21222063.344    86900816.7014                 
                
 21  8 15  0 56 40.0000000  0 15G 6G12G17R 5R24R14R23G24R13G32G25R17
                                R15G 2G19
  21804908.047   114585565.499    21804916.652    89287491.2484   21804917.258  
                
  21378803.023   112346379.152    21378808.531    87542663.1084   21378808.680  
                
  23641297.961   124235871.019    23641303.906    96807203.5594   23641304.000  
                
  23356146.547   124851988.015                    97107093.858    23356150.375  
  23356146.230  
  19408112.469   103783901.974                    80720815.680    19408116.633  
  19408111.605  
  19371267.070   103259769.985                    80313146.885    19371270.848  
  19371266.680  
  20446154.211   109373151.604                                                  
  20446152.469  
  20379965.508   107097461.123    20379973.352    83452597.4034   20379973.758  
                
  21348689.086   114000848.113                    88667329.248    21348691.887  
  21348687.297  
  24734800.406   129982255.189    24734809.176   101284898.8044   24734808.977  
                
  23888081.430   125532712.010    23888090.414    97817737.9854   23888090.738  
                
  21929678.164   117350149.012                    91272323.104    21929681.586  
  21929676.363  
  21993554.766   117526893.877                    91409801.289    21993558.848  
  21993554.992  
  22733703.516   119466419.718    22733707.867    93090733.3964                 
                
  21226414.758   111545580.874    21226418.871    86918651.8424                 
                
 21  8 15  0 56 50.0000000  0 15G 6G12G17R 5R24R14R23G24R13G32G25R17
                                R15G 2G19
  21801936.328   114569949.052    21801944.938    89275322.5924   21801945.539  
                
  21374855.898   112325636.866    21374861.398    87526500.2894   21374861.551  
                
  23647159.234   124266672.267    23647165.273    96831204.5104   23647165.316  
                
  23360291.438   124874144.730                    97124326.811    23360295.285  
  23360291.109  
  19406189.195   103773617.392                    80712816.561    19406193.371  
  19406188.324  
  19369945.430   103252724.951                    80307667.412    19369949.219  
  19369945.039  
  20450743.859   109397703.148                                                  
  20450742.129  
  20381004.141   107102919.210    20381011.996    83456850.4504   20381012.414  
                
  21353788.688   114028079.699                    88688509.377    21353791.496  
  21353786.871  
  24731818.055   129966582.770    24731826.781   101272686.5364   24731826.582  
                
  23882174.820   125501672.771    23882183.836    97793551.6154   23882184.160  
                
  21921807.500   117308031.640                    91239565.156    21921810.957  
  21921805.691  
  21987300.797   117493474.611                    91383808.541    21987304.895  
  21987301.016  
  22728484.422   119438993.289    22728488.781    93069362.1614                 
                
  21230778.508   111568512.564    21230782.625    86936520.6924                 
                
 21  8 15  0 57  0.0000000  0 15G 6G12G17R 5R24R14R23G24R13G32G25R17
                                R15G 2G19
  21798976.094   114554392.993    21798984.695    89263200.9884   21798985.297  
                
  21370913.711   112304920.514    21370919.211    87510357.6814   21370919.375  
                
  23653022.562   124297484.275    23653028.699    96855213.8614   23653028.691  
                
  23364447.867   124896363.049                    97141607.724    23364451.688  
  23364447.531  
  19404282.438   103763421.065                    80704886.074    19404286.617  
  19404281.570  
  19368633.422   103245731.153                    80302227.792    19368637.234  
  19368633.027  
  20455346.844   109422325.982                                                  
  20455345.129  
  20382054.633   107108439.572    20382062.508    83461152.0334   20382062.918  
                
  21358895.727   114055350.985                    88709720.354    21358898.523  
  21358893.922  
  24728846.070   129950964.909    24728854.723   101260516.7664   24728854.566  
                
  23876269.766   125470641.035    23876278.660    97769370.9904   23876278.973  
                
  21913943.211   117265948.202                    91206833.586    21913946.648  
  21913941.391  
  21981048.836   117460066.000                    91357824.071    21981052.906  
  21981049.051  
  22723271.828   119411600.916    22723276.156    93048017.4604                 
                
  21235150.469   111591487.356    21235154.594    86954423.1324                 
                
 21  8 15  0 57 10.0000000  0 15G 6G12G17R 5R24R14R23G24R13G32G25R17
                                R15G 2G19
  21796027.414   114538897.567    21796036.000    89251126.6454   21796036.617  
                
  21366976.508   112284230.392    21366982.020    87494235.5104   21366982.180  
                
  23658887.961   124328307.170    23658894.148    96879231.7014   23658894.117  
                
  23368615.805   124918642.977                    97158936.554    23368619.574  
  23368615.480  
  19402392.195   103753313.040                    80697024.292    19402396.402  
  19402391.336  
  19367331.078   103238788.950                    80296828.309    19367334.906  
  19367330.688  
  20459963.164   109447020.138                                                  
  20459961.434  
  20383117.023   107114022.459    20383124.926    83465502.3354   20383125.324  
                
  21364010.188   114082661.874                    88730962.151    21364013.000  
  21364008.355  
  24725884.523   129935401.825    24725893.078   101248389.6844   24725892.973  
                
  23870365.938   125439616.989    23870374.840    97745196.4154   23870375.227  
                
  21906085.281   117223898.769                    91174128.474    21906088.719  
  21906083.461  
  21974798.883   117426668.135                    91331847.938    21974802.945  
  21974799.082  
  22718065.797   119384242.994    22718070.074    93026699.6084                 
                
  21239530.648   111614505.365    21239534.797    86972359.2404                 
                
 21  8 15  0 57 20.0000000  0 15G 6G12G17R 5R24R14R23G24R13G32G25R17
                                R15G 2G19
  21793090.250   114523462.713    21793098.832    89239099.4854   21793099.441  
                
  21363044.258   112263566.291    21363049.785    87478133.6194   21363049.930  
                
  23664755.391   124359140.705    23664761.590    96903257.8444   23664761.586  
                
  23372795.203   124940984.181                    97176313.034    23372798.926  
  23372794.887  
  19400518.414   103743293.120                    80689231.026    19400522.652  
  19400517.566  
  19366038.375   103231898.110                    80291468.766    19366042.203  
  19366037.992  
  20464592.773   109471785.453                                                  
  20464591.016  
  20384191.266   107119667.629    20384199.203    83469901.1674   20384199.586  
                
  21369132.062   114110012.401                    88752234.793    21369134.852  
  21369130.207  
  24722933.391   129919893.405    24722941.852   101236305.2244   24722941.809  
                
  23864463.609   125408600.482    23864472.512    97721027.7054   23864472.914  
                
  21898233.828   117181883.535                    91141449.945    21898237.188  
  21898231.957  
  21968550.898   117393280.822                    91305880.041    21968554.961  
  21968551.078  
  22712866.273   119356919.349    22712870.508    93005408.4574                 
                
  21243919.000   111637566.294    21243923.180    86990328.7934                 
                
 21  8 15  0 57 30.0000000  0 15G 6G12G17R 5R24R14R23G24R13G32G25R17
                                R15G 2G19
  21790164.633   114508088.476    21790173.195    89227119.5674   21790173.824  
                
  21359116.984   112242928.345    21359122.543    87462052.1064   21359122.660  
                
  23670624.828   124389984.885    23670631.086    96927292.2494   23670631.086  
                
  23376986.062   124963386.472                    97193737.054    23376989.777  
  23376985.730  
  19398661.141   103733361.455                    80681506.398    19398665.402  
  19398660.293  
  19364755.328   103225058.752                    80286149.267    19364759.152  
  19364754.957  
  20469235.633   109496621.615                                                  
  20469233.867  
  20385277.367   107125375.131    20385285.336    83474348.5694   20385285.703  
                
  21374261.328   114137402.368                    88773538.114    21374264.109  
  21374259.512  
  24719992.680   129904439.718    24720001.074   101224263.4064   24720001.090  
                
  23858562.789   125377591.558    23858571.641    97696864.9554   23858572.066  
                
  21890388.844   117139902.409                    91108797.947    21890392.047  
  21890386.863  
  21962304.953   117359904.407                    91279920.607    21962309.012  
  21962305.145  
  22707673.305   119329630.052    22707677.488    92984144.0684                 
                
  21248315.508   111660670.069    21248319.715    87008331.7334                 
                
 21  8 15  0 57 40.0000000  0 15G 6G12G17R 5R24R14R23G24R13G32G25R17
                                R15G 2G19
  21787250.539   114492774.831    21787259.094    89215186.8554   21787259.738  
                
  21355194.656   112222316.371    21355200.246    87445990.8364   21355200.355  
                
  23676496.250   124420839.514    23676502.566    96951334.7974   23676502.566  
                
  23381188.289   124985849.766                    97211208.470    23381192.035  
  23381187.910  
  19396820.344   103723517.887                    80673850.296    19396824.621  
  19396819.484  
  19363481.961   103218270.963                    80280869.858    19363485.773  
  19363481.594  
  20473891.695   109521528.386                                                  
  20473889.922  
  20386375.297   107131144.792    20386383.297    83478844.4104   20386383.652  
                
  21379397.930   114164831.582                    88794871.937    21379400.684  
  21379396.125  
  24717062.359   129889040.694    24717070.711   101212264.1694   24717070.734  
                
  23852663.383   125346590.118    23852672.211    97672707.9734   23852672.629  
                
  21882550.227   117097955.644                    91076172.691    21882553.316  
  21882548.168  
  21956061.023   117326538.661                    91253969.478    21956065.102  
  21956061.184  
  22702486.852   119302375.023    22702491.008    92962906.3854                 
                
  21252720.109   111683816.402    21252724.348    87026367.8384                 
                
 21  8 15  0 57 50.0000000  0 15G 6G12G17R 5R24R14R23G24R13G32G25R17
                                R15G 2G19
  21784348.047   114477522.131    21784356.602    89203301.6374   21784357.246  
                
  21351277.320   112201730.656    21351282.930    87429950.0164   21351283.020  
                
  23682369.703   124451704.787    23682376.051    96975385.6454   23682376.051  
                
  23385401.898   125008374.172                    97228727.429    23385405.715  
  23385401.480  
  19394996.094   103713762.830                    80666263.029    19395000.379  
  19394995.207  
  19362218.297   103211534.909                    80275630.708    19362222.113  
  19362217.941  
  20478560.992   109546506.050                                                  
  20478559.199  
  20387485.117   107136976.947    20387493.145    83483388.9434   20387493.488  
                
  21384542.000   114192300.632                    88816236.743    21384544.703  
  21384540.223  
  24714142.484   129873696.648    24714150.809   101200307.7814   24714150.867  
                
  23846765.617   125315596.518    23846774.312    97648557.1164   23846774.727  
                
  21874717.930   117056043.555                    91043574.411    21874721.070  
  21874715.898  
  21949819.117   117293183.962                    91228026.941    21949823.219  
  21949819.254  
  22697307.023   119275154.761    22697311.113    92941695.7904                 
                
  21257132.844   111707005.514    21257137.109    87044437.2794                 
                
 21  8 15  0 58  0.0000000  0 15G 6G12G17R 5R24R14R23G24R13G32G25R17
                                R15G 2G19
  21781457.117   114462330.259    21781465.695    89191463.8324   21781466.324  
                
  21347364.977   112181171.183    21347370.602    87413929.6534   21347370.703  
                
  23688245.117   124482580.425    23688251.496    96999444.5774   23688251.488  
                
  23389626.820   125030959.141                    97246293.543    23389630.664  
  23389626.410  
  19393188.391   103704096.258                    80658744.574    19393192.676  
  19393187.508  
  19360964.344   103204850.671                    80270431.844    19360968.172  
  19360963.992  
  20483243.492   109571554.256                                                  
  20483241.707  
  20388606.781   107142871.381    20388614.844    83487982.0114   20388615.168  
                
  21389693.422   114219808.880                    88837632.070    21389696.117  
  21389691.672  
  24711233.055   129858407.529    24711241.375   101188394.1964   24711241.480  
                
  23840869.242   125284610.584    23840877.855    97624412.2414   23840878.242  
                
  21866892.133   117014166.175                    91011003.109    21866895.289  
  21866890.102  
  21943579.320   117259840.375                    91202093.053    21943583.438  
  21943579.469  
  22692133.789   119247969.146    22692137.809    92920512.1934                 
                
  21261553.664   111730237.119    21261557.949    87062539.8294                 
                
 21  8 15  0 58 10.0000000  0 15G 6G12G17R 5R24R14R23G24R13G32G25R17
                                R15G 2G19
  21778577.812   114447199.381    21778586.395    89179673.5384   21778587.027  
                
  21343457.641   112160638.018    21343463.277    87397929.7884   21343463.387  
                
  23694122.508   124513466.396    23694128.875    97023511.5574   23694128.867  
                
  23393863.195   125053604.987                    97263906.951    23393867.027  
  23393862.762  
  19391397.188   103694517.860                    80651294.716    19391401.477  
  19391396.305  
  19359720.109   103198218.180                    80265273.249    19359723.953  
  19359719.758  
  20487939.148   109596672.836                                                  
  20487937.359  
  20389740.320   107148828.174    20389748.410    83492623.6624   20389748.711  
                
  21394852.227   114247356.532                    88859058.008    21394854.867  
  21394850.477  
  24708334.070   129843173.427    24708342.395   101176523.4344   24708342.516  
                
  23834974.328   125253632.390    23834982.891    97600273.3924   23834983.277  
                
  21859072.688   116972323.496                    90978458.812    21859076.000  
  21859070.750  
  21937341.586   117226507.870                    91176167.784    21937345.734  
  21937341.730  
  22686967.148   119220818.336    22686971.125    92899355.7084                 
                
  21265982.586   111753511.294    21265986.871    87080675.5474                 
                
 21  8 15  0 58 20.0000000  0 15G 6G12G17R 5R24R14R23G24R13G32G25R17
                                R15G 2G19
  21775710.141   114432129.661    21775718.727    89167930.9014   21775719.359  
                
  21339555.336   112140131.305    21339560.980    87381950.5374   21339561.098  
                
  23700001.891   124544362.802    23700008.230    97047586.6674   23700008.219  
                
  23398110.875   125076311.367                    97281567.459    23398114.730  
  23398110.434  
  19389622.547   103685028.131                    80643913.835    19389626.852  
  19389621.652  
  19358485.656   103191637.857                    80260155.219    19358489.504  
  19358485.301  
  20492647.969   109621861.840                                                  
  20492646.164  
  20390885.742   107154847.389    20390893.863    83497313.9584   20390894.145  
                
  21400018.430   114274943.627                    88880514.644    21400021.027  
  21400016.703  
  24705445.594   129827994.437    24705453.934   101164695.6724   24705454.066  
                
  23829080.875   125222662.099    23829089.480    97576140.7164   23829089.840  
                
  21851259.805   116930515.870                    90945941.784    21851263.242  
  21851257.934  
  21931105.992   117193186.788                    91150251.401    21931110.164  
  21931106.129  
  22681807.195   119193702.606    22681811.137    92878226.5714                 
                
  21270419.617   111776828.064    21270423.902    87098844.4574                 
                
 21  8 15  0 58 30.0000000  0 15G 6G12G17R 5R24R14R23G24R13G32G25R17
                                R15G 2G19
  21772854.078   114417120.974    21772862.648    89156235.8304   21772863.285  
                
  21335658.031   112119650.833    21335663.680    87365991.7284   21335663.812  
                
  23705883.219   124575269.355    23705889.500    97071669.6984   23705889.520  
                
  23402369.836   125099078.167                    97299274.985    23402373.754  
  23402369.383  
  19387864.406   103675626.576                    80636601.518    19387868.723  
  19387863.488  
  19357260.930   103185109.348                    80255077.488    19357264.793  
  19357260.574  
  20497369.898   109647120.934                                                  
  20497368.078  
  20392043.008   107160928.865    20392051.156    83502052.7644   20392051.426  
                
  21405192.023   114302570.298                    88902002.047    21405194.609  
  21405190.305  
  24702567.602   129812870.499    24702575.957   101152910.7874   24702576.074  
                
  23823188.875   125191699.529    23823197.559    97552014.0644   23823197.898  
                
  21843453.445   116888743.348                    90913452.035    21843457.039  
  21843451.715  
  21924872.508   117159876.903                    91124343.693    21924876.641  
  21924872.621  
  22676653.867   119166621.793    22676657.785    92857124.6484                 
                
  21274864.695   111800187.117    21274868.969    87117046.3154                 
                
 21  8 15  0 58 40.0000000  0 15G 6G12G17R 5R24R14R23G24R13G32G25R17
                                R15G 2G19
  21770009.641   114402173.408    21770018.191    89144588.3724   21770018.855  
                
  21331765.703   112099196.597    21331771.352    87350053.3684   21331771.480  
                
  23711766.445   124606186.028    23711772.676    97095760.6074   23711772.742  
                
  23406640.062   125121905.105                    97317029.291    23406643.973  
  23406639.625  
  19386122.773   103666313.368                    80629357.921    19386127.094  
  19386121.832  
  19356045.938   103178632.754                    80250040.141    19356049.820  
  19356045.586  
  20502104.883   109672449.924                                                  
  20502103.066  
  20393212.109   107167072.560    20393220.293    83506840.0604   20393220.547  
                
  21410372.992   114330236.303                    88923520.039    21410375.551  
  21410371.254  
  24699700.086   129797801.605    24699708.438   101141168.8074   24699708.566  
                
  23817298.406   125160744.735    23817307.133    97527893.4474   23817307.457  
                
  21835653.734   116847005.925                    90880989.605    21835657.367  
  21835652.043  
  21918641.156   117126578.387                    91098444.854    21918645.277  
  21918641.258  
  22671507.180   119139575.933    22671511.078    92836049.9574                 
                
  21279317.797   111823588.409    21279322.035    87135281.0894                 
                
 21  8 15  0 58 50.0000000  0 15G 6G12G17R 5R24R14R23G24R13G32G25R17
                                R15G 2G19
  21767176.891   114387287.158    21767185.453    89132988.7074   21767186.121  
                
  21327878.406   112078768.741    21327884.055    87334135.5624   21327884.195  
                
  23717651.641   124637112.895    23717657.848    97119859.4794   23717657.926  
                
  23410921.562   125144792.175                    97334830.305    23410925.512  
  23410921.145  
  19384397.719   103657088.723                    80622183.190    19384402.055  
  19384396.754  
  19354840.727   103172208.308                    80245043.347    19354844.609  
  19354840.375  
  20506852.953   109697848.890                                                  
  20506851.125  
  20394393.086   107173278.644    20394401.309    83511675.9654   20394401.535  
                
  21415561.328   114357941.677                    88945068.668    21415563.883  
  21415559.605  
  24696843.094   129782787.948    24696851.453   101129469.8654   24696851.559  
                
  23811409.391   125129797.851    23811418.137    97503779.0074   23811418.477  
                
  21827860.789   116805303.954                    90848554.724    21827864.328  
  21827859.027  
  21912411.938   117093291.297                    91072554.899    21912416.086  
  21912412.043  
  22666367.203   119112565.247    22666371.113    92815002.6744                 
                
  21283778.945   111847031.931    21283783.145    87153548.7654                 
                
 21  8 15  0 59  0.0000000  0 15G 6G12G17R 5R24R14R23G24R13G32G25R17
                                R15G 2G19
  21764355.773   114372462.112    21764364.355    89121436.7264   21764365.008  
                
  21323996.125   112058367.204    21324001.781    87318238.2664   21324001.922  
                
  23723538.734   124668049.694    23723544.965    97143966.0604   23723545.027  
                
  23415214.250   125167739.066                    97352677.869    23415218.262  
  23415213.840  
  19382689.219   103647952.619                    80615077.322    19382693.562  
  19382688.246  
  19353645.289   103165835.959                    80240087.077    19353649.184  
  19353644.934  
  20511614.039   109723317.463                                                  
  20511612.188  
  20395585.891   107179546.875    20395594.156    83516560.3034   20395594.355  
                
  21420756.938   114385686.049                    88966647.606    21420759.551  
  21420755.191  
  24693996.594   129767829.451    24694004.984   101117813.9004   24694005.051  
                
  23805521.836   125098858.750    23805530.621    97479670.6154   23805530.988  
                
  21820074.594   116763637.303                    90816147.319    21820077.902  
  21820072.660  
  21906184.828   117060015.642                    91046673.854    21906188.992  
  21906184.938  
  22661233.945   119085589.744    22661237.871    92793982.8074                 
                
  21288248.086   111870517.473    21288252.246    87171849.1924                 
                
 21  8 15  0 59 10.0000000  0 15G 6G12G17R 5R24R14R23G24R13G32G25R17
                                R15G 2G19
  21761546.352   114357698.510    21761554.953    89109932.6314   21761555.582  
                
  21320118.898   112037992.229    21320124.566    87302361.6714   21320124.703  
                
  23729427.773   124698996.743    23729434.082    97168080.6284   23729434.109  
                
  23419518.156   125190745.829                    97370572.046    23419522.133  
  23419517.750  
  19380997.266   103638904.983                    80608040.279    19381001.617  
  19380996.293  
  19352459.672   103159515.897                    80235171.472    19352463.562  
  19352459.312  
  20516388.164   109748855.756                                                  
  20516386.312  
  20396790.570   107185877.468    20396798.875    83521493.2254   20396799.047  
                
  21425959.938   114413469.828                    88988257.197    21425962.609  
  21425958.191  
  24691160.617   129752926.303    24691169.020   101106201.0684   24691169.047  
                
  23799635.766   125067927.605    23799644.617    97455568.4334   23799645.012  
                
  21812294.961   116722006.299                    90783767.639    21812298.152  
  21812292.996  
  21899959.938   117026751.685                    91020801.889    21899964.074  
  21899960.035  
  22656107.453   119058649.709    22656111.371    92772990.5824                 
                
  21292725.234   111894045.072    21292729.363    87190182.3904                 
                
 21  8 15  0 59 20.0000000  0 15G 6G12G17R 5R24R14R23G24R13G32G25R17
                                R15G 2G19
  21758748.617   114342996.318    21758757.207    89098476.3864   21758757.840  
                
  21316246.695   112017643.702    21316252.367    87286505.6724   21316252.508  
                
  23735318.680   124729953.614    23735325.004    97192202.8574   23735325.043  
                
  23423833.219   125213812.305                    97388512.664    23423837.121  
  23423832.848  
  19379321.867   103629945.900                    80601072.117    19379326.234  
  19379320.895  
  19351283.867   103153248.197                    80230296.592    19351287.762  
  19351283.512  
  20521175.250   109774463.457                                                  
  20521173.398  
  20398007.078   107192270.258    20398015.410    83526474.6214   20398015.574  
                
  21431170.281   114441292.706                    89009897.215    21431172.984  
  21431168.512  
  24688335.156   129738078.451    24688343.516   101094631.3264   24688343.520  
                
  23793751.195   125037004.360    23793760.094    97431472.4034   23793760.520  
                
  21804521.953   116680411.037                    90751415.755    21804525.074  
  21804519.977  
  21893737.180   116993499.218                    90994938.870    21893741.320  
  21893737.246  
  22650987.680   119031745.093    22650991.555    92752025.9444                 
                
  21297210.344   111917614.509    21297214.449    87208548.1884                 
                
 21  8 15  0 59 30.0000000  0 15G 6G12G17R 5R24R14R23G24R13G32G25R17
                                R15G 2G19
  21755962.602   114328355.725    21755971.152    89087068.1334   21755971.797  
                
  21312379.531   111997321.644    21312385.199    87270670.3094   21312385.348  
                
  23741211.438   124760920.272    23741217.719    97216332.7154   23741217.793  
                
  23428159.477   125236938.340                    97406499.566    23428163.234  
  23428159.062  
  19377663.031   103621075.440                    80594172.878    19377667.410  
  19377662.059  
  19350117.883   103147032.871                    80225462.449    19350121.773  
  19350117.531  
  20525975.312   109800140.605                                                  
  20525973.457  
  20399235.445   107198725.393    20399243.809    83531504.5924   20399243.965  
                
  21436387.969   114469154.824                    89031567.748    21436390.656  
  21436386.176  
  24685520.242   129723286.029    24685528.477   101083104.7604   24685528.566  
                
  23787868.148   125006089.139    23787877.125    97407382.6384   23787877.594  
                
  21796755.570   116638851.666                    90719091.796    21796758.719  
  21796753.621  
  21887516.648   116960258.633                    90969085.081    21887520.797  
  21887516.711  
  22645874.680   119004876.149    22645878.488    92731089.0914                 
                
  21301703.422   111941225.818    21301707.500    87226946.6044                 
                
 21  8 15  0 59 40.0000000  0 15G 6G12G17R 5R24R14R23G24R13G32G25R17
                                R15G 2G19
  21753188.289   114313776.597    21753196.797    89075707.7714   21753197.469  
                
  21308517.406   111977026.052    21308523.051    87254855.5604   21308523.195  
                
  23747106.047   124791896.584    23747112.328    97240470.0994   23747112.398  
                
  23432496.781   125260123.714                    97424532.676    23432500.445  
  23432496.379  
  19376020.758   103612293.468                    80587342.454    19376025.129  
  19376019.785  
  19348961.734   103140869.948                    80220669.058    19348965.609  
  19348961.379  
  20530788.281   109825886.726                                                  
  20530786.434  
  20400475.633   107205242.652    20400484.023    83536582.9714   20400484.168  
                
  21441613.023   114497056.196                    89053268.812    21441615.695  
  21441611.223  
  24682715.875   129708548.945    24682723.953   101071621.3164   24682724.109  
                
  23781986.641   124975181.810    23781995.633    97383299.0004   23781996.121  
                
  21788995.945   116597328.217                    90686795.786    21788999.094  
  21788993.957  
  21881298.344   116927029.889                    90943240.510    21881302.496  
  21881298.422  
  22640768.438   118978042.710    22640772.172    92710179.9034                 
                
  21306204.406   111964878.677    21306208.473    87245377.4034                 
                
 21  8 15  0 59 50.0000000  0 15G 6G12G17R 5R24R14R23G24R13G32G25R17
                                R15G 2G19
  21750425.711   114299259.152    21750434.227    89064395.4854   21750434.906  
                
  21304660.328   111956757.006    21304665.945    87239061.5024   21304666.113  
                
  23753002.508   124822882.667    23753008.832    97264615.0894   23753008.879  
                
  23436845.156   125283368.301                    97442611.755    23436848.781  
  23436844.770  
  19374395.031   103603599.971                    80580580.849    19374399.395  
  19374394.086  
  19347815.406   103134759.332                    80215916.355    19347819.277  
  19347815.055  
  20535614.164   109851701.934                                                  
  20535612.324  
  20401727.672   107211822.159    20401736.090    83541709.8564   20401736.223  
                
  21446845.406   114524996.735                    89075000.358    21446848.031  
  21446843.602  
  24679922.070   129693867.314    24679930.008   101060181.1094   24679930.246  
                
  23776106.555   124944282.490    23776115.641    97359221.6254   23776116.152  
                
  21781243.023   116555840.872                    90654527.851    21781246.215  
  21781241.047  
  21875082.266   116893813.062                    90917405.185    21875086.395  
  21875082.352  
  22635669.016   118951245.048    22635672.695    92689298.6034                 
                
  21310713.305   111988573.152    21310717.355    87263840.6304                 
                
 21  8 15  1  0  0.0000000  0 15G 6G12G17R 5R24R14R23G24R13G32G25R17
                                R15G 2G19
  21747674.914   114284803.622    21747683.480    89053131.4384   21747684.121  
                
  21300808.352   111936514.747    21300813.949    87223288.3184   21300814.125  
                
  23758900.875   124853878.604    23758907.207    97288767.7634   23758907.238  
                
  23441204.602   125306672.235                    97460737.031    23441208.242  
  23441204.258  
  19372785.945   103594995.436                    80573888.436    19372790.297  
  19372785.023  
  19346679.008   103128701.681                    80211204.854    19346682.879  
  19346678.656  
  20540452.977   109877586.311                                                  
  20540451.121  
  20402991.586   107218464.071    20403000.027    83546885.3744   20403000.164  
                
  21452085.133   114552976.536                    89096762.404    21452087.758  
  21452083.305  
  24677138.867   129679241.410    24677146.738   101048784.3104   24677147.035  
                
  23770228.156   124913391.425    23770237.223    97335150.6714   23770237.766  
                
  21773496.773   116514390.001                    90622288.306    21773500.145  
  21773494.918  
  21868868.445   116860608.299                    90891579.290    21868872.574  
  21868868.469  
  22630576.430   118924483.415    22630580.117    92668445.3934                 
                
  21315230.148   112012309.349    21315234.195    87282336.3724                 
                
 21  8 15  1  0 10.0000000  0 15G 6G12G17R 5R24R14R23G24R13G32G25R17
                                R15G 2G19
  21744935.836   114270409.654    21744944.449    89041915.3614   21744945.051  
                
  21296961.391   111916298.858    21296966.973    87207535.6794   21296967.164  
                
  23764801.031   124884883.959    23764807.332    97312927.7834   23764807.379  
                
  23445575.086   125330034.940                    97478908.061    23445578.688  
  23445574.770  
  19371193.391   103586479.336                    80567264.811    19371197.750  
  19371192.461  
  19345552.422   103122696.332                    80206534.027    19345556.285  
  19345552.070  
  20545304.570   109903539.098                                                  
  20545302.719  
  20404267.297   107225167.958    20404275.750    83552109.1774   20404275.887  
                
  21457332.156   114580995.255                    89118554.732    21457334.773  
  21457330.363  
  24674366.188   129664670.872    24674374.051   101037430.6244   24674374.383  
                
  23764351.297   124882508.194    23764360.348    97311085.8324   23764360.887  
                
  21765757.305   116472975.281                    90590076.862    21765760.840  
  21765755.539  
  21862656.836   116827415.411                    90865762.603    21862660.965  
  21862656.840  
  22625490.633   118897757.456    22625494.371    92647619.9754                 
                
  21319754.844   112036086.818    21319758.898    87300864.2654                 
                
 21  8 15  1  0 20.0000000  0 15G 6G12G17R 5R24R14R23G24R13G32G25R17
                                R15G 2G19
  21742208.539   114256077.616    21742217.180    89030747.5404   21742217.762  
                
  21293119.523   111896109.694    21293125.078    87191803.8634   21293125.289  
                
  23770702.984   124915898.818    23770709.242    97337095.2124   23770709.285  
                
  23449956.617   125353456.446                    97497124.771    23449960.164  
  23449956.309  
  19369617.391   103578051.824                    80560710.086    19369621.742  
  19369616.445  
  19344435.742   103116743.782                    80201904.267    19344439.598  
  19344435.395  
  20550169.016   109929560.650                                                  
  20550167.137  
  20405554.852   107231934.126    20405563.324    83557381.5204   20405563.449  
                
  21462586.523   114609053.165                    89140377.553    21462589.141  
  21462584.758  
  24671604.109   129650156.023    24671612.008   101026120.3674   24671612.348  
                
  23758475.914   124851633.143    23758485.012    97287027.3364   23758485.500  
                
  21758024.859   116431597.082                    90557893.826    21758028.371  
  21758023.066  
  21856447.523   116794234.709                    90839955.398    21856451.633  
  21856447.520  
  22620411.711   118871067.496    22620415.539    92626822.6124                 
                
  21324287.430   112059905.758    21324291.480    87319424.4694                 
                
 21  8 15  1  0 30.0000000  0 15G 6G12G17R 5R24R14R23G24R13G32G25R17
                                R15G 2G19
  21739493.039   114241807.628    21739501.703    89019628.0724   21739502.254  
                
  21289282.750   111875947.321    21289288.309    87176092.9334   21289288.508  
                
  23776606.742   124946923.195    23776612.969    97361270.0434   23776613.008  
                
  23454349.156   125376936.912                    97515387.322    23454352.707  
  23454348.824  
  19368058.031   103569713.221                    80554224.509    19368062.379  
  19368057.059  
  19343328.961   103110844.028                    80197315.559    19343332.809  
  19343328.613  
  20555046.273   109955650.775                                                  
  20555044.352  
  20406854.273   107238762.598    20406862.758    83562702.4064   20406862.879  
                
  21467848.156   114637149.959                    89162230.596    21467850.773  
  21467846.375  
  24668852.633   129635696.977    24668860.617   101014853.5364   24668860.922  
                
  23752602.117   124820766.345    23752611.262    97262975.3034   23752611.719  
                
  21750299.438   116390255.757                    90525739.445    21750302.766  
  21750297.551  
  21850240.484   116761066.273                    90814157.723    21850244.602  
  21850240.453  
  22615339.672   118844413.817    22615343.559    92606053.5164                 
                
  21328827.891   112083766.069    21328831.930    87338016.9254                 
                
 21  8 15  1  0 40.0000000  0 15G 6G12G17R 5R24R14R23G24R13G32G25R17
                                R15G 2G19
  21736789.430   114227600.108    21736798.133    89008557.2854   21736798.660  
                
  21285451.164   111855812.155    21285456.723    87160403.1924   21285456.918  
                
  23782512.375   124977957.439    23782518.586    97385452.5744   23782518.613  
                
  23458752.734   125400476.390                    97533695.796    23458756.281  
  23458752.387  
  19366515.352   103561463.783                    80547808.284    19366519.676  
  19366514.371  
  19342232.188   103104997.604                    80192768.340    19342236.035  
  19342231.844  
  20559936.391   109981809.672                                                  
  20559934.441  
  20408165.602   107245653.708    20408174.094    83568072.1014   20408174.215  
                
  21473117.164   114665286.101                    89184114.264    21473119.762  
  21473115.379  
  24666111.844   129621294.115    24666119.938   101003630.5404   24666120.188  
                
  23746729.992   124789908.150    23746739.082    97238929.9554   23746739.531  
                
  21742580.930   116348951.643                    90493614.019    21742584.105  
  21742578.973  
  21844035.867   116727910.731                    90788370.075    21844039.969  
  21844035.816  
  22610274.625   118817796.836    22610278.480    92585313.0114                 
                
  21333376.273   112107668.056    21333380.305    87356641.8424                 
                
 21  8 15  1  0 50.0000000  0 15G 6G12G17R 5R24R14R23G24R13G32G25R17
                                R15G 2G19
  21734097.500   114213453.927    21734106.230    88997534.2974   21734106.746  
                
  21281624.516   111835702.964    21281630.066    87144733.6964   21281630.246  
                
  23788419.641   125009000.256    23788425.863    97409641.7744   23788425.863  
                
  23463167.109   125424073.476                    97552049.116    23463170.605  
  23463166.750  
  19364989.078   103553302.128                    80541460.335    19364993.391  
  19364988.113  
  19341145.211   103099203.386                    80188261.715    19341149.062  
  19341144.879  
  20564839.133   110008036.079                                                  
  20564837.156  
  20409488.633   107252606.276    20409497.137    83573489.6864   20409497.246  
                
  21478393.367   114693460.837                    89206027.938    21478395.973  
  21478391.582  
  24663381.539   129606946.299    24663389.695   100992450.4344   24663389.910  
                
  23740859.367   124759057.471    23740868.410    97214890.4904   23740868.863  
                
  21734869.086   116307683.725                    90461516.741    21734872.184  
  21734867.125  
  21837833.445   116694766.902                    90762591.547    21837837.551  
  21837833.422  
  22605216.336   118791215.410    22605220.125    92564600.2084                 
                
  21337932.352   112131610.419    21337936.395    87375298.2404                 
                
 21  8 15  1  1  0.0000000  0 15G 6G12G17R 5R24R14R23G24R13G32G25R17
                                R15G 2G19
  21731417.367   114199369.810    21731426.141    88986559.6544   21731426.637  
                
  21277802.938   111815620.472    21277808.473    87129084.9974   21277808.652  
                
  23794328.641   125040052.291    23794334.867    97433838.1494   23794334.848  
                
  23467592.305   125447728.610                    97570447.565    23467595.848  
  23467591.953  
  19363479.414   103545229.293                    80535181.477    19363483.719  
  19363478.453  
  19340068.156   103093462.075                    80183796.259    19340072.004  
  19340067.812  
  20569754.578   110034330.434                                                  
  20569752.582  
  20410823.477   107259620.915    20410831.984    83578955.6334   20410832.098  
                
  21483676.859   114721674.419                    89227971.843    21483679.438  
  21483675.035  
  24660661.852   129592654.207    24660670.023   100981313.7354   24660670.195  
                
  23734990.289   124728214.926    23734999.250    97190857.3154   23734999.680  
                
  21727164.219   116266452.700                    90429448.163    21727167.168  
  21727162.164  
  21831633.328   116661635.373                    90736822.583    21831637.402  
  21831633.328  
  22600164.984   118764670.340    22600168.723    92543915.7314                 
                
  21342496.219   112155593.735    21342500.258    87393986.5304                 
                
 21  8 15  1  1 10.0000000  0 15G 6G12G17R 5R24R14R23G24R13G32G25R17
                                R15G 2G19
  21728749.094   114185347.976    21728757.914    88975633.5624   21728758.395  
                
  21273986.484   111795564.892    21273992.008    87113457.2784   21273992.191  
                
  23800239.414   125071113.590    23800245.633    97458041.7594   23800245.609  
                
  23472028.414   125471442.121                    97588891.372    23472032.031  
  23472028.047  
  19361986.375   103537245.346                    80528971.747    19361990.676  
  19361985.391  
  19339001.047   103087773.813                    80179372.045    19339004.895  
  19339000.707  
  20574682.750   110060692.891                                                  
  20574680.746  
  20412170.156   107266697.795    20412178.672    83584470.0854   20412178.785  
                
  21488967.648   114749926.940                    89249946.026    21488970.219  
  21488965.805  
  24657952.812   129578418.059    24657960.996   100970220.6474   24657961.141  
                
  23729122.734   124697380.726    23729131.730    97166830.6984   23729132.137  
                
  21719466.312   116225259.037                    90397408.645    21719469.137  
  21719464.215  
  21825435.586   116628516.531                    90711063.493    21825439.648  
  21825435.613  
  22595120.602   118738161.873    22595124.336    92523259.7854                 
                
  21347067.883   112179618.021    21347071.914    87412706.7554                 
                
 21  8 15  1  1 20.0000000  0 15G 6G12G17R 5R24R14R23G24R13G32G25R17
                                R15G 2G19
  21726092.648   114171388.258    21726101.508    88964755.8654   21726101.965  
                
  21270175.109   111775535.965    21270180.625    87097850.3224   21270180.828  
                
  23806151.898   125102183.862    23806158.117    97482252.3604   23806158.086  
                
  23476475.367   125495213.590                    97607380.276    23476479.055  
  23476474.977  
  19360509.875   103529349.845                    80522830.794    19360514.168  
  19360508.887  
  19337943.883   103082138.462                    80174988.998    19337947.734  
  19337943.543  
  20579623.570   110087122.971                                                  
  20579621.547  
  20413528.641   107273836.637    20413537.156    83590032.8184   20413537.273  
                
  21494265.742   114778218.375                    89271950.453    21494268.293  
  21494263.871  
  24655254.391   129564237.674    24655262.586   100959171.0224   24655262.742  
                
  23723256.797   124666554.649    23723265.754    97142810.3574   23723266.125  
                
  21711775.180   116184102.426                    90365397.951    21711778.051  
  21711773.188  
  21819240.188   116595410.168                    90685314.095    21819244.234  
  21819240.258  
  22590083.148   118711689.828    22590086.934    92502632.2124                 
                
  21351647.305   112203682.987    21351651.324    87431458.6864                 
                
 21  8 15  1  1 30.0000000  0 15G 6G12G17R 5R24R14R23G24R13G32G25R17
                                R15G 2G19
  21723448.086   114157491.006    21723456.941    88953926.8394   21723457.395  
                
  21266368.859   111755533.973    21266374.383    87082264.3584   21266374.574  
                
  23812066.133   125133263.287    23812072.391    97506470.0734   23812072.332  
                
  23480933.125   125519042.799                    97625914.109    23480936.875  
  23480932.703  
  19359050.016   103521543.304                    80516759.047    19359054.316  
  19359049.031  
  19336896.711   103076556.479                    80170647.457    19336900.570  
  19336896.371  
  20584577.055   110113620.788                                                  
  20584575.008  
  20414898.961   107281037.730    20414907.469    83595644.0594   20414907.590  
                
  21499571.070   114806548.563                    89293985.050    21499573.629  
  21499569.207  
  24652566.648   129550113.417    24652574.824   100948165.0864   24652574.996  
                
  23717392.328   124635737.001    23717401.297    97118796.6104   23717401.707  
                
  21704091.031   116142983.357                    90333416.454    21704093.961  
  21704089.121  
  21813047.172   116562316.582                    90659574.647    21813051.191  
  21813047.246  
  22585052.688   118685254.620    22585056.543    92482033.3594                 
                
  21356234.508   112227788.889    21356238.520    87450242.4984                 
                
 21  8 15  1  1 40.0000000  0 15G 6G12G17R 5R24R14R23G24R13G32G25R17
                                R15G 2G19
  21720815.383   114143656.125    21720824.223    88943146.4204   21720824.684  
                
  21262567.719   111735558.857    21262573.242    87066699.3314   21262573.434  
                
  23817982.055   125164351.660    23817988.379    97530694.7684   23817988.301  
                
  23485401.641   125542929.832                    97644492.916    23485405.457  
  23485401.242  
  19357606.758   103513825.528                    80510756.324    19357611.027  
  19357605.789  
  19335859.516   103071027.677                    80166347.276    19335863.379  
  19335859.172  
  20589543.164   110140186.166                                                  
  20589541.125  
  20416281.102   107288300.918    20416289.602    83601303.6834   20416289.738  
                
  21504883.609   114834917.339                    89316049.653    21504886.184  
  21504881.754  
  24649889.531   129536045.160    24649897.730   100937202.7864   24649897.926  
                
  23711529.445   124604927.683    23711538.465    97094789.3604   23711538.891  
                
  21696413.875   116101901.833                    90301464.152    21696416.887  
  21696412.031  
  21806856.562   116529235.879                    90633845.217    21806860.570  
  21806856.625  
  22580029.219   118658856.191    22580033.078    92461463.1504                 
                
  21360829.422   112251935.333    21360833.410    87469057.9134                 
                
