     2.11           OBSERVATION DATA    M (MIXED)           RINEX VERSION / TYPE
EFT-CORS.RU                             20210817 150548 UTC PGM / RUN BY / DATE 
MDNG                                                        MARKER NAME         
                                                            MARKER NUMBER       
MDNG                EFT-CORS.RU                             OBSERVER / AGENCY   
0                   TRIMBLE BD970       2.0                 REC # / TYPE / VERS 
0                   UNKNOWN EXT NONE                        ANT # / TYPE        
  3463911.2830  3030468.2400  4402179.3760                  APPROX POSITION XYZ 
        0.0000        0.0000        0.0000                  ANTENNA: DELTA H/E/N
     1     1                                                WAVELENGTH FACT L1/2
     6    C1    L1    P2    L2    C2    P1                  # / TYPES OF OBSERV 
    10.000                                                  INTERVAL            
  2021     8    14     4    30    0.0000000     GPS         TIME OF FIRST OBS   
  2021     8    14     5    30    0.0000000     GPS         TIME OF LAST OBS    
     0                                                      RCV CLOCK OFFS APPL 
                                                            END OF HEADER       
 21  8 14  4 30  0.0000000  0 16R 1R16R 8G20G29G18R15G 5G12R14G31G 2
                                R24R18R17G25
  22997813.445   122936496.686                    95617292.037    22997820.246  
  22997812.801  
  22536144.461   120384044.048                    93632057.888    22536147.316  
  22536143.969  
  23508780.422   125888450.572                    97913231.272    23508784.492  
  23508779.973  
  22110419.648   116191043.839    22110426.609    90538504.7974                 
                
  20689335.133   108723192.199    20689341.781    84719400.2404   20689341.938  
                
  23102654.648   121405263.590    23102662.035    94601542.4594   23102662.113  
                
  19509491.812   104252799.404                    81085507.012    19509496.316  
  19509492.051  
  22224852.703   116792391.147    22224860.262    91007096.8624   22224860.227  
                
  22132438.047   116306738.477    22132445.273    90628658.0464   22132445.406  
                
  21151893.250   112751478.759                    87695587.758    21151897.969  
  21151892.910  
  22949605.922   120600983.486    22949612.934    93974811.9554   22949613.141  
                
  23604695.844   124043498.240    23604701.105    96657290.2424                 
                
  20999894.180   112295868.034                    87341231.163    20999899.070  
  20999893.570  
  22081187.688   117870870.803                    91677344.012    22081191.867  
  22081186.145  
  19408929.953   103861099.084                    80780851.035    19408933.676  
  19408928.270  
  20359525.016   106990016.659    20359534.730    83368885.0504   20359535.109  
                
 21  8 14  4 30 10.0000000  0 16R 1R16R 8G20G29G18R15G 5G12R14G31G 2
                                R24R18R17G25
  22993784.805   122914961.117                    95600542.162    22993791.535  
  22993784.168  
  22529315.422   120347564.493                    93603684.904    22529318.285  
  22529314.918  
  23509630.023   125893000.085                    97916769.758    23509634.086  
  23509629.520  
  22110526.039   116191602.969    22110532.988    90538940.4824                 
                
  20687638.258   108714275.038    20687644.926    84712451.8054   20687645.055  
                
  23096315.148   121371949.176    23096322.520    94575583.1794   23096322.613  
                
  19509582.664   104253284.898                    81085884.622    19509587.168  
  19509582.898  
  22220511.672   116769579.022    22220519.191    90989321.1814   22220519.191  
                
  22138191.062   116336970.749    22138198.340    90652215.6464   22138198.453  
                
  21158995.469   112789337.517                    87725033.452    21159000.176  
  21158995.117  
  22949772.188   120601857.255    22949779.227    93975492.8114   22949779.438  
                
  23610100.203   124071898.386    23610105.477    96679420.2004                 
                
  21005171.461   112324087.952                    87363179.978    21005176.332  
  21005170.859  
  22075746.602   117841826.036                    91654753.661    22075750.836  
  22075745.043  
  19408381.562   103858164.519                    80778568.578    19408385.281  
  19408379.883  
  20362182.039   107003979.386    20362191.727    83379765.0844   20362192.109  
                
 21  8 14  4 30 20.0000000  0 16R 1R16R 8G20G29G18R15G 5G12R14G31G 2
                                R24R18R17G25
  22989768.102   122893489.447                    95583842.019    22989774.832  
  22989767.469  
  22522494.398   120311127.765                    93575345.238    22522497.234  
  22522493.902  
  23510494.914   125897631.511                    97920371.994    23510498.992  
  23510494.426  
  22110644.641   116192226.230    22110651.543    90539426.1334                 
                
  20685947.453   108705389.777    20685954.148    84705528.2244   20685954.262  
                
  23089980.367   121338659.688    23089987.773    94549643.3354   23089987.844  
                
  19509690.523   104253861.247                    81086332.884    19509695.023  
  19509690.750  
  22216180.203   116746817.108    22216187.688    90971584.6364   22216187.719  
                
  22143950.695   116367237.805    22143958.031    90675800.3514   22143958.133  
                
  21166106.594   112827243.755                    87754516.069    21166111.309  
  21166106.238  
  22949950.523   120602794.460    22949957.602    93976223.0844   22949957.797  
                
  23615507.133   124100312.027    23615512.379    96701560.6934                 
                
  21010452.648   112352328.690                    87385144.992    21010457.512  
  21010452.039  
  22070311.523   117812813.306                    91632188.226    22070315.797  
  22070309.961  
  19407842.531   103855280.031                    80776325.096    19407846.258  
  19407840.863  
  20364849.859   107017998.803    20364859.523    83390689.3014   20364859.914  
                
 21  8 14  4 30 30.0000000  0 16R 1R16R 8G20G29G18R15G 5G12R14G31G 2
                                R24R18R17G25
  22985763.328   122872081.545                    95567191.455    22985770.051  
  22985762.695  
  22515681.414   120274734.071                    93547039.035    22515684.223  
  22515680.930  
  23511375.156   125902345.170                    97924038.182    23511379.230  
  23511374.656  
  22110775.484   116192913.805    22110782.355    90539961.9134                 
                
  20684262.727   108696536.493    20684269.441    84698629.5664   20684269.547  
                
  23083650.336   121305395.319    23083657.770    94523723.0544   23083657.828  
                
  19509815.375   104254528.384                    81086851.765    19509819.859  
  19509815.602  
  22211858.336   116724105.617    22211865.820    90953887.3604   22211865.867  
                
  22149716.953   116397539.706    22149724.320    90699412.2144   22149724.422  
                
  21173226.617   112865197.363                    87784035.518    21173231.324  
  21173226.258  
  22950140.953   120603795.170    22950148.031    93977002.8514   22950148.238  
                
  23620916.641   124128739.195    23620921.840    96723711.7324                 
                
  21015737.781   112380590.555                    87407126.434    21015742.621  
  21015737.164  
  22064882.469   117783832.715                    91609647.767    22064886.777  
  22064880.891  
  19407312.867   103852445.661                    80774120.581    19407316.586  
  19407311.207  
  20367528.469   107032074.969    20367538.105    83401657.7324   20367538.504  
                
 21  8 14  4 30 40.0000000  0 16R 1R16R 8G20G29G18R15G 5G12R14G31G 2
                                R24R18R17G25
  22981770.508   122850737.682                    95550590.672    22981777.203  
  22981769.895  
  22508876.531   120238383.616                    93518766.461    22508879.332  
  22508876.016  
  23512270.672   125907140.563                    97927767.907    23512274.727  
  23512270.191  
  22110918.492   116193665.313    22110925.367    90540547.5044                 
                
  20682584.070   108687715.053    20682590.789    84691755.7124   20682590.898  
                
  23077325.008   121272155.962    23077332.512    94497822.2594   23077332.586  
                
  19509957.195   104255286.230                    81087441.200    19509961.680  
  19509957.434  
  22207546.031   116701444.401    22207553.520    90936229.2714   22207553.574  
                
  22155489.805   116427876.303    22155497.195    90723051.1034   22155497.305  
                
  21180355.477   112903198.089                    87813591.635    21180360.184  
  21180355.129  
  22950343.445   120604859.325    22950350.496    93977832.0594   22950350.746  
                
  23626328.688   124157179.689    23626333.848    96745873.1524                 
                
  21021026.820   112408873.310                    87429124.122    21021031.652  
  21021026.176  
  22059459.414   117754884.216                    91587132.261    22059463.777  
  22059457.816  
  19406792.531   103849661.269                    80771954.950    19406796.250  
  19406790.863  
  20370217.852   107046207.749    20370227.457    83412670.2884   20370227.863  
                
 21  8 14  4 30 50.0000000  0 16R 1R16R 8G20G29G18R15G 5G12R14G31G 2
                                R24R18R17G25
  22977789.609   122829457.519                    95534039.440    22977796.242  
  22977788.977  
  22502079.648   120202076.080                    93490527.283    22502082.477  
  22502079.145  
  23513181.477   125912017.824                    97931561.331    23513185.496  
  23513181.039  
  22111073.609   116194480.443    22111080.488    90541182.6674                 
                
  20680911.414   108678925.183    20680918.117    84684906.4594   20680918.227  
                
  23071004.445   121238941.361    23071011.977    94471940.7594   23071012.070  
                
  19510115.953   104256134.538                    81088100.986    19510120.434  
  19510116.195  
  22203243.266   116678833.294    22203250.730    90918610.2264   22203250.781  
                
  22161269.180   116458247.151    22161276.598    90746716.6884   22161276.695  
                
  21187493.078   112941245.474                    87843184.038    21187497.820  
  21187492.738  
  22950557.953   120605986.582    22950564.965    93978710.4364   22950565.254  
                
  23631743.203   124185633.103    23631748.348    96768044.6344                 
                
  21026319.672   112437176.449                    87451137.665    21026324.484  
  21026319.000  
  22054042.297   117725967.474                    91564641.471    22054046.711  
  22054040.738  
  19406281.477   103846926.496                    80769827.908    19406285.199  
  19406279.797  
  20372917.938   107060396.745    20372927.508    83423726.6454   20372927.934  
                
 21  8 14  4 31  0.0000000  0 16R 1R16R 8G20G29G18R15G 5G12R14G31G 2
                                R24R18R17G25
  22973820.703   122808241.681                    95517538.263    22973827.297  
  22973820.066  
  22495290.953   120165812.160                    93462322.054    22495293.762  
  22495290.438  
  23514107.586   125916976.995                    97935418.448    23514111.551  
  23514107.184  
  22111240.938   116195359.702    22111247.816    90541867.7974                 
                
  20679244.859   108670167.345    20679251.547    84678082.1674   20679251.688  
                
  23064688.711   121205751.992    23064696.270    94446078.9274   23064696.352  
                
  19510291.727   104257073.778                    81088831.494    19510296.203  
  19510291.969  
  22198950.156   116656272.928    22198957.645    90901030.7144   22198957.695  
                
  22167055.141   116488652.635    22167062.582    90770409.2594   22167062.688  
                
  21194639.492   112979339.842                    87872812.978    21194644.273  
  21194639.176  
  22950784.531   120607177.247    22950791.520    93979638.2264   22950791.820  
                
  23637160.242   124214099.815    23637165.391    96790226.4834                 
                
  21031616.344   112465500.118                    87473167.180    21031621.148  
  21031615.660  
  22048631.234   117697082.852                    91542175.673    22048635.664  
  22048629.723  
  19405779.750   103844241.633                    80767739.683    19405783.469  
  19405778.062  
  20375628.797   107074642.403    20375638.324    83434827.1544   20375638.781  
                
 21  8 14  4 31 10.0000000  0 16R 1R16R 8G20G29G18R15G 5G12R14G31G 2
                                R24R18R17G25
  22969863.820   122787089.903                    95501086.915    22969870.355  
  22969863.176  
  22488510.406   120129591.796                    93434150.661    22488513.207  
  22488509.895  
  23515048.969   125922017.970                    97939339.222    23515052.902  
  23515048.574  
  22111420.391   116196302.723    22111427.262    90542602.6204                 
                
  20677584.328   108661441.183    20677591.004    84671282.5614   20677591.145  
                
  23058377.750   121172587.615    23058385.348    94420236.5614   23058385.410  
                
  19510484.438   104258103.558                    81089632.434    19510488.926  
  19510484.695  
  22194666.633   116633762.939    22194674.188    90883490.4644   22194674.227  
                
  22172847.633   116519092.397    22172855.078    90794128.5394   22172855.199  
                
  21201794.617   113017480.638                    87902478.012    21201799.430  
  21201794.289  
  22951023.125   120608431.064    22951030.098    93980615.2244   22951030.406  
                
  23642579.727   124242579.424    23642584.902    96812418.3664                 
                
  21036916.828   112493844.127                    87495212.521    21036921.637  
  21036916.133  
  22043226.164   117668230.182                    91519734.714    22043230.551  
  22043224.625  
  19405287.289   103841606.357                    80765690.014    19405290.980  
  19405285.586  
  20378350.367   107088944.333    20378359.859    83445971.5084   20378360.336  
                
 21  8 14  4 31 20.0000000  0 16R 1R16R 8G20G29G18R15G 5G12R14G31G 2
                                R24R18R17G25
  22965918.969   122766002.599                    95484685.713    22965925.488  
  22965918.320  
  22481738.078   120093415.090                    93406013.226    22481740.832  
  22481737.555  
  23516005.617   125927140.742                    97943323.580    23516009.559  
  23516005.234  
  22111612.008   116197309.683    22111618.887    90543387.2704                 
                
  20675929.852   108652746.852    20675936.516    84664507.7614   20675936.660  
                
  23052071.570   121139448.433    23052079.230    94394413.8334   23052079.281  
                
  19510694.117   104259223.978                    81090503.863    19510698.602  
  19510694.391  
  22190392.734   116611303.474    22190400.352    90865989.5874   22190400.359  
                
  22178646.664   116549566.497    22178654.113    90817874.5874   22178654.250  
                
  21208958.484   113055667.973                    87932179.264    21208963.332  
  21208958.145  
  22951273.750   120609748.088    22951280.715    93981641.4834   22951281.039  
                
  23648001.703   124271072.032    23648006.918    96834620.3914                 
                
  21042221.133   112522208.607                    87517273.772    21042225.941  
  21042220.422  
  22037827.047   117639409.435                    91497318.565    22037831.422  
  22037825.516  
  19404804.117   103839020.759                    80763678.987    19404807.805  
  19404802.406  
  20381082.688   107103302.722    20381092.156    83457159.8604   20381092.641  
                
 21  8 14  4 31 30.0000000  0 16R 1R16R 8G20G29G18R15G 5G12R14G31G 2
                                R24R18R17G25
  22961986.188   122744979.806                    95468334.655    22961992.680  
  22961985.539  
  22474973.875   120057281.978                    93377909.695    22474976.621  
  22474973.414  
  23516977.531   125932345.256                    97947371.530    23516981.496  
  23516977.180  
  22111815.805   116198380.638    22111822.688    90544221.7734                 
                
  20674281.445   108644084.395    20674288.098    84657757.7944   20674288.250  
                
  23045770.195   121106334.478    23045777.898    94368610.7654   23045777.945  
                
  19510920.781   104260435.167                    81091445.898    19510925.273  
  19510921.055  
  22186128.492   116588894.788    22186136.152    90848528.2704   22186136.133  
                
  22184452.234   116580074.940    22184459.699    90841647.3904   22184459.824  
                
  21216131.031   113093901.595                    87961916.498    21216135.906  
  21216130.695  
  22951536.414   120611128.375    22951543.383    93982717.0234   22951543.723  
                
  23653426.125   124299577.551    23653431.344    96856832.4664                 
                
  21047529.234   112550593.356                    87539350.792    21047534.055  
  21047528.531  
  22032434.000   117610620.852                    91474927.424    22032438.348  
  22032432.477  
  19404330.219   103836484.838                    80761706.614    19404333.902  
  19404328.516  
  20383825.727   107117717.489    20383835.184    83468392.1384   20383835.672  
                
 21  8 14  4 31 40.0000000  0 16R 1R16R 8G20G29G18R15G 5G12R14G31G 2
                                R24R18R17G25
  22958065.500   122724021.501                    95452033.783    22958071.980  
  22958064.828  
  22468217.898   120021192.844                    93349840.347    22468220.652  
  22468217.453  
  23517964.727   125937631.514                    97951483.061    23517968.703  
  23517964.371  
  22112031.758   116199515.454    22112038.621    90545106.0464                 
                
  20672639.086   108635453.705    20672645.727    84651032.5824   20672645.871  
                
  23039473.703   121073245.739    23039481.320    94342827.3294   23039481.391  
                
  19511164.422   104261737.067                    81092458.475    19511168.910  
  19511164.695  
  22181873.906   116566536.874    22181881.570    90831106.5284   22181881.555  
                
  22190264.289   116610617.489    22190271.770    90865446.7614   22190271.879  
                
  21223312.242   113132181.332                    87991689.612    21223317.117  
  21223311.895  
  22951811.086   120612571.747    22951818.078    93983841.7294   22951818.414  
                
  23658853.000   124328095.912    23658858.195    96879054.5524                 
                
  21052841.094   112578998.213                    87561443.438    21052845.934  
  21052840.398  
  22027046.906   117581864.119                    91452561.106    22027051.234  
  22027045.398  
  19403865.578   103833998.411                    80759772.719    19403869.270  
  19403863.867  
  20386579.477   107132188.501    20386588.930    83479668.2474   20386589.426  
                
 21  8 14  4 31 50.0000000  0 16R 1R16R 8G20G29G18R15G 5G12R14G31G 2
                                R24R18R17G25
  22954156.930   122703128.081                    95435783.394    22954163.402  
  22954156.227  
  22461470.164   119985147.781                    93321805.315    22461472.930  
  22461469.707  
  23518967.188   125942999.493                    97955658.119    23518971.168  
  23518966.844  
  22112259.883   116200714.257    22112266.723    90546040.1814                 
                
  20671002.766   108626854.805    20671009.391    84644332.1374   20671009.539  
                
  23033182.008   121040182.323    23033189.586    94317063.6394   23033189.652  
                
  19511425.016   104263129.626                    81093541.574    19511429.516  
  19511425.293  
  22177629.016   116544229.864    22177636.668    90813724.4464   22177636.680  
                
  22196082.844   116641194.231    22196090.301    90889272.7924   22196090.410  
                
  21230502.094   113170507.146                    88021498.587    21230506.934  
  21230501.730  
  22952097.766   120614078.268    22952104.793    93985015.6294   22952105.102  
                
  23664282.281   124356626.970    23664287.477    96901286.5364                 
                
  21058156.711   112607423.192                    87583551.750    21058161.566  
  21058156.008  
  22021665.852   117553139.515                    91430219.746    22021670.129  
  22021664.309  
  19403410.172   103831561.509                    80757877.357    19403413.867  
  19403408.461  
  20389343.938   107146715.829    20389353.387    83490988.2364   20389353.883  
                
 21  8 14  4 32  0.0000000  0 16R 1R16R 8G20G29G18R15G 5G12R14G31G 2
                                R24R18R17G25
  22950260.492   122682299.359                    95419583.264    22950266.910  
  22950259.781  
  22454730.727   119949146.940                    93293804.672    22454733.500  
  22454730.234  
  23519984.914   125948449.283                    97959896.856    23519988.914  
  23519984.598  
  22112500.180   116201977.010    22112507.012    90547024.1474                 
                
  20669372.508   108618287.733    20669379.109    84637656.4914   20669379.262  
                
  23026895.133   121007144.293    23026902.699    94291319.7244   23026902.758  
                
  19511702.609   104264612.966                    81094695.280    19511707.117  
  19511702.891  
  22173393.828   116521973.863    22173401.520    90796382.1094   22173401.512  
                
  22201907.906   116671805.074    22201915.293    90913125.3904   22201915.438  
                
  21237700.547   113208878.915                    88051343.293    21237705.375  
  21237700.176  
  22952396.453   120615647.876    22952403.496    93986238.6954   22952403.812  
                
  23669713.969   124385170.640    23669719.180    96923528.3504                 
                
  21063476.086   112635868.226                    87605675.667    21063480.949  
  21063475.391  
  22016290.789   117524447.041                    91407903.370    22016295.035  
  22016289.230  
  19402964.039   103829174.110                    80756020.488    19402967.742  
  19402962.316  
  20392119.102   107161299.398    20392128.547    83502352.0494   20392129.043  
                
 21  8 14  4 32 10.0000000  0 16R 1R16R 8G20G29G18R15G 5G12R14G31G 2
                                R24R18R17G25
  22946376.258   122661535.835                    95403433.891    22946382.617  
  22946375.562  
  22447999.625   119913190.687                    93265838.716    22448002.422  
  22447999.121  
  23521017.898   125953980.929                    97964199.222    23521021.906  
  23521017.547  
  22112752.680   116203303.876    22112759.523    90548058.0714                 
                
  20667748.344   108609752.687    20667754.930    84631005.8104   20667755.094  
                
  23020613.102   120974131.874    23020620.645    94265595.7684   23020620.707  
                
  19511997.219   104266187.231                    81095919.700    19512001.715  
  19511997.516  
  22169168.391   116499769.087    22169176.133    90779079.6944   22169176.098  
                
  22207739.461   116702450.100    22207746.805    90937004.6214   22207746.973  
                
  21244907.578   113247296.568                    88081223.686    21244912.398  
  21244907.199  
  22952707.188   120617280.781    22952714.227    93987511.0774   22952714.562  
                
  23675148.078   124413727.081    23675153.273    96945780.0994                 
                
  21068799.203   112664333.301                    87627815.160    21068804.070  
  21068798.484  
  22010921.781   117495786.961                    91385612.187    22010926.051  
  22010920.219  
  19402527.172   103826836.366                    80754202.247    19402530.891  
  19402525.453  
  20394905.000   107175939.391    20394914.445    83513759.8294   20394914.945  
                
 21  8 14  4 32 20.0000000  0 17G26R 1R16R 8G20G29G18R15G 5G12R14G31
                                G 2R24R18R17G25
  24536482.570   128940071.479    24536492.820   100472834.9064   24536493.145  
                
  22942504.188   122640837.453                    95387335.164    22942510.469  
  22942503.516  
  22441276.859   119877278.932                    93237907.361    22441279.621  
  22441276.352  
  23522066.133   125959594.164                    97968565.075    23522070.141  
  23522065.789  
  22113017.328   116204694.611    22113024.188    90549141.7604                 
                
  20666130.234   108601249.493    20666136.805    84624379.9454   20666136.980  
                
  23014335.883   120941144.875    23014343.430    94239891.6194   23014343.492  
                
  19512308.797   104267852.207                    81097214.684    19512313.285  
  19512309.094  
  22164952.711   116477615.573    22164960.453    90761817.2094   22164960.422  
                
  22213577.469   116733129.028    22213584.777    90960910.2644   22213584.965  
                
  21252123.188   113285759.875                    88111139.577    21252128.012  
  21252122.793  
  22953029.922   120618976.741    22953036.957    93988832.5974   22953037.316  
                
  23680584.555   124442295.996    23680589.707    96968041.5894                 
                
  21074126.031   112692818.257                    87649970.115    21074130.910  
  21074125.312  
  22005558.711   117467158.684                    91363345.775    22005563.023  
  22005557.160  
  19402099.523   103824547.923                    80752422.342    19402103.234  
  19402097.809  
  20397701.586   107190635.541    20397711.035    83525211.3694   20397711.543  
                
 21  8 14  4 32 30.0000000  0 17G26R 1R16R 8G20G29G18R15G 5G12R14G31
                                G 2R24R18R17G25
  24529964.156   128905816.831    24529974.383   100446142.9544   24529974.621  
                
  22938644.070   122620202.989                    95371286.136    22938650.348  
  22938643.395  
  22434562.164   119841410.324                    93210009.571    22434564.930  
  22434561.629  
  23523129.359   125965287.707                    97972993.385    23523133.363  
  23523128.984  
  22113293.898   116206147.998    22113300.789    90550274.2704                 
                
  20664517.945   108592776.808    20664524.504    84617777.8484   20664524.688  
                
  23008063.281   120908182.119    23008070.836    94214206.3624   23008070.910  
                
  19512637.117   104269606.618                    81098579.223    19512641.590  
  19512637.395  
  22160746.531   116455512.000    22160754.238    90744593.6454   22160754.230  
                
  22219421.703   116763840.654    22219428.961    90984841.3934   22219429.172  
                
  21259347.047   113324267.193                    88141089.685    21259351.879  
  21259346.633  
  22953364.406   120620734.474    22953371.461    93990202.2634   22953371.828  
                
  23686023.172   124470876.082    23686028.285    96990311.7834                 
                
  21079456.289   112721321.494                    87672139.295    21079461.160  
  21079455.578  
  22000201.461   117438561.383                    91341103.411    22000205.801  
  22000199.898  
  19401680.852   103822307.473                    80750679.775    19401684.566  
  19401679.125  
  20400508.609   107205386.531    20400518.055    83536705.6434   20400518.562  
                
 21  8 14  4 32 40.0000000  0 17G26R 1R16R 8G20G29G18R15G 5G12R14G31
                                G 2R24R18R17G25
  24523448.242   128871575.759    24523458.508   100419461.5864   24523458.641  
                
  22934796.422   122599635.180                    95355288.965    22934802.699  
  22934795.766  
  22427856.133   119805587.893                    93182147.674    22427858.867  
  22427855.582  
  23524208.117   125971064.391                    97977486.343    23524212.125  
  23524207.711  
  22113582.906   116207666.694    22113589.816    90551457.6624                 
                
  20662911.953   108584337.302    20662918.508    84611201.6104   20662918.703  
                
  23001795.758   120875246.236    23001803.355    94188542.0494   23001803.410  
                
  19512982.656   104271453.085                    81100015.356    19512987.141  
  19512982.926  
  22156550.406   116433461.194    22156558.082    90727411.1944   22156558.098  
                
  22225272.602   116794587.299    22225279.797    91008799.8144   22225280.039  
                
  21266579.711   113362821.237                    88171076.141    21266584.551  
  21266579.289  
  22953711.156   120622556.575    22953718.250    93991622.0724   22953718.613  
                
  23691464.391   124499469.825    23691469.449    97012592.6044                 
                
  21084790.508   112749845.880                    87694324.919    21084795.363  
  21084789.805  
  21994850.484   117409997.463                    91318887.035    21994854.836  
  21994848.902  
  19401271.633   103820117.624                    80748976.559    19401275.332  
  19401269.906  
  20403326.562   107220194.974    20403336.004    83548244.6844   20403336.520  
                
 21  8 14  4 32 50.0000000  0 17G26R 1R16R 8G20G29G18R15G 5G12R14G31
                                G 2R24R18R17G25
  24516934.766   128837347.394    24516945.055   100392790.1284   24516945.117  
                
  22930961.086   122579133.139                    95339342.941    22930967.348  
  22930960.449  
  22421158.570   119769810.777                    93154321.046    22421161.297  
  22421158.035  
  23525302.141   125976922.868                    97982042.939    23525306.133  
  23525301.707  
  22113884.125   116209249.588    22113891.055    90552691.0914                 
                
  20661312.094   108575929.945    20661318.652    84604650.4214   20661318.848  
                
  22995533.172   120842336.330    22995540.789    94162897.9704   22995540.836  
                
  19513345.234   104273390.575                    81101522.283    19513349.715  
  19513345.496  
  22152364.148   116411462.256    22152371.812    90710269.1714   22152371.836  
                
  22231129.969   116825367.930    22231137.117    91032784.7084   22231137.387  
                
  21273820.898   113401420.763                    88201097.982    21273825.758  
  21273820.520  
  22954069.922   120624441.930    22954077.051    93993091.1784   22954077.406  
                
  23696908.016   124528076.206    23696913.031    97034883.2834                 
                
  21090128.469   112778390.280                    87716526.121    21090133.297  
  21090127.742  
  21989505.562   117381465.997                    91296695.923    21989509.934  
  21989503.977  
  19400871.648   103817977.241                    80747311.819    19400875.344  
  19400869.934  
  20406155.258   107235059.825    20406164.691    83559827.6764   20406165.223  
                
 21  8 14  4 33  0.0000000  0 17G26R 1R16R 8G20G29G18R15G 5G12R14G31
                                G 2R24R18R17G25
  24510423.656   128803131.461    24510434.016   100366128.3704   24510434.043  
                
  22927138.023   122558696.826                    95323448.044    22927144.340  
  22927137.375  
  22414469.422   119734078.613                    93126529.370    22414472.121  
  22414468.875  
  23526411.398   125982862.876                    97986662.946    23526415.359  
  23526410.926  
  22114197.492   116210896.356    22114204.438    90553974.2914                 
                
  20659718.266   108567554.350    20659724.828    84598123.9864   20659725.023  
                
  22989275.469   120809452.088    22989283.086    94137273.8964   22989283.113  
                
  19513724.797   104275418.835                    81103099.812    19513729.277  
  19513725.047  
  22148187.695   116389514.866    22148195.340    90693167.3014   22148195.367  
                
  22236993.711   116856182.148    22237000.844    91056795.7834   22237001.129  
                
  21281070.547   113440065.294                    88231154.836    21281075.422  
  21281070.195  
  22954440.672   120626390.222    22954447.793    93994609.3154   22954448.156  
                
  23702353.953   124556694.819    23702358.941    97057183.4814                 
                
  21095470.031   112806953.969                    87738742.317    21095474.855  
  21095469.297  
  21984166.680   117352966.745                    91274529.838    21984171.082  
  21984165.121  
  19400480.906   103815886.256                    80745685.488    19400484.586  
  19400479.195  
  20408994.609   107249980.725    20409004.039    83571454.3474   20409004.586  
                
 21  8 14  4 33 10.0000000  0 17G26R 1R16R 8G20G29G18R15G 5G12R14G31
                                G 2R24R18R17G25
  24503914.930   128768928.095    24503925.355   100339476.3984   24503925.328  
                
  22923327.258   122538326.238                    95307604.281    22923333.613  
  22923326.613  
  22407788.797   119698392.029                    93098773.142    22407791.477  
  22407788.238  
  23527535.906   125988884.561                    97991346.458    23527539.848  
  23527535.391  
  22114523.039   116212607.098    22114529.980    90555307.3344                 
                
  20658130.516   108559210.666    20658137.078    84591622.4134   20658137.281  
                
  22983022.695   120776593.691    22983030.277    94111669.9534   22983030.312  
                
  19514121.367   104277537.994                    81104748.038    19514125.840  
  19514121.609  
  22144021.109   116367619.305    22144028.746    90676105.8354   22144028.789  
                
  22242863.891   116887030.094    22242871.062    91080833.1344   22242871.324  
                
  21288328.625   113478754.775                    88261246.657    21288333.480  
  21288328.293  
  22954823.406   120628401.468    22954830.477    93996176.5154   22954830.887  
                
  23707802.219   124585325.678    23707807.160    97079493.2324                 
                
  21100815.297   112835537.449                    87760973.901    21100820.102  
  21100814.570  
  21978833.859   117324499.817                    91252388.892    21978838.273  
  21978832.320  
  19400099.344   103813844.417                    80744097.394    19400103.027  
  19400097.641  
  20411844.648   107264957.749    20411854.086    83583124.7484   20411854.641  
                
 21  8 14  4 33 20.0000000  0 17G26R 1R16R 8G20G29G18R15G 5G12R14G31
                                G 2R24R18R17G25
  24497408.664   128734737.585    24497419.078   100312834.4364   24497419.066  
                
  22919528.852   122518021.779                    95291811.940    22919535.270  
  22919528.191  
  22401116.703   119662750.850                    93071052.226    22401119.363  
  22401116.102  
  23528675.695   125994988.065                    97996093.634    23528679.645  
  23528675.203  
  22114860.789   116214381.974    22114867.727    90556690.3494                 
                
  20656548.875   108550899.106    20656555.441    84585145.8804   20656555.641  
                
  22976774.883   120743761.358    22976782.453    94086086.3134   22976782.465  
                
  19514534.969   104279748.164                    81106467.053    19514539.438  
  19514535.215  
  22139864.430   116345775.780    22139872.086    90659084.9184   22139872.129  
                
  22248740.492   116917911.836    22248747.715    91104896.8144   22248747.934  
                
  21295595.148   113517489.231                    88291373.439    21295599.965  
  21295594.812  
  22955218.148   120630475.827    22955225.176    93997792.8914   22955225.625  
                
  23713252.844   124613968.868    23713257.730    97101812.5954                 
                
  21106164.188   112864140.360                    87783220.605    21106168.992  
  21106163.457  
  21973507.125   117296065.345                    91230273.202    21973511.527  
  21973505.574  
  19399726.984   103811851.818                    80742547.595    19399730.652  
  19399725.281  
  20414705.383   107279990.990    20414714.832    83594838.9604   20414715.391  
                
 21  8 14  4 33 30.0000000  0 17G26R 1R16R 8G20G29G18R15G 5G12R14G31
                                G 2R24R18R17G25
  24490904.781   128700559.612    24490915.234   100286202.2894   24490915.230  
                
  22915742.773   122497783.171                    95276070.812    22915749.227  
  22915742.055  
  22394453.125   119627155.015                    93043366.581    22394455.734  
  22394452.484  
  23529830.664   126001172.854                    98000904.001    23529834.617  
  23529830.129  
  22115210.680   116216220.647    22115217.602    90558123.0764                 
                
  20654973.281   108542619.290    20654979.844    84578694.0684   20654980.055  
                
  22970531.961   120710954.762    22970539.586    94060522.7484   22970539.582  
                
  19514965.547   104282048.994                    81108256.583    19514970.000  
  19514965.785  
  22135717.602   116323984.050    22135725.281    90642104.3444   22135725.312  
                
  22254623.453   116948826.984    22254630.695    91128986.5224   22254630.898  
                
  21302870.023   113556268.206                    88321534.849    21302874.832  
  21302869.691  
  22955624.828   120632612.871    22955631.836    93999458.1034   22955632.285  
                
  23718705.734   124642623.986    23718710.578    97124141.2424                 
                
  21111516.664   112892762.403                    87805482.179    21111521.473  
  21111515.914  
  21968186.422   117267663.022                    91208182.529    21968190.805  
  21968184.855  
  19399363.758   103809908.099                    80741035.820    19399367.410  
  19399362.062  
  20417576.758   107295080.113    20417586.227    83606596.7104   20417586.781  
                
 21  8 14  4 33 40.0000000  0 17G26R 1R16R 8G20G29G18R15G 5G12R14G31
                                G 2R24R18R17G25
  24484403.359   128666394.551    24484413.828   100259580.1604   24484413.816  
                
  22911969.102   122477610.892                    95260381.287    22911975.559  
  22911968.363  
  22387798.078   119591604.897                    93015716.483    22387800.656  
  22387797.422  
  23531000.891   126007439.406                    98005777.998    23531004.891  
  23531000.320  
  22115572.750   116218123.356    22115579.664    90559605.7164                 
                
  20653403.773   108534371.466    20653410.344    84572267.1934   20653410.551  
                
  22964294.047   120678174.240    22964301.684    94034979.4934   22964301.672  
                
  19515413.148   104284440.848                    81110116.918    19515417.602  
  19515413.383  
  22131580.695   116302244.483    22131588.383    90625164.4154   22131588.414  
                
  22260512.797   116979775.696    22260520.043    91153102.3964   22260520.262  
                
  21310153.234   113595091.878                    88351731.021    21310158.074  
  21310152.891  
  22956043.500   120634812.973    22956050.488    94001172.4534   22956050.922  
                
  23724160.922   124671291.203    23724165.746    97146479.3324                 
                
  21116872.773   112921403.889                    87827758.888    21116877.582  
  21116872.016  
  21962871.750   117239293.001                    91186116.939    21962876.141  
  21962870.203  
  19399009.742   103808013.666                    80739562.362    19399013.395  
  19399008.051  
  20420458.789   107310225.283    20420468.285    83618398.1474   20420468.832  
                
 21  8 14  4 33 50.0000000  0 17G26R 1R16R 8G20G29G18R15G 5G12R14G31
                                G 2R24R18R17G25
  24477904.422   128632242.433    24477914.906   100232968.1264   24477914.887  
                
  22908207.852   122457504.956                    95244743.355    22908214.285  
  22908207.133  
  22381151.617   119556100.688                    92988102.102    22381154.180  
  22381150.973  
  23532186.367   126013787.644                    98010715.526    23532190.414  
  23532185.773  
  22115947.023   116220090.158    22115953.938    90561138.2904                 
                
  20651840.352   108526155.605    20651846.941    84565865.2254   20651847.148  
                
  22958061.094   120645419.805    22958068.773    94009456.5674   22958068.742  
                
  19515877.742   104286923.485                    81112047.855    19515882.188  
  19515877.984  
  22127453.711   116280557.019    22127461.406    90608265.0984   22127461.441  
                
  22266408.516   117010757.854    22266415.781    91177244.3234   22266415.996  
                
  21317444.789   113633959.933                    88381961.706    21317449.664  
  21317444.438  
  22956474.148   120637075.999    22956481.105    94002935.8444   22956481.555  
                
  23729618.414   124699970.458    23729623.270    97168826.7984                 
                
  21122232.484   112950064.566                    87850050.516    21122237.285  
  21122231.719  
  21957563.195   117210955.497                    91164076.672    21957567.590  
  21957561.633  
  19398664.891   103806168.284                    80738127.065    19398668.539  
  19398663.195  
  20423351.492   107325426.513    20423361.012    83630243.2544   20423361.551  
                
 21  8 14  4 34  0.0000000  0 17G26R 1R16R 8G20G29G18R15G 5G12R14G31
                                G 2R24R18R17G25
  24471407.953   128598103.363    24471418.461   100206366.2444   24471418.430  
                
  22904459.055   122437465.519                    95229157.113    22904465.469  
  22904458.324  
  22374513.797   119520642.641                    92960523.629    22374516.355  
  22374513.164  
  23533387.055   126020217.423                    98015716.438    23533391.141  
  23533386.445  
  22116333.508   116222121.089    22116340.430    90562720.8344                 
                
  20650283.031   108517971.845    20650289.648    84559488.2704   20650289.852  
                
  22951833.141   120612691.575    22951840.863    93983954.0674   22951840.809  
                
  19516359.352   104289497.011                    81114049.487    19516363.793  
  19516359.578  
  22123336.680   116258921.912    22123344.395    90591406.5704   22123344.418  
                
  22272310.602   117041773.479    22272317.898    91201412.3354   22272318.094  
                
  21324744.664   113672872.296                    88412226.859    21324749.539  
  21324744.316  
  22956916.766   120639402.005    22956923.691    94004748.3054   22956924.152  
                
  23735078.211   124728661.734    23735083.059    97191183.6264                 
                
  21127595.773   112978744.476                    87872357.099    21127600.586  
  21127594.984  
  21952260.648   117182650.324                    91142061.537    21952265.039  
  21952259.086  
  19398329.188   103804371.858                    80736729.855    19398332.824  
  19398327.500  
  20426254.859   107340683.763    20426264.398    83642132.0144   20426264.938  
                
 21  8 14  4 34 10.0000000  0 17G26R 1R16R 8G20G29G18R15G 5G12R14G31
                                G 2R24R18R17G25
  24464913.945   128563977.311    24464924.520   100179774.5614   24464924.516  
                
  22900722.711   122417492.586                    95213622.631    22900729.102  
  22900722.000  
  22367884.641   119485230.789                    92932981.095    22367887.160  
  22367884.012  
  23534602.992   126026728.654                    98020780.724    23534607.074  
  23534602.398  
  22116732.156   116224216.004    22116739.086    90564353.2374                 
                
  20648731.797   108509820.036    20648738.441    84553136.2154   20648738.633  
                
  22945610.148   120579989.490    22945617.918    93958471.9244   22945617.855  
                
  19516857.938   104292161.345                    81116121.731    19516862.363  
  19516858.145  
  22119229.609   116237339.145    22119237.344    90574588.8354   22119237.359  
                
  22278219.023   117072822.408    22278226.352    91225606.2894   22278226.543  
                
  21332052.805   113711828.726                    88442526.288    21332057.676  
  21332052.457  
  22957371.352   120641790.854    22957378.273    94006609.7344   22957378.711  
                
  23740540.250   124757364.847    23740545.098    97213549.6864                 
                
  21132962.633   113007443.474                    87894678.523    21132967.465  
  21132961.832  
  21946964.188   117154377.575                    91120071.623    21946968.566  
  21946962.633  
  19398002.633   103802624.404                    80735370.718    19398006.258  
  19398000.938  
  20429168.852   107355996.902    20429178.410    83654064.3254   20429178.941  
                
 21  8 14  4 34 20.0000000  0 17G26R 1R16R 8G20G29G18R15G 5G12R14G31
                                G 2R24R18R17G25
  24458422.445   128529864.383    24458433.035   100153193.0584   24458433.051  
                
  22896998.805   122397586.230                    95198139.914    22897005.238  
  22896998.105  
  22361264.117   119449865.096                    92905474.436    22361266.594  
  22361263.477  
  23535834.141   126033321.383                    98025908.387    23535838.219  
  23535833.508  
  22117142.977   116226374.880    22117149.898    90566035.4894                 
                
  20647186.602   108501699.991    20647193.266    84546808.9054   20647193.445  
                
  22939392.133   120547313.615    22939399.938    93933010.2084   22939399.887  
                
  19517373.523   104294916.499                    81118264.626    19517377.934  
  19517373.707  
  22115132.523   116215808.818    22115140.273    90557811.9694   22115140.281  
                
  22284133.766   117103904.589    22284141.125    91249826.1514   22284141.324  
                
  21339369.172   113750829.141                    88472859.939    21339374.035  
  21339368.828  
  22957837.891   120644242.523    22957844.797    94008520.1174   22957845.215  
                
  23746004.523   124786079.696    23746009.391    97235924.8834                 
                
  21138333.016   113036161.273                    87917014.592    21138337.859  
  21138332.223  
  21941673.781   117126137.195                    91098106.903    21941678.172  
  21941672.227  
  19397685.211   103800925.799                    80734049.592    19397688.820  
  19397683.508  
  20432093.492   107371365.941    20432103.074    83666040.1884   20432103.605  
                
 21  8 14  4 34 30.0000000  0 17G26R 1R16R 8G20G29G18R15G 5G12R14G31
                                G 2R24R18R17G25
  24451933.492   128495764.782    24451944.078   100126621.9374   24451944.090  
                
  22893287.430   122377746.862                    95182709.312    22893293.902  
  22893286.691  
  22354652.289   119414545.961                    92878004.014    22354654.801  
  22354651.688  
  23537080.492   126039995.466                    98031099.338    23537084.570  
  23537079.891  
  22117565.992   116228597.797    22117572.887    90567767.6284                 
                
  20645647.508   108493612.007    20645654.191    84540506.5744   20645654.359  
                
  22933179.141   120514664.095    22933186.977    93907569.0404   22933186.922  
                
  19517906.133   104297762.599                    81120478.246    19517910.535  
  19517906.312  
  22111045.445   116194331.087    22111053.203    90541076.0744   22111053.203  
                
  22290054.844   117135020.057    22290062.254    91274071.9614   22290062.438  
                
  21346693.781   113789873.472                    88503227.745    21346698.633  
  21346693.445  
  22958316.391   120646756.989    22958323.238    94010479.4354   22958323.645  
                
  23751471.039   124814806.352    23751475.914    97258309.2644                 
                
  21143706.914   113064897.923                    87939365.299    21143711.766  
  21143706.129  
  21936389.445   117097929.286                    91076167.405    21936393.855  
  21936387.922  
  19397376.938   103799276.189                    80732766.568    19397380.535  
  19397375.234  
  20435028.766   107386790.901    20435038.375    83678059.6364   20435038.898  
                
 21  8 14  4 34 40.0000000  0 17G26R 1R16R 8G20G29G18R15G 5G12R14G31
                                G 2R24R18R17G25
  24445447.047   128461678.456    24445457.613   100100061.1664   24445457.641  
                
  22889588.570   122357974.467                    95167330.766    22889595.086  
  22889587.805  
  22348049.211   119379273.439                    92850569.810    22348051.703  
  22348048.688  
  23538342.094   126046751.199                    98036353.822    23538346.191  
  23538341.559  
  22118001.172   116230884.679    22118008.035    90569549.6084                 
                
  20644114.508   108485556.027    20644121.199    84534229.1844   20644121.355  
                
  22926971.164   120482040.957    22926979.012    93882148.4204   22926978.961  
                
  19518455.766   104300699.666                    81122762.619    19518460.148  
  19518455.941  
  22106968.375   116172905.971    22106976.125    90524381.1794   22106976.129  
                
  22295982.227   117166168.630    22295989.691    91298343.5624   22295989.852  
                
  21354026.609   113828961.540                    88533629.551    21354031.461  
  21354026.281  
  22958806.828   120649334.207    22958813.574    94012487.6574   22958814.020  
                
  23756939.789   124843544.720    23756944.676    97280702.7914                 
                
  21149084.391   113093653.691                    87961730.885    21149089.230  
  21149083.602  
  21931111.227   117069753.780                    91054253.139    21931115.629  
  21931109.715  
  19397077.805   103797675.462                    80731521.545    19397081.398  
  19397076.105  
  20437974.672   107402271.728    20437984.316    83690122.6114   20437984.816  
                
 21  8 14  4 34 50.0000000  0 17G26R 1R16R 8G20G29G18R15G 5G12R14G31
                                G 2R24R18R17G25
  24438963.203   128427605.635    24438973.719   100073510.9234   24438973.758  
                
  22885902.297   122338269.230                    95152004.513    22885908.875  
  22885901.523  
  22341454.898   119344047.754                    92823172.066    22341457.379  
  22341454.410  
  23539618.930   126053588.446                    98041671.680    23539622.977  
  23539618.379  
  22118448.547   116233235.608    22118455.418    90571381.5004                 
                
  20642587.633   108477532.228    20642594.336    84527976.8804   20642594.500  
                
  22920768.219   120449444.339    22920776.109    93856748.4634   22920776.047  
                
  19519022.438   104303727.730                    81125117.783    19519026.805  
  19519022.621  
  22102901.383   116151533.769    22102909.105    90507727.5194   22102909.113  
                
  22301915.922   117197350.362    22301923.422    91322640.9984   22301923.566  
                
  21361367.672   113868093.290                    88564065.351    21361372.469  
  21361367.312  
  22959309.234   120651974.257    22959315.902    94014544.8384   22959316.375  
                
  23762410.789   124872294.801    23762415.703    97303105.4464                 
                
  21154465.367   113122428.121                    87984110.995    21154470.188  
  21154464.566  
  21925839.102   117041610.892                    91032364.230    21925843.508  
  21925837.586  
  19396787.797   103796123.529                    80730314.481    19396791.383  
  19396786.098  
  20440931.234   107417808.470    20440940.914    83702229.1644   20440941.398  
                
 21  8 14  4 35  0.0000000  0 17G26R 1R16R 8G20G29G18R15G 5G12R14G31
                                G 2R24R18R17G25
  24432481.875   128393546.058    24432492.316   100046970.9754   24432492.379  
                
  22882228.531   122318630.919                    95136730.289    22882235.145  
  22882227.746  
  22334869.344   119308868.814                    92795810.662    22334871.773  
  22334868.859  
  23540910.883   126060506.797                    98047052.631    23540914.926  
  23540910.305  
  22118908.070   116235650.363    22118914.926    90573263.1204                 
                
  20641066.820   108469540.296    20641073.527    84521749.3954   20641073.684  
                
  22914570.234   120416873.972    22914578.164    93831368.9554   22914578.102  
                
  19519606.070   104306846.467                    81127543.471    19519610.438  
  19519606.262  
  22098844.398   116130214.198    22098852.078    90491114.8674   22098852.086  
                
  22307855.852   117228564.880    22307863.355    91346963.9884   22307863.523  
                
  21368716.828   113907268.282                    88594534.786    21368721.586  
  21368716.461  
  22959823.531   120654676.883    22959830.160    94016650.7764   22959830.629  
                
  23767883.922   124901056.228    23767888.863    97325516.9424                 
                
  21159849.844   113151221.305                    88006505.691    21159854.676  
  21159849.023  
  21920573.039   117013500.332                    91010500.458    21920577.449  
  21920571.488  
  19396506.859   103794620.139                    80729145.174    19396510.422  
  19396505.164  
  20443898.359   107433400.765    20443908.070    83714378.9974   20443908.535  
                
 21  8 14  4 35 10.0000000  0 17G26R 1R16R 8G20G29G18R15G 5G12R14G31
                                G 2R24R18R17G25
  24426003.172   128359500.188    24426013.539   100020441.7254   24426013.637  
                
  22878567.406   122299060.211                    95121508.636    22878574.055  
  22878566.637  
  22328292.633   119273737.152                    92768486.039    22328295.023  
  22328292.129  
  23542218.062   126067506.693                    98052496.971    23542222.074  
  23542217.496  
  22119379.781   116238129.283    22119386.617    90575194.7534                 
                
  20639552.125   108461580.560    20639558.840    84515547.0044   20639558.996  
                
  22908377.312   120384330.281    22908385.273    93806010.2574   22908385.242  
                
  19520206.734   104310056.286                    81130040.002    19520211.105  
  19520206.922  
  22094797.508   116108947.723    22094805.133    90474543.5874   22094805.160  
                
  22313802.070   117259812.491    22313809.613    91371312.7694   22313809.785  
                
  21376074.125   113946486.728                    88625038.020    21376078.867  
  21376073.766  
  22960349.781   120657442.324    22960356.406    94018805.6634   22960356.840  
                
  23773359.258   124929829.313    23773364.230    97347937.5174                 
                
  21165237.766   113180032.946                    88028914.728    21165242.598  
  21165236.961  
  21915313.070   116985422.413                    90988662.092    21915317.484  
  21915311.520  
  19396235.039   103793165.586                    80728013.860    19396238.594  
  19396233.324  
  20446876.117   107449048.987    20446885.863    83726572.4144   20446886.305  
                
 21  8 14  4 35 20.0000000  0 17G26R 1R16R 8G20G29G18R15G 5G12R14G31
                                G 2R24R18R17G25
  24419527.078   128325467.987    24419537.414    99993923.1164   24419537.531  
                
  22874918.914   122279556.999                    95106339.498    22874925.555  
  22874918.188  
  22321724.703   119238652.481                    92741197.990    22321727.098  
  22321724.207  
  23543540.461   126074588.046                    98058004.671    23543544.418  
  23543539.855  
  22119863.695   116240672.213    22119870.523    90577176.2454                 
                
  20638043.555   108453652.914    20638050.281    84509369.6174   20638050.434  
                
  22902189.461   120351813.214    22902197.492    93780672.3094   22902197.469  
                
  19520824.414   104313356.954                    81132607.186    19520828.781  
  19520824.586  
  22090760.750   116087734.378    22090768.340    90458013.7084   22090768.391  
                
  22319754.578   117291093.021    22319762.176    91395687.1984   22319762.328  
                
  21383439.523   113985748.352                    88655574.816    21383444.273  
  21383439.172  
  22960887.969   120660270.499    22960894.609    94021009.4304   22960895.012  
                
  23778836.789   124958613.838    23778841.793    97370366.9954                 
                
  21170629.195   113208863.147                    88051338.206    21170634.008  
  21170628.379  
  21910059.266   116957377.123                    90966849.084    21910063.664  
  21910057.738  
  19395972.328   103791759.741                    80726920.426    19395975.859  
  19395970.602  
  20449864.492   107464752.965    20449874.281    83738809.2674   20449874.695  
                
 21  8 14  4 35 30.0000000  0 17G26R 1R16R 8G20G29G18R15G 5G12R14G31
                                G 2R24R18R17G25
  24413053.578   128291449.473    24413063.930    99967415.1724   24413064.062  
                
  22871283.039   122260121.261                    95091222.800    22871289.676  
  22871282.336  
  22315165.664   119203615.337                    92713946.856    22315168.035  
  22315165.160  
  23544878.055   126081750.773                    98063575.687    23544881.965  
  23544877.496  
  22120359.781   116243279.136    22120366.625    90579207.6284                 
                
  20636541.078   108445757.360    20636547.816    84503217.2384   20636547.953  
                
  22896006.688   120319322.806    22896014.730    93755355.1134   22896014.719  
                
  19521459.102   104316748.559                    81135245.090    19521463.461  
  19521459.258  
  22086734.102   116066574.223    22086741.719    90441525.2774   22086741.750  
                
  22325713.328   117322406.437    22325720.957    91420087.2464   22325721.094  
                
  21390812.969   114025052.965                    88686145.037    21390817.754  
  21390812.617  
  22961438.102   120663161.320    22961444.727    94023262.0004   22961445.098  
                
  23784316.484   124987409.668    23784321.508    97392805.2884                 
                
  21176024.078   113237711.929                    88073776.154    21176028.879  
  21176023.273  
  21904811.570   116929364.379                    90945061.386    21904815.941  
  21904810.055  
  19395718.695   103790402.463                    80725864.760    19395722.203  
  19395716.973  
  20452863.469   107480512.643    20452873.293    83751089.5294   20452873.691  
                
 21  8 14  4 35 40.0000000  0 17G26R 1R16R 8G20G29G18R15G 5G12R14G31
                                G 2R24R18R17G25
  24406582.688   128257444.761    24406593.145    99940918.0234   24406593.246  
                
  22867659.828   122240753.302                    95076158.830    22867666.504  
  22867659.148  
  22308615.516   119168625.631                    92686732.654    22308617.887  
  22308615.023  
  23546230.812   126088994.718                    98069209.869    23546234.660  
  23546230.262  
  22120868.047   116245950.076    22120874.910    90581288.8774                 
                
  20635044.695   108437893.828    20635051.441    84497089.8124   20635051.570  
                
  22889828.992   120286859.095    22889836.992    93730058.7184   22889837.016  
                
  19522110.773   104320230.986                    81137953.646    19522115.129  
  19522110.926  
  22082717.586   116045467.327    22082725.246    90425078.3604   22082725.246  
                
  22331678.312   117353752.591    22331685.910    91444512.8094   22331686.066  
                
  21398194.430   114064400.438                    88716748.608    21398199.242  
  21398194.078  
  22962000.148   120666114.719    22962006.738    94025563.3464   22962007.098  
                
  23789798.312   125016216.769    23789803.367    97415252.3814                 
                
  21181422.359   113266578.992                    88096228.304    21181427.148  
  21181421.559  
  21899569.906   116901384.060                    90923298.929    21899574.285  
  21899568.434  
  19395474.141   103789093.814                    80724846.911    19395477.645  
  19395472.426  
  20455873.023   107496327.974    20455882.883    83763413.1584   20455883.258  
                
 21  8 14  4 35 50.0000000  0 17G26R 1R16R 8G20G29G18R15G 5G12R14G31
                                G 2R24R18R17G25
  24400114.414   128223453.923    24400125.016    99914431.7004   24400125.078  
                
  22864049.328   122221453.115                    95061147.585    22864056.004  
  22864048.641  
  22302074.305   119133683.552                    92659555.483    22302076.688  
  22302073.836  
  23547598.742   126096319.872                    98074907.192    23547602.559  
  23547598.184  
  22121388.484   116248684.973    22121395.375    90583419.9634                 
                
  20633554.422   108430062.338    20633561.176    84490987.3504   20633561.301  
                
  22883656.422   120254422.211    22883664.398    93704783.2314   22883664.426  
                
  19522779.500   104323804.402                    81140732.948    19522783.844  
  19522779.621  
  22078711.250   116024413.865    22078718.922    90408673.0624   22078718.914  
                
  22337649.539   117385131.488    22337657.098    91468963.8924   22337657.281  
                
  21405583.945   114103790.701                    88747385.467    21405588.758  
  21405583.613  
  22962574.117   120669130.730    22962580.695    94027913.4744   22962581.055  
                
  23795282.297   125045035.193    23795287.410    97437708.2794                 
                
  21186824.086   113295464.357                    88118694.690    21186828.852  
  21186823.285  
  21894334.406   116873436.457                    90901561.919    21894338.781  
  21894332.957  
  19395238.664   103787833.705                    80723866.829    19395242.164  
  19395236.941  
  20458893.195   107512198.982    20458903.078    83775780.1714   20458903.434  
                
 21  8 14  4 36  0.0000000  0 17G26R 1R16R 8G20G29G18R15G 5G12R14G31
                                G 2R24R18R17G25
  24393648.789   128189477.097    24393659.516    99887956.2604   24393659.512  
                
  22860451.570   122202221.016                    95046189.319    22860458.250  
  22860450.949  
  22295542.031   119098789.343                    92632415.555    22295544.449  
  22295541.602  
  23548981.883   126103726.499                    98080667.892    23548985.691  
  23548981.316  
  22121921.102   116251483.880    22121928.016    90585600.9304                 
                
  20632070.242   108422262.925    20632076.996    84484909.8904   20632077.113  
                
  22877489.000   120222012.215    22877496.941    93679528.7104   22877496.953  
                
  19523465.242   104327468.854                    81143583.069    19523469.578  
  19523465.367  
  22074715.094   116003413.973    22074722.754    90392309.5134   22074722.770  
                
  22343626.977   117416543.122    22343634.555    91493440.4764   22343634.727  
                
  21412981.469   114143223.675                    88778055.538    21412986.297  
  21412981.137  
  22963160.023   120672209.411    22963166.566    94030312.4434   22963166.914  
                
  23800768.422   125073864.870    23800773.602    97460172.9444                 
                
  21192229.227   113324368.008                    88141175.304    21192233.984  
  21192228.402  
  21889105.008   116845521.508                    90879850.298    21889109.367  
  21889103.574  
  19395012.234   103786622.018                    80722924.407    19395015.719  
  19395010.516  
  20461923.945   107528125.651    20461933.848    83788190.5564   20461934.180  
                
 21  8 14  4 36 10.0000000  0 17G26R 1R16R 8G20G29G18R15G 5G12R14G31
                                G 2R24R18R17G25
  24387185.836   128155514.220    24387196.605    99861491.6634   24387196.555  
                
  22856866.539   122183056.933                    95031283.928    22856873.156  
  22856865.895  
  22289018.766   119063943.116                    92605312.948    22289021.188  
  22289018.352  
  23550380.180   126111214.320                    98086491.784    23550383.996  
  23550379.570  
  22122465.875   116254346.720    22122472.793    90587831.7044                 
                
  20630592.156   108414495.561    20630598.895    84478857.3924   20630599.023  
                
  22871326.680   120189629.032    22871334.590    93654295.0544   22871334.590  
                
  19524167.992   104331224.094                    81146503.808    19524172.309  
  19524168.125  
  22070729.109   115982467.500    22070736.766    90375987.5854   22070736.809  
                
  22349610.602   117447987.282    22349618.219    91517942.3894   22349618.375  
                
  21420386.938   114182698.988                    88808758.542    21420391.770  
  21420386.633  
  22963757.797   120675350.527    22963764.332    94032760.0634   22963764.672  
                
  23806256.633   125102705.480    23806261.859    97482646.1374                 
                
  21197637.773   113353289.875                    88163670.063    21197642.523  
  21197636.941  
  21883881.703   116817639.097                    90858163.976    21883886.051  
  21883880.250  
  19394794.867   103785458.823                    80722019.703    19394798.332  
  19394793.137  
  20464965.250   107544107.791    20464975.160    83800644.1614   20464975.484  
                
 21  8 14  4 36 20.0000000  0 17G26R 1R16R 8G20G29G18R15G 5G12R14G31
                                G 2R24R18R17G25
  24380725.562   128121565.420    24380736.398    99835038.0884   24380736.336  
                
  22853294.266   122163961.094                    95016431.620    22853300.770  
  22853293.598  
  22282504.438   119029144.837                    92578247.625    22282506.852  
  22282504.020  
  23551793.602   126118783.117                    98092378.595    23551797.379  
  23551792.973  
  22123022.852   116257273.626    22123029.746    90590112.4134                 
                
  20629120.180   108406760.235    20629126.910    84472829.8694   20629127.039  
                
  22865169.500   120157272.789    22865177.387    93629082.3994   22865177.363  
                
  19524887.750   104335070.281                    81149495.283    19524892.059  
  19524887.875  
  22066753.328   115961574.634    22066760.992    90359707.4324   22066761.012  
                
  22355600.430   117479463.982    22355608.062    91542469.6724   22355608.211  
                
  21427800.406   114222216.648                    88839494.505    21427805.211  
  21427800.090  
  22964367.445   120678554.123    22964373.980    94035256.3614   22964374.309  
                
  23811746.938   125131557.104    23811752.199    97505127.9094                 
                
  21203049.680   113382229.696                    88186178.818    21203054.441  
  21203048.855  
  21878664.500   116789789.401                    90836503.116    21878668.824  
  21878663.027  
  19394586.531   103784343.943                    80721152.574    19394589.988  
  19394584.785  
  20468017.125   107560145.487    20468027.051    83813141.0664   20468027.352  
                
 21  8 14  4 36 30.0000000  0 17G26R 1R16R 8G20G29G18R15G 5G12R14G31
                                G 2R24R18R17G25
  24374267.992   128087630.846    24374278.855    99808595.5524   24374278.750  
                
  22849734.758   122144933.532                    95001632.397    22849741.227  
  22849734.094  
  22275999.164   118994394.829                    92551219.848    22276001.578  
  22275998.742  
  23553222.211   126126433.283                    98098328.725    23553225.977  
  23553221.578  
  22123592.008   116260264.551    22123598.863    90592443.0034                 
                
  20627654.312   108399057.076    20627661.043    84466827.4054   20627661.180  
                
  22859017.453   120124943.548    22859025.281    93603890.7884   22859025.266  
                
  19525624.523   104339007.355                    81152557.457    19525628.832  
  19525624.629  
  22062787.773   115940735.500    22062795.453    90343469.1524   22062795.465  
                
  22361596.430   117510973.164    22361604.047    91567022.2734   22361604.211  
                
  21435221.781   114261776.519                    88870263.283    21435226.547  
  21435221.477  
  22964989.000   120681820.290    22964995.539    94037801.4144   22964995.836  
                
  23817239.320   125160419.726    23817244.609    97527618.2434                 
                
  21208464.961   113411187.605                    88208701.612    21208469.734  
  21208464.109  
  21873453.414   116761972.408                    90814867.691    21873457.738  
  21873451.906  
  19394387.219   103783277.392                    80720323.039    19394390.668  
  19394385.457  
  20471079.570   107576238.705    20471089.504    83825681.2254   20471089.793  
                
 21  8 14  4 36 40.0000000  0 17G26R 1R16R 8G20G29G18R15G 5G12R14G31
                                G 2R24R18R17G25
  24367813.180   128053710.577    24367824.062    99782164.1974   24367823.941  
                
  22846188.062   122125974.479                    94986886.459    22846194.531  
  22846187.352  
  22269502.930   118959693.074                    92524229.623    22269505.371  
  22269502.527  
  23554665.953   126134164.361                    98104341.782    23554669.703  
  23554665.336  
  22124173.320   116263319.384    22124180.137    90594823.3994                 
                
  20626194.570   108391386.098    20626201.312    84460850.0154   20626201.441  
                
  22852870.570   120092641.402    22852878.352    93578720.2934   22852878.348  
                
  19526378.297   104343035.321                    81155690.312    19526382.598  
  19526378.387  
  22058832.469   115919950.281    22058840.160    90327272.8764   22058840.160  
                
  22367598.617   117542514.809    22367606.230    91591600.1614   22367606.391  
                
  21442651.016   114301378.466                    88901064.784    21442655.770  
  21442650.719  
  22965622.438   120685148.937    22965628.973    94040395.1644   22965629.266  
                
  23822733.797   125189293.343    23822739.102    97550117.1474                 
                
  21213883.594   113440163.416                    88231238.357    21213888.371  
  21213882.746  
  21868248.469   116734188.184                    90793257.731    21868252.793  
  21868246.969  
  19394196.953   103782259.264                    80719531.155    19394200.398  
  19394195.188  
  20474152.578   107592387.424    20474162.512    83838264.6334   20474162.797  
                
 21  8 14  4 36 50.0000000  0 17G26R 1R16R 8G20G29G18R15G 5G12R14G31
                                G 2R24R18R17G25
  24361361.109   128019804.764    24361372.004    99755744.0894   24361371.863  
                
  22842654.227   122107084.082                    94972193.934    22842660.680  
  22842653.461  
  22263015.781   118925040.003                    92497277.244    22263018.246  
  22263015.391  
  23556124.852   126141976.645                    98110418.001    23556128.555  
  23556124.227  
  22124766.820   116266438.235    22124773.605    90597253.6674                 
                
  20624740.961   108383747.335    20624747.715    84454897.7364   20624747.836  
                
  22846728.867   120060366.500    22846736.641    93553571.0104   22846736.633  
                
  19527149.102   104347154.275                    81158893.947    19527153.410  
  19527149.164  
  22054887.453   115899219.049    22054895.172    90311118.6844   22054895.180  
                
  22373606.969   117574088.901    22373614.590    91616203.3344   22373614.730  
                
  21450088.117   114341022.435                    88931898.957    21450092.871  
  21450087.816  
  22966267.773   120688540.135    22966274.285    94043037.6424   22966274.582  
                
  23828230.344   125218177.865    23828235.664    97572624.5544                 
                
  21219305.578   113469157.186                    88253789.057    21219310.355  
  21219304.746  
  21863049.633   116706436.533                    90771673.121    21863053.957  
  21863048.121  
  19394015.727   103781289.518                    80718776.903    19394019.176  
  19394013.961  
  20477236.148   107608591.695    20477246.074    83850891.3344   20477246.355  
                
 21  8 14  4 37  0.0000000  0 17G26R 1R16R 8G20G29G18R15G 5G12R14G31
                                G 2R24R18R17G25
  24354911.789   127985913.345    24354922.680    99729335.2064   24354922.504  
                
  22839133.234   122088262.447                    94957554.900    22839139.703  
  22839132.465  
  22256537.773   118890435.633                    92470362.727    22256540.238  
  22256537.367  
  23557598.906   126149870.119                    98116557.375    23557602.586  
  23557598.262  
  22125372.477   116269620.969    22125379.242    90599733.7314                 
                
  20623293.469   108376140.681    20623300.234    84448970.4734   20623300.340  
                
  22840592.312   120028118.725    22840600.121    93528442.8934   22840600.094  
                
  19527936.922   104351364.149                    81162168.280    19527941.223  
  19527936.984  
  22050952.711   115878541.829    22050960.453    90295006.5674   22050960.469  
                
  22379621.484   117605695.269    22379629.051    91640831.6614   22379629.219  
                
  21457533.047   114380708.192                    88962765.638    21457537.824  
  21457532.750  
  22966924.961   120691993.658    22966931.445    94045728.6994   22966931.758  
                
  23833728.945   125247073.166    23833734.277    97595140.3614                 
                
  21224730.883   113498168.693                    88276353.555    21224735.668  
  21224730.051  
  21857856.961   116678717.776                    90750114.088    21857861.273  
  21857855.449  
  19393843.500   103780367.847                    80718060.049    19393846.961  
  19393841.730  
  20480330.273   107624851.356    20480340.180    83863561.1924   20480340.461  
                
 21  8 14  4 37 10.0000000  0 17G26R 1R16R 8G20G29G18R15G 5G12R14G31
                                G 2R24R18R17G25
  24348465.227   127952036.396    24348476.074    99702937.5854   24348475.891  
                
  22835625.109   122069509.555                    94942969.303    22835631.551  
  22835624.324  
  22250068.859   118855879.980                    92443486.120    22250071.352  
  22250068.496  
  23559088.078   126157844.508                    98122759.694    23559091.703  
  23559087.434  
  22125990.297   116272867.620    22125997.039    90602263.5824                 
                
  20621852.078   108368566.150    20621858.852    84443068.2404   20621858.957  
                
  22834460.930   119995898.163    22834468.770    93503335.9684   22834468.734  
                
  19528741.742   104355664.877                    81165513.279    19528746.023  
  19528741.828  
  22047028.242   115857918.656    22047036.012    90278936.5644   22047036.023  
                
  22385642.109   117637333.786    22385649.574    91665485.0444   22385649.820  
                
  21464985.773   114420435.459                    88993664.610    21464990.531  
  21464985.477  
  22967594.008   120695509.545    22967600.473    94048468.3474   22967600.797  
                
  23839229.578   125275979.194    23839234.883    97617664.5224                 
                
  21230159.516   113527198.024                    88298931.913    21230164.297  
  21230158.699  
  21852670.438   116651031.845                    90728580.608    21852674.742  
  21852668.945  
  19393680.250   103779494.315                    80717380.633    19393683.711  
  19393678.477  
  20483434.914   107641166.342    20483444.793    83876274.1644   20483445.094  
                
 21  8 14  4 37 20.0000000  0 17G26R 1R16R 8G20G29G18R15G 5G12R14G31
                                G 2R24R18R17G25
  24342021.523   127918174.393    24342032.340    99676551.6104   24342032.145  
                
  22832129.945   122050825.930                    94928437.616    22832136.375  
  22832129.191  
  22243609.211   118821373.673                    92416647.888    22243611.730  
  22243608.859  
  23560592.453   126165900.389                    98129025.363    23560596.066  
  23560591.805  
  22126620.344   116276178.533    22126627.094    90604843.5154                 
                
  20620416.875   108361024.105    20620423.648    84437191.3234   20620423.742  
                
  22828334.781   119963705.222    22828342.684    93478250.5604   22828342.648  
                
  19529563.633   104360056.744                    81168929.174    19529567.898  
  19529563.750  
  22043114.188   115837350.141    22043121.984    90262909.1544   22043121.980  
                
  22391668.961   117669005.017    22391676.391    91690163.9114   22391676.664  
                
  21472446.367   114460204.546                    89024596.111    21472451.137  
  21472446.102  
  22968274.984   120699088.031    22968281.461    94051256.7734   22968281.793  
                
  23844732.336   125304896.253    23844737.605    97640197.2994                 
                
  21235591.508   113556245.247                    88321524.195    21235596.266  
  21235590.684  
  21847490.109   116623378.898                    90707072.749    21847494.418  
  21847488.629  
  19393526.062   103778669.186                    80716738.872    19393529.531  
  19393524.277  
  20486550.164   107657537.042    20486560.012    83889030.5444   20486560.328  
                
 21  8 14  4 37 30.0000000  0 17G26R 1R16R 8G20G29G18R15G 5G12R14G31
                                G 2R24R18R17G25
  24335580.484   127884326.412    24335591.277    99650176.5764   24335591.078  
                
  22828647.570   122032210.675                    94913959.091    22828653.992  
  22828646.859  
  22237158.609   118786915.646                    92389847.214    22237161.105  
  22237158.227  
  23562111.812   126174036.430                    98135353.411    23562115.430  
  23562111.164  
  22127262.430   116279552.688    22127269.184    90607472.7244                 
                
  20618987.656   108353513.528    20618994.430    84431338.9304   20618994.516  
                
  22822213.711   119931538.966    22822221.676    93453185.9724   22822221.660  
                
  19530402.398   104364538.837                    81172415.240    19530406.656  
  19530402.535  
  22039210.336   115816835.264    22039218.141    90246923.5464   22039218.125  
                
  22397701.789   117700707.666    22397709.227    91714867.2504   22397709.492  
                
  21479914.594   114500014.321                    89055559.267    21479919.363  
  21479914.336  
  22968967.680   120702728.142    22968974.180    94054093.2084   22968974.496  
                
  23850236.969   125333823.282    23850242.250    97662737.8324                 
                
  21241026.633   113585309.282                    88344129.543    21241031.410  
  21241025.805  
  21842315.812   116595758.050                    90685589.857    21842320.117  
  21842314.332  
  19393380.719   103777891.447                    80716133.959    19393384.188  
  19393378.934  
  20489675.805   107673962.364    20489685.621    83901829.4894   20489685.953  
                
 21  8 14  4 37 40.0000000  0 17G26R 1R16R 8G20G29G18R15G 5G12R14G31
                                G 2R24R18R17G25
  24329142.273   127850493.460    24329153.090    99623813.2514   24329152.867  
                
  22825178.219   122013664.891                    94899534.597    22825184.574  
  22825177.500  
  22230717.297   118752507.400                    92363085.248    22230719.801  
  22230716.867  
  23563646.336   126182253.755                    98141744.630    23563649.957  
  23563645.684  
  22127916.734   116282991.038    22127923.477    90610151.9504                 
                
  20617564.617   108346035.398    20617571.383    84425511.8114   20617571.465  
                
  22816097.914   119899400.390    22816105.945    93428142.9414   22816105.945  
                
  19531258.219   104369112.082                    81175972.209    19531262.473  
  19531258.371  
  22035316.875   115796375.026    22035324.688    90230980.5064   22035324.652  
                
  22403740.758   117732442.548    22403748.184    91739595.7204   22403748.441  
                
  21487390.578   114539865.510                    89086554.619    21487395.355  
  21487390.312  
  22969672.266   120706430.801    22969678.812    94056978.3894   22969679.105  
                
  23855743.656   125362761.136    23855748.961    97685286.7814                 
                
  21246465.070   113614391.088                    88366748.716    21246469.848  
  21246464.227  
  21837147.695   116568170.234                    90664132.676    21837152.016  
  21837146.207  
  19393244.422   103777162.122                    80715566.709    19393247.895  
  19393242.637  
  20492812.016   107690443.255    20492821.789    83914671.7384   20492822.145  
                
 21  8 14  4 37 50.0000000  0 17G26R 1R16R 8G20G29G18R15G 5G12R14G31
                                G 2R24R18R17G25
  24322706.945   127816675.502    24322717.797    99597461.6214   24322717.551  
                
  22821721.820   121995188.491                    94885164.095    22821728.211  
  22821721.117  
  22224285.281   118718148.689                    92336361.817    22224287.785  
  22224284.836  
  23565196.008   126190552.105                    98148198.907    23565199.625  
  23565195.375  
  22128583.227   116286493.448    22128589.945    90612881.1054                 
                
  20616147.727   108338589.578    20616154.488    84419709.8754   20616154.574  
                
  22809987.367   119867289.432    22809995.480    93403121.4284   22809995.484  
                
  19532131.102   104373776.467                    81179600.055    19532135.367  
  19532131.258  
  22031433.805   115775969.377    22031441.648    90215080.0054   22031441.582  
                
  22409785.844   117764209.519    22409793.242    91764349.1964   22409793.508  
                
  21494874.297   114579757.962                    89117582.072    21494879.098  
  21494874.055  
  22970388.727   120710195.879    22970395.328    94059912.2024   22970395.594  
                
  23861252.375   125391709.601    23861257.688    97707844.0214                 
                
  21251906.844   113643490.620                    88389381.660    21251911.590  
  21251906.016  
  21831985.750   116540615.426                    90642701.169    21831990.082  
  21831984.234  
  19393117.125   103776480.910                    80715036.873    19393120.602  
  19393115.332  
  20495958.773   107706979.533    20495968.504    83927557.1424   20495968.887  
                
 21  8 14  4 38  0.0000000  0 17G26R 1R16R 8G20G29G18R15G 5G12R14G31
                                G 2R24R18R17G25
  24316274.438   127782872.449    24316285.316    99571121.5854   24316285.035  
                
  22818278.414   121976781.604                    94870847.637    22818284.793  
  22818277.680  
  22217862.508   118683839.464                    92309676.899    22217865.055  
  22217862.047  
  23566760.781   126198931.356                    98154716.123    23566764.438  
  23566760.164  
  22129261.898   116290059.791    22129268.570    90615660.0754                 
                
  20614736.961   108331175.918    20614743.719    84413932.9954   20614743.805  
                
  22803882.047   119835205.975    22803890.230    93378121.3674   22803890.246  
                
  19533020.969   104378531.596                    81183298.493    19533025.234  
  19533021.133  
  22027561.133   115755618.336    22027568.988    90199222.0694   22027568.926  
                
  22415837.000   117796008.419    22415844.363    91789127.5494   22415844.629  
                
  21502365.672   114619691.311                    89148641.316    21502370.500  
  21502365.453  
  22971117.023   120714023.129    22971123.668    94062894.4754   22971123.918  
                
  23866763.078   125420668.463    23866768.371    97730409.3624                 
                
  21257351.820   113672607.347                    88412027.994    21257356.543  
  21257350.996  
  21826829.969   116513093.383                    90621295.132    21826834.281  
  21826828.422  
  19392998.781   103775847.583                    80714544.284    19393002.273  
  19392996.980  
  20499116.039   107723571.037    20499125.734    83940485.5894   20499126.148  
                
 21  8 14  4 38 10.0000000  0 17G26R 1R16R 8G20G29G18R15G 5G12R14G31
                                G 2R24R18R17G25
  24309844.750   127749084.324    24309855.637    99544793.1924   24309855.367  
                
  22814848.000   121958444.149                    94856585.143    22814854.359  
  22814847.277  
  22211449.000   118649579.758                    92283030.454    22211451.555  
  22211448.539  
  23568340.641   126207391.391                    98161296.140    23568344.277  
  23568340.102  
  22129952.703   116293689.995    22129959.312    90618488.8044                 
                
  20613332.312   108323794.478    20613339.062    84408181.2164   20613339.156  
                
  22797782.016   119803150.072    22797790.219    93353142.7634   22797790.234  
                
  19533927.820   104383377.576                    81187067.579    19533932.098  
  19533927.996  
  22023698.859   115735321.994    22023706.688    90183406.7364   22023706.629  
                
  22421894.203   117827839.160    22421901.535    91813930.7124   22421901.809  
                
  21509864.695   114659665.429                    89179732.279    21509869.547  
  21509864.469  
  22971857.164   120717912.648    22971863.812    94065925.2674   22971864.066  
                
  23872275.734   125449637.659    23872281.000    97752982.7544                 
                
  21262800.023   113701741.317                    88434687.751    21262804.734  
  21262799.195  
  21821680.336   116485604.224                    90599914.709    21821684.637  
  21821678.770  
  19392889.375   103775262.176                    80714088.964    19392892.879  
  19392887.570  
  20502283.789   107740217.672    20502293.453    83953456.9834   20502293.891  
                
 21  8 14  4 38 20.0000000  0 17G26R 1R16R 8G20G29G18R15G 5G12R14G31
                                G 2R24R18R17G25
  24303417.945   127715311.372    24303428.852    99518476.6084   24303428.578  
                
  22811430.648   121940176.506                    94842376.951    22811437.012  
  22811429.918  
  22205044.852   118615370.011                    92256422.897    22205047.461  
  22205044.398  
  23569935.602   126215932.311                    98167939.066    23569939.191  
  23569935.070  
  22130655.695   116297384.207    22130662.238    90621367.4164                 
                
  20611933.789   108316445.241    20611940.527    84402454.5424   20611940.625  
                
  22791687.273   119771121.880    22791695.434    93328185.7304   22791695.453  
                
  19534851.695   104388314.433                    81190907.362    19534855.973  
  19534851.883  
  22019847.055   115715080.651    22019854.863    90167634.2714   22019854.820  
                
  22427957.469   117859701.708    22427964.777    91838758.6584   22427965.062  
                
  21517371.375   114699680.211                    89210854.878    21517376.238  
  21517371.133  
  22972609.133   120721864.359    22972615.781    94069004.5264   22972616.031  
                
  23877790.352   125478617.146    23877795.586    97775564.1684                 
                
  21268251.461   113730892.645                    88457361.000    21268256.148  
  21268250.629  
  21816536.859   116458147.983                    90578559.839    21816541.129  
  21816535.320  
  19392788.922   103774724.645                    80713670.886    19392792.441  
  19392787.102  
  20505462.047   107756919.495    20505471.703    83966471.3864   20505472.148  
                
 21  8 14  4 38 30.0000000  0 17G26R 1R16R 8G20G29G18R15G 5G12R14G31
                                G 2R24R18R17G25
  24296994.039   127681553.546    24297004.953    99492171.8254   24297004.652  
                
  22808026.305   121921978.479                    94828222.956    22808032.711  
  22808025.605  
  22198650.078   118581210.302                    92229854.207    22198652.699  
  22198649.641  
  23571545.648   126224554.029                    98174644.843    23571549.195  
  23571545.043  
  22131370.844   116301142.287    22131377.328    90624295.7844                 
                
  20610541.406   108309128.217    20610548.125    84396752.9644   20610548.246  
                
  22785597.828   119739121.387    22785605.879    93303250.2844   22785605.906  
                
  19535792.570   104393342.168                    81194817.811    19535796.852  
  19535792.789  
  22016005.703   115694894.242    22016013.504    90151904.6094   22016013.477  
                
  22434026.773   117891596.020    22434034.086    91863611.3514   22434034.379  
                
  21524885.664   114739735.566                    89242009.020    21524890.570  
  21524885.414  
  22973372.922   120725878.162    22973379.566    94072132.1574   22973379.832  
                
  23883306.906   125507606.885    23883312.125    97798153.5544                 
                
  21273706.070   113760060.921                    88480047.428    21273710.754  
  21273705.250  
  21811399.562   116430724.721                    90557230.633    21811403.840  
  21811398.027  
  19392697.414   103774234.983                    80713290.036    19392700.945  
  19392695.590  
  20508650.789   107773676.440    20508660.449    83979528.7424   20508660.902  
                
 21  8 14  4 38 40.0000000  0 17G26R 1R16R 8G20G29G18R15G 5G12R14G31
                                G 2R24R18R17G25
  24290573.047   127647811.006    24290583.973    99465878.9384   24290583.625  
                
  22804635.086   121903850.519                    94814123.414    22804641.496  
  22804634.398  
  22192264.688   118547100.749                    92203324.576    22192267.352  
  22192264.258  
  23573170.773   126233256.486                    98181413.438    23573174.305  
  23573170.117  
  22132098.148   116304964.254    22132104.609    90627273.9354                 
                
  20609155.164   108301843.446    20609161.859    84391076.5174   20609162.004  
                
  22779513.680   119707148.663    22779521.590    93278336.4704   22779521.664  
                
  19536750.445   104398460.671                    81198798.867    19536754.719  
  19536750.695  
  22012174.812   115674762.776    22012182.605    90136217.7694   22012182.586  
                
  22440102.109   117923521.997    22440109.426    91888488.7214   22440109.711  
                
  21532407.531   114779831.257                    89273194.529    21532412.473  
  21532407.297  
  22974148.539   120729954.043    22974155.156    94075308.1584   22974155.426  
                
  23888825.406   125536606.832    23888830.617    97820750.8924                 
                
  21279163.930   113789246.431                    88502747.262    21279168.602  
  21279163.109  
  21806268.414   116403334.338                    90535927.020    21806272.691  
  21806266.883  
  19392614.836   103773793.023                    80712946.293    19392618.387  
  19392612.996  
  20511850.031   107790488.479    20511859.711    83992629.0254   20511860.156  
                
 21  8 14  4 38 50.0000000  0 17G26R 1R16R 8G20G29G18R15G 5G12R14G31
                                G 2R24R18R17G25
  24284154.977   127614083.813    24284165.879    99439598.0254   24284165.551  
                
  22801256.969   121885792.622                    94800078.407    22801263.367  
  22801256.270  
  22185888.703   118513041.486                    92176834.067    22185891.422  
  22185888.305  
  23574810.953   126242039.682                    98188244.815    23574814.461  
  23574810.289  
  22132837.602   116308850.099    22132844.047    90630301.8654                 
                
  20607775.055   108294590.924    20607781.730    84385425.2024   20607781.898  
                
  22773434.781   119675203.784    22773442.559    93253444.3534   22773442.680  
                
  19537725.305   104403669.975                    81202850.544    19537729.586  
  19537725.562  
  22008354.383   115654686.319    22008362.164    90120573.7804   22008362.145  
                
  22446183.453   117955479.591    22446190.789    91913390.7254   22446191.070  
                
  21539936.977   114819967.137                    89304411.319    21539941.906  
  21539936.754  
  22974935.953   120734091.985    22974942.555    94078532.5314   22974942.840  
                
  23894345.828   125565616.874    23894351.059    97843356.1224                 
                
  21284624.961   113818448.952                    88525460.328    21284629.621  
  21284624.137  
  21801143.438   116375976.832                    90514648.966    21801147.699  
  21801141.918  
  19392541.164   103773398.817                    80712639.685    19392544.727  
  19392539.320  
  20515059.742   107807355.586    20515069.449    84005772.2234   20515069.867  
                
 21  8 14  4 39  0.0000000  0 17G26R 1R16R 8G20G29G18R15G 5G12R14G31
                                G 2R24R18R17G25
  24277739.820   127580371.881    24277750.684    99413328.9724   24277750.355  
                
  22797891.938   121867804.735                    94786087.819    22797898.359  
  22797891.238  
  22179522.172   118479032.626                    92150382.732    22179524.852  
  22179521.789  
  23576466.188   126250903.380                    98195138.796    23576469.645  
  23576465.504  
  22133589.180   116312799.626    22133595.609    90633379.4154                 
                
  20606401.008   108287370.295    20606407.668    84379798.7354   20606407.844  
                
  22767361.172   119643286.608    22767368.832    93228573.8314   22767368.969  
                
  19538717.125   104408969.964                    81206972.756    19538721.418  
  19538717.402  
  22004544.414   115634664.821    22004552.180    90104972.6234   22004552.164  
                
  22452270.773   117987468.577    22452278.141    91938317.2014   22452278.406  
                
  21547473.977   114860143.031                    89335659.246    21547478.840  
  21547473.742  
  22975735.141   120738291.803    22975741.758    94081805.1114   22975742.055  
                
  23899868.148   125594636.842    23899873.406    97865969.0654                 
                
  21290089.102   113847668.104                    88548186.334    21290093.754  
  21290088.266  
  21796024.633   116348652.197                    90493396.465    21796028.848  
  21796023.105  
  19392476.375   103773052.134                    80712370.047    19392479.945  
  19392474.527  
  20518279.883   107824277.549    20518289.613    84018958.1654   20518290.027  
                
 21  8 14  4 39 10.0000000  0 17G26R 1R16R 8G20G29G18R15G 5G12R14G31
                                G 2R24R18R17G25
  24271327.594   127546675.526    24271338.484    99387072.1014   24271338.176  
                
  22794540.062   121849887.108                    94772151.892    22794546.504  
  22794539.410  
  22173165.094   118445074.248                    92123970.659    22173167.703  
  22173164.672  
  23578136.531   126259847.943                    98202095.676    23578139.973  
  23578135.863  
  22134352.930   116316813.143    22134359.355    90636506.8394                 
                
  20605033.141   108280182.116    20605039.789    84374197.5544   20605039.977  
                
  22761292.891   119611397.463    22761300.453    93203725.1404   22761300.609  
                
  19539725.969   104414360.896                    81211165.691    19539730.270  
  19539726.246  
  22000745.023   115614698.911    22000752.762    90089414.7764   22000752.762  
                
  22458364.109   118019489.184    22458371.504    91963268.2984   22458371.750  
                
  21555018.461   114900358.820                    89366938.189    21555023.207  
  21555018.180  
  22976546.133   120742553.690    22976552.770    94085126.0444   22976553.074  
                
  23905392.391   125623666.931    23905397.691    97888589.9044                 
                
  21295556.430   113876904.334                    88570925.612    21295561.086  
  21295555.582  
  21790912.031   116321360.715                    90472169.750    21790916.230  
  21790910.480  
  19392420.500   103772753.142                    80712137.496    19392424.086  
  19392418.656  
  20521510.516   107841254.594    20521520.266    84032187.0264   20521520.680  
                
 21  8 14  4 39 20.0000000  0 17G26R 1R16R 8G20G29G18R15G 5G12R14G31
                                G 2R24R18R17G25
  24264918.367   127512994.903    24264929.266    99360827.4634   24264928.988  
                
  22791201.406   121832040.139                    94758270.906    22791207.859  
  22791200.762  
  22166817.578   118411166.914                    92097598.311    22166820.156  
  22166817.129  
  23579821.961   126268873.170                    98209115.290    23579825.367  
  23579821.316  
  22135128.867   116320890.691    22135135.316    90639684.1464                 
                
  20603671.461   108273026.424    20603678.109    84368621.6924   20603678.293  
                
  22755229.961   119579536.455    22755237.457    93178898.3804   22755237.613  
                
  19540751.859   104419842.904                    81215429.476    19540756.156  
  19540752.141  
  21996956.195   115594788.452    21996963.914    90073900.1494   21996963.918  
                
  22464463.461   118051541.371    22464470.875    91988244.0044   22464471.094  
                
  21562570.383   114940614.810                    89398248.408    21562575.094  
  21562570.105  
  22977368.969   120746877.720    22977375.621    94088495.4024   22977375.926  
                
  23910918.562   125652707.149    23910923.855    97911218.6304                 
                
  21301026.930   113906157.481                    88593678.041    21301031.613  
  21301026.094  
  21785805.594   116294102.298                    90450968.768    21785809.824  
  21785804.039  
  19392373.555   103772501.908                    80711942.090    19392377.156  
  19392371.699  
  20524751.633   107858286.735    20524761.395    84045458.8194   20524761.812  
                
 21  8 14  4 39 30.0000000  0 17G26R 1R16R 8G20G29G18R15G 5G12R14G31
                                G 2R24R18R17G25
  24258512.125   127479330.017    24258523.059    99334595.1174   24258522.777  
                
  22787875.930   121814263.643                    94744444.774    22787882.410  
  22787875.238  
  22160479.578   118377310.450                    92071265.535    22160482.109  
  22160479.133  
  23581522.422   126277979.045                    98216197.682    23581525.840  
  23581521.789  
  22135916.977   116325032.225    22135923.453    90642911.3164                 
                
  20602315.922   108265903.039    20602322.574    84363071.0024   20602322.758  
                
  22749172.367   119547703.552    22749179.809    93154093.5184   22749179.969  
                
  19541794.719   104425415.593                    81219763.791    19541799.012  
  19541795.027  
  21993177.930   115574933.499    21993185.633    90058428.7634   21993185.652  
                
  22470568.797   118083625.009    22470576.195    92013244.2334   22470576.410  
                
  21570129.695   114980910.383                    89429589.375    21570134.402  
  21570129.387  
  22978203.602   120751263.775    22978210.270    94091913.1104   22978210.602  
                
  23916446.648   125681757.389    23916451.918    97933855.1684                 
                
  21306500.539   113935427.306                    88616443.462    21306505.223  
  21306499.723  
  21780705.367   116266876.974                    90429793.520    21780709.621  
  21780703.770  
  19392335.492   103772298.282                    80711783.717    19392339.113  
  19392333.629  
  20528003.203   107875373.847    20528012.973    84058773.4484   20528013.391  
                
 21  8 14  4 39 40.0000000  0 17G26R 1R16R 8G20G29G18R15G 5G12R14G31
                                G 2R24R18R17G25
  24252108.805   127445680.578    24252119.723    99308374.7664   24252119.484  
                
  22784563.602   121796557.418                    94730673.288    22784570.152  
  22784562.875  
  22154151.047   118343504.616                    92044972.093    22154153.539  
  22154150.613  
  23583237.883   126287165.314                    98223342.513    23583241.348  
  23583237.227  
  22136717.188   116329237.331    22136723.680    90646188.0234                 
                
  20600966.484   108258811.719    20600973.141    84357545.3034   20600973.328  
                
  22743120.062   119515898.462    22743127.500    93129310.3334   22743127.641  
                
  19542854.516   104431078.780                    81224168.485    19542858.801  
  19542854.844  
  21989410.195   115555133.960    21989417.887    90043000.5534   21989417.898  
                
  22476680.031   118115739.657    22476687.395    92038268.6254   22476687.633  
                
  21577696.320   115021245.172                    89460960.848    21577701.086  
  21577695.992  
  22979049.969   120755711.426    22979056.637    94095378.8044   22979056.984  
                
  23921976.523   125710817.070    23921981.824    97956499.0624                 
                
  21311977.211   113964713.510                    88639221.614    21311981.918  
  21311976.402  
  21775611.258   116239684.444                    90408643.768    21775615.555  
  21775609.621  
  19392306.250   103772141.812                    80711662.019    19392309.887  
  19392304.379  
  20531265.164   107892515.548    20531274.953    84072130.6104   20531275.371  
                
 21  8 14  4 39 50.0000000  0 17G26R 1R16R 8G20G29G18R15G 5G12R14G31
                                G 2R24R18R17G25
  24245708.492   127412047.079    24245719.441    99282166.8804   24245719.211  
                
  22781264.531   121778922.110                    94716956.940    22781271.145  
  22781263.734  
  22147832.109   118309750.196                    92018718.656    22147834.641  
  22147831.715  
  23584968.391   126296432.090                    98230550.013    23584971.910  
  23584967.719  
  22137529.562   116333506.398    22137536.062    90649514.5704                 
                
  20599623.234   108251752.858    20599629.895    84352044.8894   20599630.070  
                
  22737073.102   119484121.654    22737080.594    93104549.1944   22737080.723  
                
  19543931.328   104436832.825                    81228643.847    19543935.602  
  19543931.672  
  21985653.070   115535390.131    21985660.750    90027615.7674   21985660.770  
                
  22482797.227   118147885.653    22482804.570    92063317.4304   22482804.797  
                
  21585270.430   115061619.535                    89492363.101    21585275.227  
  21585270.082  
  22979908.117   120760221.069    22979914.816    94098892.8104   22979915.176  
                
  23927508.297   125739886.642    23927513.633    97979150.6664                 
                
  21317456.992   113994016.356                    88662012.697    21317461.711  
  21317456.180  
  21770523.367   116212525.061                    90387519.824    21770527.715  
  21770521.730  
  19392285.914   103772032.984                    80711577.362    19392289.543  
  19392284.047  
  20534537.594   107909712.222    20534547.402    84085530.6134   20534547.816  
                
 21  8 14  4 40  0.0000000  0 17G26R 1R16R 8G20G29G18R15G 5G12R14G31
                                G 2R24R18R17G25
  24239311.273   127378429.562    24239322.176    99255971.4224   24239321.980  
                
  22777978.742   121761357.855                    94703295.839    22777985.418  
  22777977.891  
  22141522.805   118276047.067                    91992505.109    22141525.336  
  22141522.402  
  23586713.945   126305779.412                    98237820.170    23586717.480  
  23586713.258  
  22138354.094   116337839.307    22138360.586    90652890.8574                 
                
  20598286.148   108244726.428    20598292.809    84346569.7484   20598292.984  
                
  22731031.508   119452373.106    22731039.113    93079810.0984   22731039.203  
                
  19545025.141   104442677.735                    81233189.893    19545029.426  
  19545025.508  
  21981906.547   115515702.028    21981914.238    90012274.4084   21981914.254  
                
  22488920.375   118180062.848    22488927.711    92088390.5614   22488927.906  
                
  21592851.945   115102033.186                    89523795.932    21592856.730  
  21592851.582  
  22980778.047   120764792.619    22980784.793    94102455.0404   22980785.156  
                
  23933041.922   125768965.965    23933047.312    98001809.8634                 
                
  21322939.883   114023335.782                    88684816.689    21322944.617  
  21322939.098  
  21765441.680   116185398.763                    90366421.609    21765446.035  
  21765440.051  
  19392274.438   103771971.559                    80711529.582    19392278.059  
  19392272.562  
  20537820.461   107926963.741    20537830.301    84098973.3484   20537830.699  
                
 21  8 14  4 40 10.0000000  0 17G26R 1R16R 8G20G29G18R15G 5G12R14G31
                                G 2R24R18R17G25
  24232917.109   127344827.977    24232927.918    99229788.3624   24232927.762  
                
  22774706.195   121743864.375                    94689689.783    22774712.922  
  22774705.324  
  22135223.102   118242395.262                    91966331.494    22135225.660  
  22135222.684  
  23588474.531   126315207.193                    98245152.862    23588478.051  
  23588473.836  
  22139190.758   116342235.985    22139197.254    90656316.8274                 
                
  20596955.195   108237732.226    20596961.855    84341119.7144   20596962.035  
                
  22724995.273   119420652.747    22725003.000    93055092.9554   22725003.051  
                
  19546135.906   104448613.349                    81237806.476    19546140.195  
  19546136.270  
  21978170.625   115496069.622    21978178.332    89996976.4344   21978178.328  
                
  22495049.430   118212271.108    22495056.777    92113487.8944   22495056.949  
                
  21600440.805   115142485.796                    89555259.065    21600445.570  
  21600440.414  
  22981659.680   120769425.684    22981666.465    94106065.2034   22981666.832  
                
  23938577.367   125798054.776    23938582.766    98024476.4584                 
                
  21328425.852   114052671.653                    88707633.468    21328430.594  
  21328425.070  
  21760366.180   116158305.491                    90345349.085    21760370.523  
  21760364.559  
  19392271.812   103771957.525                    80711518.665    19392275.449  
  19392269.934  
  20541113.727   107944269.962    20541123.594    84112458.7124   20541123.988  
                
 21  8 14  4 40 20.0000000  0 17G26R 1R16R 8G20G29G18R15G 5G12R14G31
                                G 2R24R18R17G25
  24226525.977   127311242.355    24226536.688    99203617.7554   24226536.566  
                
  22771446.914   121726441.697                    94676138.814    22771453.664  
  22771446.062  
  22128933.055   118208794.921                    91940197.916    22128935.613  
  22128932.594  
  23590250.070   126324715.123                    98252547.919    23590253.602  
  23590249.418  
  22140039.547   116346696.394    22140046.055    90659792.4784                 
                
  20595630.383   108230770.283    20595637.059    84335694.8214   20595637.219  
                
  22718964.430   119388960.634    22718972.246    93030397.8204   22718972.270  
                
  19547263.625   104454639.531                    81242493.498    19547267.941  
  19547263.980  
  21974445.328   115476493.049    21974453.039    89981721.9684   21974453.023  
                
  22501184.383   118244510.387    22501191.750    92138609.3924   22501191.902  
                
  21608036.953   115182977.235                    89586752.390    21608041.707  
  21608036.562  
  22982553.062   120774120.458    22982559.875    94109723.4574   22982560.246  
                
  23944114.602   125827153.092    23944119.973    98047150.4564                 
                
  21333914.852   114082023.773                    88730462.893    21333919.609  
  21333914.074  
  21755296.859   116131245.132                    90324302.126    21755301.184  
  21755295.203  
  19392278.000   103771990.641                    80711544.428    19392281.633  
  19392276.125  
  20544417.391   107961630.811    20544427.285    84125986.6394   20544427.672  
                
 21  8 14  4 40 30.0000000  0 17G26R 1R16R 8G20G29G18R15G 5G12R14G31
                                G 2R24R18R17G25
  24220138.000   127277673.097    24220148.613    99177459.8984   24220148.551  
                
  22768201.008   121709090.530                    94662643.481    22768207.840  
  22768200.180  
  22122652.742   118175246.697                    91914104.862    22122655.285  
  22122652.258  
  23592040.711   126334303.803                    98260005.765    23592044.230  
  23592040.090  
  22140900.500   116351220.730    22140907.012    90663317.9334                 
                
  20594311.750   108223840.863    20594318.434    84330295.2704   20594318.594  
                
  22712939.055   119357297.108    22712946.934    93005724.9524   22712946.941  
                
  19548408.383   104460756.710                    81247251.290    19548412.707  
  19548408.730  
  21970730.742   115456972.763    21970738.449    89966511.3644   21970738.430  
                
  22507325.273   118276780.846    22507332.656    92163755.1924   22507332.789  
                
  21615640.484   115223507.752                    89618276.104    21615645.188  
  21615640.066  
  22983458.242   120778877.176    22983465.105    94113429.9914   22983465.484  
                
  23949653.688   125856261.128    23949659.066    98069832.0354                 
                
  21339406.938   114111392.394                    88753305.153    21339411.699  
  21339406.176  
  21750233.797   116104218.176                    90303281.167    21750238.113  
  21750232.105  
  19392293.062   103772071.245                    80711607.112    19392296.684  
  19392291.199  
  20547731.508   107979046.553    20547741.422    84139557.3384   20547741.793  
                
 21  8 14  4 40 40.0000000  0 17G26R 1R16R 8G20G29G18R15G 5G12R14G31
                                G 2R24R18R17G25
  24213753.023   127244119.848    24213763.578    99151314.5094   24213763.562  
                
  22764968.398   121691810.509                    94649203.508    22764975.262  
  22764967.578  
  22116382.094   118141750.067                    91888051.932    22116384.609  
  22116381.648  
  23593846.281   126343972.517                    98267525.905    23593849.824  
  23593845.660  
  22141773.531   116355808.566    22141780.031    90666892.8714                 
                
  20592999.234   108216943.538    20593005.938    84324920.7344   20593006.074  
                
  22706919.062   119325661.797    22706926.992    92981074.0744   22706926.973  
                
  19549570.062   104466964.355                    81252079.457    19549574.398  
  19549570.414  
  21967026.805   115437508.403    21967034.461    89951344.3424   21967034.473  
                
  22513472.008   118309082.035    22513479.406    92188924.9354   22513479.547  
                
  21623251.234   115264076.652                    89649829.674    21623255.895  
  21623250.758  
  22984375.102   120783695.265    22984382.031    94117184.3574   22984382.375  
                
  23955194.516   125885378.370    23955199.898    98092520.7784                 
                
  21344902.023   114140777.080                    88776159.883    21344906.785  
  21344901.203  
  21745176.898   116077224.135                    90282285.815    21745181.215  
  21745175.211  
  19392316.906   103772198.819                    80711706.349    19392320.531  
  19392315.039  
  20551055.977   107996516.753    20551065.910    84153170.4724   20551066.270  
                
 21  8 14  4 40 50.0000000  0 17G26R 1R16R 8G20G29G18R15G 5G12R14G31
                                G 2R24R18R17G25
  24207371.133   127210583.031    24207381.660    99125181.9484   24207381.707  
                
  22761749.234   121674602.188                    94635819.271    22761756.078  
  22761748.422  
  22110121.219   118108305.526                    91862039.517    22110123.676  
  22110120.809  
  23595666.820   126353721.448                    98275108.420    23595670.398  
  23595666.203  
  22142658.727   116360460.321    22142665.211    90670517.6134                 
                
  20591692.883   108210078.626    20591699.602    84319571.4494   20591699.734  
                
  22700904.516   119294055.114    22700912.469    92956445.4974   22700912.441  
                
  19550748.727   104473262.704                    81256978.166    19550753.070  
  19550749.098  
  21963333.578   115418100.379    21963341.203    89936221.2144   21963341.230  
                
  22519624.633   118341414.206    22519632.039    92214118.8194   22519632.188  
                
  21630869.188   115304684.269                    89681413.355    21630873.832  
  21630868.688  
  22985303.750   120788575.316    22985310.738    94120986.9834   22985311.062  
                
  23960737.180   125914505.218    23960742.559    98115217.0094                 
                
  21350400.133   114170177.933                    88799027.229    21350404.922  
  21350399.273  
  21740126.211   116050263.281                    90261316.253    21740130.516  
  21740124.586  
  19392349.570   103772373.639                    80711842.302    19392353.195  
  19392347.707  
  20554390.859   108014041.660    20554400.801    84166826.2434   20554401.164  
                
 21  8 14  4 41  0.0000000  0 17G26R 1R16R 8G20G29G18R15G 5G12R14G31
                                G 2R24R18R17G25
  24200992.320   127177062.426    24201002.836    99099062.0044   24201002.910  
                
  22758543.336   121657465.012                    94622490.374    22758550.199  
  22758542.562  
  22103870.102   118074913.072                    91836067.601    22103872.480  
  22103869.695  
  23597502.336   126363550.548                    98282753.244    23597505.895  
  23597501.699  
  22143556.039   116365175.724    22143562.523    90674191.9464                 
                
  20590392.648   108203245.875    20590399.375    84314247.2294   20590399.504  
                
  22694895.391   119262476.825    22694903.336    92931839.0384   22694903.297  
                
  19551944.336   104479651.620                    81261947.329    19551948.680  
  19551944.730  
  21959651.023   115398748.420    21959658.660    89921141.7744   21959658.691  
                
  22525783.086   118373777.004    22525790.480    92239336.5774   22525790.617  
                
  21638494.289   115345330.101                    89713026.779    21638498.910  
  21638493.781  
  22986244.109   120793516.851    22986251.156    94124837.5214   22986251.469  
                
  23966281.578   125943641.216    23966286.961    98137920.3594                 
                
  21355901.195   114199594.663                    88821906.895    21355906.012  
  21355900.285  
  21735081.742   116023335.473                    90240372.395    21735086.016  
  21735080.148  
  19392391.039   103772595.537                    80712014.881    19392394.652  
  19392389.199  
  20557736.109   108031621.014    20557746.047    84180524.4314   20557746.395  
                
 21  8 14  4 41 10.0000000  0 17G26R 1R16R 8G20G29G18R15G 5G12R14G31
                                G 2R24R18R17G25
  24194616.695   127143558.467    24194627.180    99072955.0284   24194627.266  
                
  22755350.906   121640399.646                    94609217.306    22755357.766  
  22755350.090  
  22097628.828   118041573.250                    91810136.632    22097631.184  
  22097628.410  
  23599352.859   126373460.059                    98290460.630    23599356.406  
  23599352.164  
  22144465.492   116369954.992    22144471.984    90677916.0454                 
                
  20589098.609   108196445.671    20589105.332    84308948.3624   20589105.457  
                
  22688891.734   119230927.287    22688899.668    92907254.9844   22688899.641  
                
  19553156.922   104486131.284                    81266987.069    19553161.293  
  19553157.309  
  21955979.227   115379452.998    21955986.863    89906106.3914   21955986.887  
                
  22531947.445   118406170.804    22531954.824    92264578.4804   22531954.953  
                
  21646126.508   115386014.329                    89744670.049    21646131.172  
  21646126.004  
  22987196.203   120798520.102    22987203.305    94128736.1544   22987203.586  
                
  23971827.766   125972786.601    23971833.152    98160631.0534                 
                
  21361405.297   114229027.599                    88844799.163    21361410.129  
  21361404.367  
  21730043.500   115996441.004                    90219454.488    21730047.789  
  21730041.906  
  19392441.312   103772864.565                    80712224.123    19392444.918  
  19392439.492  
  20561091.750   108049255.025    20561101.660    84194265.2104   20561102.027  
                
 21  8 14  4 41 20.0000000  0 17G26R 1R16R 8G20G29G18R15G 5G12R14G31
                                G 2R24R18R17G25
  24188244.281   127110071.150    24188254.711    99046861.0454   24188254.836  
                
  22752171.898   121623406.153                    94596000.145    22752178.762  
  22752171.066  
  22091397.367   118008285.931                    91784246.514    22091399.719  
  22091396.930  
  23601218.336   126383449.655                    98298230.325    23601221.871  
  23601217.637  
  22145387.078   116374798.003    22145393.570    90681689.8204                 
                
  20587810.750   108189677.924    20587817.477    84303674.7954   20587817.605  
                
  22682893.539   119199406.447    22682901.441    92882693.2914   22682901.418  
                
  19554386.453   104492701.530                    81272097.251    19554390.848  
  19554386.828  
  21952318.195   115360214.155    21952325.797    89891115.0924   21952325.824  
                
  22538117.625   118438595.212    22538125.000    92289844.2384   22538125.117  
                
  21653765.812   115426736.605                    89776342.927    21653770.594  
  21653765.367  
  22988160.016   120803584.935    22988167.184    94132682.7794   22988167.441  
                
  23977375.695   126001941.198    23977381.043    98183348.9124                 
                
  21366912.391   114258476.429                    88867703.791    21366917.211  
  21366911.438  
  21725011.469   115969579.706                    90198562.365    21725015.770  
  21725009.875  
  19392500.391   103773180.693                    80712470.014    19392503.992  
  19392498.578  
  20564457.781   108066943.614    20564467.660    84208048.5264   20564468.043  
                
 21  8 14  4 41 30.0000000  0 17G26R 1R16R 8G20G29G18R15G 5G12R14G31
                                G 2R24R18R17G25
  24181875.039   127076600.421    24181885.418    99020779.9414   24181885.535  
                
  22749006.344   121606484.433                    94582838.809    22749013.184  
  22749005.527  
  22085175.719   117975050.982                    91758397.105    22085178.062  
  22085175.258  
  23603098.781   126393519.365                    98306062.311    23603102.309  
  23603098.055  
  22146320.781   116379704.653    22146327.254    90685513.1784                 
                
  20586529.055   108182942.571    20586535.777    84298426.4654   20586535.902  
                
  22676900.781   119167914.267    22676908.613    92858153.9274   22676908.613  
                
  19555632.953   104499362.385                    81277277.915    19555637.359  
  19555633.305  
  21948667.930   115341031.837    21948675.492    89876167.8314   21948675.543  
                
  22544293.609   118471050.140    22544300.988    92315133.7804   22544301.113  
                
  21661412.328   115467496.846                    89808045.332    21661417.098  
  21661411.887  
  22989135.516   120808711.215    22989142.738    94136677.2644   22989142.957  
                
  23982925.367   126031104.894    23982930.672    98206073.8474                 
                
  21372422.438   114287941.112                    88890620.750    21372427.246  
  21372421.449  
  21719985.656   115942751.628                    90177696.080    21719989.953  
  21719984.059  
  19392568.242   103773543.775                    80712752.406    19392571.840  
  19392566.426  
  20567834.172   108084686.604    20567844.000    84221874.2284   20567844.414  
                
 21  8 14  4 41 40.0000000  0 17G26R 1R16R 8G20G29G18R15G 5G12R14G31
                                G 2R24R18R17G25
  24175508.961   127043146.390    24175519.332    98994711.8594   24175519.445  
                
  22745854.273   121589634.765                    94569733.495    22745861.129  
  22745853.480  
  22078963.961   117941868.943                    91732588.853    22078966.312  
  22078963.484  
  23604994.172   126403669.037                    98313956.480    23604997.668  
  23604993.445  
  22147266.578   116384674.916    22147273.039    90689386.1124                 
                
  20585253.508   108176239.547    20585260.230    84293203.3314   20585260.344  
                
  22670913.500   119136450.831    22670921.242    92833636.9654   22670921.266  
                
  19556896.383   104506113.780                    81282528.991    19556900.824  
  19556896.723  
  21945028.445   115321906.232    21945036.012    89861264.7694   21945036.059  
                
  22550475.398   118503535.563    22550482.777    92340447.0804   22550482.895  
                
  21669065.875   115508294.871                    89839777.117    21669070.672  
  21669065.496  
  22990122.703   120813898.896    22990129.945    94140719.6014   22990130.137  
                
  23988476.766   126060277.674    23988482.074    98228805.8694                 
                
  21377935.422   114317421.520                    88913549.959    21377940.246  
  21377934.426  
  21714966.047   115915956.607                    90156855.512    21714970.344  
  21714964.426  
  19392644.852   103773953.697                    80713071.224    19392648.449  
  19392643.031  
  20571220.906   108102483.987    20571230.691    84235742.3124   20571231.137  
                
 21  8 14  4 41 50.0000000  0 17G26R 1R16R 8G20G29G18R15G 5G12R14G31
                                G 2R24R18R17G25
  24169146.086   127009709.273    24169156.453    98968656.9664   24169156.559  
                
  22742715.688   121572857.237                    94556684.349    22742722.629  
  22742714.895  
  22072762.086   117908739.766                    91706821.730    22072764.445  
  22072761.645  
  23606904.523   126413898.833                    98321912.983    23606908.016  
  23606903.824  
  22148224.531   116389708.991    22148230.980    90693308.7634                 
                
  20583984.164   108169569.073    20583990.902    84288005.5574   20583991.008  
                
  22664931.703   119105016.304    22664939.359    92809142.5254   22664939.418  
                
  19558176.781   104512955.821                    81287850.564    19558181.250  
  19558177.125  
  21941399.773   115302837.411    21941407.363    89846405.9704   21941407.395  
                
  22556663.008   118536051.601    22556670.371    92365784.2404   22556670.480  
                
  21676726.562   115549130.695                    89871538.292    21676731.359  
  21676726.203  
  22991121.594   120819148.060    22991128.816    94144809.8564   22991129.020  
                
  23994029.891   126089459.585    23994035.250    98251544.9974                 
                
  21383451.336   114346917.654                    88936491.372    21383456.184  
  21383450.348  
  21709952.656   115889194.887                    90136040.864    21709956.980  
  21709951.031  
  19392730.250   103774410.668                    80713426.649    19392733.844  
  19392728.438  
  20574618.016   108120335.857    20574627.766    84249652.8554   20574628.227  
                
 21  8 14  4 42  0.0000000  0 17G26R 1R16R 8G20G29G18R15G 5G12R14G31
                                G 2R24R18R17G25
  24162786.359   126976288.914    24162796.770    98942615.1604   24162796.867  
                
  22739590.594   121556151.799                    94543691.258    22739597.598  
  22739589.734  
  22066570.141   117875663.614                    91681095.840    22066572.539  
  22066569.695  
  23608829.797   126424208.484                    98329931.588    23608833.289  
  23608829.156  
  22149194.578   116394806.652    22149201.012    90697280.9674                 
                
  20582720.953   108162930.860    20582727.703    84282832.9224   20582727.797  
                
  22658955.367   119073610.563    22658962.980    92784670.5134   22658963.055  
                
  19559474.117   104519888.367                    81293242.540    19559478.605  
  19559474.449  
  21937781.945   115283825.616    21937789.512    89831591.5954   21937789.559  
                
  22562856.383   118568597.983    22562863.707    92391145.0464   22562863.844  
                
  21684394.219   115590003.866                    89903328.521    21684399.102  
  21684393.895  
  22992132.141   120824458.517    22992139.316    94148947.8734   22992139.543  
                
  23999584.695   126118650.300    23999590.082    98274290.9934                 
                
  21388970.211   114376429.550                    88959445.065    21388975.074  
  21388969.258  
  21704945.500   115862466.439                    90115252.072    21704949.828  
  21704943.848  
  19392824.352   103774914.244                    80713818.316    19392827.941  
  19392822.555  
  20578025.430   108138241.953    20578035.152    84263605.6484   20578035.617  
                
 21  8 14  4 42 10.0000000  0 17G26R 1R16R 8G20G29G18R15G 5G12R14G31
                                G 2R24R18R17G25
  24156429.945   126942885.744    24156440.371    98916586.7284   24156440.477  
                
  22736479.031   121539518.864                    94530754.567    22736486.090  
  22736478.176  
  22060388.203   117842640.869                    91655411.494    22060390.652  
  22060387.781  
  23610770.031   126434598.221                    98338012.495    23610773.516  
  23610769.410  
  22150176.773   116399968.124    22150183.199    90701302.8884                 
                
  20581463.945   108156325.202    20581470.711    84277685.6504   20581470.781  
                
  22652984.578   119042233.949    22652992.191    92760221.2134   22652992.254  
                
  19560788.445   104526911.680                    81298705.107    19560792.949  
  19560788.766  
  21934174.992   115264870.912    21934182.520    89816821.6984   21934182.598  
                
  22569055.570   118601174.894    22569062.887    92416529.6324   22569063.031  
                
  21692068.938   115630914.717                    89935148.059    21692073.891  
  21692068.680  
  22993154.406   120829830.516    22993161.574    94153133.8434   22993161.805  
                
  24005141.242   126147850.165    24005146.613    98297044.1104                 
                
  21394491.992   114405956.916                    88982410.782    21394496.852  
  21394491.035  
  21699944.625   115835771.498                    90094489.356    21699948.973  
  21699942.965  
  19392927.273   103775464.927                    80714246.626    19392930.859  
  19392925.484  
  20581443.242   108156202.588    20581452.938    84277600.9404   20581453.406  
                
 21  8 14  4 42 20.0000000  0 17G26R 1R16R 8G20G29G18R15G 5G12R14G31
                                G 2R24R18R17G25
  24150076.719   126909499.445    24150087.207    98890571.4764   24150087.293  
                
  22733381.023   121522958.317                    94517874.140    22733388.051  
  22733380.172  
  22054216.219   117809671.213                    91629768.426    22054218.664  
  22054215.809  
  23612725.156   126445067.756                    98346155.459    23612728.645  
  23612724.578  
  22151171.039   116405193.094    22151177.480    90705374.2994                 
                
  20580213.086   108149751.901    20580219.871    84272563.5984   20580219.930  
                
  22647019.258   119010886.166    22647026.875    92735794.3784   22647026.945  
                
  19562119.641   104534025.198                    81304237.840    19562124.156  
  19562119.953  
  21930578.805   115245972.867    21930586.332    89802095.9524   21930586.414  
                
  22575260.484   118633781.959    22575267.844    92441937.7144   22575267.961  
                
  21699750.734   115671862.625                    89966996.423    21699755.633  
  21699750.426  
  22994188.305   120835263.707    22994195.492    94157367.4974   22994195.699  
                
  24010699.445   126177058.710    24010704.773    98319804.0054                 
                
  21400016.625   114435499.672                    89005388.485    21400021.504  
  21400015.676  
  21694949.914   115809109.496                    90073752.258    21694954.293  
  21694948.273  
  19393038.859   103776062.067                    80714711.069    19393042.441  
  19393037.074  
  20584871.336   108174217.324    20584881.008    84291638.3884   20584881.477  
                
 21  8 14  4 42 30.0000000  0 17G26R 1R16R 8G20G29G18R15G 5G12R14G31
                                G 2R24R18R17G25
  24143726.789   126876130.346    24143737.273    98864569.5624   24143737.352  
                
  22730296.609   121506470.253                    94505050.083    22730303.578  
  22730295.742  
  22048054.281   117776755.263                    91604167.136    22048056.742  
  22048053.859  
  23614695.172   126455617.080                    98354360.467    23614698.668  
  23614694.633  
  22152177.422   116410481.710    22152183.895    90709495.2954                 
                
  20578968.406   108143211.077    20578975.199    84267466.8464   20578975.254  
                
  22641059.484   118979567.460    22641067.113    92711390.2044   22641067.172  
                
  19563467.797   104541229.313                    81309841.039    19563472.324  
  19563468.094  
  21926993.477   115227131.870    21927001.047    89787414.6614   21927001.102  
                
  22581471.156   118666419.224    22581478.559    92467369.3294   22581478.633  
                
  21707439.531   115712847.648                    89998873.636    21707444.352  
  21707439.129  
  22995233.867   120840758.228    22995241.070    94161648.9404   22995241.266  
                
  24016259.320   126206276.046    24016264.664    98342570.7514                 
                
  21405544.180   114465058.045                    89028378.307    21405549.090  
  21405543.199  
  21689961.500   115782481.003                    90053041.198    21689965.883  
  21689959.875  
  19393159.203   103776706.051                    80715211.943    19393162.777  
  19393157.406  
  20588309.750   108192286.298    20588319.395    84305718.1024   20588319.871  
                
 21  8 14  4 42 40.0000000  0 17G26R 1R16R 8G20G29G18R15G 5G12R14G31
                                G 2R24R18R17G25
  24137380.172   126842778.563    24137390.648    98838581.1694   24137390.727  
                
  22727225.773   121490054.872                    94492282.563    22727232.707  
  22727224.965  
  22041902.375   117743892.904                    91578607.530    22041904.840  
  22041901.941  
  23616680.141   126466246.432                    98362627.769    23616683.680  
  23616679.617  
  22153195.922   116415833.963    22153202.414    90713665.8764                 
                
  20577729.922   108136702.802    20577736.711    84262395.4654   20577736.781  
                
  22635105.258   118948277.939    22635112.938    92687008.7724   22635112.988  
                
  19564832.891   104548523.960                    81315514.651    19564837.438  
  19564833.168  
  21923419.023   115208348.004    21923426.645    89772777.9034   21923426.684  
                
  22587687.578   118699086.712    22587694.973    92492824.5074   22587695.035  
                
  21715135.195   115753869.688                    90030779.654    21715140.000  
  21715134.762  
  22996291.094   120846314.013    22996298.285    94165978.1074   22996298.500  
                
  24021820.891   126235502.226    24021826.285    98365344.3844                 
                
  21411074.617   114494631.819                    89051380.121    21411079.543  
  21411073.621  
  21684979.305   115755885.740                    90032355.994    21684983.707  
  21684977.684  
  19393288.266   103777396.711                    80715749.123    19393291.848  
  19393286.473  
  20591758.492   108210409.558    20591768.109    84319840.1184   20591768.598  
                
 21  8 14  4 42 50.0000000  0 17G26R 1R16R 8G20G29G18R15G 5G12R14G31
                                G 2R24R18R17G25
  24131036.891   126809444.114    24131047.309    98812606.2594   24131047.355  
                
  22724168.570   121473712.330                    94479571.673    22724175.500  
  22724167.789  
  22035760.555   117711084.428                    91553089.835    22035763.031  
  22035760.121  
  23618679.945   126476955.248                    98370956.832    23618683.508  
  23618679.352  
  22154226.531   116421249.873    22154233.078    90717886.0684                 
                
  20576497.633   108130227.046    20576504.418    84257349.4254   20576504.496  
                
  22629156.602   118917017.587    22629164.324    92662650.0574   22629164.344  
                
  19566214.906   104555909.019                    81321258.584    19566219.477  
  19566215.180  
  21919855.484   115189621.479    21919863.102    89758185.8154   21919863.133  
                
  22593909.727   118731784.296    22593917.090    92518303.1444   22593917.180  
                
  21722837.742   115794928.591                    90062714.345    21722842.566  
  21722837.312  
  22997359.961   120851930.991    22997367.113    94170354.9614   22997367.355  
                
  24027384.117   126264737.122    24027389.523    98388124.8144                 
                
  21416607.938   114524220.990                    89074393.891    21416612.863  
  21416606.945  
  21680003.383   115729323.911                    90011696.826    21680007.812  
  21680001.766  
  19393426.031   103778133.929                    80716322.510    19393429.621  
  19393424.230  
  20595217.547   108228586.980    20595227.133    84334004.3404   20595227.629  
                
 21  8 14  4 43  0.0000000  0 17G26R 1R16R 8G20G29G18R15G 5G12R14G31
                                G 2R24R18R17G25
  24124696.883   126776127.030    24124707.289    98786644.9144   24124707.312  
                
  22721124.945   121457442.563                    94466917.458    22721131.871  
  22721124.180  
  22029628.828   117678329.835                    91527614.047    22029631.301  
  22029628.414  
  23620694.664   126487743.980                    98379348.060    23620698.215  
  23620694.027  
  22155269.234   116426729.347    22155275.844    90722155.7824                 
                
  20575271.523   108123783.790    20575278.301    84252328.7034   20575278.398  
                
  22623213.492   118885786.413    22623221.215    92638314.0914   22623221.234  
                
  19567613.852   104563384.557                    81327072.874    19567618.430  
  19567614.113  
  21916302.852   115170952.326    21916310.434    89743638.4144   21916310.480  
                
  22600137.594   118764511.890    22600144.949    92543805.1534   22600145.035  
                
  21730547.070   115836024.101                    90094677.489    21730551.969  
  21730546.672  
  22998440.461   120857609.094    22998447.574    94174779.4554   22998447.859  
                
  24032948.961   126293980.540    24032954.383    98410911.8674                 
                
  21422144.070   114553825.210                    89097419.391    21422148.996  
  21422143.078  
  21675033.688   115702795.342                    89991063.483    21675038.102  
  21675032.074  
  19393572.508   103778917.769                    80716932.156    19393576.102  
  19393570.719  
  20598686.883   108246818.478    20598696.438    84348210.7014   20598696.953  
                
 21  8 14  4 43 10.0000000  0 17G26R 1R16R 8G20G29G18R15G 5G12R14G31
                                G 2R24R18R17G25
  24118360.172   126742827.430    24118370.594    98760697.1644   24118370.590  
                
  22718095.000   121441245.821                    94454319.981    22718101.930  
  22718094.219  
  22023507.234   117645629.301                    91502180.318    22023509.680  
  22023506.797  
  23622724.250   126498612.335                    98387801.215    23622727.836  
  23622723.582  
  22156324.055   116432272.446    22156330.707    90726475.0774                 
                
  20574051.594   108117373.000    20574058.371    84247333.2804   20574058.480  
                
  22617276.000   118854584.551    22617283.684    92614000.9484   22617283.715  
                
  19569029.703   104570950.415                    81332957.431    19569034.305  
  19569029.973  
  21912761.156   115152340.656    21912768.695    89729135.8284   21912768.777  
                
  22606371.172   118797269.489    22606378.539    92569330.5294   22606378.609  
                
  21738263.219   115877156.274                    90126669.154    21738268.266  
  21738262.918  
  22999532.609   120863348.305    22999539.703    94179251.5604   22999540.016  
                
  24038515.438   126323232.572    24038520.895    98433705.6494                 
                
  21427683.062   114583444.680                    89120456.743    21427687.980  
  21427682.047  
  21670070.250   115676300.108                    89970456.084    21670074.672  
  21670068.660  
  19393727.672   103779748.037                    80717577.919    19393731.270  
  19393725.887  
  20602166.516   108265104.007    20602176.027    84362459.1604   20602176.562  
                
 21  8 14  4 43 20.0000000  0 17G26R 1R16R 8G20G29G18R15G 5G12R14G31
                                G 2R24R18R17G25
  24112026.781   126709545.438    24112037.230    98734763.1644   24112037.230  
                
  22715078.758   121425122.221                    94441779.417    22715085.691  
  22715077.973  
  22017395.766   117612983.007                    91476788.772    22017398.207  
  22017395.324  
  23624768.680   126509560.214                    98396316.225    23624772.281  
  23624767.984  
  22157391.000   116437879.275    22157397.688    90730844.0324                 
                
  20572837.852   108110994.765    20572844.633    84242363.2224   20572844.742  
                
  22611344.086   118823412.056    22611351.746    92589710.6844   22611351.785  
                
  19570462.477   104578606.708                    81338912.315    19570467.082  
  19570462.734  
  21909230.438   115133786.667    21909237.941    89714678.1884   21909238.047  
                
  22612610.445   118830057.057    22612617.809    92594879.2724   22612617.883  
                
  21745986.312   115918324.873                    90158689.154    21745991.379  
  21745986.016  
  23000636.344   120869148.504    23000643.441    94183771.1964   23000643.766  
                
  24044083.547   126352493.116    24044089.000    98456506.0474                 
                
  21433224.883   114613079.294                    89143505.876    21433229.793  
  21433223.875  
  21665113.070   115649838.336                    89949874.705    21665117.484  
  21665111.520  
  19393891.531   103780624.909                    80718259.933    19393895.133  
  19393889.727  
  20605656.438   108283443.677    20605665.914    84376749.8054   20605666.477  
                
 21  8 14  4 43 30.0000000  0 17G26R 1R16R 8G20G29G18R15G 5G12R14G31
                                G 2R24R18R17G25
  24105696.750   126676281.076    24105707.254    98708842.9104   24105707.234  
                
  22712076.172   121409071.818                    94429295.795    22712083.168  
  22712075.379  
  22011294.461   117580391.081                    91451439.490    22011296.922  
  22011294.062  
  23626828.016   126520587.906                    98404893.290    23626831.605  
  23626827.355  
  22158470.016   116443549.551    22158476.730    90735262.4334                 
                
  20571630.297   108104649.013    20571637.098    84237418.4764   20571637.203  
                
  22605417.727   118792268.913    22605425.414    92565443.3084   22605425.453  
                
  19571912.156   104586353.355                    81344937.475    19571916.781  
  19571912.391  
  21905710.703   115115290.428    21905718.195    89700265.5434   21905718.309  
                
  22618855.430   118862874.633    22618862.770    92620451.3994   22618862.852  
                
  21753716.336   115959529.803                    90190737.432    21753721.363  
  21753716.004  
  23001751.688   120875009.677    23001758.789    94188338.3324   23001759.137  
                
  24049653.250   126381762.031    24049658.664    98479312.9964                 
                
  21438769.531   114642728.990                    89166566.745    21438774.422  
  21438768.547  
  21660162.133   115623409.943                    89929319.294    21660166.559  
  21660160.562  
  19394064.055   103781548.152                    80718978.015    19394067.664  
  19394062.227  
  20609156.641   108301837.364    20609166.098    84391082.5464   20609166.680  
                
 21  8 14  4 43 40.0000000  0 17G26R 1R16R 8G20G29G18R15G 5G12R14G31
                                G 2R24R18R17G25
  24099370.148   126643034.485    24099380.684    98682936.4714   24099380.637  
                
  22709087.320   121393094.789                    94416869.234    22709094.363  
  22709086.570  
  22005203.375   117547853.505                    91426132.494    22005205.793  
  22005202.988  
  23628902.195   126531695.013                    98413532.155    23628905.809  
  23628901.582  
  22159561.117   116449283.324    22159567.859    90739730.3064                 
                
  20570428.922   108098335.744    20570435.750    84232499.0504   20570435.844  
                
  22599496.984   118761155.190    22599504.703    92541198.8684   22599504.727  
                
  19573378.734   104594190.305                    81351032.884    19573383.363  
  19573378.941  
  21902201.961   115096851.874    21902209.422    89685897.8444   21902209.555  
                
  22625106.086   118895721.966    22625113.410    92646046.7164   22625113.484  
                
  21761453.094   116000770.705                    90222813.674    21761458.102  
  21761452.746  
  23002878.656   120880931.902    23002885.766    94192953.0384   23002886.137  
                
  24055224.578   126411039.429    24055229.953    98502126.5444                 
                
  21444316.938   114672393.412                    89189639.058    21444321.824  
  21444315.988  
  21655217.445   115597014.974                    89908789.896    21655221.887  
  21655215.875  
  19394245.273   103782517.879                    80719732.239    19394248.898  
  19394243.434  
  20612667.109   108320284.981    20612676.559    84405457.3044   20612677.129  
                
 21  8 14  4 43 50.0000000  0 17G26R 1R16R 8G20G29G18R15G 5G12R14G31
                                G 2R24R18R17G25
  24093046.914   126609805.487    24093057.488    98657043.7494   24093057.422  
                
  22706112.172   121377190.874                    94404499.535    22706119.184  
  22706111.465  
  21999122.492   117515370.400                    91400867.853    21999124.867  
  21999122.098  
  23630991.188   126542881.431                    98422232.664    23630994.781  
  23630990.531  
  22160664.258   116455080.363    22160671.023    90744247.4864                 
                
  20569233.703   108092054.809    20569240.559    84227604.8124   20569240.641  
                
  22593581.820   118730070.762    22593589.547    92516977.2354   22593589.570  
                
  19574862.164   104602117.325                    81357198.341    19574866.793  
  19574862.352  
  21898704.180   115078470.956    21898711.633    89671575.0504   21898711.770  
                
  22631362.336   118928598.706    22631369.660    92671664.9414   22631369.723  
                
  21769196.508   116042047.294                    90254917.669    21769201.531  
  21769196.156  
  23004017.195   120886914.937    23004024.309    94197615.1354   23004024.684  
                
  24060797.430   126440324.880    24060802.844    98524946.3624                 
                
  21449867.133   114702072.788                    89212723.003    21449872.004  
  21449866.191  
  21650279.016   115570653.350                    89888286.424    21650283.445  
  21650277.453  
  19394435.086   103783533.581                    80720522.222    19394438.707  
  19394433.246  
  20616187.797   108338786.324    20616197.234    84419873.9374   20616197.809  
                
 21  8 14  4 44  0.0000000  0 17G26R 1R16R 8G20G29G18R15G 5G12R14G31
                                G 2R24R18R17G25
  24086727.117   126576594.498    24086737.715    98631165.0634   24086737.641  
                
  22703150.828   121361360.649                    94392187.164    22703157.797  
  22703150.156  
  21993051.883   117482942.278                    91375646.000    21993054.277  
  21993051.492  
  23633095.016   126554147.264                    98430994.988    23633098.629  
  23633094.414  
  22161779.500   116460941.009    22161786.266    90748814.2234                 
                
  20568044.695   108085806.535    20568051.566    84222736.0284   20568051.641  
                
  22587672.289   118699015.988    22587680.020    92492778.7114   22587680.031  
                
  19576362.523   104610134.754                    81363434.105    19576367.152  
  19576362.703  
  21895217.430   115060148.024    21895224.930    89657297.4624   21895225.043  
                
  22637624.227   118961505.139    22637631.547    92697306.3074   22637631.609  
                
  21776946.648   116083359.911                    90287049.674    21776951.711  
  21776946.309  
  23005167.367   120892959.051    23005174.480    94202324.8414   23005174.867  
                
  24066371.852   126469618.653    24066377.320    98547772.6484                 
                
  21455420.094   114731766.924                    89235818.442    21455424.945  
  21455419.172  
  21645346.844   115544325.126                    89867808.918    21645351.266  
  21645345.266  
  19394633.578   103784595.746                    80721348.354    19394637.195  
  19394631.734  
  20619718.758   108357341.637    20619728.195    84434332.6124   20619728.770  
                
 21  8 14  4 44 10.0000000  0 17G26R 1R16R 8G20G29G18R15G 5G12R14G31
                                G 2R24R18R17G25
  24080410.711   126543401.403    24080421.371    98605300.3324   24080421.266  
                
  22700203.219   121345603.951                    94379931.957    22700210.098  
  22700202.574  
  21986991.508   117450568.875                    91350466.696    21986993.926  
  21986991.129  
  23635213.625   126565492.290                    98439818.874    23635217.223  
  23635213.027  
  22162906.812   116466865.051    22162913.562    90753430.3534                 
                
  20566861.867   108079590.700    20566868.750    84217892.5154   20566868.805  
                
  22581768.375   118667990.717    22581776.066    92468603.1784   22581776.078  
                
  19577879.734   104618242.318                    81369739.986    19577884.359  
  19577879.926  
  21891741.703   115041882.994    21891749.242    89643064.9754   21891749.305  
                
  22643891.734   118994441.066    22643899.004    92722970.6574   22643899.109  
                
  21784703.422   116124708.048                    90319209.312    21784708.539  
  21784703.113  
  23006329.102   120899063.939    23006336.230    94207081.8934   23006336.629  
                
  24071947.820   126498920.558    24071953.309    98570605.2574                 
                
  21460975.805   114761475.772                    89258925.312    21460980.648  
  21460974.879  
  21640420.945   115518030.363                    89847357.433    21640425.344  
  21640419.375  
  19394840.664   103785703.882                    80722210.238    19394844.281  
  19394838.820  
  20623259.945   108375950.667    20623269.371    84448833.1544   20623269.953  
                
 21  8 14  4 44 20.0000000  0 17G26R 1R16R 8G20G29G18R15G 5G12R14G31
                                G 2R24R18R17G25
  24074097.703   126510226.386    24074108.434    98579449.6764   24074108.293  
                
  22697269.414   121329921.044                    94367734.146    22697276.262  
  22697268.781  
  21980941.469   117418250.767                    91325330.395    21980943.902  
  21980941.102  
  23637347.086   126576916.744                    98448704.566    23637350.684  
  23637346.523  
  22164046.188   116472852.534    22164052.945    90758095.9244                 
                
  20565685.227   108073407.454    20565692.117    84213074.3994   20565692.172  
                
  22575870.102   118636995.112    22575877.762    92444450.7614   22575877.781  
                
  19579413.852   104626440.127                    81376116.055    19579418.457  
  19579414.051  
  21888277.031   115023676.040    21888284.574    89628877.7504   21888284.613  
                
  22650164.867   119027406.604    22650172.094    92748658.0804   22650172.238  
                
  21792466.906   116166091.796                    90351396.657    21792472.051  
  21792466.605  
  23007502.422   120905229.652    23007509.543    94211886.3284   23007509.934  
                
  24077525.352   126528230.672    24077530.824    98593444.3014                 
                
  21466534.273   114791199.329                    89282043.625    21466539.094  
  21466533.387  
  21635501.297   115491768.982                    89826931.918    21635505.668  
  21635499.758  
  19395056.406   103786858.340                    80723108.153    19395060.023  
  19395054.574  
  20626811.367   108394613.525    20626820.785    84463375.6364   20626821.371  
                
 21  8 14  4 44 30.0000000  0 17G26R 1R16R 8G20G29G18R15G 5G12R14G31
                                G 2R24R18R17G25
  24067788.133   126477069.597    24067798.941    98553613.2424   24067798.773  
                
  22694349.414   121314311.985                    94355593.778    22694356.238  
  22694348.766  
  21974901.789   117385987.975                    91300237.100    21974904.203  
  21974901.449  
  23639495.391   126588420.749                    98457652.095    23639499.008  
  23639494.859  
  22165197.664   116478903.533    22165204.430    90762810.9834                 
                
  20564514.812   108067256.866    20564521.711    84208281.7304   20564521.770  
                
  22569977.500   118606029.288    22569985.145    92420321.5464   22569985.180  
                
  19580964.859   104634728.257                    81382562.374    19580969.449  
  19580965.059  
  21884823.453   115005527.379    21884830.980    89614735.9324   21884831.020  
                
  22656443.617   119060401.652    22656450.840    92774368.4994   22656450.996  
                
  21800237.016   116207510.997                    90383611.570    21800242.207  
  21800236.758  
  23008687.312   120911456.218    23008694.414    94216738.1974   23008694.820  
                
  24083104.445   126557548.984    24083109.891    98616289.7354                 
                
  21472095.477   114820937.573                    89305173.363    21472100.305  
  21472094.617  
  21630587.922   115465541.013                    89806532.390    21630592.285  
  21630586.426  
  19395280.781   103788059.025                    80724042.014    19395284.395  
  19395278.941  
  20630373.039   108413330.199    20630382.457    84477960.0564   20630383.047  
                
 21  8 14  4 44 40.0000000  0 17G26R 1R16R 8G20G29G18R15G 5G12R14G31
                                G 2R24R18R17G25
  24061482.031   126443930.908    24061492.867    98527790.8914   24061492.695  
                
  22691443.211   121298776.704                    94343510.787    22691450.016  
  22691442.555  
  21968872.453   117353780.426                    91275186.789    21968874.871  
  21968872.109  
  23641658.430   126600003.700                    98466661.058    23641662.051  
  23641657.930  
  22166361.164   116485017.783    22166367.941    90767575.3424                 
                
  20563350.570   108061138.752    20563357.480    84203514.3684   20563357.523  
                
  22564090.531   118575093.104    22564098.215    92396215.4384   22564098.219  
                
  19582532.711   104643106.381                    81389078.680    19582537.285  
  19582532.918  
  21881380.922   114987436.803    21881388.457    89600639.3884   21881388.469  
                
  22662727.914   119093425.892    22662735.164    92800101.6464   22662735.305  
                
  21808013.852   116248965.468                    90415853.927    21808018.977  
  21808013.555  
  23009883.734   120917743.431    23009890.812    94221637.3204   23009891.242  
                
  24088685.039   126586875.163    24088690.477    98639141.2784                 
                
  21477659.383   114850690.283                    89328314.353    21477664.223  
  21477658.531  
  21625680.820   115439346.518                    89786158.890    21625685.148  
  21625679.336  
  19395513.742   103789305.686                    80725011.635    19395517.355  
  19395511.898  
  20633944.891   108432100.479    20633954.312    84492586.2384   20633954.898  
                
 21  8 14  4 44 50.0000000  0 17G26R 1R16R 8G20G29G18R15G 5G12R14G31
                                G 2R24R18R17G25
  24055179.461   126410810.678    24055190.262    98501982.9274   24055190.094  
                
  22688550.914   121283315.744                    94331485.606    22688557.688  
  22688550.270  
  21962853.516   117321628.417                    91250179.689    21962855.914  
  21962853.160  
  23643836.266   126611665.868                    98475731.647    23643839.863  
  23643835.789  
  22167536.766   116491195.513    22167543.566    90772389.1584                 
                
  20562192.562   108055053.337    20562199.492    84198772.4864   20562199.516  
                
  22558209.258   118544186.820    22558216.941    92372132.6294   22558216.930  
                
  19584117.469   104651574.813                    81395665.223    19584122.031  
  19584117.668  
  21877949.547   114969404.758    21877957.098    89586588.4444   21877957.070  
                
  22669017.820   119126479.533    22669025.121    92825857.7164   22669025.246  
                
  21815797.344   116290454.945                    90448123.540    21815802.301  
  21815796.934  
  23011091.750   120924091.525    23011098.809    94226583.8774   23011099.254  
                
  24094267.188   126616209.412    24094272.582    98661999.1184                 
                
  21483226.031   114880457.568                    89351466.669    21483230.871  
  21483225.188  
  21620780.023   115413185.602                    89765811.514    21620784.344  
  21620778.555  
  19395755.336   103790598.474                    80726017.133    19395758.953  
  19395753.492  
  20637527.008   108450924.533    20637536.438    84507254.3194   20637537.023  
                
 21  8 14  4 45  0.0000000  0 17G26R 1R16R 8G20G29G18R15G 5G12R14G31
                                G 2R24R18R17G25
  24048880.375   126377708.673    24048891.059    98476189.1514   24048890.926  
                
  22685672.445   121267928.766                    94319517.953    22685679.191  
  22685671.770  
  21956844.977   117289531.866                    91225215.711    21956847.352  
  21956844.613  
  23646028.836   126623407.033                    98484863.665    23646032.453  
  23646028.375  
  22168724.383   116497436.466    22168731.203    90777252.2304                 
                
  20561040.719   108049000.373    20561047.664    84194055.8914   20561047.668  
                
  22552333.633   118513310.255    22552341.293    92348072.9634   22552341.273  
                
  19585719.031   104660133.050                    81402321.628    19585723.566  
  19585719.227  
  21874529.242   114951430.968    21874536.816    89572582.9054   21874536.781  
                
  22675313.250   119159562.212    22675320.574    92851636.4224   22675320.684  
                
  21823587.336   116331979.288                    90480420.243    21823592.137  
  21823586.844  
  23012311.258   120930500.034    23012318.312    94231577.5134   23012318.754  
                
  24099850.797   126645551.413    24099856.121    98684863.0234                 
                
  21488795.328   114910239.062                    89374630.033    21488800.172  
  21488794.488  
  21615885.484   115387058.172                    89745490.195    21615889.812  
  21615884.035  
  19396005.477   103791937.033                    80727058.240    19396009.098  
  19396003.629  
  20641119.266   108469802.016    20641128.711    84521964.0444   20641129.301  
                
 21  8 14  4 45 10.0000000  0 17G26R 1R16R 8G20G29G18R15G 5G12R14G31
                                G 2R24R18R17G25
  24042584.836   126344625.302    24042595.457    98450409.9094   24042595.332  
                
  22682807.891   121252616.174                    94307608.179    22682814.598  
  22682807.211  
  21950846.930   117257491.315                    91200295.286    21950849.277  
  21950846.590  
  23648236.188   126635227.280                    98494057.185    23648239.832  
  23648235.738  
  22169924.078   116503740.914    22169930.910    90782164.7884                 
                
  20559895.109   108042980.151    20559902.074    84189364.8074   20559902.074  
                
  22546463.734   118482463.753    22546471.387    92324036.7344   22546471.363  
                
  19587337.477   104668781.521                    81409048.208    19587341.992  
  19587337.668  
  21871120.078   114933515.732    21871127.672    89558622.9884   21871127.637  
                
  22681614.250   119192674.249    22681621.598    92877437.9964   22681621.715  
                
  21831383.711   116373538.530                    90512744.086    21831388.527  
  21831383.262  
  23013542.305   120936969.270    23013549.371    94236618.4674   23013549.812  
                
  24105435.930   126674901.421    24105441.168    98707733.1514                 
                
  21494367.328   114940035.058                    89397804.684    21494372.168  
  21494366.488  
  21610997.219   115360964.322                    89725194.974    21611001.555  
  21610995.762  
  19396264.227   103793321.670                    80728135.181    19396267.844  
  19396262.379  
  20644721.758   108488733.232    20644731.215    84536715.6364   20644731.797  
                
 21  8 14  4 45 20.0000000  0 17G26R 1R16R 8G20G29G18R15G 5G12R14G31
                                G 2R24R18R17G25
  24036292.836   126311560.556    24036303.398    98424645.1564   24036303.242  
                
  22679957.297   121237378.114                    94295756.350    22679963.945  
  22679956.625  
  21944859.367   117225506.742                    91175418.385    21944861.672  
  21944859.035  
  23650458.336   126647126.747                    98503312.323    23650461.953  
  23650457.836  
  22171135.844   116510108.710    22171142.668    90787126.7034                 
                
  20558755.711   108036992.549    20558762.680    84184699.1404   20558762.688  
                
  22540599.570   118451647.285    22540607.227    92300023.9104   22540607.199  
                
  19588972.797   104677520.158                    81415844.923    19588977.297  
  19588972.988  
  21867722.086   114915659.186    21867729.652    89544708.7954   21867729.637  
                
  22687920.820   119225815.518    22687928.195    92903262.3284   22687928.320  
                
  21839186.602   116415132.598                    90545094.989    21839191.480  
  21839186.211  
  23014784.898   120943499.105    23014791.992    94241706.6404   23014792.422  
                
  24111022.562   126704259.262    24111027.719    98730609.3804                 
                
  21499942.039   114969845.508                    89420990.582    21499946.891  
  21499941.203  
  21606115.250   115334904.094                    89704925.908    21606119.629  
  21606113.770  
  19396531.578   103794752.328                    80729247.902    19396535.195  
  19396529.746  
  20648334.453   108507718.055    20648343.926    84551508.9974   20648344.512  
                
 21  8 14  4 45 30.0000000  0 17G26R 1R16R 8G20G29G18R15G 5G12R14G31
                                G 2R24R18R17G25
  24030004.359   126278514.399    24030014.859    98398894.9014   24030014.672  
                
  22677120.609   121222214.417                    94283962.397    22677127.246  
  22677119.926  
  21938882.273   117193578.213                    91150585.091    21938884.543  
  21938881.914  
  23652695.195   126659105.030                    98512628.756    23652698.836  
  23652694.629  
  22172359.641   116516539.762    22172366.457    90792137.9064                 
                
  20557622.484   108031037.428    20557629.449    84180058.7854   20557629.453  
                
  22534741.078   118420860.753    22534748.750    92276034.4084   22534748.715  
                
  19590624.961   104686348.799                    81422711.642    19590629.441  
  19590625.172  
  21864335.250   114897861.259    21864342.754    89530840.2814   21864342.770  
                
  22694232.891   119258985.692    22694240.277    92929109.2054   22694240.414  
                
  21846996.023   116456761.162                    90577472.750    21847000.930  
  21846995.641  
  23016038.984   120950089.387    23016046.082    94246841.9114   23016046.516  
                
  24116610.641   126733624.726    24116615.730    98753491.5504                 
                
  21505519.391   114999670.067                    89444187.447    21505524.250  
  21505518.574  
  21601239.523   115308877.333                    89684682.905    21601243.953  
  21601238.035  
  19396807.469   103796228.671                    80730396.172    19396811.082  
  19396805.664  
  20651957.305   108526756.286    20651966.805    84566343.9794   20651967.387  
                
 21  8 14  4 45 40.0000000  0 17G26R 1R16R 8G20G29G18R15G 5G12R14G31
                                G 2R24R18R17G25
  24023719.453   126245487.173    24023729.938    98373159.4164   24023729.715  
                
  22674297.898   121207125.485                    94272226.572    22674304.508  
  22674297.207  
  21932915.719   117161706.003                    91125795.599    21932917.922  
  21932915.320  
  23654946.844   126671162.531                    98522006.790    23654950.504  
  23654946.223  
  22173595.531   116523034.334    22173602.316    90797198.6134                 
                
  20556495.523   108025115.163    20556502.473    84175444.0284   20556502.496  
                
  22528888.359   118390104.520    22528896.027    92252068.5214   22528896.004  
                
  19592294.000   104695267.600                    81429648.481    19592298.445  
  19592294.207  
  21860959.648   114880122.331    21860967.109    89517017.7424   21860967.145  
                
  22700550.539   119292185.063    22700557.906    92954978.8384   22700558.066  
                
  21854811.906   116498424.270                    90609877.373    21854816.863  
  21854811.570  
  23017304.633   120956740.390    23017311.715    94252024.5164   23017312.152  
                
  24122200.234   126762998.069    24122205.289    98776379.8584                 
                
  21511099.445   115029509.015                    89467395.511    21511104.289  
  21511098.648  
  21596370.117   115282884.302                    89664466.112    21596374.590  
  21596368.594  
  19397091.984   103797751.109                    80731580.288    19397095.602  
  19397090.188  
  20655590.383   108545848.185    20655599.914    84581220.7774   20655600.480  
                
 21  8 14  4 45 50.0000000  0 17G26R 1R16R 8G20G29G18R15G 5G12R14G31
                                G 2R24R18R17G25
  24017438.117   126212478.646    24017448.535    98347438.4804   24017448.340  
                
  22671489.141   121192110.984                    94260548.649    22671495.730  
  22671488.449  
  21926959.695   117129890.096                    91101049.897    21926961.891  
  21926959.273  
  23657213.141   126683298.508                    98531445.865    23657216.801  
  23657212.523  
  22174843.414   116529592.009    22174850.168    90802308.4914                 
                
  20555374.734   108019225.418    20555381.672    84170854.6184   20555381.707  
                
  22523041.336   118359378.278    22523049.000    92228125.9994   22523048.996  
                
  19593979.859   104704276.299                    81436655.252    19593984.285  
  19593980.074  
  21857595.203   114862442.086    21857602.645    89503240.9264   21857602.688  
                
  22706873.648   119325413.200    22706881.000    92980870.8824   22706881.168  
                
  21862634.086   116540121.471                    90642308.505    21862639.156  
  21862633.859  
  23018581.742   120963451.654    23018588.824    94257254.0744   23018589.266  
                
  24127791.234   126792378.886    24127796.270    98799273.9924                 
                
  21516682.102   115059361.876                    89490614.405    21516686.922  
  21516681.305  
  21591506.977   115256924.763                    89644275.410    21591511.504  
  21591505.461  
  19397385.008   103799319.126                    80732799.863    19397388.633  
  19397383.219  
  20659233.586   108564993.346    20659243.133    84596139.0794   20659243.684  
                
 21  8 14  4 46  0.0000000  0 17G26R 1R16R 8G20G29G18R15G 5G12R14G31
                                G 2R24R18R17G25
  24011160.383   126179488.976    24011170.754    98321732.2564   24011170.559  
                
  22668694.344   121177171.289                    94248928.885    22668700.922  
  22668693.637  
  21921014.273   117098130.753                    91076348.195    21921016.488  
  21921013.836  
  23659494.164   126695513.322                    98540946.274    23659497.836  
  23659493.523  
  22176103.344   116536212.909    22176110.059    90807467.6334                 
                
  20554260.164   108013368.295    20554267.094    84166290.6244   20554267.129  
                
  22517200.070   118328682.162    22517207.758    92204206.9574   22517207.738  
                
  19595682.516   104713374.781                    81443731.829    19595686.926  
  19595682.730  
  21854241.969   114844820.777    21854249.422    89489510.0534   21854249.465  
                
  22713202.250   119358670.237    22713209.586    93006785.4344   22713209.773  
                
  21870462.656   116581852.660                    90674766.059    21870467.855  
  21870462.500  
  23019870.336   120970223.256    23019877.434    94262530.6224   23019877.867  
                
  24133383.680   126821767.260    24133388.715    98822174.0124                 
                
  21522267.359   115089228.806                    89513844.221    21522272.203  
  21522266.531  
  21586650.156   115230998.781                    89624110.755    21586654.715  
  21586648.684  
  19397686.547   103800932.674                    80734054.847    19397690.168  
  19397684.785  
  20662886.945   108584191.843    20662896.523    84611098.9344   20662897.059  
                
 21  8 14  4 46 10.0000000  0 17G26R 1R16R 8G20G29G18R15G 5G12R14G31
                                G 2R24R18R17G25
  24004886.297   126146518.441    24004896.617    98296040.9384   24004896.441  
                
  22665913.594   121162306.629                    94237367.500    22665920.148  
  22665912.828  
  21915079.477   117066428.098                    91051690.584    21915081.668  
  21915079.008  
  23661789.945   126707807.092                    98550508.064    23661793.625  
  23661789.246  
  22177375.328   116542897.187    22177382.020    90812676.1484                 
                
  20553151.836   108007543.965    20553158.762    84161752.1864   20553158.805  
                
  22511364.578   118298016.435    22511372.285    92180311.5884   22511372.242  
                
  19597402.039   104722563.330                    81450878.480    19597406.434  
  19597402.273  
  21850900.000   114827258.606    21850907.469    89475825.2514   21850907.512  
                
  22719536.359   119391956.183    22719543.688    93032722.5174   22719543.910  
                
  21878297.734   116623618.148                    90707250.295    21878303.020  
  21878297.590  
  23021170.445   120977055.314    23021177.559    94267854.2984   23021177.977  
                
  24138977.578   126851163.243    24138982.609    98845079.9464                 
                
  21527855.250   115119109.726                    89537084.945    21527860.098  
  21527854.418  
  21581799.664   115205106.489                    89603972.309    21581804.219  
  21581798.207  
  19397996.664   103802592.111                    80735345.518    19398000.281  
  19397994.926  
  20666550.477   108603443.787    20666560.090    84626100.4434   20666560.605  
                
 21  8 14  4 46 20.0000000  0 17G26R 1R16R 8G20G29G18R15G 5G12R14G31
                                G 2R24R18R17G25
  23998615.836   126113566.905    23998626.129    98270364.4154   23998625.957  
                
  22663146.820   121147516.847                    94225864.327    22663153.359  
  22663146.059  
  21909155.312   117034782.348                    91027077.218    21909157.500  
  21909154.855  
  23664100.383   126720179.414                    98560130.970    23664104.074  
  23664099.668  
  22178659.336   116549644.681    22178666.020    90817933.9344                 
                
  20552049.703   108001752.234    20552056.625    84157239.1524   20552056.660  
                
  22505534.828   118267380.911    22505542.527    92156439.7584   22505542.488  
                
  19599138.344   104731841.596                    81458094.902    19599142.719  
  19599138.582  
  21847569.266   114809755.467    21847576.746    89462186.4374   21847576.773  
                
  22725875.898   119425270.704    22725883.230    93058681.8784   22725883.465  
                
  21886139.195   116665417.211                    90739760.636    21886144.465  
  21886139.000  
  23022482.000   120983947.550    23022489.133    94273224.8704   23022489.523  
                
  24144572.875   126880566.541    24144577.871    98867991.5984                 
                
  21533445.719   115149004.504                    89560336.423    21533450.586  
  21533444.848  
  21576955.461   115179247.807                    89583859.999    21576959.984  
  21576954.012  
  19398315.273   103804297.029                    80736671.565    19398318.895  
  19398313.543  
  20670224.125   108622748.911    20670233.770    84641143.3904   20670234.270  
                
 21  8 14  4 46 30.0000000  0 17G26R 1R16R 8G20G29G18R15G 5G12R14G31
                                G 2R24R18R17G25
  23992349.000   126080634.444    23992359.238    98244702.7564   23992359.094  
                
  22660394.109   121132802.127                    94214419.551    22660400.633  
  22660393.336  
  21903241.750   117003193.149                    91002507.825    21903243.918  
  21903241.328  
  23666425.508   126732630.321                    98569815.005    23666429.168  
  23666424.848  
  22179955.352   116556455.298    22179962.004    90823240.9024                 
                
  20550953.781   107995993.114    20550960.691    84152751.5204   20550960.730  
                
  22499710.828   118236775.647    22499718.492    92132591.5014   22499718.484  
                
  19600891.445   104741209.598                    81465381.117    19600895.809  
  19600891.691  
  21844249.766   114792311.375    21844257.246    89448593.6484   21844257.270  
                
  22732220.891   119458613.841    22732228.191    93084663.5264   22732228.445  
                
  21893987.094   116707249.897                    90772297.165    21893992.199  
  21893986.758  
  23023805.016   120990900.036    23023812.152    94278642.3714   23023812.531  
                
  24150169.570   126909977.237    24150174.508    98890909.0294                 
                
  21539038.773   115178913.106                    89583598.642    21539043.633  
  21539037.891  
  21572117.547   115153422.683                    89563773.811    21572122.055  
  21572116.113  
  19398642.391   103806047.455                    80738033.001    19398646.023  
  19398640.656  
  20673907.883   108642107.181    20673917.559    84656227.7534   20673918.035  
                
 21  8 14  4 46 40.0000000  0 17G26R 1R16R 8G20G29G18R15G 5G12R14G31
                                G 2R24R18R17G25
  23986085.859   126047721.321    23986096.094    98219056.1824   23986095.977  
                
  22657655.484   121118162.571                    94203033.223    22657662.000  
  22657654.742  
  21897338.938   116971661.280                    90977983.054    21897341.098  
  21897338.504  
  23668765.320   126745159.872                    98579560.216    23668768.984  
  23668764.672  
  22181263.414   116563329.176    22181270.047    90828597.1774                 
                
  20549864.109   107990266.836    20549871.000    84148289.4904   20549871.051  
                
  22493892.648   118206200.895    22493900.301    92108767.0194   22493900.285  
                
  19602661.359   104750667.448                    81472737.234    19602665.699  
  19602661.617  
  21840941.570   114774926.709    21840949.004    89435047.1564   21840949.062  
                
  22738571.367   119491985.793    22738578.637    93110667.6404   22738578.910  
                
  21901841.328   116749116.119                    90804859.804    21901846.195  
  21901840.852  
  23025139.531   120997912.912    23025146.672    94284106.9394   23025147.023  
                
  24155767.672   126939395.322    24155772.598    98913832.2054                 
                
  21544634.414   115208835.506                    89606871.587    21544639.281  
  21544633.555  
  21567285.953   115127631.295                    89543713.837    21567290.418  
  21567284.543  
  19398978.023   103807843.455                    80739429.888    19398981.656  
  19398976.277  
  20677601.789   108661518.745    20677611.488    84671353.6384   20677611.953  
                
 21  8 14  4 46 50.0000000  0 17G26R 1R16R 8G20G29G18R15G 5G12R14G31
                                G 2R24R18R17G25
  23979826.375   126014827.482    23979836.605    98193424.6374   23979836.512  
                
  22654930.953   121103598.351                    94191705.519    22654937.484  
  22654930.254  
  21891446.812   116940186.609                    90953502.766    21891449.004  
  21891446.395  
  23671119.781   126757767.856                    98589366.407    23671123.461  
  23671119.062  
  22182583.484   116570266.130    22182590.098    90834002.5944                 
                
  20548780.656   107984573.246    20548787.527    84143852.9204   20548787.590  
                
  22488080.258   118175656.542    22488087.902    92084966.2234   22488087.875  
                
  19604448.039   104760214.878                    81480163.006    19604452.371  
  19604448.301  
  21837644.680   114757601.407    21837652.055    89421546.9154   21837652.148  
                
  22744927.266   119525386.281    22744934.527    93136693.9754   22744934.801  
                
  21909701.781   116791015.692                    90837448.375    21909706.426  
  21909701.211  
  23026485.492   121004985.886    23026492.621    94289618.3474   23026492.949  
                
  24161367.141   126968820.652    24161372.105    98936761.0164                 
                
  21550232.633   115238771.588                    89630155.225    21550237.508  
  21550231.832  
  21562460.664   115101873.544                    89523680.023    21562465.090  
  21562459.227  
  19399322.141   103809684.876                    80740862.109    19399325.777  
  19399320.410  
  20681305.797   108680983.405    20681315.504    84686520.9034   20681315.961  
                
 21  8 14  4 47  0.0000000  0 17G26R 1R16R 8G20G29G18R15G 5G12R14G31
                                G 2R24R18R17G25
  23973570.609   125981953.293    23973580.871    98167808.3994   23973580.766  
                
  22652220.547   121089109.691                    94180436.596    22652227.109  
  22652219.855  
  21885565.422   116908769.379                    90929067.145    21885567.648  
  21885565.023  
  23673488.938   126770454.521                    98599233.804    23673492.641  
  23673488.254  
  22183915.602   116577266.449    22183922.230    90839457.3864                 
                
  20547703.469   107978912.567    20547710.328    84139442.0014   20547710.395  
                
  22482273.711   118145142.913    22482281.348    92061189.3694   22482281.297  
                
  19606251.578   104769852.423                    81487658.875    19606255.918  
  19606251.836  
  21834359.141   114740335.835    21834366.484    89408093.2344   21834366.586  
                
  22751288.633   119558815.475    22751295.934    93162742.6894   22751296.195  
                
  21917568.289   116832948.821                    90870063.021    21917572.953  
  21917567.809  
  23027842.922   121012119.161    23027850.035    94295176.7414   23027850.355  
                
  24166968.023   126998253.401    24166972.996    98959695.6074                 
                
  21555833.430   115268721.510                    89653449.598    21555838.293  
  21555832.641  
  21557641.695   115076149.601                    89503672.521    21557646.113  
  21557640.227  
  19399674.766   103811571.831                    80742329.738    19399678.414  
  19399673.039  
  20685019.953   108700501.382    20685029.672    84701729.7134   20685030.121  
                
 21  8 14  4 47 10.0000000  0 17G26R 1R16R 8G20G29G18R15G 5G12R14G31
                                G 2R24R18R17G25
  23967318.555   125949098.545    23967328.844    98142207.3014   23967328.746  
                
  22649524.258   121074696.401                    94169226.282    22649530.836  
  22649523.582  
  21879694.820   116877409.711                    90904676.310    21879697.066  
  21879694.387  
  23675872.719   126783219.580                    98609162.180    23675876.449  
  23675872.023  
  22185259.719   116584329.819    22185266.367    90844961.2964                 
                
  20546632.484   107973284.524    20546639.332    84135056.5134   20546639.414  
                
  22476472.961   118114659.764    22476480.578    92037436.2684   22476480.531  
                
  19608071.891   104779579.571                    81495224.428    19608076.230  
  19608072.145  
  21831084.922   114723129.670    21831092.242    89394685.8304   21831092.355  
                
  22757655.391   119592272.980    22757662.766    93188813.4574   22757663.000  
                
  21925440.836   116874914.994                    90902703.356    21925445.668  
  21925440.539  
  23029211.766   121019312.431    23029218.863    94300781.8814   23029219.176  
                
  24172570.258   127027693.247    24172575.242    98982635.7414                 
                
  21561436.742   115298684.870                    89676754.420    21561441.586  
  21561435.906  
  21552829.031   115050459.311                    89483691.195    21552833.438  
  21552827.586  
  19400035.875   103813504.170                    80743832.667    19400039.535  
  19400034.145  
  20688744.188   108720072.362    20688753.914    84716979.8154   20688754.355  
                
 21  8 14  4 47 20.0000000  0 17G26R 1R16R 8G20G29G18R15G 5G12R14G31
                                G 2R24R18R17G25
  23961070.227   125916263.374    23961080.547    98116621.4584   23961080.449  
                
  22646842.094   121060358.691                    94158074.734    22646848.676  
  22646841.391  
  21873835.023   116846107.728                    90880330.317    21873837.270  
  21873834.547  
  23678271.141   126796062.941                    98619151.461    23678274.906  
  23678270.480  
  22186615.828   116591456.213    22186622.516    90850514.3334                 
                
  20545567.734   107967689.207    20545574.578    84130696.5244   20545574.660  
                
  22470678.023   118084207.221    22470685.652    92013707.0134   22470685.602  
                
  19609908.961   104789396.279                    81502859.646    19609913.293  
  19609909.211  
  21827822.031   114705983.064    21827829.336    89381324.8434   21827829.449  
                
  22764027.516   119625758.754    22764034.961    93214906.2364   22764035.188  
                
  21933319.594   116916914.150                    90935369.348    21933324.566  
  21933319.430  
  23030592.039   121026565.733    23030599.102    94306433.7934   23030599.422  
                
  24178173.828   127057140.157    24178178.855    99005581.3784                 
                
  21567042.562   115328661.669                    89700069.701    21567047.395  
  21567041.676  
  21548022.688   115024802.733                    89463736.082    21548027.086  
  21548021.223  
  19400405.438   103815481.769                    80745370.796    19400409.102  
  19400403.695  
  20692478.516   108739696.338    20692488.246    84732271.2234   20692488.680  
                
 21  8 14  4 47 30.0000000  0 17G26R 1R16R 8G20G29G18R15G 5G12R14G31
                                G 2R24R18R17G25
  23954825.648   125883447.931    23954835.984    98091050.9844   23954835.871  
                
  22644174.148   121046096.936                    94146982.254    22644180.738  
  22644173.453  
  21867986.023   116814863.468                    90856029.234    21867988.301  
  21867985.551  
  23680684.180   126808984.652                    98629201.624    23680687.961  
  23680683.496  
  22187983.945   116598645.708    22187990.664    90856116.5274                 
                
  20544509.219   107962126.703    20544516.070    84126362.1034   20544516.148  
                
  22464888.922   118053785.371    22464896.578    91990001.6874   22464896.539  
                
  19611762.828   104799302.723                    81510564.644    19611767.172  
  19611763.086  
  21824570.500   114688896.148    21824577.777    89368010.3564   21824577.922  
                
  22770405.023   119659272.775    22770412.516    93241021.0354   22770412.730  
                
  21941204.484   116958946.039                    90968060.778    21941209.641  
  21941204.426  
  23031983.727   121033879.006    23031990.770    94312132.4514   23031991.098  
                
  24183778.773   127086594.192    24183783.859    99028532.5514                 
                
  21572650.922   115358652.142                    89723395.607    21572655.766  
  21572650.027  
  21543222.648   114999179.860                    89443807.185    21543227.051  
  21543221.137  
  19400783.469   103817504.706                    80746944.186    19400787.133  
  19400781.723  
  20696222.922   108759373.304    20696232.660    84747603.9184   20696233.098  
                
 21  8 14  4 47 40.0000000  0 17G26R 1R16R 8G20G29G18R15G 5G12R14G31
                                G 2R24R18R17G25
  23948584.844   125850652.213    23948595.203    98065495.8974   23948595.090  
                
  22641520.344   121031910.753                    94135948.574    22641526.930  
  22641519.680  
  21862147.898   116783677.249                    90831773.295    21862150.188  
  21862147.434  
  23683111.844   126821984.693                    98639312.791    23683115.648  
  23683111.172  
  22189364.047   116605898.173    22189370.805    90861767.7964                 
                
  20543456.953   107956596.968    20543463.812    84122053.2154   20543463.887  
                
  22459105.672   118023394.207    22459113.348    91966320.2764   22459113.336  
                
  19613633.445   104809298.699                    81518339.288    19613637.785  
  19613633.707  
  21821330.312   114671868.907    21821337.582    89354742.3814   21821337.723  
                
  22776787.883   119692814.903    22776795.352    93267157.7444   22776795.578  
                
  21949095.539   117001010.675                    91000777.678    21949100.887  
  21949095.590  
  23033386.805   121041252.193    23033393.840    94317877.7844   23033394.156  
                
  24189385.031   127116055.183    24189390.176    99051489.1454                 
                
  21578261.758   115388655.828                    89746731.803    21578266.613  
  21578260.824  
  21538428.938   114973590.717                    89423904.525    21538433.355  
  21538427.410  
  19401169.930   103819572.748                    80748552.665    19401173.594  
  19401168.172  
  20699977.391   108779103.188    20699987.129    84762977.8464   20699987.562  
                
 21  8 14  4 47 50.0000000  0 17G26R 1R16R 8G20G29G18R15G 5G12R14G31
                                G 2R24R18R17G25
  23942347.828   125817876.405    23942358.172    98039956.3054   23942358.070  
                
  22638880.742   121017800.603                    94124973.987    22638887.289  
  22638880.109  
  21856320.641   116752549.127                    90807562.520    21856322.922  
  21856320.172  
  23685554.094   126835062.851                    98649484.698    23685557.918  
  23685553.375  
  22190756.156   116613213.750    22190762.934    90867468.2564                 
                
  20542410.922   107951100.058    20542417.789    84117769.9064   20542417.848  
                
  22453328.289   117993033.877    22453335.953    91942662.8774   22453335.941  
                
  19615520.805   104819384.188                    81526183.546    19615525.137  
  19615521.059  
  21818101.531   114654901.572    21818108.816    89341521.0954   21818108.945  
                
  22783176.109   119726385.221    22783183.504    93293316.4244   22783183.762  
                
  21956992.875   117043107.912                    91033519.936    21956998.301  
  21956992.906  
  23034801.297   121048685.346    23034808.320    94323669.8354   23034808.625  
                
  24194992.609   127145523.112    24194997.773    99074451.1654                 
                
  21583875.102   115418672.869                    89770078.367    21583879.969  
  21583874.172  
  21533641.555   114948035.341                    89404028.146    21533645.980  
  21533640.035  
  19401564.852   103821686.051                    80750196.333    19401568.523  
  19401563.082  
  20703741.938   108798885.978    20703751.668    84778393.0044   20703752.105  
                
 21  8 14  4 48  0.0000000  0 17G26R 1R16R 8G20G29G18R15G 5G12R14G31
                                G 2R24R18R17G25
  23936114.578   125785120.432    23936124.918    98014432.1884   23936124.816  
                
  22636255.367   121003766.417                    94114058.507    22636261.855  
  22636254.758  
  21850504.281   116721479.175                    90783397.018    21850506.586  
  21850503.820  
  23688010.898   126848219.042                    98659717.251    23688014.715  
  23688010.121  
  22192160.242   116620592.249    22192167.031    90873217.7324                 
                
  20541371.117   107945635.836    20541377.984    84113512.0724   20541378.039  
                
  22447556.742   117962704.287    22447564.391    91919029.4274   22447564.375  
                
  19617424.922   104829559.170                    81534097.415    19617429.270  
  19617425.168  
  21814884.141   114637994.082    21814891.465    89328346.4244   21814891.570  
                
  22789569.648   119759983.458    22789576.953    93319496.8694   22789577.242  
                
  21964896.406   117085237.359                    91066287.271    21964901.766  
  21964896.332  
  23036227.164   121056178.276    23036234.168    94329508.4744   23036234.500  
                
  24200601.469   127174997.800    24200606.590    99097418.4394                 
                
  21589490.930   115448703.104                    89793435.211    21589495.812  
  21589490.000  
  21528860.484   114922513.704                    89384178.008    21528864.898  
  21528858.988  
  19401968.188   103823844.383                    80751875.041    19401971.863  
  19401966.418  
  20707516.523   108818721.542    20707526.258    84793849.2784   20707526.707  
                
 21  8 14  4 48 10.0000000  0 17G26R 1R16R 8G20G29G18R15G 5G12R14G31
                                G 2R24R18R17G25
  23929885.125   125752384.430    23929895.453    97988923.6164   23929895.340  
                
  22633644.188   120989808.144                    94103202.074    22633650.699  
  22633643.621  
  21844698.805   116690467.442                    90759276.777    21844701.160  
  21844698.367  
  23690482.305   126861453.282                    98670010.530    23690486.137  
  23690481.527  
  22193576.281   116628033.607    22193583.070    90879016.1884                 
                
  20540337.516   107940204.224    20540344.371    84109279.6424   20540344.430  
                
  22441791.055   117932405.490    22441798.684    91895419.9874   22441798.691  
                
  19619345.773   104839823.594                    81542080.853    19619350.133  
  19619346.020  
  21811678.156   114621146.558    21811685.508    89315218.4914   21811685.598  
                
  22795968.516   119793609.679    22795975.773    93345699.1124   22795976.059  
                
  21972806.031   117127398.948                    91099079.630    21972811.238  
  21972805.805  
  23037664.383   121063730.889    23037671.379    94335393.6264   23037671.711  
                
  24206211.625   127204479.288    24206216.738    99120391.0234                 
                
  21595109.188   115478746.447                    89816802.246    21595114.086  
  21595108.289  
  21524085.695   114897025.591                    89364353.928    21524090.082  
  21524084.168  
  19402379.930   103826047.707                    80753588.738    19402383.609  
  19402378.156  
  20711301.141   108838609.819    20711310.891    84809346.6344   20711311.320  
                
 21  8 14  4 48 20.0000000  0 17G26R 1R16R 8G20G29G18R15G 5G12R14G31
                                G 2R24R18R17G25
  23923659.469   125719668.566    23923669.840    97963430.7304   23923669.711  
                
  22631047.297   120975926.262                    94092405.076    22631053.844  
  22631046.738  
  21838904.273   116659514.162                    90735201.989    21838906.633  
  21838903.840  
  23692968.273   126874765.468                    98680364.465    23692972.109  
  23692967.539  
  22195004.305   116635537.945    22195011.086    90884863.7244                 
                
  20539310.164   107934805.461    20539317.000    84105072.8134   20539317.062  
                
  22436031.266   117902137.668    22436038.883    91871834.6834   22436038.902  
                
  19621283.352   104850177.444                    81550133.843    19621287.711  
  19621283.590  
  21808483.625   114604359.242    21808490.996    89302137.4644   21808491.055  
                
  22802372.734   119827264.011    22802380.000    93371923.2564   22802380.266  
                
  21980721.656   117169592.694                    91131896.975    21980726.688  
  21980721.320  
  23039112.992   121071343.329    23039119.965    94341325.3914   23039120.309  
                
  24211823.070   127233967.570    24211828.203    99143368.8834                 
                
  21600729.906   115508803.014                    89840179.554    21600734.824  
  21600728.996  
  21519317.258   114871571.298                    89344556.142    21519321.605  
  21519315.738  
  19402800.086   103828296.027                    80755337.439    19402803.766  
  19402798.320  
  20715095.797   108858550.889    20715105.562    84824885.1164   20715105.973  
                
 21  8 14  4 48 30.0000000  0 17G26R 1R16R 8G20G29G18R15G 5G12R14G31
                                G 2R24R18R17G25
  23917437.641   125686972.986    23917448.035    97937953.6714   23917447.922  
                
  22628464.680   120962120.576                    94081667.338    22628471.238  
  22628464.145  
  21833120.781   116628619.819                    90711173.069    21833123.191  
  21833120.328  
  23695468.820   126888155.791                    98690779.151    23695472.668  
  23695468.164  
  22196444.328   116643105.313    22196451.113    90890760.3744                 
                
  20538289.086   107929439.664    20538295.902    84100891.6684   20538295.984  
                
  22430277.406   117871900.961    22430285.023    91848273.6154   22430285.043  
                
  19623237.695   104860620.786                    81558256.438    19623242.078  
  19623237.934  
  21805300.562   114587632.144    21805307.953    89289103.3724   21805308.004  
                
  22808782.273   119860946.351    22808789.570    93398169.2144   22808789.824  
                
  21988643.219   117211818.565                    91164739.305    21988648.195  
  21988642.832  
  23040572.977   121079015.580    23040579.941    94347303.7614   23040580.312  
                
  24217435.812   127263462.713    24217440.961    99166352.0904                 
                
  21606353.086   115538872.730                    89863567.121    21606358.059  
  21606352.137  
  21514555.172   114846150.959                    89324784.778    21514559.469  
  21514553.656  
  19403228.680   103830589.491                    80757121.236    19403232.352  
  19403226.918  
  20718900.516   108878544.769    20718910.293    84840464.7594   20718910.703  
                
 21  8 14  4 48 40.0000000  0 17G26R 1R16R 8G20G29G18R15G 5G12R14G31
                                G 2R24R18R17G25
  23911219.695   125654297.723    23911230.133    97912492.4494   23911229.992  
                
  22625896.359   120948391.468                    94070989.132    22625902.887  
  22625895.848  
  21827348.320   116597784.376                    90687189.953    21827350.730  
  21827347.828  
  23697983.914   126901623.964                    98701254.371    23697987.730  
  23697983.246  
  22197896.320   116650735.607    22197903.121    90896706.0524                 
                
  20537274.250   107924106.693    20537281.047    84096736.1054   20537281.145  
                
  22424529.445   117841695.287    22424537.035    91824736.7414   22424537.086  
                
  19625208.734   104871153.448                    81566448.507    19625213.141  
  19625208.973  
  21802128.969   114570965.348    21802136.355    89276116.2654   21802136.418  
                
  22815197.109   119894656.531    22815204.422    93424436.8664   22815204.676  
                
  21996570.594   117254076.262                    91197606.371    21996575.645  
  21996570.289  
  23042044.297   121086747.415    23042051.266    94353328.5584   23042051.641  
                
  24223049.836   127292964.532    24223054.965    99189340.5014                 
                
  21611978.672   115568955.429                    89886964.737    21611983.676  
  21611977.695  
  21509799.430   114820764.515                    89305039.767    21509803.695  
  21509797.918  
  19403665.656   103832927.872                    80758939.977    19403669.328  
  19403663.895  
  20722715.242   108898591.305    20722725.023    84856085.4304   20722725.430  
                
 21  8 14  4 48 50.0000000  0 17G26R 1R16R 8G20G29G18R15G 5G12R14G31
                                G 2R24R18R17G25
  23905005.656   125621642.859    23905016.133    97887047.1114   23905016.000  
                
  22623342.344   120934738.739                    94060370.355    22623348.832  
  22623341.824  
  21821586.883   116567007.866                    90663252.666    21821589.254  
  21821586.363  
  23700513.547   126915170.016                    98711790.172    23700517.344  
  23700512.867  
  22199360.281   116658428.787    22199367.098    90902700.7424                 
                
  20536265.688   107918806.639    20536272.473    84092606.1914   20536272.586  
                
  22418787.414   117811520.749    22418794.973    91801224.1134   22418795.055  
                
  19627196.508   104881775.471                    81574710.071    19627200.922  
  19627196.746  
  21798968.891   114554359.053    21798976.254    89263176.2864   21798976.320  
                
  22821617.227   119928394.469    22821624.555    93450726.1574   22821624.805  
                
  22004503.773   117296365.602                    91230498.037    22004509.023  
  22004503.629  
  23043526.969   121094538.903    23043533.945    94359399.8394   23043534.309  
                
  24228665.109   127322472.967    24228670.199    99212334.0914                 
                
  21617606.719   115599051.084                    89910372.468    21617611.754  
  21617605.750  
  21505050.016   114795411.835                    89285321.019    21505054.246  
  21505048.508  
  19404111.023   103835311.128                    80760793.618    19404114.695  
  19404109.258  
  20726539.992   108918690.507    20726549.766    84871747.1424   20726550.180  
                
 21  8 14  4 49  0.0000000  0 17G26R 1R16R 8G20G29G18R15G 5G12R14G31
                                G 2R24R18R17G25
  23898795.516   125589008.376    23898805.988    97861617.6424   23898805.848  
                
  22620802.641   120921162.649                    94049811.186    22620809.105  
  22620802.133  
  21815836.469   116536290.247                    90639361.187    21815838.832  
  21815835.922  
  23703057.703   126928793.795                    98722386.436    23703061.488  
  23703057.000  
  22200836.203   116666184.767    22200843.023    90908744.3544                 
                
  20535263.352   107913539.343    20535270.137    84088501.8094   20535270.254  
                
  22413051.312   117781377.264    22413058.859    91777735.6864   22413058.945  
                
  19629200.953   104892486.619                    81583040.968    19629205.383  
  19629201.195  
  21795820.305   114537813.119    21795827.676    89250283.3444   21795827.730  
                
  22828042.586   119962159.976    22828049.949    93477036.9294   22828050.184  
                
  22012442.875   117338686.512                    91263414.282    22012448.316  
  22012442.859  
  23045020.969   121102389.902    23045027.922    94365517.4784   23045028.312  
                
  24234281.617   127351987.901    24234286.707    99235332.7254                 
                
  21623237.148   115629159.516                    89933790.124    21623242.195  
  21623236.180  
  21500306.938   114770092.972                    89265628.552    21500311.164  
  21500305.410  
  19404564.781   103837739.238                    80762682.147    19404568.445  
  19404563.016  
  20730374.734   108938842.190    20730384.492    84887449.7444   20730384.918  
                
 21  8 14  4 49 10.0000000  0 17G26R 1R16R 8G20G29G18R15G 5G12R14G31
                                G 2R24R18R17G25
  23892589.258   125556394.362    23892599.789    97836204.1464   23892599.641  
                
  22618277.266   120907663.027                    94039311.496    22618283.684  
  22618276.762  
  21810097.172   116505632.012                    90615515.901    21810099.535  
  21810096.598  
  23705616.359   126942495.227                    98733043.101    23705620.145  
  23705615.715  
  22202324.039   116674003.439    22202330.852    90914836.8294                 
                
  20534267.258   107908304.810    20534274.047    84084422.9464   20534274.164  
                
  22407321.125   117751264.898    22407328.656    91754271.5124   22407328.742  
                
  19631222.086   104903286.938                    81591441.197    19631226.535  
  19631222.312  
  21792683.227   114521327.654    21792690.633    89237437.5314   21792690.637  
                
  22834473.180   119995953.005    22834480.578    93503369.1354   22834480.793  
                
  22020387.969   117381038.543                    91296354.751    22020393.445  
  22020387.973  
  23046526.266   121110300.288    23046533.203    94371681.3964   23046533.625  
                
  24239899.367   127381509.289    24239904.500    99258336.3804                 
                
  21628869.977   115659280.775                    89957217.765    21628875.078  
  21628869.027  
  21495570.195   114744807.891                    89245962.412    21495574.445  
  21495568.641  
  19405026.883   103840212.000                    80764605.410    19405030.543  
  19405025.121  
  20734219.461   108959046.316    20734229.207    84903193.2084   20734229.648  
                
 21  8 14  4 49 20.0000000  0 16G26R 1R16G20G29G18R15G 5G12R14G31G 2
                                R24R18R17G25
  23886386.938   125523801.001    23886397.500    97810806.7254   23886397.316  
                
  22615766.266   120894240.207                    94028871.533    22615772.664  
  22615765.734  
  21804368.945   116475032.884                    90591716.560    21804371.297  
  21804368.359  
  22203823.844   116681884.901    22203830.637    90920978.2364                 
                
  20533277.422   107903103.166    20533284.219    84080369.7184   20533284.332  
                
  22401596.883   117721183.801    22401604.391    91730831.7014   22401604.488  
                
  19633259.930   104914176.576                    81599910.907    19633264.395  
  19633260.152  
  21789557.680   114504902.750    21789565.117    89224638.8994   21789565.098  
                
  22840909.023   120029773.637    22840916.438    93529722.8564   22840916.664  
                
  22028339.047   117423422.003                    91329319.658    22028344.434  
  22028339.016  
  23048042.875   121118270.131    23048049.832    94377891.6654   23048050.246  
                
  24245518.336   127411037.119    24245523.484    99281345.0624                 
                
  21634505.203   115689414.827                    89980655.346    21634510.332  
  21634504.258  
  21490839.789   114719556.612                    89226322.528    21490844.039  
  21490838.250  
  19405497.352   103842729.523                    80766563.479    19405501.008  
  19405495.594  
  20738074.180   108979302.942    20738083.910    84918977.5824   20738084.367  
                
 21  8 14  4 49 30.0000000  0 16G26R 1R16G20G29G18R15G 5G12R14G31G 2
                                R24R18R17G25
  23880188.523   125491228.213    23880199.102    97785425.3644   23880198.914  
                
  22613269.625   120880894.257                    94018491.364    22613276.012  
  22613269.074  
  21798651.867   116444493.380                    90567963.624    21798654.223  
  21798651.297  
  22205335.555   116689829.029    22205342.320    90927168.4594                 
                
  20532293.828   107897934.343    20532300.637    84076342.0564   20532300.746  
                
  22395878.578   117691133.874    22395886.016    91707416.1724   22395886.148  
                
  19635314.414   104925155.115                    81608449.773    19635318.891  
  19635314.629  
  21786443.625   114488538.327    21786451.078    89211887.4104   21786451.070  
                
  22847350.062   120063621.551    22847357.473    93556097.8404   22847357.734  
                
  22036295.945   117465836.430                    91362308.668    22036301.230  
  22036295.887  
  23049570.766   121126299.281    23049577.734    94384148.1294   23049578.152  
                
  24251138.500   127440571.181    24251143.613    99304358.6034                 
                
  21640142.719   115719561.257                    90004102.566    21640147.891  
  21640141.777  
  21486115.688   114694339.094                    89206708.899    21486119.945  
  21486114.148  
  19405976.141   103845291.617                    80768556.225    19405979.793  
  19405974.395  
  20741938.836   108999611.852    20741948.562    84934802.7024   20741949.027  
                
 21  8 14  4 49 40.0000000  0 16G26R 1R16G20G29G18R15G 5G12R14G31G 2
                                R24R18R17G25
  23873994.078   125458676.227    23874004.637    97760060.1744   23874004.445  
                
  22610787.383   120867625.261                    94008171.034    22610793.754  
  22610786.875  
  21792945.930   116414013.338                    90544256.941    21792948.273  
  21792945.371  
  22206859.219   116697835.934    22206865.965    90933407.6094                 
                
  20531316.477   107892798.362    20531323.301    84072339.9954   20531323.398  
                
  22390166.234   117661115.300    22390173.609    91684025.0764   22390173.777  
                
  19637385.586   104936222.844                    81617057.987    19637390.082  
  19637385.805  
  21783341.141   114472234.720    21783348.613    89199183.3074   21783348.605  
                
  22853796.328   120097496.864    22853803.770    93582494.1744   22853804.035  
                
  22044258.609   117508281.767                    91395321.702    22044263.824  
  22044258.539  
  23051109.953   121134387.785    23051116.941    94390450.8534   23051117.352  
                
  24256759.859   127470111.574    24256764.961    99327377.0704                 
                
  21645782.633   115749720.421                    90027559.681    21645787.805  
  21645781.707  
  21481397.930   114669155.402                    89187121.594    21481402.238  
  21481396.371  
  19406463.258   103847898.282                    80770583.627    19406466.902  
  19406461.527  
  20745813.461   109019973.138    20745823.180    84950668.6324   20745823.648  
                
 21  8 14  4 49 50.0000000  0 16G26R 1R16G20G29G18R15G 5G12R14G31G 2
                                R24R18R17G25
  23867803.625   125426145.143    23867814.184    97734711.2904   23867813.969  
                
  22608319.562   120854433.316                    93997910.624    22608325.855  
  22608319.059  
  21787251.219   116383593.237                    90520596.844    21787253.562  
  21787250.680  
  22208394.828   116705905.588    22208401.566    90939695.6464                 
                
  20530345.391   107887695.298    20530352.223    84068363.5804   20530352.324  
                
  22384459.859   117631128.131    22384467.215    91660658.4484   22384467.391  
                
  19639473.422   104947379.568                    81625735.443    19639477.922  
  19639473.637  
  21780250.266   114455992.099    21780257.773    89186526.7294   21780257.758  
                
  22860247.805   120131399.536    22860255.293    93608911.8274   22860255.559  
                
  22052227.133   117550757.938                    91428358.693    22052232.258  
  22052226.961  
  23052660.430   121142535.590    23052667.430    94396799.7874   23052667.832  
                
  24262382.406   127499658.269    24262387.484    99350400.4594                 
                
  21651424.906   115779892.216                    90051026.616    21651430.102  
  21651423.957  
  21476686.508   114644005.581                    89167560.646    21476690.852  
  21476684.949  
  19406958.719   103850549.553                    80772645.725    19406962.355  
  19406956.992  
  20749698.047   109040386.766    20749707.770    84966575.3434   20749708.230  
                
 21  8 14  4 50  0.0000000  0 16G26R 1R16G20G29G18R15G 5G12R14G31G 2
                                R24R18R17G25
  23861617.141   125393635.043    23861627.703    97709378.7394   23861627.473  
                
  22605866.164   120841318.509                    93987710.220    22605872.391  
  22605865.660  
  21781567.719   116353233.047                    90496983.356    21781570.094  
  21781567.203  
  22209942.367   116714037.985    22209949.133    90946032.5754                 
                
  20529380.570   107882625.114    20529387.398    84064412.7934   20529387.512  
                
  22378759.477   117601172.419    22378766.844    91637316.3514   22378767.020  
                
  19641577.906   104958625.287                    81634482.103    19641582.422  
  19641578.109  
  21777170.992   114439810.440    21777178.523    89173917.6484   21777178.508  
                
  22866704.477   120165329.444    22866712.039    93635350.6974   22866712.281  
                
  22060201.430   117593264.767                    91461419.538    22060206.480  
  22060201.164  
  23054222.180   121150742.611    23054229.172    94403194.8524   23054229.566  
                
  24268006.148   127529211.205    24268011.207    99373428.7074                 
                
  21657069.500   115810076.441                    90074503.212    21657074.711  
  21657068.547  
  21471981.461   114618889.782                    89148026.152    21471985.832  
  21471979.879  
  19407462.508   103853245.396                    80774742.496    19407466.141  
  19407460.781  
  20753592.586   109060852.667    20753602.309    84982522.7954   20753602.762  
                
 21  8 14  4 50 10.0000000  0 16G26R 1R16G20G29G18R15G 5G12R14G31G 2
                                R24R18R17G25
  23855434.664   125361146.062    23855445.242    97684062.6724   23855445.023  
                
  22603427.234   120828281.051                    93977570.006    22603433.379  
  22603426.727  
  21775895.484   116322932.961                    90473416.637    21775897.871  
  21775894.973  
  22211501.836   116722233.064    22211508.613    90952418.3544                 
                
  20528422.008   107877587.859    20528428.836    84060487.6594   20528428.949  
                
  22373065.102   117571248.277    22373072.469    91613998.8474   22373072.645  
                
  19643699.078   104969960.183                    81643298.118    19643703.602  
  19643699.277  
  21774103.320   114423689.724    21774110.867    89161356.0574   21774110.863  
                
  22873166.312   120199286.554    22873173.934    93661810.7714   22873174.156  
                
  22068181.438   117635802.125                    91494504.126    22068186.422  
  22068181.090  
  23055795.188   121159008.778    23055802.160    94409636.0274   23055802.559  
                
  24273631.078   127558770.330    24273636.148    99396461.7704                 
                
  21662716.430   115840273.127                    90097989.509    21662721.664  
  21662715.465  
  21467282.797   114593807.937                    89128518.050    21467287.164  
  21467281.207  
  19407974.625   103855985.775                    80776873.896    19407978.246  
  19407972.891  
  20757497.078   109081370.874    20757506.789    84998510.9984   20757507.254  
                
 21  8 14  4 50 20.0000000  0 16G26R 1R16G20G29G18R15G 5G12R14G31G 2
                                R24R18R17G25
  23849256.195   125328678.147    23849266.766    97658763.0014   23849266.570  
                
  22601002.742   120815320.853                    93967489.867    22601008.867  
  22601002.234  
  21770234.477   116292692.877                    90449896.564    21770236.824  
  21770233.941  
  22213073.211   116730490.702    22213079.984    90958852.8804                 
                
  20527469.711   107872583.489    20527476.539    84056588.1524   20527476.656  
                
  22367376.727   117541355.631    22367384.066    91590705.8774   22367384.234  
                
  19645836.852   104981383.772                    81652183.131    19645841.387  
  19645837.047  
  21771047.250   114407629.986    21771054.820    89148841.9774   21771054.812  
                
  22879633.297   120233270.790    22879640.918    93688291.9734   22879641.160  
                
  22076167.070   117678369.855                    91527612.340    22076172.074  
  22076166.684  
  23057379.438   121167333.980    23057386.391    94416123.1964   23057386.766  
                
  24279257.156   127588335.507    24279262.262    99419499.5644                 
                
  21668365.680   115870482.173                    90121485.430    21668370.914  
  21668364.730  
  21462590.445   114568759.852                    89109036.213    21462594.793  
  21462588.875  
  19408495.039   103858770.598                    80779039.879    19408498.648  
  19408493.301  
  20761411.492   109101941.203    20761421.191    85014539.8194   20761421.672  
                
 21  8 14  4 50 30.0000000  0 16G26R 1R16G20G29G18R15G 5G12R14G31G 2
                                R24R18R17G25
  23843081.797   125296231.470    23843092.289    97633479.8794   23843092.145  
                
  22598592.727   120802437.987                    93957469.868    22598598.809  
  22598592.152  
  21764584.789   116262513.279                    90426423.552    21764587.152  
  21764584.227  
  22214656.500   116738810.908    22214663.254    90965336.1544                 
                
  20526523.672   107867612.020    20526530.500    84052714.2784   20526530.617  
                
  22361694.344   117511494.555    22361701.656    91567437.5064   22361701.836  
                
  19647991.250   104992896.198                    81661137.232    19647995.801  
  19647991.449  
  21768002.820   114391631.371    21768010.434    89136375.5314   21768010.410  
                
  22886105.438   120267282.092    22886113.035    93714794.2764   22886113.309  
                
  22084158.281   117720967.865                    91560744.080    22084163.426  
  22084157.938  
  23058974.938   121175718.353    23058981.859    94422656.4664   23058982.246  
                
  24284884.367   127617906.677    24284889.496    99442542.0234                 
                
  21674017.234   115900703.545                    90144990.923    21674022.461  
  21674016.293  
  21457904.453   114543745.674                    89089580.741    21457908.785  
  21457902.918  
  19409023.734   103861599.736                    80781240.312    19409027.336  
  19409021.996  
  20765335.812   109122563.645    20765345.512    85030609.2494   20765345.984  
                
 21  8 14  4 50 40.0000000  0 16G26R 1R16G20G29G18R15G 5G12R14G31G 2
                                R24R18R17G25
  23836911.453   125263806.020    23836921.852    97608213.2974   23836921.727  
                
  22596197.203   120789632.585                    93947510.136    22596203.285  
  22596196.637  
  21758946.422   116232394.104                    90402997.536    21758948.781  
  21758945.859  
  22216251.664   116747193.553    22216258.402    90971868.0924                 
                
  20525583.883   107862673.386    20525590.723    84048865.9924   20525590.836  
                
  22356017.984   117481665.047    22356025.297    91544193.7454   22356025.488  
                
  19650162.250   105004497.332                    81670160.334    19650166.805  
  19650162.441  
  21764970.023   114375693.845    21764977.676    89123956.6834   21764977.637  
                
  22892582.703   120301320.282    22892590.254    93741317.5294   22892590.543  
                
  22092155.055   117763595.825                    91593899.129    22092160.383  
  22092154.812  
  23060581.672   121184161.704    23060588.562    94429235.6954   23060588.969  
                
  24290512.711   127647483.739    24290517.855    99465589.0664                 
                
  21679671.039   115930936.969                    90168505.802    21679676.246  
  21679670.090  
  21453224.820   114518765.436                    89070151.648    21453229.141  
  21453223.320  
  19409560.695   103864473.097                    80783475.158    19409564.289  
  19409558.977  
  20769270.031   109143238.094    20769279.730    85046719.2064   20769280.203  
                
 21  8 14  4 50 50.0000000  0 16G26R 1R16G20G29G18R15G 5G12R14G31G 2
                                R24R18R17G25
  23830745.180   125231402.092    23830755.504    97582963.4754   23830755.383  
                
  22593816.234   120776904.900                    93937610.805    22593822.211  
  22593815.672  
  21753319.414   116202335.641                    90379618.715    21753321.750  
  21753318.852  
  22217858.742   116755638.874    22217865.449    90978448.8654                 
                
  20524650.383   107857767.835    20524657.227    84045043.4844   20524657.336  
                
  22350347.680   117451867.376    22350355.023    91520974.7844   22350355.199  
                
  19652349.891   105016187.393                    81679252.595    19652354.461  
  19652350.098  
  21761948.891   114359817.713    21761956.562    89111585.6804   21761956.508  
                
  22899065.141   120335385.521    22899072.641    93767861.8674   22899072.941  
                
  22100157.609   117806253.800                    91627077.536    22100162.949  
  22100157.344  
  23062199.641   121192664.196    23062206.531    94435861.0124   23062206.910  
                
  24296142.203   127677066.829    24296147.355    99488640.7964                 
                
  21685327.172   115961182.828                    90192030.347    21685332.348  
  21685326.230  
  21448551.547   114493819.245                    89050749.061    21448555.867  
  21448550.055  
  19410105.953   103867390.908                    80785744.556    19410109.539  
  19410104.242  
  20773214.180   109163964.683    20773223.891    85062869.7874   20773224.355  
                
 21  8 14  4 51  0.0000000  0 16G26R 1R16G20G29G18R15G 5G12R14G31G 2
                                R24R18R17G25
  23824583.000   125199019.648    23824593.270    97557730.4124   23824593.191  
                
  22591449.758   120764254.816                    93927771.836    22591455.703  
  22591449.211  
  21747703.750   116172337.865                    90356287.127    21747706.105  
  21747703.184  
  22219477.734   116764146.758    22219484.398    90985078.3724                 
                
  20523723.164   107852895.277    20523730.016    84041246.6894   20523730.121  
                
  22344683.398   117422101.448    22344690.785    91497780.5634   22344690.941  
                
  19654554.133   105027966.166                    81688413.859    19654558.719  
  19654554.355  
  21758939.438   114344002.942    21758947.102    89099262.4774   21758947.062  
                
  22905552.695   120369477.671    22905560.145    93794427.1744   22905560.465  
                
  22108165.703   117848941.579                    91660279.137    22108171.098  
  22108165.457  
  23063828.828   121201225.637    23063835.742    94442532.2484   23063836.098  
                
  24301772.836   127706655.813    24301777.980    99511697.1464                 
                
  21690985.562   115991440.834                    90215564.345    21690990.727  
  21690984.605  
  21443884.648   114468907.038                    89031372.909    21443888.984  
  21443883.133  
  19410659.477   103870352.881                    80788048.312    19410663.047  
  19410657.770  
  20777168.211   109184743.275    20777177.941    85079060.8904   20777178.395  
                
 21  8 14  4 51 10.0000000  0 16G26R 1R16G20G29G18R15G 5G12R14G31G 2
                                R24R18R17G25
  23818424.969   125166658.849    23818435.207    97532514.2124   23818435.105  
                
  22589097.883   120751682.672                    93917993.509    22589103.789  
  22589097.355  
  21742099.531   116142401.123                    90333002.994    21742101.891  
  21742099.000  
  22221108.641   116772717.215    22221115.262    90991756.6484                 
                
  20522802.250   107848055.789    20522809.113    84037475.6564   20522809.211  
                
  22339025.188   117392367.374    22339032.609    91474611.1704   22339032.750  
                
  19656774.984   105039833.714                    81697644.168    19656779.559  
  19656775.223  
  21755941.695   114328249.680    21755949.363    89086987.2184   21755949.320  
                
  22912045.406   120403596.776    22912052.801    93821013.4774   22912053.148  
                
  22116179.406   117891659.133                    91693503.889    22116184.820  
  22116179.172  
  23065469.227   121209846.023    23065476.141    94449249.4264   23065476.492  
                
  24307404.594   127736250.709    24307409.730    99534758.0874                 
                
  21696646.227   116021710.930                    90239107.740    21696651.387  
  21696645.293  
  21439224.086   114444028.718                    89012023.105    21439228.438  
  21439222.559  
  19411221.273   103873359.115                    80790386.486    19411224.836  
  19411219.574  
  20781132.156   109205573.858    20781141.906    85095292.5054   20781142.348  
                
 21  8 14  4 51 20.0000000  0 16G26R 1R16G20G29G18R15G 5G12R14G31G 2
                                R24R18R17G25
  23812271.031   125134319.642    23812281.254    97507314.8374   23812281.141  
                
  22586760.547   120739188.314                    93908275.719    22586766.410  
  22586760.008  
  21736506.703   116112525.259                    90309766.203    21736509.047  
  21736506.191  
  22222751.414   116781350.081    22222758.012    90998483.5624                 
                
  20521887.609   107843249.350    20521894.477    84033730.3794   20521894.570  
                
  22333373.031   117362665.113    22333380.445    91451466.5574   22333380.590  
                
  19659012.422   105051789.862                    81706943.384    19659016.988  
  19659012.668  
  21752955.656   114312557.987    21752963.324    89074759.9364   21752963.281  
                
  22918543.203   120437742.760    22918550.566    93847620.7174   22918550.926  
                
  22124198.633   117934406.094                    91726751.525    22124204.012  
  22124198.402  
  23067120.836   121218525.287    23067127.754    94456012.4874   23067128.094  
                
  24313037.430   127765851.335    24313042.582    99557823.5094                 
                
  21702309.109   116051992.934                    90262660.399    21702314.238  
  21702308.184  
  21434569.875   114419184.303                    88992699.695    21434574.238  
  21434568.312  
  19411791.312   103876409.504                    80792759.014    19411794.875  
  19411789.621  
  20785105.953   109226456.288    20785115.711    85111564.5214   20785116.152  
                
 21  8 14  4 51 30.0000000  0 16G26R 1R16G20G29G18R15G 5G12R14G31G 2
                                R24R18R17G25
  23806121.242   125102002.203    23806131.473    97482132.4124   23806131.316  
                
  22584437.766   120726771.886                    93898618.501    22584443.625  
  22584437.191  
  21730925.336   116082710.645                    90286577.079    21730927.699  
  21730924.855  
  22224406.062   116790045.344    22224412.609    91005259.0834                 
                
  20520979.242   107838475.861    20520986.113    84030010.7804   20520986.207  
                
  22327726.938   117332994.754    22327734.375    91428346.8134   22327734.520  
                
  19661266.391   105063834.369                    81716311.340    19661270.969  
  19661266.645  
  21749981.344   114296927.919    21749988.996    89062580.6724   21749988.957  
                
  22925046.023   120471915.237    22925053.395    93874248.6154   22925053.750  
                
  22132223.383   117977182.499                    91760022.052    22132228.734  
  22132223.137  
  23068783.617   121227263.326    23068790.562    94462821.3394   23068790.906  
                
  24318671.352   127795457.710    24318676.496    99580893.3954                 
                
  21707974.242   116082286.901                    90286222.365    21707979.344  
  21707973.340  
  21429922.031   114394373.837                    88973402.687    21429926.383  
  21429920.449  
  19412369.562   103879503.839                    80795165.729    19412373.117  
  19412367.867  
  20789089.609   109247390.542    20789099.359    85127876.9184   20789099.801  
                
 21  8 14  4 51 40.0000000  0 16G26R 1R16G20G29G18R15G 5G12R14G31G 2
                                R24R18R17G25
  23799975.586   125069706.586    23799985.848    97456967.0054   23799985.660  
                
  22582129.609   120714433.578                    93889022.034    22582135.461  
  22582128.980  
  21725355.438   116052957.312                    90263435.603    21725357.824  
  21725354.953  
  22226072.578   116798802.974    22226079.070    91012083.2194                 
                
  20520077.156   107833735.373    20520084.035    84026316.8974   20520084.117  
                
  22322086.930   117303356.346    22322094.418    91405251.9624   22322094.543  
                
  19663536.945   105075967.545                    81725748.246    19663541.520  
  19663537.207  
  21747018.773   114281359.586    21747026.379    89050449.4914   21747026.348  
                
  22931553.891   120506114.250    22931561.285    93900897.1844   22931561.625  
                
  22140253.641   118019987.984                    91793315.193    22140258.934  
  22140253.352  
  23070457.570   121236060.054    23070464.562    94469675.9334   23070464.891  
                
  24324306.344   127825069.747    24324311.523    99603967.6874                 
                
  21713641.602   116112592.759                    90309793.571    21713646.672  
  21713640.734  
  21425280.594   114369597.497                    88954132.192    21425284.914  
  21425279.031  
  19412956.047   103882642.207                    80797606.672    19412959.582  
  19412954.352  
  20793083.125   109268376.584    20793092.859    85144229.6764   20793093.316  
                
 21  8 14  4 51 50.0000000  0 16G26R 1R16G20G29G18R15G 5G12R14G31G 2
                                R24R18R17G25
  23793834.086   125037432.956    23793844.375    97431818.7304   23793844.191  
                
  22579836.078   120702173.446                    93879486.390    22579841.938  
  22579835.449  
  21719797.109   116023265.741                    90240342.168    21719799.535  
  21719796.648  
  22227750.984   116807623.051    22227757.461    91018956.0184                 
                
  20519181.383   107829028.005    20519188.262    84022648.8104   20519188.336  
                
  22316453.031   117273750.036    22316460.562    91382182.1094   22316460.664  
                
  19665824.109   105088189.394                    81735254.106    19665828.680  
  19665824.375  
  21744067.969   114265852.986    21744075.527    89038366.4324   21744075.531  
                
  22938066.805   120540339.885    22938074.262    93927566.4894   22938074.570  
                
  22148289.375   118062822.825                    91826631.153    22148294.672  
  22148289.078  
  23072142.727   121244915.588    23072149.754    94476576.3394   23072150.047  
                
  24329942.414   127854687.446    24329947.637    99627046.3914                 
                
  21719311.180   116142910.488                    90333374.022    21719316.250  
  21719310.344  
  21420645.555   114344855.262                    88934888.221    21420649.859  
  21420644.008  
  19413550.773   103885824.683                    80800081.926    19413554.309  
  19413549.082  
  20797086.516   109289414.474    20797096.234    85160622.8264   20797096.711  
                
 21  8 14  4 52  0.0000000  0 16G26R 1R16G20G29G18R15G 5G12R14G31G 2
                                R24R18R17G25
  23787696.789   125005181.241    23787707.090    97406687.5374   23787706.914  
                
  22577557.203   120689991.533                    93870011.595    22577563.086  
  22577556.539  
  21714250.312   115993635.721                    90217296.600    21714252.766  
  21714249.852  
  22229441.242   116816505.365    22229447.719    91025877.2974                 
                
  20518291.867   107824353.568    20518298.754    84019006.3974   20518298.836  
                
  22310825.211   117244175.667    22310832.758    91359137.1584   22310832.840  
                
  19668127.781   105100499.472                    81744828.618    19668132.375  
  19668128.043  
  21741128.875   114250408.011    21741136.406    89026331.3894   21741136.418  
                
  22944584.711   120574591.873    22944592.246    93954256.3294   22944592.523  
                
  22156330.523   118105686.465                    91859969.533    22156335.820  
  22156330.234  
  23073839.008   121253829.604    23073846.051    94483522.3054   23073846.344  
                
  24335579.523   127884310.636    24335584.785    99650129.3804                 
                
  21724982.938   116173239.866                    90356963.510    21724988.000  
  21724982.117  
  21416016.828   114320146.796                    88915670.534    21416021.129  
  21416015.281  
  19414153.703   103889051.060                    80802591.327    19414157.234  
  19414152.004  
  20801099.711   109310503.927    20801109.414    85177056.1594   20801109.898  
                
 21  8 14  4 52 10.0000000  0 16G26R 1R16G20G29G18R15G 5G12R14G31G 2
                                R24R18R17G25
  23781563.703   124972951.566    23781573.973    97381573.4934   23781573.785  
                
  22575292.984   120677887.963                    93860597.689    22575298.871  
  22575292.320  
  21708715.008   115964067.141                    90194298.834    21708717.457  
  21708714.566  
  22231143.344   116825449.943    22231149.844    91032847.0884                 
                
  20517408.625   107819712.105    20517415.523    84015389.6744   20517415.586  
                
  22305203.492   117214633.350    22305211.023    91336117.1704   22305211.105  
                
  19670447.977   105112897.882                    81754471.817    19670452.574  
  19670448.230  
  21738201.562   114235024.920    21738209.062    89014344.5704   21738209.070  
                
  22951107.648   120608870.158    22951115.223    93980966.6674   22951115.488  
                
  22164377.094   118148578.798                    91893330.218    22164382.363  
  22164376.773  
  23075546.414   121262802.066    23075553.488    94490513.8374   23075553.773  
                
  24341217.656   127913939.258    24341222.922    99673216.6084                 
                
  21730656.891   116203580.956                    90380562.116    21730661.930  
  21730656.070  
  21411394.469   114295472.356                    88896479.330    21411398.781  
  21411392.922  
  19414764.820   103892321.197                    80805134.764    19414768.348  
  19414763.129  
  20805122.727   109331644.970    20805132.418    85193529.6954   20805132.918  
                
 21  8 14  4 52 20.0000000  0 16G26R 1R16G20G29G18R15G 5G12R14G31G 2
                                R24R18R17G25
  23775434.820   124940744.052    23775445.066    97356476.7244   23775444.887  
                
  22573043.398   120665862.704                    93851244.718    22573049.309  
  22573042.773  
  21703191.305   115934560.511                    90171349.219    21703193.738  
  21703190.914  
  22232857.312   116834456.900    22232863.824    91039865.4924                 
                
  20516531.664   107815103.600    20516538.574    84011798.6274   20516538.625  
                
  22299587.883   117185123.165    22299595.391    91313122.2254   22299595.469  
                
  19672784.695   105125384.567                    81764183.672    19672789.293  
  19672784.953  
  21735286.047   114219703.830    21735293.516    89002406.0634   21735293.535  
                
  22957635.625   120643174.770    22957643.180    94007697.5194   22957643.434  
                
  22172428.969   118191499.770                    91926713.177    22172434.266  
  22172428.672  
  23077264.961   121271832.998    23077272.086    94497550.9294   23077272.359  
                
  24346856.828   127943573.340    24346862.113    99696308.0794                 
                
  21736332.992   116233933.510                    90404169.661    21736338.027  
  21736332.203  
  21406778.484   114270831.880                    88877314.505    21406782.773  
  21406776.949  
  19415384.125   103895635.223                    80807712.341    19415387.645  
  19415382.438  
  20809155.555   109352837.578    20809165.250    85210043.4114   20809165.746  
                
 21  8 14  4 52 30.0000000  0 16G26R 1R16G20G29G18R15G 5G12R14G31G 2
                                R24R18R17G25
  23769310.117   124908558.645    23769320.352    97331397.2094   23769320.176  
                
  22570808.484   120653915.758                    93841952.638    22570814.359  
  22570807.867  
  21697679.195   115905115.827                    90148447.807    21697681.609  
  21697678.836  
  22234583.109   116843525.993    22234589.637    91046932.3294                 
                
  20515660.945   107810527.982    20515667.871    84008233.2084   20515667.906  
                
  22293978.375   117155645.019    22293985.852    91290152.2414   22293985.941  
                
  19675137.906   105137959.378                    81773964.081    19675142.492  
  19675138.168  
  21732382.320   114204444.664    21732389.777    88990515.8074   21732389.805  
                
  22964168.578   120677505.479    22964176.082    94034448.7114   22964176.328  
                
  22180486.102   118234449.058                    91960118.155    22180491.473  
  22180485.875  
  23078994.602   121280922.250    23079001.789    94504633.4534   23079002.035  
                
  24352497.000   127973212.687    24352502.348    99719403.6674                 
                
  21742011.258   116264297.667                    90427786.196    21742016.270  
  21742010.484  
  21402168.859   114246225.378                    88858176.118    21402173.148  
  21402167.332  
  19416011.578   103898992.832                    80810323.807    19416015.090  
  19416009.895  
  20813198.148   109374081.567    20813207.848    85226597.1664   20813208.336  
                
 21  8 14  4 52 40.0000000  0 16G26R 1R16G20G29G18R15G 5G12R14G31G 2
                                R24R18R17G25
  23763189.695   124876395.662    23763199.863    97306335.1274   23763199.719  
                
  22568588.281   120642047.548                    93832721.821    22568594.191  
  22568587.688  
  21692178.711   115875733.227                    90125594.687    21692181.137  
  21692178.383  
  22236320.734   116852657.241    22236327.273    91054047.5854                 
                
  20514796.547   107805985.510    20514803.488    84004693.6184   20514803.512  
                
  22288375.023   117126199.191    22288382.484    91267207.4464   22288382.562  
                
  19677507.633   105150622.473                    81783813.149    19677512.219  
  19677507.914  
  21729490.422   114189247.696    21729497.898    88978674.0204   21729497.906  
                
  22970706.508   120711862.411    22970713.961    94061220.3334   22970714.230  
                
  22188548.492   118277426.898                    91993545.339    22188554.016  
  22188548.387  
  23080735.352   121290069.949    23080742.582    94511761.5114   23080742.824  
                
  24358138.211   128002857.447    24358143.594    99742503.4594                 
                
  21747691.664   116294673.230                    90451411.640    21747696.703  
  21747690.926  
  21397565.602   114221652.870                    88839064.183    21397569.906  
  21397564.086  
  19416647.219   103902394.253                    80812969.360    19416650.723  
  19416645.531  
  20817250.562   109395377.124    20817260.262    85243191.0974   20817260.750  
                
 21  8 14  4 52 50.0000000  0 16G26R 1R16G20G29G18R15G 5G12R14G31G 2
                                R24R18R17G25
  23757073.508   124844254.990    23757083.656    97281290.4574   23757083.535  
                
  22566382.773   120630257.855                    93823552.057    22566388.707  
  22566382.137  
  21686689.875   115846412.894                    90102789.977    21686692.324  
  21686689.570  
  22238070.164   116861850.531    22238076.707    91061211.1784                 
                
  20513938.398   107801475.945    20513945.348    84001179.6714   20513945.355  
                
  22282777.781   117096785.559    22282785.234    91244287.7324   22282785.309  
                
  19679893.836   105163373.590                    81793730.678    19679898.422  
  19679894.125  
  21726610.328   114174112.748    21726617.816    88966880.5634   21726617.820  
                
  22977249.398   120746245.339    22977256.805    94088012.2144   22977257.121  
                
  22196616.188   118320432.677                    92026994.250    22196621.789  
  22196616.137  
  23082487.180   121299275.829    23082494.453    94518934.9134   23082494.688  
                
  24363780.398   128032507.380    24363785.812    99765607.2814                 
                
  21753374.242   116325060.483                    90475046.168    21753379.297  
  21753373.555  
  21392968.695   114197114.301                    88819978.646    21392972.992  
  21392967.188  
  19417290.992   103905839.204                    80815648.768    19417294.496  
  19417289.293  
  20821312.742   109416724.000    20821322.434    85259825.0164   20821322.934  
                
 21  8 14  4 53  0.0000000  0 16G26R 1R16G20G29G18R15G 5G12R14G31G 2
                                R24R18R17G25
  23750961.758   124812137.457    23750971.930    97256263.8064   23750971.793  
                
  22564192.094   120618547.443                    93814444.029    22564198.086  
  22564191.406  
  21681212.852   115817155.604                    90080034.324    21681215.285  
  21681212.559  
  22239831.539   116871106.555    22239838.082    91068423.6534                 
                
  20513086.680   107797000.111    20513093.633    83997692.0024   20513093.629  
                
  22277186.820   117067404.860    22277194.285    91221393.6974   22277194.363  
                
  19682296.656   105176213.485                    81803717.264    19682301.258  
  19682296.945  
  21723742.195   114159040.627    21723749.672    88955136.0594   21723749.688  
                
  22983797.367   120780654.912    22983804.754    94114824.8514   22983805.082  
                
  22204689.414   118363467.151                    92060465.510    22204694.969  
  22204689.258  
  23084250.219   121308540.577    23084257.551    94526154.1954   23084257.746  
                
  24369423.719   128062163.076    24369429.172    99788715.5954                 
                
  21759059.031   116355459.500                    90498689.836    21759064.078  
  21759058.324  
  21388378.312   114172610.467                    88800920.110    21388382.602  
  21388376.785  
  19417943.047   103909328.476                    80818362.645    19417946.551  
  19417941.336  
  20825384.812   109438122.834    20825394.512    85276499.4244   20825395.016  
                
 21  8 14  4 53 10.0000000  0 16G26R 1R16G20G29G18R15G 5G12R14G31G 2
                                R24R18R17G25
  23744854.109   124780041.702    23744864.367    97231254.1634   23744864.215  
                
  22562015.984   120606915.033                    93805396.607    22562022.004  
  22562015.234  
  21675747.367   115787959.908                    90057326.546    21675749.742  
  21675747.078  
  22241604.570   116880423.887    22241611.125    91075683.9114                 
                
  20512241.102   107792556.562    20512248.055    83994229.4994   20512248.043  
                
  22271601.852   117038055.751    22271609.340    91198524.2694   22271609.414  
                
  19684715.781   105189140.557                    81813771.646    19684720.402  
  19684716.059  
  21720885.789   114144030.093    21720893.246    88943439.5434   21720893.270  
                
  22990350.094   120815089.602    22990357.480    94141657.0684   22990357.816  
                
  22212767.688   118406528.765                    92093957.871    22212773.203  
  22212767.508  
  23086024.180   121317862.740    23086031.586    94533418.2154   23086031.750  
                
  24375067.852   128091823.125    24375073.309    99811827.3144                 
                
  21764745.781   116385869.125                    90522341.749    21764750.848  
  21764745.020  
  21383794.172   114148139.979                    88781887.520    21383798.438  
  21383792.641  
  19418603.078   103912860.411                    80821109.708    19418606.586  
  19418601.352  
  20829466.500   109459572.195    20829476.215    85293213.2114   20829476.699  
                
 21  8 14  4 53 20.0000000  0 16G26R 1R16G20G29G18R15G 5G12R14G31G 2
                                R24R18R17G25
  23738750.844   124747969.013    23738761.164    97206262.4694   23738761.012  
                
  22559854.727   120595361.982                    93796410.915    22559860.793  
  22559853.926  
  21670293.688   115758827.359                    90034667.911    21670296.074  
  21670293.418  
  22243389.492   116889803.667    22243396.062    91082992.8424                 
                
  20511401.906   107788146.534    20511408.855    83990793.1134   20511408.844  
                
  22266023.148   117008739.452    22266030.688    91175680.4034   22266030.738  
                
  19687151.445   105202155.959                    81823894.728    19687156.070  
  19687151.719  
  21718041.344   114129082.432    21718048.789    88931792.0104   21718048.824  
                
  22996907.891   120849550.583    22996915.223    94168509.7764   22996915.555  
                
  22220851.234   118449618.382                    92127471.991    22220856.680  
  22220851.004  
  23087809.289   121327243.473    23087816.758    94540727.8584   23087816.871  
                
  24380713.031   128121488.659    24380718.531    99834943.2994                 
                
  21770434.656   116416290.136                    90546002.522    21770439.723  
  21770433.902  
  21379216.453   114123703.834                    88762881.634    21379220.688  
  21379214.922  
  19419271.312   103916436.303                    80823890.963    19419274.824  
  19419269.586  
  20833558.016   109481073.200    20833567.723    85309967.2334   20833568.207  
                
 21  8 14  4 53 30.0000000  0 16G26R 1R16G20G29G18R15G 5G12R14G31G 2
                                R24R18R17G25
  23732651.891   124715919.016    23732662.254    97181288.4634   23732662.086  
                
  22557708.258   120583887.959                    93787486.655    22557714.309  
  22557707.500  
  21664851.750   115729757.442                    90012057.986    21664854.090  
  21664851.473  
  22245186.188   116899245.358    22245192.758    91090349.9864                 
                
  20510568.969   107783769.491    20510575.906    83987382.4304   20510575.898  
                
  22260450.586   116979455.552    22260458.188    91152861.7854   22260458.207  
                
  19689603.547   105215259.250                    81834086.165    19689608.180  
  19689603.801  
  21715208.773   114114197.200    21715216.234    88920193.1284   21715216.258  
                
  23003470.516   120884037.324    23003477.852    94195382.5474   23003478.172  
                
  22228940.039   118492735.756                    92161007.709    22228945.371  
  22228939.727  
  23089605.438   121336682.220    23089612.930    94548082.7224   23089613.016  
                
  24386359.156   128151159.157    24386364.723    99858063.1444                 
                
  21776125.688   116446722.609                    90569672.205    21776130.738  
  21776124.926  
  21374645.117   114099301.783                    88743902.260    21374649.328  
  21374643.621  
  19419947.656   103920055.586                    80826705.957    19419951.176  
  19419945.906  
  20837659.250   109502625.335    20837668.945    85326761.0954   20837669.453  
                
 21  8 14  4 53 40.0000000  0 16G26R 1R16G20G29G18R15G 5G12R14G31G 2
                                R24R18R17G25
  23726557.359   124683892.012    23726567.727    97156332.3614   23726567.566  
                
  22555576.609   120572493.043                    93778623.933    22555582.699  
  22555575.863  
  21659421.672   115700750.885                    89989497.324    21659423.984  
  21659421.371  
  22246994.711   116908749.194    22247001.262    91097755.5954                 
                
  20509742.367   107779425.678    20509749.285    83983997.6394   20509749.293  
                
  22254884.234   116950204.299    22254891.891    91130068.6084   22254891.887  
                
  19692072.125   105228450.586                    81844346.090    19692076.762  
  19692072.367  
  21712388.148   114099374.742    21712395.633    88908643.1794   21712395.633  
                
  23010038.031   120918549.899    23010045.426    94222275.4414   23010045.734  
                
  22237033.945   118535880.512                    92194564.728    22237039.211  
  22237033.602  
  23091412.648   121346179.137    23091420.125    94555482.9064   23091420.227  
                
  24392006.250   128180834.755    24392011.867    99881186.9634                 
                
  21781818.805   116477166.261                    90593350.593    21781823.836  
  21781818.047  
  21370080.180   114074933.856                    88724949.435    21370084.383  
  21370078.676  
  19420632.117   103923718.284                    80829554.722    19420635.637  
  19420630.363  
  20841770.250   109524228.731    20841779.938    85343594.9114   20841780.457  
                
 21  8 14  4 53 50.0000000  0 16G26R 1R16G20G29G18R15G 5G12R14G31G 2
                                R24R18R17G25
  23720467.203   124651888.089    23720477.605    97131394.2274   23720477.395  
                
  22553459.773   120561177.289                    93769822.795    22553465.895  
  22553459.031  
  21654003.406   115671807.411                    89966985.758    21654005.715  
  21654003.094  
  22248815.055   116918315.096    22248821.570    91105209.5284                 
                
  20508922.109   107775115.163    20508929.008    83980638.7974   20508929.027  
                
  22249324.125   116920985.758    22249331.809    91107300.9234   22249331.793  
                
  19694557.172   105241729.868                    81854674.418    19694561.816  
  19694557.410  
  21709579.484   114084615.141    21709586.980    88897142.2034   21709586.977  
                
  23016610.406   120953088.288    23016617.891    94249188.4434   23016618.199  
                
  22245132.992   118579052.888                    92228143.215    22245138.258  
  22245132.617  
  23093230.891   121355733.985    23093238.352    94562928.2494   23093238.457  
                
  24397654.359   128210515.492    24397659.977    99904314.7854                 
                
  21787514.023   116507621.062                    90617037.646    21787519.047  
  21787513.273  
  21365521.664   114050600.146                    88706023.213    21365525.859  
  21365520.145  
  19421324.727   103927424.579                    80832437.402    19421328.266  
  19421322.961  
  20845891.000   109545883.397    20845900.691    85360468.6734   20845901.207  
                
 21  8 14  4 54  0.0000000  0 16G26R 1R16G20G29G18R15G 5G12R14G31G 2
                                R24R18R17G25
  23714381.422   124619907.263    23714391.848    97106474.1114   23714391.641  
                
  22551357.750   120549940.867                    93761083.347    22551363.914  
  22551357.051  
  21648596.992   115642927.241                    89944523.401    21648599.262  
  21648596.660  
  22250647.188   116927942.996    22250653.672    91112711.7934                 
                
  20508108.164   107770837.842    20508115.047    83977305.8154   20508115.082  
                
  22243770.234   116891799.915    22243777.934    91084558.7244   22243777.922  
                
  19697058.633   105255096.925                    81865071.006    19697063.285  
  19697058.875  
  21706782.742   114069918.177    21706790.211    88885690.0194   21706790.227  
                
  23023187.641   120987652.342    23023195.211    94276121.4494   23023195.543  
                
  22253237.148   118622252.512                    92261742.903    22253242.422  
  22253236.734  
  23095060.172   121365346.889    23095067.598    94570418.8084   23095067.703  
                
  24403303.414   128240201.248    24403309.066    99927446.5364                 
                
  21793211.328   116538087.015                    90640733.381    21793216.328  
  21793210.574  
  21360969.523   114026300.552                    88687123.543    21360973.723  
  21360967.992  
  19422025.445   103931174.289                    80835353.835    19422028.988  
  19422023.656  
  20850021.484   109567589.181    20850031.172    85377382.2574   20850031.695  
                
 21  8 14  4 54 10.0000000  0 16G26R 1R16G20G29G18R15G 5G12R14G31G 2
                                R24R18R17G25
  23708300.086   124587949.707    23708310.520    97081572.1274   23708310.320  
                
  22549270.609   120538783.976                    93752405.787    22549276.812  
  22549269.930  
  21643202.469   115614110.631                    89922110.479    21643204.723  
  21643202.156  
  22252491.125   116937632.961    22252497.562    91120262.4154                 
                
  20507300.555   107766593.780    20507307.418    83973998.7524   20507307.465  
                
  22238222.586   116862646.901    22238230.305    91061842.0924   22238230.285  
                
  19699576.555   105268551.889                    81875535.984    19699581.207  
  19699576.801  
  21703997.977   114055284.158    21704005.398    88874286.8844   21704005.445  
                
  23029769.844   121022242.088    23029777.406    94303074.4774   23029777.754  
                
  22261346.406   118665479.300                    92295363.707    22261351.695  
  22261345.969  
  23096900.508   121375017.887    23096907.863    94577954.6404   23096907.980  
                
  24408953.406   128269892.026    24408959.109    99950582.1884                 
                
  21798910.703   116568564.064                    90664437.744    21798915.719  
  21798909.957  
  21356423.828   114002035.342                    88668250.602    21356428.051  
  21356422.289  
  19422734.281   103934967.388                    80838304.028    19422737.820  
  19422732.461  
  20854161.695   109589346.117    20854171.398    85394335.7124   20854171.926  
                
 21  8 14  4 54 20.0000000  0 16G26R 1R16G20G29G18R15G 5G12R14G31G 2
                                R24R18R17G25
  23702223.211   124556015.454    23702233.609    97056688.3054   23702233.430  
                
  22547198.320   120527706.537                    93743790.027    22547204.570  
  22547197.656  
  21637819.828   115585357.558                    89899746.995    21637822.094  
  21637819.504  
  22254346.867   116947384.893    22254353.285    91127861.3254                 
                
  20506499.273   107762383.035    20506506.125    83970717.6524   20506506.184  
                
  22232681.180   116833526.716    22232688.926    91039151.0454   22232688.906  
                
  19702110.883   105282094.566                    81886069.174    19702115.551  
  19702111.121  
  21701225.188   114040713.112    21701232.555    88862932.8314   21701232.637  
                
  23036356.945   121056857.474    23036364.496    94330047.4894   23036364.852  
                
  22269460.781   118708733.091                    92329005.535    22269466.039  
  22269460.332  
  23098751.875   121384746.827    23098759.137    94585535.6364   23098759.312  
                
  24414604.305   128299587.617    24414610.043    99973721.6004                 
                
  21804612.109   116599051.998                    90688150.561    21804617.168  
  21804611.375  
  21351884.531   113977804.266                    88649404.231    21351888.758  
  21351883.008  
  19423451.211   103938803.869                    80841287.955    19423454.766  
  19423449.367  
  20858311.625   109611154.115    20858321.367    85411328.9504   20858321.891  
                
 21  8 14  4 54 30.0000000  0 16G26R 1R16G20G29G18R15G 5G12R14G31G 2
                                R24R18R17G25
  23696150.734   124524104.261    23696161.133    97031822.4414   23696160.934  
                
  22545140.875   120516708.357                    93735235.897    22545147.129  
  22545140.230  
  21632449.055   115556667.781                    89877432.720    21632451.301  
  21632448.707  
  22256214.328   116957198.417    22256220.742    91135508.2254                 
                
  20505704.273   107758205.252    20505711.117    83967462.2414   20505711.180  
                
  22227145.984   116804439.048    22227153.738    91016485.3264   22227153.723  
                
  19704661.555   105295724.574                    81896670.283    19704666.246  
  19704661.789  
  21698464.320   114026204.650    21698471.645    88851627.5434   21698471.758  
                
  23042948.836   121091498.019    23042956.391    94357040.1084   23042956.758  
                
  22277580.102   118752013.313                    92362667.920    22277585.344  
  22277579.629  
  23100614.180   121394533.240    23100621.352    94593161.4084   23100621.578  
                
  24420256.062   128329287.669    24420261.836    99996864.4664                 
                
  21810315.523   116629550.647                    90711871.712    21810320.633  
  21810314.812  
  21347351.617   113953607.207                    88630584.301    21347355.836  
  21347350.090  
  19424176.133   103942683.095                    80844305.135    19424179.699  
  19424174.273  
  20862471.195   109633012.756    20862480.980    85428361.6444   20862481.492  
                
 21  8 14  4 54 40.0000000  0 16G26R 1R16G20G29G18R15G 5G12R14G31G 2
                                R24R18R17G25
  23690082.680   124492216.310    23690093.090    97006974.6884   23690092.898  
                
  22543098.289   120505789.655                    93726743.569    22543104.504  
  22543097.648  
  21627090.188   115528041.717                    89855168.003    21627092.410  
  21627089.793  
  22258093.516   116967073.619    22258099.934    91143203.1804                 
                
  20504915.547   107754060.495    20504922.379    83964232.5574   20504922.445  
                
  22221616.992   116775384.063    22221624.766    90993845.0944   22221624.738  
                
  19707228.602   105309442.080                    81907339.451    19707233.297  
  19707228.832  
  21695715.398   114011758.969    21695722.711    88840371.1734   21695722.820  
                
  23049545.539   121126163.862    23049553.090    94384052.4344   23049553.465  
                
  22285704.305   118795320.157                    92396350.996    22285709.613  
  22285703.906  
  23102487.438   121404377.236    23102494.555    94600832.0384   23102494.797  
                
  24425908.695   128358992.291    24425914.504   100020010.9114                 
                
  21816020.930   116660059.947                    90735601.148    21816026.055  
  21816020.219  
  21342825.047   113929444.106                    88611790.791    21342829.258  
  21342823.516  
  19424909.102   103946605.411                    80847355.826    19424912.684  
  19424907.246  
  20866640.406   109654922.108    20866650.234    85445433.8574   20866650.730  
                
 21  8 14  4 54 50.0000000  0 16G26R 1R16G20G29G18R15G 5G12R14G31G 2
                                R24R18R17G25
  23684019.086   124460351.899    23684029.543    96982145.2934   23684029.344  
                
  22541070.617   120494950.718                    93718313.300    22541076.844  
  22541069.961  
  21621743.312   115499479.696                    89832953.112    21621745.527  
  21621742.875  
  22259984.469   116977010.629    22259990.891    91150946.3034                 
                
  20504133.156   107749948.984    20504139.984    83961028.7864   20504140.062  
                
  22216094.281   116746362.032    22216102.074    90971230.5264   22216102.039  
                
  19709812.008   105323246.996                    81918076.597    19709816.711  
  19709812.238  
  21692978.500   113997376.450    21692985.844    88829164.0204   21692985.918  
                
  23056147.086   121160855.013    23056154.582    94411084.4784   23056154.965  
                
  22293833.562   118838653.434                    92430054.638    22293838.844  
  22293833.160  
  23104371.688   121414278.948    23104378.789    94608547.6464   23104379.016  
                
  24431562.219   128388701.626    24431568.070   100043161.0214                 
                
  21821728.352   116690580.006                    90759338.960    21821733.473  
  21821727.621  
  21338304.875   113905315.188                    88593023.857    21338309.082  
  21338303.324  
  19425650.148   103950570.884                    80850440.080    19425653.742  
  19425648.289  
  20870819.305   109676882.317    20870829.176    85462545.7064   20870829.637  
                
 21  8 14  4 55  0.0000000  0 16G26R 1R16G20G29G18R15G 5G12R14G31G 2
                                R24R18R17G25
  23677959.977   124428511.085    23677970.473    96957334.2714   23677970.270  
                
  22539057.859   120484191.467                    93709945.001    22539064.094  
  22539057.195  
  21616408.422   115470981.753                    89810788.056    21616410.637  
  21616407.984  
  22261887.180   116987009.407    22261893.613    91158737.5564                 
                
  20503357.086   107745870.695    20503363.914    83957850.8944   20503363.992  
                
  22210577.844   116717372.930    22210585.633    90948641.6194   22210585.602  
                
  19712411.789   105337139.455                    81928881.838    19712416.496  
  19712412.012  
  21690253.602   113983056.986    21690260.969    88818005.9984   21690261.004  
                
  23062753.430   121195571.292    23062760.871    94438136.1174   23062761.262  
                
  22301967.719   118882013.045                    92463778.741    22301973.035  
  22301967.359  
  23106266.891   121424238.248    23106274.000    94616308.1344   23106274.223  
                
  24437216.602   128418415.471    24437222.504   100066314.6584                 
                
  21827437.781   116721110.789                    90783085.110    21827442.895  
  21827437.004  
  21333791.102   113881220.463                    88574283.519    21333795.309  
  21333789.539  
  19426399.227   103954579.359                    80853557.777    19426402.840  
  19426397.363  
  20875007.859   109698893.277    20875017.762    85479697.0964   20875018.203  
                
 21  8 14  4 55 10.0000000  0 16G26R 1R16G20G29G18R15G 5G12R14G31G 2
                                R24R18R17G25
  23671905.406   124396694.068    23671915.953    96932541.8034   23671915.727  
                
  22537060.102   120473512.283                    93701638.964    22537066.293  
  22537059.441  
  21611085.609   115442548.234                    89788673.102    21611087.805  
  21611085.164  
  22263801.648   116997070.016    22263808.082    91166576.9794                 
                
  20502587.367   107741825.788    20502594.203    83954699.0224   20502594.273  
                
  22205067.703   116688416.967    22205075.492    90926078.5374   22205075.465  
                
  19715027.953   105351119.407                    81939755.134    19715032.676  
  19715028.172  
  21687540.773   113968800.949    21687548.133    88806897.3924   21687548.148  
                
  23069364.633   121230312.858    23069371.965    94465207.4604   23069372.355  
                
  22310106.922   118925399.054                    92497523.398    22310112.191  
  22310106.520  
  23108173.078   121434255.251    23108180.191    94624113.5774   23108180.398  
                
  24442871.867   128448134.012    24442877.828   100089471.9374                 
                
  21833149.227   116751652.353                    90806839.653    21833154.336  
  21833148.457  
  21329283.766   113857160.087                    88555569.900    21329288.000  
  21329282.164  
  19427156.383   103958631.076                    80856709.108    19427160.004  
  19427154.504  
  20879206.094   109720955.101    20879216.027    85496888.1234   20879216.445  
                
 21  8 14  4 55 20.0000000  0 16G26R 1R16G20G29G18R15G 5G12R14G31G 2
                                R24R18R17G25
  23665855.305   124364900.614    23665865.859    96907767.6744   23665865.613  
                
  22535077.242   120462912.836                    93693394.931    22535083.414  
  22535076.566  
  21605774.742   115414178.540                    89766607.781    21605776.953  
  21605774.273  
  22265727.812   117007192.068    22265734.227    91174464.3024                 
                
  20501823.922   107737813.864    20501830.777    83951572.8474   20501830.836  
                
  22199563.797   116659493.844    22199571.598    90903541.0454   22199571.574  
                
  19717660.398   105365186.402                    81950696.122    19717665.125  
  19717660.609  
  21684839.984   113954608.175    21684847.320    88795838.0874   21684847.340  
                
  23075980.531   121265079.324    23075987.773    94492298.1974   23075988.188  
                
  22318250.922   118968810.934                    92531288.179    22318256.188  
  22318250.523  
  23110090.133   121444329.443    23110097.223    94631963.5844   23110097.426  
                
  24448527.969   128477856.896    24448533.961   100112632.6064                 
                
  21838862.609   116782204.389                    90830602.349    21838867.730  
  21838861.828  
  21324782.797   113833133.706                    88536882.732    21324787.047  
  21324781.188  
  19427921.492   103962725.376                    80859893.563    19427925.113  
  19427919.613  
  20883413.930   109743067.384    20883423.891    85514118.4634   20883424.289  
                
 21  8 14  4 55 30.0000000  0 16G26R 1R16G20G29G18R15G 5G12R14G31G 2
                                R24R18R17G25
  23659809.719   124333130.982    23659820.273    96883012.1144   23659820.016  
                
  22533109.336   120452393.272                    93685213.067    22533115.516  
  22533108.637  
  21600475.977   115385873.479                    89744592.733    21600478.184  
  21600475.504  
  22267665.711   117017375.783    22267672.117    91182399.6584                 
                
  20501066.812   107733835.205    20501073.688    83948472.5964   20501073.738  
                
  22194066.188   116630603.792    22194074.008    90881029.3234   22194073.980  
                
  19720309.195   105379340.749                    81961705.058    19720313.914  
  19720309.406  
  21682151.227   113940478.643    21682158.527    88784828.0634   21682158.559  
                
  23082601.055   121299870.828    23082608.336    94519408.4414   23082608.766  
                
  22326399.805   119012248.662                    92565073.059    22326405.035  
  22326399.371  
  23112018.133   121454461.085    23112025.188    94639858.3684   23112025.410  
                
  24454184.930   128507584.241    24454190.930   100135796.7564                 
                
  21844577.953   116812766.902                    90854373.172    21844583.098  
  21844577.172  
  21320288.242   113809141.494                    88518222.127    21320292.492  
  21320286.648  
  19428694.633   103966862.622                    80863111.419    19428698.266  
  19428692.746  
  20887631.391   109765230.257    20887641.367    85531388.2254   20887641.750  
                
 21  8 14  4 55 40.0000000  0 16G26R 1R16G20G29G18R15G 5G12R14G31G 2
                                R24R18R17G25
  23653768.703   124301385.273    23653779.250    96858275.2264   23653779.008  
                
  22531156.383   120441953.667                    93677093.382    22531162.527  
  22531155.641  
  21595189.289   115357633.019                    89722627.958    21595191.520  
  21595188.824  
  22269615.336   117027621.054    22269621.746    91190383.0014                 
                
  20500316.023   107729889.738    20500322.918    83945398.2044   20500322.961  
                
  22188574.891   116601746.842    22188582.688    90858543.4014   22188582.691  
                
  19722974.281   105393582.121                    81972781.666    19722978.992  
  19722974.484  
  21679474.539   113926412.491    21679481.816    88773867.4354   21679481.852  
                
  23089226.352   121334687.230    23089233.680    94546538.0874   23089234.117  
                
  22334553.500   119055712.116                    92598877.953    22334558.680  
  22334553.012  
  23113957.055   121464650.086    23113964.074    94647797.8414   23113964.316  
                
  24459842.711   128537315.893    24459848.699   100158964.2664                 
                
  21850295.266   116843339.861                    90878152.107    21850300.410  
  21850294.520  
  21315800.102   113785183.470                    88499588.135    21315804.383  
  21315798.527  
  19429475.773   103971042.626                    80866362.533    19429479.414  
  19429473.883  
  20891858.477   109787443.665    20891868.465    85548697.3694   20891868.836  
                
 21  8 14  4 55 50.0000000  0 16G26R 1R16G20G29G18R15G 5G12R14G31G 2
                                R24R18R17G25
  23647732.219   124269663.362    23647742.719    96833556.8564   23647742.477  
                
  22529218.367   120431593.963                    93669035.857    22529224.516  
  22529217.574  
  21589914.680   115329457.092                    89700713.357    21589916.883  
  21589914.219  
  22271576.609   117037927.647    22271583.023    91198414.1004                 
                
  20499571.523   107725977.374    20499578.430    83942349.6074   20499578.453  
                
  22183089.859   116572922.865    22183097.641    90836083.1574   22183097.664  
                
  19725655.641   105407910.509                    81983925.963    19725660.348  
  19725655.844  
  21676809.883   113912409.667    21676817.152    88762956.1404   21676817.188  
                
  23095856.375   121369528.242    23095863.723    94573686.9214   23095864.152  
                
  22342711.891   119099200.981                    92632702.604    22342717.094  
  22342711.406  
  23115906.812   121474896.154    23115913.805    94655781.7844   23115914.078  
                
  24465501.305   128567051.798    24465507.230   100182135.0914                 
                
  21856014.492   116873923.042                    90901939.043    21856019.617  
  21856013.781  
  21311318.305   113761259.413                    88480980.537    21311322.570  
  21311316.758  
  19430264.852   103975265.161                    80869646.720    19430268.488  
  19430262.969  
  20896095.109   109809707.329    20896105.117    85566045.6704   20896105.469  
                
 21  8 14  4 56  0.0000000  0 16G26R 1R16G20G29G18R15G 5G12R14G31G 2
                                R24R18R17G25
  23641700.367   124237965.732    23641710.820    96808857.3924   23641710.598  
                
  22527295.414   120421314.775                    93661040.928    22527301.531  
  22527294.570  
  21584652.258   115301346.238                    89678849.350    21584654.438  
  21584651.766  
  22273549.633   117048295.924    22273556.062    91206493.2884                 
                
  20498833.398   107722098.458    20498840.297    83939327.0744   20498840.324  
                
  22177611.188   116544132.263    22177618.945    90813648.9154   22177618.988  
                
  19728353.305   105422325.992                    81995138.006    19728358.008  
  19728353.496  
  21674157.375   113898470.603    21674164.676    88752094.5404   21674164.707  
                
  23102491.141   121404394.221    23102498.570    94600855.1974   23102498.969  
                
  22350875.086   119142715.541                    92666547.249    22350880.340  
  22350874.625  
  23117867.523   121485199.614    23117874.512    94663810.4614   23117874.797  
                
  24471160.727   128596792.058    24471166.602   100205309.3214                 
                
  21861735.633   116904516.482                    90925733.926    21861740.754  
  21861734.918  
  21306842.977   113737369.837                    88462399.740    21306847.227  
  21306841.418  
  19431061.953   103979530.590                    80872964.284    19431065.602  
  19431060.082  
  20900341.383   109832021.606    20900351.391    85583433.4124   20900351.727  
                
 21  8 14  4 56 10.0000000  0 16G26R 1R16G20G29G18R15G 5G12R14G31G 2
                                R24R18R17G25
  23635673.094   124206292.278    23635683.516    96784176.8044   23635683.316  
                
  22525387.500   120411115.916                    93653108.498    22525393.602  
  22525386.633  
  21579401.969   115273300.304                    89657035.858    21579404.176  
  21579401.441  
  22275534.359   117058725.752    22275540.824    91214620.4154                 
                
  20498101.594   107718252.837    20498108.477    83936330.4864   20498108.504  
                
  22172138.828   116515374.952    22172146.574    90791240.6364   22172146.641  
                
  19731067.266   105436828.572                    82006417.775    19731071.961  
  19731067.469  
  21671516.961   113884595.151    21671524.281    88741282.5064   21671524.297  
                
  23109130.555   121439284.994    23109138.145    94628042.7614   23109138.508  
                
  22359043.000   119186255.450                    92700411.600    22359048.281  
  22359042.602  
  23119839.094   121495560.252    23119846.105    94671883.6764   23119846.367  
                
  24476820.922   128626536.601    24476826.820   100228486.8584                 
                
  21867458.727   116935120.443                    90949536.984    21867463.863  
  21867458.000  
  21302374.031   113713514.367                    88443845.509    21302378.258  
  21302372.477  
  19431867.039   103983838.807                    80876315.117    19431870.688  
  19431865.164  
  20904597.242   109854386.276    20904607.227    85600860.4174   20904607.566  
                
 21  8 14  4 56 20.0000000  0 16G26R 1R16G20G29G18R15G 5G12R14G31G 2
                                R24R18R17G25
  23629650.492   124174643.234    23629660.906    96759515.2104   23629660.715  
                
  22523494.641   120400997.562                    93645238.660    22523500.770  
  22523493.789  
  21574163.945   115245319.770                    89635273.221    21574166.184  
  21574163.410  
  22277530.812   117069217.180    22277537.344    91222795.5474                 
                
  20497376.156   107714440.619    20497383.023    83933359.9254   20497383.066  
                
  22166672.844   116486651.061    22166680.574    90768858.3894   22166680.668  
                
  19733797.516   105451418.161                    82017765.230    19733802.215  
  19733797.730  
  21668888.695   113870783.510    21668896.023    88730520.1864   21668896.039  
                
  23115774.734   121474200.640    23115782.445    94655249.7364   23115782.793  
                
  22367215.727   119229820.664                    92734295.644    22367221.012  
  22367215.352  
  23121821.555   121505978.069    23121828.578    94680001.4434   23121828.840  
                
  24482481.930   128656285.435    24482487.859   100251667.7364                 
                
  21873183.766   116965734.781                    90973348.155    21873188.906  
  21873182.988  
  21297911.523   113689693.220                    88425317.963    21297915.723  
  21297909.980  
  19432680.117   103988189.728                    80879699.161    19432683.770  
  19432678.250  
  20908862.703   109876801.370    20908872.676    85618326.7204   20908873.008  
                
 21  8 14  4 56 30.0000000  0 16G26R 1R16G20G29G18R15G 5G12R14G31G 2
                                R24R18R17G25
  23623632.508   124143018.486    23623642.918    96734872.5484   23623642.719  
                
  22521616.820   120390959.611                    93637431.359    22521622.953  
  22521615.988  
  21568938.109   115217404.352                    89613561.247    21568940.371  
  21568937.570  
  22279538.930   117079769.908    22279545.480    91231018.4514                 
                
  20496657.031   107710661.613    20496663.887    83930415.2434   20496663.949  
                
  22161213.195   116457960.460    22161220.953    90746502.0894   22161221.055  
                
  19736544.008   105466094.569                    82029180.210    19736548.695  
  19736544.230  
  21666272.562   113857035.690    21666279.895    88719807.6074   21666279.906  
                
  23122423.695   121509140.695    23122431.355    94682475.7494   23122431.691  
                
  22375393.133   119273410.825                    92768199.075    22375398.430  
  22375392.773  
  23123814.836   121516452.810    23123821.844    94688163.5834   23123822.125  
                
  24488143.695   128686038.293    24488149.645   100274851.7584                 
                
  21878910.664   116996359.118                    90997167.047    21878915.832  
  21878909.855  
  21293455.422   113665906.233                    88406816.978    21293459.605  
  21293453.891  
  19433501.117   103992583.098                    80883116.221    19433504.758  
  19433499.270  
  20913137.703   109899266.656    20913147.652    85635832.1304   20913147.980  
                
 21  8 14  4 56 40.0000000  0 16G26R 1R16G20G29G18R15G 5G12R14G31G 2
                                R24R18R17G25
  23617619.195   124111418.224    23617629.574    96710248.9604   23617629.395  
                
  22519754.094   120381002.221                    93629686.723    22519760.258  
  22519753.301  
  21563724.562   115189554.561                    89591900.311    21563726.836  
  21563724.027  
  22281558.734   117090384.045    22281565.293    91239289.2004                 
                
  20495944.258   107706915.930    20495951.105    83927496.5294   20495951.184  
                
  22155759.922   116429303.305    22155767.676    90724171.8514   22155767.770  
                
  19739306.758   105480857.830                    82040662.742    19739311.441  
  19739307.004  
  21663668.594   113843351.723    21663675.922    88709144.7754   21663675.934  
                
  23129077.344   121544105.284    23129084.883    94709720.8704   23129085.219  
                
  22383575.227   119317025.873                    92802121.873    22383580.551  
  22383574.836  
  23125818.977   121526984.625    23125825.980    94696370.1824   23125826.277  
                
  24493806.250   128715795.245    24493812.230   100298038.9744                 
                
  21884639.469   117026993.586                    91020993.847    21884644.656  
  21884638.656  
  21289005.742   113642153.498                    88388342.636    21289009.938  
  21289004.203  
  19434330.094   103997019.082                    80886566.431    19434333.738  
  19434328.258  
  20917422.273   109921782.198    20917432.195    85653376.6984   20917432.523  
                
 21  8 14  4 56 50.0000000  0 16G26R 1R16G20G29G18R15G 5G12R14G31G 2
                                R24R18R17G25
  23611610.500   124079842.375    23611620.910    96685644.4084   23611620.715  
                
  22517906.422   120371125.281                    93622004.677    22517912.625  
  22517905.637  
  21558523.250   115161770.091                    89570290.158    21558525.547  
  21558522.699  
  22283590.164   117101059.357    22283596.746    91247607.6314                 
                
  20495237.789   107703203.435    20495244.633    83924603.6744   20495244.719  
                
  22150313.000   116400679.489    22150320.711    90701867.5774   22150320.809  
                
  19742085.711   105495707.630                    82052212.579    19742090.383  
  19742085.965  
  21661076.742   113829731.486    21661084.062    88698531.6024   21661084.078  
                
  23135735.516   121579094.202    23135743.012    94736984.9574   23135743.367  
                
  22391761.898   119360665.557                    92836063.817    22391767.262  
  22391761.500  
  23127833.930   121537573.246    23127840.930    94704621.0364   23127841.238  
                
  24499469.523   128745556.081    24499475.535   100321229.2044                 
                
  21890370.125   117057638.051                    91044828.428    21890375.348  
  21890369.277  
  21284562.461   113618434.945                    88369894.847    21284566.648  
  21284560.914  
  19435166.961   104001497.361                    80890049.533    19435170.594  
  19435165.137  
  20921716.359   109944347.766    20921726.246    85670960.2484   20921726.578  
                
 21  8 14  4 57  0.0000000  0 16G26R 1R16G20G29G18R15G 5G12R14G31G 2
                                R24R18R17G25
  23605606.508   124048291.374    23605616.969    96661059.2344   23605616.773  
                
  22516073.867   120361329.221                    93614385.531    22516080.055  
  22516073.102  
  21553334.266   115134051.507                    89548731.273    21553336.594  
  21553333.707  
  22285633.312   117111796.200    22285639.922    91255973.9994                 
                
  20494537.719   107699524.518    20494544.566    83921736.9914   20494544.660  
                
  22144872.500   116372089.424    22144880.168    90679589.6014   22144880.281  
                
  19744880.914   105510644.326                    82063830.004    19744885.566  
  19744881.180  
  21658497.102   113816175.388    21658504.422    88687968.4164   21658504.438  
                
  23142398.320   121614107.798    23142405.844    94764268.2604   23142406.230  
                
  22399953.242   119404330.118                    92870025.119    22399958.629  
  22399952.801  
  23129859.734   121548218.942    23129866.750    94712916.3954   23129867.074  
                
  24505133.602   128775321.109    24505139.637   100344422.7094                 
                
  21896102.703   117088292.715                    91068670.898    21896107.949  
  21896101.852  
  21280125.648   113594750.959                    88351473.994    21280129.859  
  21280124.094  
  19436011.812   104006018.315                    80893565.834    19436015.430  
  19436009.992  
  20926020.023   109966963.666    20926029.867    85688583.0214   20926030.215  
                
 21  8 14  4 57 10.0000000  0 16G26R 1R16G20G29G18R15G 5G12R14G31G 2
                                R24R18R17G25
  23599607.219   124016765.026    23599617.676    96636493.2564   23599617.492  
                
  22514256.391   120351613.790                    93606829.100    22514262.590  
  22514255.641  
  21548157.617   115106398.768                    89527223.580    21548159.922  
  21548157.082  
  22287688.109   117122594.239    22287694.730    91264388.0574                 
                
  20493843.969   107695878.870    20493850.816    83918896.2214   20493850.910  
                
  22139438.359   116343532.814    22139446.027    90657337.6984   22139446.133  
                
  19747692.320   105525667.573                    82075514.744    19747696.965  
  19747692.602  
  21655929.625   113802683.298    21655936.945    88677455.0894   21655936.969  
                
  23149065.758   121649145.578    23149073.262    94791570.4024   23149073.680  
                
  22408149.172   119448019.056                    92904005.389    22408154.535  
  22408148.695  
  23131896.344   121558921.388    23131903.398    94721255.9434   23131903.711  
                
  24510798.422   128805089.984    24510804.445   100367619.2194                 
                
  21901837.125   117118957.228                    91092521.077    21901842.406  
  21901836.301  
  21275695.195   113571101.034                    88333079.615    21275699.402  
  21275693.648  
  19436864.555   104010581.543                    80897115.004    19436868.164  
  19436862.723  
  20930333.203   109989629.539    20930342.996    85706244.7374   20930343.379  
                
 21  8 14  4 57 20.0000000  0 16G26R 1R16G20G29G18R15G 5G12R14G31G 2
                                R24R18R17G25
  23593612.672   123985263.494    23593623.152    96611946.6114   23593622.973  
                
  22512454.062   120341979.354                    93599335.653    22512460.289  
  22512453.309  
  21542993.273   115078811.781                    89505767.044    21542995.578  
  21542992.734  
  22289754.562   117133453.524    22289761.199    91272849.8414                 
                
  20493156.578   107692266.597    20493163.430    83916081.4664   20493163.523  
                
  22134010.617   116315009.822    22134018.305    90635112.0034   22134018.387  
                
  19750519.945   105540777.521                    82087266.926    19750524.586  
  19750520.234  
  21653374.344   113789255.223    21653381.680    88666991.6634   21653381.711  
                
  23155737.891   121684207.609    23155745.324    94818891.4534   23155745.766  
                
  22416349.742   119491732.380                    92938004.630    22416355.016  
  22416349.242  
  23133943.758   121569680.561    23133950.895    94729639.7024   23133951.176  
                
  24516464.000   128834862.721    24516469.973   100390818.7444                 
                
  21907573.422   117149631.721                    91116378.983    21907578.699  
  21907572.594  
  21271271.188   113547485.451                    88314711.947    21271275.391  
  21271269.645  
  19437725.227   104015187.137                    80900697.129    19437728.828  
  19437723.391  
  20934655.898   110012345.418    20934665.672    85723945.4234   20934666.062  
                
 21  8 14  4 57 30.0000000  0 16G26R 1R16G20G29G18R15G 5G12R14G31G 2
                                R24R18R17G25
  23587622.836   123953786.760    23587633.328    96587419.3034   23587633.168  
                
  22510666.836   120332425.592                    93591904.934    22510673.133  
  22510666.090  
  21537841.320   115051290.969                    89484361.972    21537843.605  
  21537840.777  
  22291832.633   117144373.894    22291839.285    91281359.2134                 
                
  20492475.516   107688687.600    20492482.367    83913292.6444   20492482.461  
                
  22128589.250   116286520.371    22128596.945    90612912.4494   22128597.039  
                
  19753363.711   105555973.664                    82099086.139    19753368.352  
  19753364.016  
  21650831.266   113775891.298    21650838.609    88656578.2174   21650838.637  
                
  23162414.656   121719293.646    23162422.004    94846231.2194   23162422.441  
                
  22424554.844   119535469.694                    92972022.532    22424560.059  
  22424554.301  
  23136001.930   121580496.363    23136009.125    94738067.5904   23136009.359  
                
  24522130.281   128864639.174    24522136.191   100414021.1584                 
                
  21913311.562   117180316.049                    91140244.578    21913316.828  
  21913310.777  
  21266853.594   113523904.092                    88296370.883    21266857.809  
  21266852.066  
  19438593.766   104019834.893                    80904312.048    19438597.355  
  19438591.938  
  20938988.078   110035111.134    20938997.848    85741684.9314   20938998.238  
                
 21  8 14  4 57 40.0000000  0 16G26R 1R16G20G29G18R15G 5G12R14G31G 2
                                R24R18R17G25
  23581637.734   123922334.979    23581648.250    96562911.4314   23581648.086  
                
  22508894.758   120322952.884                    93584537.262    22508901.074  
  22508894.035  
  21532701.750   115023836.330                    89463008.362    21532704.043  
  21532701.203  
  22293922.328   117155355.371    22293929.004    91289916.2154                 
                
  20491800.797   107685141.957    20491807.641    83910529.8024   20491807.734  
                
  22123174.297   116258064.594    22123181.984    90590739.1174   22123182.074  
                
  19756223.648   105571256.246                    82110972.588    19756228.289  
  19756223.953  
  21648300.406   113762591.601    21648307.734    88646214.8144   21648307.758  
                
  23169095.984   121754403.759    23169103.309    94873589.7334   23169103.715  
                
  22432764.367   119579231.029                    93006059.103    22432769.605  
  22432763.875  
  23138070.875   121591368.739    23138078.102    94746539.5794   23138078.336  
                
  24527797.289   128894419.398    24527803.172   100437226.5174                 
                
  21919051.469   117211009.960                    91164117.605    21919056.742  
  21919050.699  
  21262442.438   113500357.030                    88278056.498    21262446.656  
  21262440.879  
  19439470.195   104024524.820                    80907959.763    19439473.781  
  19439468.387  
  20943329.742   110057926.696    20943339.516    85759463.2854   20943339.914  
                
 21  8 14  4 57 50.0000000  0 16G26R 1R16G20G29G18R15G 5G12R14G31G 2
                                R24R18R17G25
  23575657.445   123890908.315    23575667.984    96538423.1164   23575667.801  
                
  22507137.852   120313561.140                    93577232.556    22507144.141  
  22507137.184  
  21527574.586   114996447.914                    89441706.257    21527576.883  
  21527574.031  
  22296023.680   117166398.069    22296030.340    91298520.9004                 
                
  20491132.438   107681629.696    20491139.270    83907792.9744   20491139.367  
                
  22117765.766   116229642.587    22117773.426    90568592.1004   22117773.523  
                
  19759099.742   105586625.233                    82122926.240    19759104.375  
  19759100.055  
  21645781.773   113749356.175    21645789.082    88635901.5104   21645789.121  
                
  23175781.758   121789538.003    23175789.215    94900967.0394   23175789.598  
                
  22440978.344   119623016.344                    93040114.319    22440983.668  
  22440977.934  
  23140150.578   121602297.703    23140157.832    94755055.6464   23140158.055  
                
  24533465.008   128924203.366    24533470.891   100460434.7914                 
                
  21924793.289   117241713.999                    91187998.507    21924798.551  
  21924792.535  
  21258037.648   113476844.069                    88259768.670    21258041.906  
  21258036.098  
  19440354.500   104029256.950                    80911640.310    19440358.086  
  19440352.695  
  20947680.891   110080792.103    20947690.691    85777280.4784   20947691.082  
                
 21  8 14  4 58  0.0000000  0 16G26R 1R16G20G29G18R15G 5G12R14G31G 2
                                R24R18R17G25
  23569681.961   123859506.906    23569692.504    96513954.4934   23569692.316  
                
  22505396.164   120304250.732                    93569991.157    22505402.473  
  22505395.559  
  21522459.859   114969125.980                    89420455.874    21522462.156  
  21522459.312  
  22298136.664   117177501.867    22298143.301    91307173.2174                 
                
  20490470.461   107678150.975    20490477.281    83905082.2844   20490477.383  
                
  22112363.680   116201254.437    22112371.332    90546471.4754   22112371.438  
                
  19761992.016   105602080.575                    82134947.060    19761996.645  
  19761992.328  
  21643275.430   113736185.224    21643282.723    88625638.4344   21643282.758  
                
  23182472.133   121824696.331    23182479.711    94928363.1064   23182480.055  
                
  22449196.852   119666825.373                    93074187.982    22449202.164  
  22449196.445  
  23142241.062   121613283.245    23142248.336    94763615.8034   23142248.547  
                
  24539133.422   128953991.101    24539139.359   100483645.9844                 
                
  21930536.852   117272427.399                    91211886.701    21930542.102  
  21930536.094  
  21253639.344   113453365.632                    88241507.665    21253643.641  
  21253637.777  
  19441246.711   104034031.335                    80915353.724    19441250.297  
  19441244.898  
  20952041.531   110103707.379    20952051.355    85795136.5324   20952051.730  
                
 21  8 14  4 58 10.0000000  0 16G26R 1R16G20G29G18R15G 5G12R14G31G 2
                                R24R18R17G25
  23563711.281   123828130.794    23563721.832    96489505.5664   23563721.656  
                
  22503669.664   120295021.533                    93562812.881    22503675.977  
  22503669.102  
  21517357.656   114941870.893                    89399257.475    21517359.945  
  21517357.137  
  22300261.250   117188666.701    22300267.855    91315873.0764                 
                
  20489814.844   107674705.740    20489821.645    83902397.6834   20489821.758  
                
  22106968.031   116172900.181    22106975.688    90524377.2614   22106975.789  
                
  19764900.422   105617622.208                    82147034.985    19764905.043  
  19764900.727  
  21640781.352   113723078.805    21640788.652    88615425.6384   21640788.668  
                
  23189167.102   121859878.574    23189174.719    94955777.8214   23189175.023  
                
  22457419.750   119710658.114                    93108280.093    22457425.102  
  22457419.410  
  23144342.289   121624325.267    23144349.574    94772219.9614   23144349.781  
                
  24544802.539   128983782.527    24544808.492   100506860.0644                 
                
  21936282.219   117303150.538                    91235782.471    21936287.457  
  21936281.473  
  21249247.461   113429921.545                    88223273.416    21249251.789  
  21249245.910  
  19442146.797   104038847.865                    80919099.919    19442150.383  
  19442144.980  
  20956411.633   110126672.420    20956421.484    85813031.3594   20956421.840  
                
 21  8 14  4 58 20.0000000  0 16G26R 1R16G20G29G18R15G 5G12R14G31G 2
                                R24R18R17G25
  23557745.406   123796780.041    23557755.988    96465076.4314   23557755.812  
                
  22501958.383   120285873.681                    93555697.905    22501964.691  
  22501957.848  
  21512267.938   114914682.487                    89378110.944    21512270.258  
  21512267.418  
  22302397.453   117199892.551    22302404.055    91324620.4804                 
                
  20489165.617   107671293.997    20489172.398    83899739.1864   20489172.523  
                
  22101578.852   116144579.860    22101586.492    90502309.4884   22101586.582  
                
  19767824.938   105633249.916                    82159189.867    19767829.555  
  19767825.227  
  21638299.562   113710036.930    21638306.863    88605263.1364   21638306.871  
                
  23195866.617   121895084.684    23195874.227    94983211.1464   23195874.527  
                
  22465647.094   119754514.430                    93142390.525    22465652.449  
  22465646.773  
  23146454.234   121635423.675    23146461.539    94780868.0604   23146461.758  
                
  24550472.320   129013577.575    24550478.312   100530076.9494                 
                
  21942029.430   117333883.403                    91259685.794    21942034.645  
  21942028.699  
  21244862.016   113406511.752                    88205065.776    21244866.352  
  21244860.449  
  19443054.719   104043706.365                    80922878.741    19443058.297  
  19443052.895  
  20960791.203   110149687.144    20960801.074    85830964.9014   20960801.430  
                
