     2.11           OBSERVATION DATA    M (MIXED)           RINEX VERSION / TYPE
EFT-CORS.RU                             20210817 144916 UTC PGM / RUN BY / DATE 
MDNG                                                        MARKER NAME         
                                                            MARKER NUMBER       
MDNG                EFT-CORS.RU                             OBSERVER / AGENCY   
0                   TRIMBLE BD970       2.0                 REC # / TYPE / VERS 
0                   UNKNOWN EXT NONE                        ANT # / TYPE        
  3463911.2830  3030468.2400  4402179.3760                  APPROX POSITION XYZ 
        0.0000        0.0000        0.0000                  ANTENNA: DELTA H/E/N
     1     1                                                WAVELENGTH FACT L1/2
     6    C1    L1    P2    L2    C2    P1                  # / TYPES OF OBSERV 
    10.000                                                  INTERVAL            
  2021     8    16    17    30    0.0000000     GPS         TIME OF FIRST OBS   
  2021     8    16    18    30    0.0000000     GPS         TIME OF LAST OBS    
     0                                                      RCV CLOCK OFFS APPL 
                                                            END OF HEADER       
 21  8 16 17 30  0.0000000  0 14G 4G16R 1G30G 9R13G 6G20R12G 7G 2R 3
                                G 3R 2
  21575805.969   113381669.154    21575813.664    88349402.1744   21575813.641  
                
  22460612.633   118031360.380    22460618.160    91972534.6684                 
                
  23221149.586   124130358.893                    96545831.366    23221157.422  
  23221148.879  
  23392017.875   122925911.513    23392027.875    95786477.6394   23392028.180  
                
  20345586.266   106916815.881    20345594.238    83311859.3624   20345594.098  
                
  20398800.172   108928461.264                    84722175.870    20398803.465  
  20398798.148  
  23871403.547   125445045.617    23871414.184    97749442.9304   23871414.535  
                
  23708196.984   124587415.275    23708203.363    97081136.1184                 
                
  19333049.211   103273723.847                    80324010.406    19333052.535  
  19333048.688  
  21022433.961   110473675.936    21022440.328    86083436.2934   21022440.344  
                
  24739794.219   130008503.712    24739799.922   101305339.2564                 
                
  20693058.219   110771577.519                    86155678.072    20693062.461  
  20693057.023  
  24732103.633   129968072.228    24732114.312   101273868.9194   24732115.094  
                
  19231357.102   102622223.993                    79817290.323    19231360.312  
  19231354.777  
 21  8 16 17 30 10.0000000  0 14G 4G16R 1G30G 9R13G 6G20R12G 7G 2R 3
                                G 3R 2
  21579505.695   113401111.265    21579513.391    88364551.8614   21579513.375  
                
  22463583.477   118046972.305    22463589.027    91984699.8244                 
                
  23228037.305   124167177.056                    96574467.710    23228045.105  
  23228036.488  
  23386384.688   122896309.129    23386394.723    95763410.8524   23386395.004  
                
  20345508.305   106916406.240    20345516.289    83311540.1574   20345516.152  
                
  20393159.328   108898339.509                    84698747.853    20393162.629  
  20393157.273  
  23876101.367   125469732.724    23876111.980    97768679.6314   23876112.363  
                
  23702296.352   124556407.225    23702302.719    97056974.0154                 
                
  19334962.445   103283943.985                    80331959.409    19334965.758  
  19334961.926  
  21019902.047   110460370.626    21019908.398    86073068.5204   21019908.414  
                
  24741087.672   130015300.751    24741093.270   101310635.6684                 
                
  20687621.680   110742475.292                    86133043.012    20687625.898  
  20687620.492  
  24739415.109   130006494.793    24739425.930   101303808.5534   24739426.691  
                
  19232463.844   102628129.841                    79821883.755    19232467.047  
  19232461.523  
 21  8 16 17 30 20.0000000  0 14G 4G16R 1G30G 9R13G 6G20R12G 7G 2R 3
                                G 3R 2
  21583210.961   113420582.508    21583218.672    88379724.2524   21583218.645  
                
  22466567.227   118062651.963    22466572.816    91996917.7384                 
                
  23234929.469   124204019.963                    96603123.292    23234937.348  
  23234928.637  
  23380755.758   122866728.947    23380765.797    95740361.3714   23380766.062  
                
  20345437.773   106916035.637    20345445.762    83311251.3754   20345445.613  
                
  20387529.969   108868279.121                    84675367.540    20387533.250  
  20387527.922  
  23880805.375   125494452.563    23880816.012    97787941.8084   23880816.402  
                
  23696402.000   124525432.179    23696408.375    97032837.6564                 
                
  19336890.562   103294243.623                    80339970.242    19336893.875  
  19336890.043  
  21017377.258   110447102.765    21017383.605    86062729.9394   21017383.621  
                
  24742390.305   130022146.034    24742395.898   101315969.6424                 
                
  20682191.023   110713404.608                    86110432.494    20682195.227  
  20682189.832  
  24746727.945   130044924.452    24746738.922   101333753.7084   24746739.656  
                
  19233582.477   102634099.098                    79826526.504    19233585.680  
  19233580.152  
 21  8 16 17 30 30.0000000  0 14G 4G16R 1G30G 9R13G 6G20R12G 7G 2R 3
                                G 3R 2
  21586921.781   113440082.892    21586929.520    88394919.3504   21586929.473  
                
  22469563.844   118078399.304    22469569.473    92009188.3964                 
                
  23241826.188   124240887.517                    96631798.006    23241834.172  
  23241825.410  
  23375131.070   122837171.027    23375141.133    95717329.2414   23375141.410  
                
  20345374.688   106915704.127    20345382.676    83310993.0574   20345382.531  
                
  20381912.094   108838280.064                    84652034.955    20381915.371  
  20381910.027  
  23885515.648   125519205.008    23885526.262    97807229.4024   23885526.656  
                
  23690513.977   124494490.347    23690520.320    97008727.1264                 
                
  19338833.602   103304622.978                    80348043.086    19338836.910  
  19338833.074  
  21014859.602   110433872.393    21014865.945    86052420.5564   21014865.941  
                
  24743702.109   130029039.515    24743707.727   101321341.1524                 
                
  20676766.289   110684365.613                    86087846.607    20676770.508  
  20676765.102  
  24754042.203   130083361.182    24754053.262   101363704.3944   24754053.965  
                
  19234712.977   102640131.702                    79831218.532    19234716.184  
  19234710.652  
 21  8 16 17 30 40.0000000  0 14G 4G16R 1G30G 9R13G 6G20R12G 7G 2R 3
                                G 3R 2
  21590638.094   113459612.155    21590645.855    88410136.9504   21590645.805  
                
  22472573.258   118094213.904    22472578.926    92021511.4794                 
                
  23248727.500   124277779.394                    96660491.665    23248735.551  
  23248726.777  
  23369510.562   122807635.125    23369520.680    95694314.2684   23369520.941  
                
  20345319.000   106915411.461    20345326.977    83310765.0044   20345326.840  
                
  20376305.633   108808342.031                    84628749.837    20376308.914  
  20376303.543  
  23890232.008   125543989.659    23890242.672    97826542.0994   23890243.035  
                
  23684632.211   124463581.437    23684638.500    96984642.2584                 
                
  19340791.453   103315081.479                    80356177.480    19340794.770  
  19340790.930  
  21012349.023   110420679.213    21012355.383    86042140.1644   21012355.363  
                
  24745023.016   130035980.895    24745028.621   101326749.9944                 
                
  20671347.430   110655358.042                    86065285.171    20671351.645  
  20671346.246  
  24761357.703   130121804.570    24761368.863   101393660.2684   24761369.520  
                
  19235855.266   102646227.256                    79835959.527    19235858.480  
  19235852.961  
 21  8 16 17 30 50.0000000  0 14G 4G16R 1G30G 9R13G 6G20R12G 7G 2R 3
                                G 3R 2
  21594359.953   113479170.551    21594367.742    88425377.2664   21594367.676  
                
  22475595.539   118110096.057    22475601.230    92033887.1794                 
                
  23255633.750   124314695.795                    96689204.421    23255641.500  
  23255632.805  
  23363894.312   122778121.566    23363904.504    95671316.7064   23363904.738  
                
  20345270.750   106915157.919    20345278.719    83310567.4444   20345278.594  
                
  20370710.797   108778466.053                    84605512.966    20370714.102  
  20370708.719  
  23894954.602   125568806.721    23894965.273    97845880.0554   23894965.617  
                
  23678756.812   124432705.923    23678762.988    96960583.3964                 
                
  19342764.180   103325619.453                    80364373.675    19342767.488  
  19342763.652  
  21009845.602   110407523.626    21009851.992    86031889.0634   21009851.945  
                
  24746353.078   130042970.341    24746358.648   101332196.3224                 
                
  20665934.531   110626382.399                    86042748.576    20665938.750  
  20665933.359  
  24768674.609   130160254.875    24768685.789   101423621.5274   24768686.391  
                
  19237009.492   102652386.419                    79840749.978    19237012.672  
  19237007.207  
 21  8 16 17 31  0.0000000  0 14G 4G16R 1G30G 9R13G 6G20R12G 7G 2R 3
                                G 3R 2
  21598087.312   113498757.950    21598095.125    88440640.1694   21598095.047  
                
  22478630.633   118126045.613    22478636.352    92046315.4134                 
                
  23262544.414   124351636.507                    96717936.088    23262552.012  
  23262543.367  
  23358282.281   122748630.270    23358292.570    95648336.5034   23358292.773  
                
  20345229.930   106914943.448    20345237.887    83310400.3154   20345237.777  
                
  20365127.438   108748651.441                    84582323.847    20365130.777  
  20365125.375  
  23899683.227   125593655.957    23899693.980    97865243.0704   23899694.320  
                
  23672887.750   124401863.719    23672893.816    96936550.5074                 
                
  19344751.727   103336236.599                    80372631.465    19344755.039  
  19344751.203  
  21007349.281   110394405.441    21007355.719    86021667.1104   21007355.645  
                
  24747692.250   130050007.745    24747697.812   101337679.9974                 
                
  20660527.562   110597438.503                    86020236.663    20660531.789  
  20660526.395  
  24775992.773   130198711.840    24776003.961   101453587.9784   24776004.531  
                
  19238175.523   102658608.615                    79845589.463    19238178.680  
  19238173.266  
 21  8 16 17 31 10.0000000  0 14G 4G16R 1G30G 9R13G 6G20R12G 7G 2R 3
                                G 3R 2
  21601820.219   113518374.461    21601828.047    88455925.7544   21601827.980  
                
  22481678.555   118142062.584    22481684.285    92058796.1704                 
                
  23269459.430   124388601.761                    96746686.860    23269467.078  
  23269458.520  
  23352674.562   122719161.424    23352684.906    95625373.7824   23352685.094  
                
  20345196.578   106914768.173    20345204.535    83310263.7364   20345204.418  
                
  20359555.703   108718898.767                    84559182.885    20359559.051  
  20359553.625  
  23904418.008   125618537.387    23904428.785    97884631.1784   23904429.141  
                
  23667025.062   124371055.068    23667031.094    96912543.7754                 
                
  19346754.109   103346932.964                    80380950.860    19346757.422  
  19346753.582  
  21004860.109   110381324.761    21004866.602    86011474.3794   21004866.500  
                
  24749040.586   130057093.155    24749046.195   101343201.0854                 
                
  20655126.594   110568526.751                    85997749.754    20655130.816  
  20655125.422  
  24783312.242   130237175.541    24783323.426   101483559.6744   24783323.977  
                
  19239353.406   102664894.055                    79850478.139    19239356.547  
  19239351.172  
 21  8 16 17 31 20.0000000  0 14G 4G16R 1G30G 9R13G 6G20R12G 7G 2R 3
                                G 3R 2
  21605558.648   113538019.980    21605566.504    88471233.9324   21605566.426  
                
  22484739.273   118158146.802    22484745.016    92071329.3314                 
                
  23276379.008   124425591.217                    96775456.411    23276386.703  
  23276378.195  
  23347071.109   122689714.913    23347081.469    95602428.4654   23347081.637  
                
  20345170.664   106914632.028    20345178.625    83310157.6454   20345178.504  
                
  20353995.484   108689207.613                    84536089.787    20353998.812  
  20353993.406  
  23909158.914   125643450.781    23909169.645    97904044.1974   23909170.027  
                
  23661168.742   124340279.944    23661174.746    96888563.1594                 
                
  19348771.289   103357708.387                    80389331.744    19348774.602  
  19348770.773  
  21002378.047   110368281.473    21002384.582    86001310.7844   21002384.445  
                
  24750398.047   130064226.471    24750403.652   101348759.5084                 
                
  20649731.664   110539647.272                    85975287.939    20649735.883  
  20649730.484  
  24790632.930   130275645.799    24790644.137   101513536.4774   24790644.672  
                
  19240543.172   102671242.872                    79855416.097    19240546.281  
  19240540.969  
 21  8 16 17 31 30.0000000  0 14G 4G16R 1G30G 9R13G 6G20R12G 7G 2R 3
                                G 3R 2
  21609302.602   113557694.550    21609310.492    88486564.7664   21609310.398  
                
  22487812.781   118174298.203    22487818.539    92083914.8424                 
                
  23283303.234   124462605.028                    96804244.951    23283310.973  
  23283302.449  
  23341471.906   122660290.834    23341482.281    95579500.6314   23341482.441  
                
  20345152.219   106914535.054    20345160.191    83310082.0804   20345160.062  
                
  20348446.914   108659578.490                    84513044.918    20348450.238  
  20348444.828  
  23913905.852   125668396.064    23913916.602    97923482.0644   23913916.973  
                
  23655318.844   124309538.507    23655324.816    96864608.8024                 
                
  19350803.258   103368562.776                    80397774.052    19350806.578  
  19350802.754  
  20999903.117   110355275.649    20999909.699    85991176.3874   20999909.535  
                
  24751764.609   130071407.674    24751770.195   101354355.2454                 
                
  20644342.742   110510799.919                    85952851.126    20644346.949  
  20644341.555  
  24797954.898   130314122.600    24797966.125   101543518.3984   24797966.602  
                
  19241744.805   102677654.974                    79860403.290    19241747.895  
  19241742.625  
 21  8 16 17 31 40.0000000  0 14G 4G16R 1G30G 9R13G 6G20R12G 7G 2R 3
                                G 3R 2
  21613052.055   113577398.104    21613059.953    88501918.1604   21613059.852  
                
  22490899.008   118190516.569    22490904.797    92096552.5424                 
                
  23290231.977   124499642.956                    96833052.241    23290239.676  
  23290231.207  
  23335876.961   122630889.171    23335887.344    95556590.2634   23335887.508  
                
  20345141.203   106914477.240    20345149.184    83310037.0324   20345149.062  
                
  20342909.930   108630011.293                    84490048.216    20342913.238  
  20342907.855  
  23918658.789   125693373.082    23918669.562    97942944.6604   23918669.941  
                
  23649475.352   124278830.785    23649481.250    96840680.7094                 
                
  19352849.984   103379496.055                    80406277.715    19352853.309  
  19352849.492  
  20997435.297   110342307.251    20997441.930    85981071.1484   20997441.750  
                
  24753140.242   130078636.695    24753145.828   101359988.2404                 
                
  20638959.836   110481984.835                    85930439.383    20638964.027  
  20638958.641  
  24805278.008   130352605.794    24805289.293   101573505.2914   24805289.734  
                
  19242958.344   102684130.696                    79865439.960    19242961.402  
  19242956.199  
 21  8 16 17 31 50.0000000  0 14G 4G16R 1G30G 9R13G 6G20R12G 7G 2R 3
                                G 3R 2
  21616807.039   113597130.699    21616814.969    88517294.2064   21616814.852  
                
  22493998.055   118206802.195    22494003.875    92109242.6394                 
                
  23297165.250   124536705.131                    96861878.365    23297172.934  
  23297164.504  
  23330286.312   122601510.043    23330296.691    95533697.4544   23330296.855  
                
  20345137.672   106914458.684    20345145.660    83310022.5744   20345145.539  
                
  20337384.578   108600506.289                    84467099.892    20337387.902  
  20337382.508  
  23923417.781   125718381.834    23923428.582    97962431.9614   23923428.949  
                
  23643638.328   124248157.047    23643644.129    96816779.0714                 
                
  19354911.508   103390508.314                    80414842.792    19354914.840  
  19354910.996  
  20994974.625   110329376.358    20994981.312    85970995.1344   20994981.125  
                
  24754524.984   130085913.459    24754530.609   101365658.4464                 
                
  20633583.023   110453202.370                    85908053.035    20633587.207  
  20633581.832  
  24812602.297   130391095.372    24812613.695   101603497.1364   24812614.090  
                
  19244183.773   102690669.771                    79870525.900    19244186.805  
  19244181.660  
 21  8 16 17 32  0.0000000  0 14G 4G16R 1G30G 9R13G 6G20R12G 7G 2R 3
                                G 3R 2
  21620567.562   113616892.336    21620575.523    88532692.8734   21620575.398  
                
  22497109.867   118223154.888    22497115.730    92121985.0094                 
                
  23304102.984   124573791.381                    96890723.229    23304110.723  
  23304102.250  
  23324699.938   122572153.465    23324710.289    95510822.2234   23324710.477  
                
  20345141.609   106914479.406    20345149.605    83310038.7264   20345149.496  
                
  20331870.906   108571063.599                    84444200.030    20331874.199  
  20331868.836  
  23928182.812   125743422.152    23928193.609    97981943.8724   23928193.992  
                
  23637807.766   124217517.445    23637813.504    96792904.0494                 
                
  19356987.766   103401599.340                    80423469.157    19356991.109  
  19356987.238  
  20992521.086   110316482.961    20992527.820    85960948.3324   20992527.621  
                
  24755918.836   130093237.973    24755924.539   101371365.8494                 
                
  20628212.297   110424452.488                    85885692.013    20628216.484  
  20628211.133  
  24819927.844   130429591.218    24819939.305   101633493.8664   24819939.645  
                
  19245421.141   102697272.557                    79875661.398    19245424.160  
  19245419.066  
 21  8 16 17 32 10.0000000  0 14G 4G16R 1G30G 9R13G 6G20R12G 7G 2R 3
                                G 3R 2
  21624333.594   113636682.972    21624341.574    88548114.1424   21624341.438  
                
  22500234.422   118239574.599    22500240.348    92134779.5874                 
                
  23311045.172   124610901.649                    96919586.727    23311052.977  
  23311044.500  
  23319117.867   122542819.475    23319128.152    95487964.5804   23319128.367  
                
  20345153.031   106914539.399    20345161.039    83310085.4724   20345160.930  
                
  20326368.859   108541683.095                    84421348.524    20326372.145  
  20326366.816  
  23932953.812   125768493.931    23932964.633    98001480.3104   23932965.016  
                
  23631983.695   124186911.936    23631989.402    96769055.6374                 
                
  19359078.758   103412769.052                    80432156.710    19359082.109  
  19359078.211  
  20990074.680   110303627.072    20990081.449    85950930.7674   20990081.246  
                
  24757321.742   130100610.185    24757327.473   101377110.4304                 
                
  20622847.680   110395735.256                    85863356.404    20622851.859  
  20622846.531  
  24827254.523   130468093.285    24827266.066   101663495.4404   24827266.348  
                
  19246670.391   102703938.777                    79880846.243    19246673.391  
  19246668.336  
 21  8 16 17 32 20.0000000  0 14G 4G16R 1G30G 9R13G 6G20R12G 7G 2R 3
                                G 3R 2
  21628105.156   113656502.592    21628113.160    88563557.9904   21628113.004  
                
  22503371.711   118256061.207    22503377.699    92147626.3024                 
                
  23317991.875   124648035.655                    96948468.711    23317999.711  
  23317991.184  
  23313540.094   122513508.119    23313550.320    95465124.5734   23313550.551  
                
  20345171.922   106914638.685    20345179.938    83310162.8354   20345179.828  
                
  20320878.500   108512364.869                    84398545.479    20320881.773  
  20320876.469  
  23937730.727   125793597.061    23937741.598    98021041.1594   23937741.969  
                
  23626166.117   124156340.494    23626171.828    96745233.7414                 
                
  19361184.453   103424017.312                    80440905.366    19361187.809  
  19361183.891  
  20987635.430   110290808.739    20987642.223    85940942.4634   20987642.012  
                
  24758733.703   130108030.008    24758739.414   101382892.0844                 
                
  20617489.211   110367050.935                    85841046.390    20617493.402  
  20617488.078  
  24834582.414   130506601.527    24834594.012   101693501.8434   24834594.277  
                
  19247931.562   102710668.561                    79886080.513    19247934.539  
  19247929.527  
 21  8 16 17 32 30.0000000  0 14G 4G16R 1G30G 9R13G 6G20R12G 7G 2R 3
                                G 3R 2
  21631882.195   113676351.059    21631890.207    88579024.3324   21631890.047  
                
  22506521.695   118272614.503    22506527.703    92160524.9754                 
                
  23324943.211   124685193.550                    96977369.283    23324950.934  
  23324942.375  
  23307966.578   122484219.237    23307976.770    95442302.0924   23307977.000  
                
  20345198.266   106914777.152    20345206.289    83310270.7334   20345206.180  
                
  20315399.805   108483109.042                    84375790.950    20315403.102  
  20315397.793  
  23942513.641   125818731.258    23942524.465    98040626.2444   23942524.844  
                
  23620355.055   124125803.197    23620360.715    96721438.4164                 
                
  19363304.812   103435343.897                    80449714.942    19363308.176  
  19363304.238  
  20985203.266   110278027.688    20985210.086    85930983.2104   20985209.867  
                
  24760154.695   130115497.291    24760160.379   101388710.7384                 
                
  20612136.844   110338399.304                    85818761.804    20612141.043  
  20612135.684  
  24841911.516   130545115.712    24841923.066   101723512.9054   24841923.324  
                
  19249204.664   102717462.058                    79891364.347    19249207.625  
  19249202.645  
 21  8 16 17 32 40.0000000  0 14G 4G16R 1G30G 9R13G 6G20R12G 7G 2R 3
                                G 3R 2
  21635664.742   113696228.421    21635672.738    88594513.1544   21635672.582  
                
  22509684.367   118289234.439    22509690.367    92173475.5794                 
                
  23331898.906   124722375.231                    97006288.368    23331906.562  
  23331898.023  
  23302397.383   122454952.973    23302407.547    95419497.2184   23302407.758  
                
  20345232.078   106914954.856    20345240.105    83310409.2014   20345239.992  
                
  20309932.844   108453915.821                    84353085.130    20309936.152  
  20309930.824  
  23947302.406   125843896.480    23947313.273    98060235.4734   23947313.621  
                
  23614550.523   124095300.192    23614556.156    96697669.8504                 
                
  19365439.844   103446748.905                    80458585.498    19365443.207  
  19365439.258  
  20982778.211   110265283.960    20982785.062    85921053.0514   20982784.852  
                
  24761584.719   130123011.994    24761590.449   101394566.3544                 
                
  20606790.648   110309780.743                    85796502.930    20606794.859  
  20606789.465  
  24849241.609   130583635.692    24849253.199   101753528.4534   24849253.441  
                
  19250489.625   102724318.817                    79896697.381    19250492.562  
  19250487.633  
 21  8 16 17 32 50.0000000  0 14G 4G16R 1G30G 9R13G 6G20R12G 7G 2R 3
                                G 3R 2
  21639452.812   113716134.801    21639460.789    88610024.6274   21639460.637  
                
  22512859.727   118305921.105    22512865.762    92186478.1804                 
                
  23338858.758   124759580.753                    97035225.960    23338866.656  
  23338858.020  
  23296832.500   122425709.503    23296842.645    95396710.1114   23296842.867  
                
  20345273.406   106915172.028    20345281.441    83310578.4224   20345281.328  
                
  20304477.617   108424785.305                    84330428.063    20304480.934  
  20304475.602  
  23952097.047   125869092.815    23952107.961    98079868.9444   23952108.316  
                
  23608752.555   124064831.807    23608758.184    96673928.2414                 
                
  19367589.570   103458232.359                    80467517.076    19367592.945  
  19367588.980  
  20980360.305   110252577.820    20980367.188    85911152.1734   20980366.973  
                
  24763023.836   130130574.338    24763029.645   101400459.0704                 
                
  20601450.664   110281195.479                    85774269.965    20601454.871  
  20601449.453  
  24856572.852   130622161.646    24856584.480   101783548.6404   24856584.707  
                
  19251786.508   102731239.176                    79902079.880    19251789.426  
  19251784.543  
 21  8 16 17 33  0.0000000  0 14G 4G16R 1G30G 9R13G 6G20R12G 7G 2R 3
                                G 3R 2
  21643246.367   113736070.048    21643254.320    88625558.5714   21643254.176  
                
  22516047.742   118322674.294    22516053.801    92199532.6174                 
                
  23345823.078   124796809.921                    97064181.991    23345831.094  
  23345822.465  
  23291271.914   122396488.661    23291282.043    95373940.6344   23291282.281  
                
  20345322.203   106915428.474    20345330.242    83310778.2494   20345330.137  
                
  20299034.102   108395717.380                    84307819.672    20299037.477  
  20299032.117  
  23956897.617   125894319.914    23956908.480    98099526.3974   23956908.840  
                
  23602961.117   124034397.860    23602966.789    96650213.4824                 
                
  19369753.914   103469793.922                    80476509.402    19369757.293  
  19369753.332  
  20977949.531   110239909.197    20977956.430    85901280.5284   20977956.199  
                
  24764471.922   130138183.970    24764477.773   101406388.6384                 
                
  20596116.867   110252643.294                    85752062.712    20596121.082  
  20596115.652  
  24863905.234   130660693.403    24863916.863   101813573.4214   24863917.086  
                
  19253095.305   102738223.139                    79907511.847    19253098.195  
  19253093.352  
 21  8 16 17 33 10.0000000  0 13G 4G16R 1G30G 9R13G 6G20R12G 7G 2R 3
                                R 2
  21647045.375   113756033.947    21647053.312    88641114.8294   21647053.176  
                
  22519248.367   118339493.726    22519254.441    92212638.6724                 
                
  23352792.188   124834062.491                    97093156.171    23352799.891  
  23352791.398  
  23285715.625   122367290.307    23285725.754    95351188.6934   23285725.992  
                
  20345378.438   106915724.006    20345386.488    83311008.5314   20345386.371  
                
  20293602.297   108366711.886                    84285259.852    20293605.691  
  20293600.324  
  23961703.977   125919577.469    23961714.832    98119207.5824   23961715.188  
                
  23597176.234   124003998.278    23597181.992    96626525.5354                 
                
  19371932.836   103481433.304                    80485562.261    19371936.223  
  19371932.254  
  20975545.820   110227277.607    20975552.703    85891437.7334   20975552.484  
                
  24765928.953   130145840.702    24765934.809   101412354.8764                 
                
  20590789.234   110224124.112                    85729881.131    20590793.449  
  20590787.996  
  19254415.977   102745270.427                    79912993.064    19254418.852  
  19254414.031  
 21  8 16 17 33 20.0000000  0 13G 4G16R 1G30G 9R13G 6G20R12G 7G 2R 3
                                R 2
  21650849.891   113776026.780    21650857.820    88656693.6584   21650857.684  
                
  22522461.641   118356379.648    22522467.727    92225796.5354                 
                
  23359765.648   124871338.523                    97122148.669    23359773.113  
  23359764.727  
  23280163.703   122338114.782    23280173.848    95328454.5334   23280174.070  
                
  20345442.172   106916058.981    20345450.234    83311269.5494   20345450.109  
                
  20288182.266   108337769.318                    84262748.984    20288185.688  
  20288180.305  
  23966516.227   125944865.667    23966527.055    98138912.6644   23966527.391  
                
  23591397.969   123973633.504    23591403.824    96602864.6704                 
                
  19374126.383   103493150.864                    80494675.927    19374129.785  
  19374125.793  
  20973149.227   110214683.478    20973156.086    85881624.1364   20973155.875  
                
  24767395.008   130153544.775    24767400.816   101418358.0384                 
                
  20585467.875   110195638.506                    85707725.656    20585472.078  
  20585466.641  
  19255748.562   102752381.358                    79918523.798    19255751.438  
  19255746.617  
 21  8 16 17 33 30.0000000  0 13G 4G16R 1G30G 9R13G 6G20R12G 7G 2R 3
                                R 2
  21654659.914   113796048.575    21654667.828    88672295.0514   21654667.711  
                
  22525687.586   118373332.129    22525693.691    92239006.2654                 
                
  23366743.438   124908638.236                    97151159.543    23366750.770  
  23366742.469  
  23274616.141   122308962.182    23274626.324    95305738.2454   23274626.527  
                
  20345513.430   106916433.477    20345521.512    83311561.3694   20345521.383  
                
  20282774.086   108308889.953                    84240287.260    20282777.504  
  20282772.137  
  23971334.352   125970184.492    23971345.133    98158641.5904   23971345.434  
                
  23585626.383   123943303.759    23585632.328    96579231.0994                 
                
  19376334.508   103504946.300                    80503850.161    19376337.918  
  19376333.914  
  20970759.781   110202126.879    20970766.609    85871839.7734   20970766.422  
                
  24768870.070   130161296.272    24768875.816   101424398.1474                 
                
  20580152.789   110167186.460                    85685596.301    20580156.977  
  20580151.555  
  19257093.156   102759556.362                    79924104.347    19257096.031  
  19257091.219  
 21  8 16 17 33 40.0000000  0 13G 4G16R 1G30G 9R13G 6G20R12G 7G 2R 3
                                R 2
  21658475.586   113816100.030    21658483.527    88687919.5554   21658483.402  
                
  22528926.297   118390351.707    22528932.422    92252268.2704                 
                
  23373725.609   124945962.124                    97180189.251    23373732.934  
  23373724.719  
  23269073.094   122279833.200    23269083.309    95283040.3574   23269083.473  
                
  20345592.344   106916848.161    20345600.445    83311884.5064   20345600.305  
                
  20277377.836   108280074.350                    84217875.134    20277381.262  
  20277375.844  
  23976158.336   125995534.465    23976169.109    98178394.8034   23976169.398  
                
  23579861.578   123913009.684    23579867.625    96555625.3364                 
                
  19378557.375   103516820.491                    80513085.643    19378560.805  
  19378556.770  
  20968377.602   110189608.419    20968384.406    85862085.1364   20968384.230  
                
  24770354.258   130169095.686    24770360.012   101430475.6044                 
                
  20574844.180   110138769.036                    85663493.856    20574848.336  
  20574842.957  
  19258449.906   102766796.159                    79929735.305    19258452.762  
  19258447.980  
 21  8 16 17 33 50.0000000  0 13G 4G16R 1G30G 9R13G 6G20R12G 7G 2R 3
                                R 2
  21662296.531   113836179.163    21662304.492    88703565.6194   21662304.359  
                
  22532177.391   118407436.295    22532183.527    92265580.9504                 
                
  23380712.023   124983308.162                    97209236.159    23380719.199  
  23380711.078  
  23263534.180   122250725.939    23263544.402    95260359.3914   23263544.547  
                
  20345678.539   106917301.117    20345686.652    83312237.4554   20345686.508  
                
  20271993.172   108251320.689                    84195511.188    20271996.613  
  20271991.184  
  23980987.867   126020913.555    23980998.617    98198170.6984   23980998.898  
                
  23574103.242   123882749.471    23574109.344    96532045.9484                 
                
  19380794.562   103528771.201                    80522380.636    19380797.996  
  19380793.934  
  20966002.320   110177126.262    20966009.082    85852358.7854   20966008.926  
                
  24771847.203   130176941.021    24771852.988   101436588.8454                 
                
  20569541.672   110110384.276                    85641416.832    20569545.816  
  20569540.422  
  19259818.383   102774098.592                    79935414.968    19259821.234  
  19259816.484  
 21  8 16 17 34  0.0000000  0 13G 4G16R 1G30G 9R13G 6G20R12G 7G 2R 3
                                R 2
  21666123.031   113856287.568    21666130.984    88719234.5014   21666130.875  
                
  22535441.148   118424587.498    22535447.285    92278945.5204                 
                
  23387702.672   125020677.911                    97238301.552    23387709.887  
  23387701.852  
  23257999.703   122221642.022    23258009.922    95237696.6054   23258010.059  
                
  20345772.320   106917793.970    20345780.445    83312621.4994   20345780.293  
                
  20266620.430   108222630.546                    84173196.646    20266623.895  
  20266618.453  
  23985823.148   126046323.212    23985833.906    98217970.4094   23985834.203  
                
  23568351.680   123852524.836    23568357.801    96508494.2764                 
                
  19383046.367   103540799.960                    80531736.329    19383049.797  
  19383045.742  
  20963634.250   110164681.999    20963640.965    85842661.9674   20963640.840  
                
  24773349.172   130184833.877    24773354.973   101442739.1084                 
                
  20564245.539   110082033.713                    85619366.391    20564249.672  
  20564244.281  
  19261198.844   102781464.967                    79941144.360    19261201.695  
  19261196.957  
 21  8 16 17 34 10.0000000  0 13G 4G16R 1G30G 9R13G 6G20R12G 7G 2R 3
                                R 2
  21669955.047   113876424.920    21669963.012    88734925.9394   21669962.902  
                
  22538717.508   118441804.913    22538723.629    92292361.6934                 
                
  23394697.977   125058071.121                    97267385.169    23394704.973  
  23394697.070  
  23252469.609   122192581.166    23252479.844    95215051.8064   23252479.969  
                
  20345873.641   106918326.433    20345881.766    83313036.4074   20345881.621  
                
  20261259.555   108194003.748                    84150931.362    20261262.988  
  20261257.602  
  23990664.148   126071763.073    23990674.910    98237793.6404   23990675.230  
                
  23562606.852   123822335.535    23562612.984    96484970.1534                 
                
  19385312.719   103552906.422                    80541152.467    19385316.145  
  19385312.102  
  20961273.312   110152275.216    20961279.977    85832994.3504   20961279.879  
                
  24774860.117   130192773.908    24774865.906   101448926.1054                 
                
  20558955.766   110053717.174                    85597342.423    20558959.887  
  20558954.516  
  19262591.305   102788895.372                    79946923.556    19262594.168  
  19262589.430  
 21  8 16 17 34 20.0000000  0 13G 4G16R 1G30G 9R13G 6G20R12G 7G 2R 3
                                R 2
  21673792.523   113896590.989    21673800.527    88750639.7454   21673800.395  
                
  22542006.414   118459088.294    22542012.504    92305829.2754                 
                
  23401697.547   125095487.358                    97296486.694    23401704.363  
  23401696.582  
  23246943.867   122163543.177    23246954.133    95192424.8244   23246954.246  
                
  20345982.461   106918898.288    20345990.582    83313482.0104   20345990.445  
                
  20255910.508   108165440.210                    84128715.281    20255913.938  
  20255908.570  
  23995510.898   126097232.712    23995521.594    98257640.1084   23995521.953  
                
  23556868.727   123792181.508    23556874.898    96461473.5314                 
                
  19387593.547   103565090.225                    80550628.759    19387596.965  
  19387592.934  
  20958919.477   110139905.712    20958926.098    85823355.7784   20958926.023  
                
  24776379.992   130200760.772    24776385.723   101455149.6504                 
                
  20553672.352   110025434.692                    85575344.944    20553676.457  
  20553671.102  
  19263995.742   102796389.644                    79952752.428    19263998.609  
  19263993.887  
 21  8 16 17 34 30.0000000  0 13G 4G16R 1G30G 9R13G 6G20R12G 7G 2R 3
                                R 2
  21677635.508   113916785.961    21677643.512    88766376.0804   21677643.387  
                
  22545307.914   118476437.796    22545313.973    92319348.3664                 
                
  23408701.445   125132926.726                    97325606.198    23408708.102  
  23408700.477  
  23241422.516   122134528.315    23241432.824    95169815.8554   23241432.941  
                
  20346098.820   106919509.770    20346106.934    83313958.4894   20346106.797  
                
  20250573.383   108136940.227                    84106548.646    20250576.797  
  20250571.434  
  24000363.305   126122732.272    24000374.043    98277509.8724   24000374.402  
                
  23551137.359   123762063.015    23551143.613    96438004.5824                 
                
  19389888.906   103577351.604                    80560165.399    19389892.336  
  19389888.305  
  20956572.789   110127573.762    20956579.367    85813746.4774   20956579.297  
                
  24777908.828   130208794.685    24777914.594   101461409.8474                 
                
  20548395.383   109997186.656                    85553374.251    20548399.480  
  20548394.137  
  19265412.164   102803947.907                    79958631.086    19265415.047  
  19265410.309  
 21  8 16 17 34 40.0000000  0 13G 4G16R 1G30G 9R13G 6G20R12G 7G 2R 3
                                R 2
  21681483.953   113937009.687    21681491.945    88782134.8184   21681491.824  
                
  22548621.914   118493853.043    22548627.980    92332918.6884                 
                
  23415709.570   125170389.171                    97354743.621    23415716.223  
  23415708.672  
  23235905.508   122105536.420    23235915.852    95147224.7954   23235915.984  
                
  20346222.703   106920160.776    20346230.812    83314465.7674   20346230.676  
                
  20245248.188   108108504.035                    84084431.616    20245251.609  
  20245246.219  
  24005221.367   126148261.505    24005232.180    98297402.7524   24005232.496  
                
  23545412.750   123731979.970    23545419.062    96414563.2664                 
                
  19392198.727   103589690.246                    80569762.121    19392202.156  
  19392198.145  
  20954233.203   110115279.141    20954239.727    85804166.2584   20954239.680  
                
  24779446.562   130216875.440    24779452.359   101467706.5114                 
                
  20543124.781   109968972.764                    85531430.131    20543128.867  
  20543123.523  
  19266840.516   102811569.827                    79964559.243    19266843.402  
  19266838.664  
 21  8 16 17 34 50.0000000  0 13G 4G16R 1G30G 9R13G 6G20R12G 7G 2R 3
                                R 2
  21685337.898   113957262.255    21685345.918    88797916.0254   21685345.777  
                
  22551948.453   118511334.138    22551954.508    92346540.3244                 
                
  23422722.062   125207874.636                    97383898.954    23422728.703  
  23422721.121  
  23230392.922   122076567.691    23230403.266    95124651.7764   23230403.414  
                
  20346354.117   106920851.386    20346362.223    83315003.8974   20346362.082  
                
  20239934.922   108080131.534                    84062364.145    20239938.359  
  20239932.918  
  24010085.117   126173820.345    24010095.926    98317318.7074   24010096.258  
                
  23539694.930   123701932.586    23539701.262    96391149.7024                 
                
  19394523.016   103602106.197                    80579418.977    19394526.461  
  19394522.422  
  20951900.742   110103021.987    20951907.199    85794615.2334   20951907.180  
                
  24780993.195   130225003.085    24780998.988   101474039.7124                 
                
  20537860.641   109940793.472                    85509512.896    20537864.730  
  20537859.383  
  19268280.867   102819255.762                    79970537.185    19268283.762  
  19268279.020  
 21  8 16 17 35  0.0000000  0 13G 4G16R 1G30G 9R13G 6G20R12G 7G 2R 3
                                R 2
  21689197.312   113977543.564    21689205.371    88813719.6444   21689205.199  
                
  22555287.508   118528880.995    22555293.523    92360213.2104                 
                
  23429738.812   125245383.098                    97413072.175    23429745.449  
  23429737.879  
  23224884.719   122047622.035    23224895.062    95102096.7364   23224895.223  
                
  20346493.070   106921581.567    20346501.168    83315572.8814   20346501.035  
                
  20234633.578   108051822.775                    84040346.234    20234637.023  
  20234631.582  
  24014954.438   126199408.653    24014965.230    98337257.6374   24014965.578  
                
  23533983.906   123671920.882    23533990.246    96367763.9594                 
                
  19396861.742   103614599.269                    80589135.812    19396865.195  
  19396861.152  
  20949575.414   110090802.299    20949581.805    85785093.4064   20949581.816  
                
  24782548.750   130233177.475    24782554.547   101480409.3704                 
                
  20532602.969   109912648.814                    85487622.626    20532607.059  
  20532601.707  
  19269733.180   102827005.548                    79976564.795    19269736.078  
  19269731.344  
 21  8 16 17 35 10.0000000  0 13G 4G16R 1G30G 9R13G 6G20R12G 7G 2R 3
                                R 2
  21693062.203   113997853.684    21693070.305    88829545.6974   21693070.113  
                
  22558639.070   118546493.587    22558645.082    92373937.3274                 
                
  23436759.766   125282914.494                    97442263.259    23436766.465  
  23436758.941  
  23219380.945   122018699.588    23219391.277    95079559.7804   23219391.434  
                
  20346639.555   106922351.400    20346647.652    83316172.7444   20346647.520  
                
  20229344.195   108023577.806                    84018377.930    20229347.613  
  20229342.234  
  24019829.328   126225026.357    24019840.117    98357219.4554   24019840.500  
                
  23528279.711   123641945.060    23528286.055    96344406.1664                 
                
  19399214.883   103627169.325                    80598912.517    19399218.344  
  19399214.285  
  20947257.203   110078620.039    20947263.523    85775600.7374   20947263.574  
                
  24784113.211   130241398.632    24784118.953   101486815.4844                 
                
  20527351.758   109884538.714                    85465759.207    20527355.848  
  20527350.508  
  19271197.516   102834819.530                    79982642.329    19271200.418  
  19271195.668  
 21  8 16 17 35 20.0000000  0 13G 4G16R 1G30G 9R13G 6G20R12G 7G 2R 3
                                R 2
  21696932.586   114018192.587    21696940.738    88845394.1854   21696940.527  
                
  22562003.125   118564171.858    22562009.156    92387712.6074                 
                
  23443784.992   125320468.553                    97471471.975    23443791.770  
  23443784.246  
  23213881.586   121989800.358    23213891.895    95057040.9164   23213892.031  
                
  20346793.602   106923160.918    20346801.699    83316803.5314   20346801.566  
                
  20224066.820   107995396.889                    83996459.442    20224070.199  
  20224064.855  
  24024709.766   126250673.321    24024720.590    98377204.0894   24024720.992  
                
  23522582.391   123612005.270    23522588.750    96321076.4624                 
                
  19401582.422   103639816.317                    80608749.068    19401585.898  
  19401581.824  
  20944946.133   110066475.305    20944952.391    85766137.3124   20944952.473  
                
  24785686.539   130249666.491    24785692.266   101493257.9244                 
                
  20522107.078   109856463.580                    85443923.010    20522111.176  
  20522105.820  
  19272673.867   102842697.608                    79988769.725    19272676.797  
  19272672.020  
 21  8 16 17 35 30.0000000  0 13G 4G16R 1G30G 9R13G 6G20R12G 7G 2R 3
                                R 2
  21700808.422   114038560.223    21700816.621    88861265.0554   21700816.387  
                
  22565379.656   118581915.621    22565385.711    92401538.9204                 
                
  23450814.500   125358045.374                    97500698.366    23450821.285  
  23450813.719  
  23208386.625   121960924.314    23208396.883    95034540.1224   23208397.035  
                
  20346955.188   106924010.062    20346963.289    83317465.2054   20346963.156  
                
  20218801.438   107967280.003                    83974590.779    20218804.785  
  20218799.473  
  24029595.828   126276349.419    24029606.598    98397211.4134   24029607.004  
                
  23516891.898   123582101.477    23516898.266    96297774.8174                 
                
  19403964.352   103652540.141                    80618645.376    19403967.844  
  19403963.742  
  20942642.188   110054368.016    20942648.398    85756703.0604   20942648.500  
                
  24787268.727   130257980.929    24787274.488   101499736.6824                 
                
  20516868.898   109828423.237                    85422113.846    20516873.012  
  20516867.637  
  19274162.219   102850639.694                    79994946.891    19274165.164  
  19274160.359  
 21  8 16 17 35 40.0000000  0 13G 4G16R 1G30G 9R13G 6G20R12G 7G 2R 3
                                R 2
  21704689.734   114058956.564    21704697.953    88877158.2884   21704697.707  
                
  22568768.609   118599724.717    22568774.672    92415416.1494                 
                
  23457848.227   125395644.987                    97529942.516    23457855.090  
  23457847.469  
  23202896.094   121932071.527    23202906.293    95012057.4454   23202906.480  
                
  20347124.320   106924898.863    20347132.426    83318157.7754   20347132.297  
                
  20213548.031   107939227.128                    83952771.885    20213551.359  
  20213546.066  
  24034487.422   126302054.498    24034498.129    98417241.3314   24034498.547  
                
  23511208.281   123552233.790    23511214.641    96274501.2884                 
                
  19406360.625   103665340.641                    80628601.327    19406364.129  
  19406360.020  
  20940345.352   110042298.051    20940351.539    85747297.8964   20940351.645  
                
  24788859.773   130266341.867    24788865.551   101506251.6784                 
                
  20511637.266   109800417.942                    85400331.957    20511641.387  
  20511636.004  
  19275662.594   102858646.000                    80001174.018    19275665.562  
  19275660.734  
 21  8 16 17 35 50.0000000  0 13G 4G16R 1G30G 9R13G 6G20R12G 7G 2R 3
                                R 2
  21708576.516   114079381.699    21708584.746    88893073.9664   21708584.508  
                
  22572169.992   118617599.126    22572176.059    92429344.2754                 
                
  23464886.180   125433267.269                    97559204.302    23464893.125  
  23464885.484  
  23197410.016   121903242.091    23197420.164    94989592.9574   23197420.355  
                
  20347301.016   106925827.429    20347309.129    83318881.3324   20347308.992  
                
  20208306.617   107911238.292                    83931002.799    20208309.914  
  20208304.625  
  24039384.453   126327788.552    24039395.180    98437293.8284   24039395.590  
                
  23505531.562   123522402.344    23505537.879    96251256.0014                 
                
  19408771.297   103678218.005                    80638617.048    19408774.809  
  19408770.691  
  20938055.641   110030265.542    20938061.816    85737921.9164   20938061.922  
                
  24790459.688   130274749.351    24790465.492   101512802.9564                 
                
  20506412.211   109772447.862                    85378577.449    20506416.340  
  20506410.957  
  19277174.930   102866716.075                    80007450.726    19277177.922  
  19277173.070  
 21  8 16 17 36  0.0000000  0 13G 4G16R 1G30G 9R13G 6G20R12G 7G 2R 3
                                R 2
  21712468.758   114099835.519    21712477.000    88909011.9964   21712476.758  
                
  22575583.820   118635538.956    22575589.875    92443323.3564                 
                
  23471928.375   125470911.995                    97588483.519    23471935.355  
  23471927.684  
  23191928.383   121874435.963    23191938.504    94967146.6384   23191938.668  
                
  20347485.273   106926795.706    20347493.387    83319635.8274   20347493.246  
                
  20203077.242   107883313.803                    83909283.755    20203080.527  
  20203075.223  
  24044286.945   126353551.361    24044297.688    98457368.7284   24044298.109  
                
  23499861.750   123492607.177    23499868.008    96228038.9744                 
                
  19411196.281   103691171.858                    80648692.275    19411199.797  
  19411195.691  
  20935773.023   110018270.362    20935779.195    85728575.0284   20935779.301  
                
  24792068.406   130283203.292    24792074.195   101519390.4264                 
                
  20501193.742   109744512.983                    85356850.322    20501197.871  
  20501192.477  
  19278699.297   102874850.392                    80013777.422    19278702.305  
  19278697.434  
 21  8 16 17 36 10.0000000  0 13G 4G16R 1G30G 9R13G 6G20R12G 7G 2R 3
                                R 2
  21716366.492   114120318.179    21716374.730    88924972.5144   21716374.480  
                
  22579010.102   118653544.179    22579016.141    92457353.4044                 
                
  23478974.820   125508579.401                    97617780.395    23478981.848  
  23478974.137  
  23186451.227   121845653.343    23186461.336    94944718.6384   23186461.488  
                
  20347677.125   106927803.860    20347685.234    83320421.4094   20347685.098  
                
  20197859.945   107855453.809                    83887614.892    20197863.230  
  20197857.934  
  24049194.992   126379342.986    24049205.668    98477466.0814   24049206.105  
                
  23494198.883   123462848.605    23494205.113    96204850.4874                 
                
  19413635.602   103704202.256                    80658827.036    19413639.117  
  19413635.012  
  20933497.570   110006312.797    20933503.746    85719257.4534   20933503.855  
                
  24793685.969   130291703.712    24793691.695   101526014.1354                 
                
  20495981.906   109716613.661                    85335150.857    20495986.047  
  20495980.629  
  19280235.727   102883049.046                    80020154.140    19280238.746  
  19280233.855  
 21  8 16 17 36 20.0000000  0 13G 4G16R 1G30G 9R13G 6G20R12G 7G 2R 3
                                R 2
  21720269.648   114140829.377    21720277.887    88940955.2514   21720277.633  
                
  22582448.750   118671614.413    22582454.773    92471434.1264                 
                
  23486025.312   125546269.021                    97647094.529    23486032.484  
  23486024.734  
  23180978.500   121816893.920    23180988.562    94922308.7074   23180988.707  
                
  20347876.492   106928851.592    20347884.598    83321237.8254   20347884.461  
                
  20192654.703   107827658.149                    83865996.053    20192657.996  
  20192652.707  
  24054108.359   126405163.035    24054119.023    98497585.5584   24054119.512  
                
  23488542.930   123433126.379    23488549.148    96181690.3024                 
                
  19416089.203   103717309.020                    80669021.183    19416092.727  
  19416088.609  
  20931229.188   109994392.437    20931235.375    85709968.8654   20931235.477  
                
  24795312.320   130300250.338    24795317.992   101532673.8014                 
                
  20490776.664   109688749.667                    85313478.868    20490780.816  
  20490775.375  
  19281784.141   102891311.698                    80026580.642    19281787.176  
  19281782.262  
 21  8 16 17 36 30.0000000  0 13G 4G16R 1G30G 9R13G 6G20R12G 7G 2R 3
                                R 2
  21724178.273   114161369.272    21724186.508    88956960.3654   21724186.266  
                
  22585899.789   118689749.762    22585905.781    92485565.5604                 
                
  23493080.133   125583981.064                    97676426.109    23493087.277  
  23493079.527  
  23175510.227   121788157.940    23175520.227    94899917.0314   23175520.371  
                
  20348083.438   106929939.122    20348091.535    83322085.2554   20348091.418  
                
  20187461.539   107799927.001                    83844427.403    20187464.871  
  20187459.551  
  24059027.148   126431011.515    24059037.820    98517727.2034   24059038.340  
                
  23482893.945   123403440.774    23482900.160    96158558.6634                 
                
  19418557.086   103730492.035                    80679274.643    19418560.617  
  19418556.465  
  20928967.930   109982509.508    20928974.141    85700709.4434   20928974.230  
                
  24796947.492   130308843.198    24796953.082   101539369.5224                 
                
  20485578.062   109660921.157                    85291834.471    20485582.207  
  20485576.777  
  19283344.648   102899638.826                    80033057.288    19283347.699  
  19283342.770  
 21  8 16 17 36 40.0000000  0 13G 4G16R 1G30G 9R13G 6G20R12G 7G 2R 3
                                R 2
  21728092.367   114181937.868    21728100.598    88972987.8314   21728100.363  
                
  22589363.195   118707950.137    22589369.172    92499747.6874                 
                
  23500139.133   125621715.422                    97705775.053    23500146.262  
  23500138.527  
  23170046.422   121759445.451    23170056.379    94877543.6674   23170056.527  
                
  20348297.969   106931066.499    20348306.059    83322963.7244   20348305.945  
                
  20182280.414   107772260.126                    83822908.736    20182283.770  
  20182278.406  
  24063951.344   126456888.339    24063962.027    98537890.9454   24063962.562  
                
  23477251.969   123373791.975    23477258.180    96135455.7054                 
                
  19421039.211   103743751.158                    80689587.294    19421042.750  
  19421038.570  
  20926713.805   109970664.034    20926720.047    85691479.2104   20926720.113  
                
  24798591.477   130317482.336    24798597.023   101546101.3224                 
                
  20480386.172   109633128.594                    85270218.038    20480390.336  
  20480384.895  
  19284917.156   102908030.061                    80039583.807    19284920.223  
  19284915.273  
 21  8 16 17 36 50.0000000  0 13G 4G16R 1G30G 9R13G 6G20R12G 7G 2R 3
                                R 2
  21732011.914   114202535.170    21732020.156    88989037.6784   21732019.906  
                
  22592838.977   118726215.484    22592844.977    92513980.4224                 
                
  23507202.211   125659472.137                    97735141.384    23507209.484  
  23507201.711  
  23164587.070   121730756.498    23164597.035    94855188.6554   23164597.164  
                
  20348520.094   106932233.768    20348528.176    83323873.2934   20348528.078  
                
  20177111.445   107744658.199                    83801440.581    20177114.809  
  20177109.449  
  24068880.859   126482793.480    24068891.613    98558076.7384   24068892.141  
                
  23471617.000   123344180.018    23471623.223    96112381.4524                 
                
  19423535.602   103757086.458                    80699959.188    19423539.148  
  19423534.957  
  20924466.805   109958856.006    20924473.098    85682278.1584   20924473.145  
                
  24800244.258   130326167.750    24800249.770   101552869.1624                 
                
  20475200.945   109605371.699                    85248629.336    20475205.113  
  20475199.691  
  19286501.680   102916485.377                    80046160.146    19286504.762  
  19286499.773  
 21  8 16 17 37  0.0000000  0 13G 4G16R 1G30G 9R13G 6G20R12G 7G 2R 3
                                R 2
  21735936.898   114223161.044    21735945.152    89005109.7834   21735944.891  
                
  22596327.070   118744545.582    22596333.086    92528263.6224                 
                
  23514269.602   125697251.001                    97764524.911    23514276.836  
  23514269.008  
  23159132.195   121702091.016    23159142.188    94832851.9334   23159142.312  
                
  20348749.773   106933440.790    20348757.852    83324813.8284   20348757.758  
                
  20171954.586   107717120.860                    83780022.657    20171957.914  
  20171952.582  
  24073815.758   126508726.592    24073826.539    98578284.3584   24073827.082  
                
  23465989.031   123314604.882    23465995.277    96089335.8874                 
                
  19426046.219   103770497.737                    80710390.177    19426049.770  
  19426045.562  
  20922226.891   109947085.269    20922233.250    85673106.1654   20922233.266  
                
  24801905.797   130334899.244    24801911.293   101559672.9014                 
                
  20470022.438   109577650.726                    85227068.578    20470026.602  
  20470021.176  
  19288098.273   102925005.153                    80052786.635    19288101.379  
  19288096.363  
 21  8 16 17 37 10.0000000  0 13G 4G16R 1G30G 9R13G 6G20R12G 7G 2R 3
                                R 2
  21739867.352   114243815.645    21739875.609    89021204.2624   21739875.359  
                
  22599827.523   118762940.591    22599833.566    92542597.3904                 
                
  23521340.953   125735052.063                    97793925.759    23521348.324  
  23521340.449  
  23153681.820   121673449.155    23153691.848    94810533.6154   23153691.977  
                
  20348987.070   106934687.774    20348995.152    83325785.5064   20348995.059  
                
  20166809.875   107689648.426                    83758655.225    20166813.223  
  20166807.895  
  24078756.000   126534687.804    24078766.812    98598513.8424   24078767.367  
                
  23460368.133   123285066.829    23460374.391    96066319.2284                 
                
  19428571.039   103783984.911                    80720880.210    19428574.613  
  19428570.387  
  20919994.117   109935351.984    20920000.551    85663963.3534   20920000.523  
                
  24803576.133   130343676.871    24803581.637   101566512.5634                 
                
  20464850.672   109549965.865                    85205535.911    20464854.844  
  20464849.414  
  19289706.930   102933589.236                    80059463.140    19289710.035  
  19289705.016  
 21  8 16 17 37 20.0000000  0 13G 4G16R 1G30G 9R13G 6G20R12G 7G 2R 3
                                R 2
  21743803.227   114264498.740    21743811.504    89037320.9514   21743811.238  
                
  22603340.266   118781400.222    22603346.305    92556981.5264                 
                
  23528416.531   125772875.054                    97823343.641    23528423.910  
  23528416.012  
  23148235.914   121644830.819    23148246.008    94788233.6324   23148246.129  
                
  20349231.938   106935974.539    20349240.016    83326788.1784   20349239.918  
                
  20161677.297   107662240.794                    83737338.189    20161680.641  
  20161675.332  
  24083701.578   126560676.771    24083712.344    98618764.9724   24083712.910  
                
  23454754.273   123255565.729    23454760.531    96043331.3584                 
                
  19431110.070   103797547.960                    80731429.246    19431113.652  
  19431109.398  
  20917768.422   109923655.949    20917774.918    85654849.5674   20917774.867  
                
  24805255.195   130352500.291    24805260.715   101573387.9574                 
                
  20459685.664   109522317.151                    85184031.356    20459689.844  
  20459684.402  
  19291327.578   102942237.382                    80066189.468    19291330.695  
  19291325.648  
 21  8 16 17 37 30.0000000  0 13G 4G16R 1G30G 9R13G 6G20R12G 7G 2R 3
                                R 2
  21747744.523   114285210.320    21747752.820    89053459.8324   21747752.535  
                
  22606865.266   118799924.257    22606871.305    92571415.8544                 
                
  23535496.219   125810719.890                    97852778.498    23535503.547  
  23535495.668  
  23142794.445   121616235.952    23142804.633    94765951.9364   23142804.770  
                
  20349484.367   106937301.072    20349492.445    83327821.8424   20349492.348  
                
  20156556.930   107634898.377                    83716071.870    20156560.266  
  20156554.988  
  24088652.383   126586693.390    24088663.125    98639037.6434   24088663.703  
                
  23449147.461   123226101.748    23449153.762    96020372.4334                 
                
  19433663.227   103811186.469                    80742036.982    19433666.812  
  19433662.555  
  20915549.820   109911997.177    20915556.363    85645764.8164   20915556.297  
                
  24806942.977   130361369.558    24806948.500   101580299.0754                 
                
  20454527.367   109494704.470                    85162554.836    20454531.574  
  20454526.109  
  19292960.242   102950949.595                    80072965.627    19292963.367  
  19292958.293  
 21  8 16 17 37 40.0000000  0 13G 4G16R 1G30G 9R13G 6G20R12G 7G 2R 3
                                R 2
  21751691.281   114305950.669    21751699.566    89069621.1344   21751699.281  
                
  22610402.570   118818513.023    22610408.645    92585900.5974                 
                
  23542579.969   125848586.788                    97882230.521    23542587.328  
  23542579.414  
  23137357.492   121587664.873    23137367.766    94743688.7924   23137367.914  
                
  20349744.414   106938667.691    20349752.500    83328886.7414   20349752.395  
                
  20151448.734   107607620.909                    83694856.079    20151452.055  
  20151446.785  
  24093608.414   126612737.792    24093619.191    98659331.9654   24093619.770  
                
  23443547.773   123196675.291    23443554.098    95997442.7304                 
                
  19436230.578   103824900.828                    80752703.700    19436234.168  
  19436229.895  
  20913338.367   109900375.949    20913344.949    85636709.3214   20913344.863  
                
  24808639.523   130370284.914    24808645.082   101587246.0924                 
                
  20449375.914   109467128.376                    85141106.768    20449380.145  
  20449374.656  
  19294605.047   102959726.607                    80079792.185    19294608.180  
  19294603.090  
 21  8 16 17 37 50.0000000  0 13G 4G16R 1G30G 9R13G 6G20R12G 7G 2R 3
                                R 2
  21755643.453   114326719.431    21755651.703    89085804.5814   21755651.434  
                
  22613952.125   118837166.161    22613958.219    92600435.5284                 
                
  23549667.930   125886475.412                    97911699.453    23549675.246  
  23549667.266  
  23131925.055   121559117.339    23131935.352    94721443.9754   23131935.520  
                
  20350012.039   106940074.098    20350020.125    83329982.6364   20350020.020  
                
  20146352.656   107580408.204                    83673690.645    20146355.941  
  20146350.734  
  24098569.750   126638809.542    24098580.457    98679647.6044   24098581.027  
                
  23437955.188   123167286.095    23437961.551    95974542.0534                 
                
  19438812.023   103838690.484                    80763428.991    19438815.609  
  19438811.328  
  20911134.000   109888791.990    20911140.621    85627682.8664   20911140.523  
                
  24810344.750   130379245.915    24810350.316   101594228.6874                 
                
  20444231.258   109439588.675                    85119687.008    20444235.504  
  20444229.984  
  19296261.852   102968567.667                    80086668.557    19296264.977  
  19296259.887  
 21  8 16 17 38  0.0000000  0 13G 4G16R 1G30G 9R13G 6G20R12G 7G 2R 3
                                R 2
  21759601.086   114347516.872    21759609.328    89102010.3814   21759609.070  
                
  22617513.984   118855883.843    22617520.047    92615020.7304                 
                
  23556759.836   125924385.840                    97941185.334    23556767.258  
  23556759.191  
  23126497.156   121530593.617    23126507.445    94699217.7084   23126507.629  
                
  20350287.297   106941520.537    20350295.387    83331109.7354   20350295.277  
                
  20141268.828   107553260.850                    83652576.049    20141272.094  
  20141266.887  
  24103536.312   126664908.831    24103547.043    98699984.6824   24103547.578  
                
  23432369.773   123137934.533    23432376.145    95951670.7034                 
                
  19441407.617   103852555.707                    80774213.062    19441411.199  
  19441406.922  
  20908936.789   109877245.560    20908943.461    85618685.6524   20908943.340  
                
  24812058.734   130388252.827    24812064.293   101601247.0524                 
                
  20439093.469   109412085.680                    85098295.780    20439097.734  
  20439092.191  
  19297930.789   102977473.405                    80093595.240    19297933.906  
  19297928.797  
 21  8 16 17 38 10.0000000  0 13G 4G16R 1G30G 9R13G 6G20R12G 7G 2R 3
                                R 2
  21763564.125   114368342.750    21763572.367    89118238.3254   21763572.121  
                
  22621088.047   118874665.701    22621094.109    92629655.9534                 
                
  23563855.836   125962317.878                    97970688.017    23563863.242  
  23563855.160  
  23121073.750   121502093.531    23121084.027    94677009.8584   23121084.227  
                
  20350570.133   106943006.849    20350578.227    83332267.9014   20350578.117  
                
  20136197.266   107526179.036                    83631512.432    20136200.531  
  20136195.332  
  24108508.086   126691035.257    24108518.758    98720342.9164   24108519.301  
                
  23426791.516   123108620.507    23426797.883    95928828.6024                 
                
  19444017.273   103866496.045                    80785055.537    19444020.848  
  19444016.570  
  20906746.664   109865736.426    20906753.391    85609717.5074   20906753.250  
                
  24813781.367   130397305.319    24813786.941   101608300.9234                 
                
  20433962.508   109384619.283                    85076933.040    20433966.773  
  20433961.227  
  19299611.703   102986443.135                    80100571.694    19299614.828  
  19299609.688  
 21  8 16 17 38 20.0000000  0 13G 4G16R 1G30G 9R13G 6G20R12G 7G 2R 3
                                R 2
  21767532.602   114389197.229    21767540.828    89134488.5484   21767540.582  
                
  22624674.344   118893511.869    22624680.434    92644341.2804                 
                
  23570955.766   126000271.665                    98000207.632    23570963.270  
  23570955.168  
  23115654.898   121473617.245    23115665.152    94654820.5564   23115665.344  
                
  20350860.586   106944533.212    20350868.691    83333457.2684   20350868.582  
                
  20131137.977   107499162.740                    83610499.747    20131141.230  
  20131136.066  
  24113485.016   126717188.896    24113495.641    98740722.3594   24113496.176  
                
  23421220.445   123079344.214    23421226.809    95906015.8924                 
                
  19446641.016   103880511.632                    80795956.543    19446644.582  
  19446640.305  
  20904563.648   109854264.637    20904570.430    85600778.4604   20904570.262  
                
  24815512.695   130406403.462    24815518.297   101615390.3734                 
                
  20428838.469   109357189.854                    85055599.032    20428842.742  
  20428837.184  
  19301304.711   102995477.352                    80107598.296    19301307.844  
  19301302.684  
 21  8 16 17 38 30.0000000  0 13G 4G16R 1G30G 9R13G 6G20R12G 7G 2R 3
                                R 2
  21771506.500   114410080.190    21771514.719    89150760.9864   21771514.480  
                
  22628272.852   118912422.196    22628278.941    92659076.6114                 
                
  23578059.859   126038247.077                    98029744.049    23578067.324  
  23578059.270  
  23110240.570   121445164.756    23110250.812    94632649.7914   23110250.977  
                
  20351158.648   106946099.559    20351166.762    83334677.7954   20351166.637  
                
  20126090.891   107472211.616                    83589537.778    20126094.133  
  20126088.977  
  24118467.000   126743369.579    24118477.641    98761122.8644   24118478.195  
                
  23415656.531   123050105.608    23415662.863    95883232.5524                 
                
  19449278.820   103894602.365                    80806916.004    19449282.375  
  19449278.102  
  20902387.719   109842830.098    20902394.547    85591868.4414   20902394.375  
                
  24817252.711   130415547.201    24817258.352   101622515.3594                 
                
  20423721.281   109329797.178                    85034293.620    20423725.543  
  20423720.016  
  19303009.828   103004576.231                    80114675.207    19303012.973  
  19303007.797  
 21  8 16 17 38 40.0000000  0 13G 4G16R 1G30G 9R13G 6G20R12G 7G 2R 3
                                R 2
  21775485.852   114430991.835    21775494.062    89167055.7664   21775493.812  
                
  22631883.578   118931396.769    22631889.707    92673861.9934                 
                
  23585167.992   126076244.085                    98059297.272    23585175.461  
  23585167.363  
  23104830.820   121416736.273    23104841.016    94610497.7144   23104841.176  
                
  20351464.359   106947706.091    20351472.477    83335929.6414   20351472.348  
                
  20121056.117   107445326.285                    83568626.968    20121059.379  
  20121054.203  
  24123454.172   126769577.332    24123464.820    98781544.4694   24123465.418  
                
  23410099.820   123020904.942    23410106.148    95860478.8094                 
                
  19451930.703   103908768.220                    80817933.901    19451934.246  
  19451929.992  
  20900218.938   109831433.062    20900225.801    85582987.6424   20900225.617  
                
  24819001.438   130424736.683    24819007.141   101629675.9834                 
                
  20418611.055   109302441.775                    85013017.201    20418615.328  
  20418609.789  
  19304727.039   103013739.600                    80121802.261    19304730.188  
  19304725.000  
 21  8 16 17 38 50.0000000  0 13G 4G16R 1G30G 9R13G 6G20R12G 7G 2R 3
                                R 2
  21779470.625   114451931.922    21779478.805    89183372.7014   21779478.570  
                
  22635506.477   118950435.261    22635512.613    92688697.1864                 
                
  23592280.062   126114262.382                    98088867.074    23592287.645  
  23592279.449  
  23099425.594   121388331.604    23099435.750    94588364.2024   23099435.918  
                
  20351777.680   106949352.623    20351785.801    83337212.6524   20351785.668  
                
  20116033.641   107418506.581                    83547767.229    20116036.910  
  20116031.703  
  24128446.453   126795811.838    24128457.129    98801986.9324   24128457.715  
                
  23404550.328   122991742.200    23404556.625    95837754.5774                 
                
  19454596.586   103923008.905                    80829009.991    19454600.113  
  19454595.883  
  20898057.250   109820073.309    20898064.133    85574135.8914   20898063.941  
                
  24820758.789   130433971.600    24820764.520   101636872.0154                 
                
  20413507.758   109275123.415                    84991769.588    20413512.020  
  20413506.508  
  19306456.383   103022967.672                    80128979.652    19306459.535  
  19306454.340  
 21  8 16 17 39  0.0000000  0 13G 4G16R 1G30G 9R13G 6G20R12G 7G 2R 3
                                R 2
  21783460.812   114472900.480    21783468.961    89199711.8314   21783468.734  
                
  22639141.531   118969537.663    22639147.652    92703582.1624                 
                
  23599396.156   126152302.184                    98118453.577    23599403.801  
  23599395.598  
  23094024.891   121359950.791    23094035.023    94566249.2934   23094035.191  
                
  20352098.633   106951039.210    20352106.750    83338526.8674   20352106.617  
                
  20111023.438   107391752.422                    83526958.439    20111026.719  
  20111021.496  
  24133443.812   126822073.052    24133454.484    98822450.2044   24133455.074  
                
  23399008.094   122962617.564    23399014.371    95815060.0484                 
                
  19457276.461   103937324.370                    80840144.240    19457279.984  
  19457275.766  
  20895902.664   109808750.937    20895909.551    85565313.2734   20895909.355  
                
  24822524.773   130443251.950    24822530.453   101644103.4314                 
                
  20408411.438   109247842.391                    84970551.013    20408415.699  
  20408410.188  
  19308197.727   103032259.836                    80136206.882    19308200.871  
  19308195.703  
 21  8 16 17 39 10.0000000  0 12G 4G16G30G 9R13G 6G20R12G 7G 2R 3R 2
  21787456.406   114493897.463    21787464.516    89216073.1094   21787464.301  
                
  22642788.719   118988703.830    22642794.828    92718516.8554                 
                
  23088628.734   121331593.884    23088638.859    94544153.0084   23088639.035  
                
  20352427.195   106952765.832    20352435.316    83339872.2814   20352435.176  
                
  20106025.602   107365064.220                    83506200.952    20106028.887  
  20106023.648  
  24138446.242   126848360.803    24138456.898    98842934.1464   24138457.477  
                
  23393473.117   122933531.028    23393479.391    95792395.2264                 
                
  19459970.328   103951714.532                    80851336.598    19459973.840  
  19459969.625  
  20893755.180   109797465.818    20893762.055    85556519.6744   20893761.871  
                
  24824299.414   130452577.602    24824305.062   101651370.1744                 
                
  20403322.086   109220598.723                    84949361.494    20403326.336  
  20403320.844  
  19309951.195   103041616.653                    80143484.398    19309954.336  
  19309949.180  
 21  8 16 17 39 20.0000000  0 12G 4G16G30G 9R13G 6G20R12G 7G 2R 3R 2
  21791457.414   114514922.890    21791465.496    89232456.5474   21791465.293  
                
  22646448.047   119007933.789    22646454.148    92733501.2364                 
                
  23083237.141   121303260.928    23083247.277    94522075.3884   23083247.445  
                
  20352763.391   106954532.546    20352771.512    83341248.9354   20352771.363  
                
  20101040.086   107338441.864                    83485494.707    20101043.359  
  20101038.129  
  24143453.703   126874675.026    24143464.363    98863438.7024   24143464.934  
                
  23387945.398   122904482.753    23387951.691    95769760.2124                 
                
  19462678.156   103966179.284                    80862586.953    19462681.656  
  19462677.465  
  20891614.781   109786217.951    20891621.637    85547755.1114   20891621.457  
                
  24826082.664   130461948.464    24826088.281   101658672.1384                 
                
  20398239.766   109193392.657                    84928201.225    20398244.012  
  20398238.527  
  19311716.742   103051037.919                    80150812.050    19311719.902  
  19311714.746  
 21  8 16 17 39 30.0000000  0 12G 4G16G30G 9R13G 6G20R12G 7G 2R 3R 2
  21795463.836   114535976.777    21795471.871    89248862.1654   21795471.695  
                
  22650119.500   119027227.379    22650125.594    92748535.2084                 
                
  23077850.094   121274951.928    23077860.277    94500016.4484   23077860.430  
                
  20353107.219   106956339.379    20353115.336    83342656.8564   20353115.180  
                
  20096066.852   107311885.199                    83464839.517    20096070.137  
  20096064.895  
  24148466.125   126901015.566    24148476.855    98883963.7714   24148477.430  
                
  23382425.000   122875472.905    23382431.352    95747155.1404                 
                
  19465399.938   103980718.529                    80873895.258    19465403.430  
  19465399.250  
  20889481.500   109775007.463    20889488.340    85539019.6714   20889488.160  
                
  24827874.516   130471364.579    24827880.090   101666009.3554                 
                
  20393164.461   109166224.188                    84907070.184    20393168.719  
  20393163.242  
  19313494.453   103060524.080                    80158190.173    19313497.602  
  19313492.469  
 21  8 16 17 39 40.0000000  0 12G 4G16G30G 9R13G 6G20R12G 7G 2R 3R 2
  21799475.672   114557059.132    21799483.676    89265289.9684   21799483.523  
                
  22653803.055   119046584.640    22653809.176    92763618.7824                 
                
  23072467.609   121246667.000    23072477.844    94477976.2574   23072477.973  
                
  20353458.695   106958186.403    20353466.812    83344096.0904   20353466.656  
                
  20091105.992   107285394.529                    83444235.678    20091109.273  
  20091104.020  
  24153483.547   126927382.395    24153494.352    98904509.3224   24153494.914  
                
  23376911.930   122846501.517    23376918.305    95724580.0294                 
                
  19468135.641   103995332.198                    80885261.446    19468139.117  
  19468134.957  
  20887355.328   109763834.378    20887362.141    85530313.3724   20887361.969  
                
  24829674.938   130480825.881    24829680.469   101673381.7534                 
                
  20388096.211   109139093.422                    84885968.464    20388100.465  
  20388095.016  
  19315284.188   103070074.452                    80165618.239    19315287.348  
  19315282.215  
 21  8 16 17 39 50.0000000  0 12G 4G16G30G 9R13G 6G20R12G 7G 2R 3R 2
  21803492.953   114578170.008    21803500.938    89281739.9994   21803500.789  
                
  22657498.727   119066005.498    22657504.895    92778751.9274                 
                
  23067089.742   121218406.234    23067100.031    94455954.9054   23067100.164  
                
  20353817.836   106960073.682    20353825.953    83345566.6984   20353825.793  
                
  20086157.594   107258970.350                    83423683.547    20086160.867  
  20086155.629  
  24158506.000   126953775.440    24158516.793    98925075.3124   24158517.379  
                
  23371406.219   122817568.737    23371412.602    95702035.0104                 
                
  19470885.289   104010020.304                    80896685.522    19470888.750  
  19470884.602  
  20885236.281   109752698.688    20885243.070    85521636.2194   20885242.902  
                
  24831483.992   130490332.395    24831489.469   101680789.4174                 
                
  20383035.062   109112000.653                    84864896.319    20383039.305  
  20383033.883  
  19317086.055   103079689.532                    80173096.629    19317089.219  
  19317084.105  
 21  8 16 17 40  0.0000000  0 12G 4G16G30G 9R13G 6G20R12G 7G 2R 3R 2
  21807515.609   114599309.216    21807523.578    89298212.0994   21807523.441  
                
  22661206.445   119085489.750    22661212.645    92793934.4554                 
                
  23061716.445   121190169.477    23061726.758    94433952.2504   23061726.902  
                
  20354184.609   106962001.070    20354192.719    83347068.5554   20354192.559  
                
  20081221.523   107232612.034                    83403182.661    20081224.805  
  20081219.535  
  24163533.352   126980194.392    24163544.172    98945661.4934   24163544.770  
                
  23365907.828   122788674.553    23365914.219    95679520.0614                 
                
  19473648.805   104024782.573                    80908167.290    19473652.258  
  19473648.137  
  20883124.320   109741600.238    20883131.066    85512988.0744   20883130.914  
                
  24833301.617   130499883.937    24833306.996   101688232.1654                 
                
  20377980.977   109084945.741                    84843853.607    20377985.234  
  20377979.824  
  19318899.984   103089368.989                    80180625.084    19318903.145  
  19318898.039  
 21  8 16 17 40 10.0000000  0 12G 4G16G30G 9R13G 6G20R12G 7G 2R 3R 2
  21811543.680   114620476.817    21811551.641    89314706.3254   21811551.516  
                
  22664926.242   119105037.384    22664932.445    92809166.3824                 
                
  23056347.773   121161956.837    23056358.059    94411968.3824   23056358.227  
                
  20354559.031   106963968.653    20354567.137    83348601.7374   20354566.980  
                
  20076297.875   107206320.050                    83382733.347    20076301.168  
  20076295.852  
  24168565.688   127006639.219    24168576.480    98966267.8374   24168577.074  
                
  23360416.836   122759819.156    23360423.230    95657035.3474                 
                
  19476426.203   104039618.869                    80919706.635    19476429.652  
  19476425.562  
  20881019.461   109730539.120    20881026.160    85504369.0254   20881026.027  
                
  24835127.805   130509480.473    24835133.055   101695710.0094                 
                
  20372934.000   109057928.876                    84822840.485    20372938.262  
  20372932.875  
  19320726.070   103099113.233                    80188203.929    19320729.238  
  19320724.141  
 21  8 16 17 40 20.0000000  0 12G 4G16G30G 9R13G 6G20R12G 7G 2R 3R 2
  21815577.133   114641672.770    21815585.102    89331222.6504   21815584.961  
                
  22668658.070   119124648.322    22668664.297    92824447.6424                 
                
  23050983.680   121133768.313    23050993.926    94390003.3064   23050994.125  
                
  20354941.102   106965976.397    20354949.203    83350166.2114   20354949.031  
                
  20071386.570   107180094.051                    83362335.366    20071389.875  
  20071384.551  
  24173602.844   127033109.781    24173613.707    98986894.2464   24173614.305  
                
  23354933.234   122731002.598    23354939.602    95634580.8974                 
                
  19479217.438   104054529.132                    80931303.504    19479220.867  
  19479216.816  
  20878921.688   109719515.236    20878928.328    85495778.9894   20878928.227  
                
  24836962.523   130519121.892    24836967.656   101703222.7884                 
                
  20367894.180   109030950.282                    84801857.139    20367898.449  
  20367893.047  
  19322564.234   103108922.026                    80195832.985    19322567.410  
  19322562.316  
 21  8 16 17 40 30.0000000  0 12G 4G16G30G 9R13G 6G20R12G 7G 2R 3R 2
  21819616.000   114662897.170    21819623.953    89347761.1354   21819623.848  
                
  22672401.930   119144322.429    22672408.172    92839778.1164                 
                
  23045624.195   121105604.031    23045634.418    94368057.1274   23045634.625  
                
  20355330.836   106968024.460    20355338.926    83351762.0984   20355338.758  
                
  20066487.781   107153934.818                    83341989.303    20066491.098  
  20066485.762  
  24178644.891   127059606.083    24178655.816    99007540.6784   24178656.426  
                
  23349457.062   122702225.043    23349463.371    95612156.8114                 
                
  19482022.508   104069513.293                    80942957.863    19482025.926  
  19482021.914  
  20876831.023   109708528.755    20876837.605    85487218.1044   20876837.531  
                
  24838805.758   130528808.237    24838810.844   101710770.5574                 
                
  20362861.523   109004010.034                    84780903.616    20362865.801  
  20362860.395  
  19324414.578   103118795.768                    80203512.564    19324417.758  
  19324412.676  
 21  8 16 17 40 40.0000000  0 12G 4G16G30G 9R13G 6G20R12G 7G 2R 3R 2
  21823660.273   114684149.930    21823668.207    89364321.7204   21823668.133  
                
  22676157.812   119164059.725    22676164.070    92855157.8284                 
                
  23040269.320   121077463.973    23040279.531    94346129.8164   23040279.730  
                
  20355728.242   106970112.803    20355736.316    83353389.3704   20355736.152  
                
  20061601.469   107127842.164                    83321695.031    20061604.785  
  20061599.465  
  24183691.758   127086127.936    24183702.770    99028207.0354   24183703.418  
                
  23343988.297   122673486.533    23343994.562    95589763.1584                 
                
  19484841.406   104084571.302                    80954669.645    19484844.828  
  19484840.832  
  20874747.477   109697579.641    20874754.004    85478686.3364   20874753.957  
                
  24840657.562   130538539.425    24840662.617   101718353.2754                 
                
  20357836.031   108977108.167                    84759979.941    20357840.312  
  20357834.902  
  19326277.023   103128734.096                    80211242.377    19326280.223  
  19326275.121  
 21  8 16 17 40 50.0000000  0 12G 4G16G30G 9R13G 6G20R12G 7G 2R 3R 2
  21827709.922   114705430.996    21827717.859    89380904.3734   21827717.797  
                
  22679925.695   119183860.067    22679931.973    92870586.6554                 
                
  23034919.031   121049348.127    23034929.230    94324221.3594   23034929.410  
                
  20356133.289   106972241.379    20356141.355    83355047.9954   20356141.191  
                
  20056727.602   107101816.025                    83301452.482    20056730.895  
  20056725.613  
  24188743.477   127112675.164    24188754.551    99048893.1624   24188755.215  
                
  23338526.969   122644787.120    23338533.203    95567399.9934                 
                
  19487674.078   104099702.961                    80966438.712    19487677.520  
  19487673.523  
  20872671.008   109686667.793    20872677.473    85470183.6004   20872677.453  
                
  24842517.859   130548315.349    24842522.887   101725970.8804                 
                
  20352817.742   108950244.861                    84739086.262    20352822.023  
  20352816.617  
  19328151.578   103138737.098                    80219022.481    19328154.777  
  19328149.688  
 21  8 16 17 41  0.0000000  0 12G 4G16G30G 9R13G 6G20R12G 7G 2R 3R 2
  21831764.969   114726740.366    21831772.930    89397509.0514   21831772.855  
                
  22683705.555   119203723.344    22683711.879    92886064.5404                 
                
  23029573.383   121021256.509    23029583.543    94302331.8004   23029583.711  
                
  20356546.008   106974410.195    20356554.062    83356737.9764   20356553.898  
                
  20051866.148   107075856.160                    83281261.482    20051869.438  
  20051864.191  
  24193800.102   127139247.639    24193811.160    99069598.9834   24193811.805  
                
  23333073.133   122616126.954    23333079.395    95545067.3924                 
                
  19490520.508   104114908.110                    80978264.940    19490523.953  
  19490519.957  
  20870601.625   109675793.146    20870608.031    85461709.8544   20870608.035  
                
  24844386.672   130558135.920    24844391.707   101733623.2944                 
                
  20347806.672   108923420.229                    84718222.653    20347810.941  
  20347805.555  
  19330038.281   103148804.871                    80226852.967    19330041.496  
  19330036.402  
 21  8 16 17 41 10.0000000  0 12G 4G16G30G 9R13G 6G20R12G 7G 2R 3R 2
  21835825.383   114748077.994    21835833.383    89414135.7744   21835833.297  
                
  22687497.367   119223649.413    22687503.746    92901591.3504                 
                
  23024232.328   120993189.143    23024242.453    94280461.1254   23024242.621  
                
  20356966.391   106976619.300    20356974.426    83358459.3474   20356974.277  
                
  20047017.172   107049962.896                    83261122.291    20047020.430  
  20047015.227  
  24198861.531   127165845.258    24198872.559    99090324.3834   24198873.199  
                
  23327626.773   122587506.119    23327633.070    95522765.4384                 
                
  19493380.688   104130186.706                    80990148.290    19493384.137  
  19493380.152  
  20868539.312   109664955.681    20868545.664    85453265.0804   20868545.688  
                
  24846263.945   130568001.120    24846269.004   101741310.4784                 
                
  20342802.836   108896634.305                    84697389.168    20342807.090  
  20342801.727  
  19331937.070   103158937.152                    80234733.630    19331940.309  
  19331935.188  
 21  8 16 17 41 20.0000000  0 12G 4G16G30G 9R13G 6G20R12G 7G 2R 3R 2
  21839891.203   114769443.974    21839899.238    89430784.5794   21839899.133  
                
  22691301.141   119243638.305    22691307.602    92917167.1084                 
                
  23018895.914   120965146.173    23018906.023    94258609.4724   23018906.215  
                
  20357394.453   106978868.787    20357402.473    83360212.1934   20357402.332  
                
  20042180.727   107024136.610                    83241035.194    20042183.969  
  20042178.816  
  24203927.742   127192468.008    24203938.738    99111069.3724   24203939.359  
                
  23322187.922   122558924.762    23322194.258    95500494.2734                 
                
  19496254.625   104145538.773                    81002088.782    19496258.078  
  19496254.082  
  20866484.102   109654155.513    20866490.398    85444849.3654   20866490.457  
                
  24848149.727   130577910.934    24848154.805   101749032.4034                 
                
  20337806.273   108869887.331                    84676585.970    20337810.520  
  20337805.168  
  19333848.000   103169134.207                    80242664.660    19333851.246  
  19333846.109  
 21  8 16 17 41 30.0000000  0 12G 4G16G30G 9R13G 6G20R12G 7G 2R 3R 2
  21843962.398   114790838.208    21843970.457    89447455.3904   21843970.348  
                
  22695116.828   119263689.831    22695123.305    92932791.6774                 
                
  23013564.141   120937127.516    23013574.266    94236776.7664   23013574.453  
                
  20357830.180   106981158.562    20357838.188    83361996.4284   20357838.055  
                
  20037356.820   106998377.161                    83221000.062    20037360.027  
  20037354.906  
  24208998.625   127219115.657    24209009.621    99131833.7584   24209010.246  
                
  23316756.578   122530382.902    23316762.926    95478253.8584                 
                
  19499142.273   104160964.066                    81014086.230    19499145.730  
  19499141.738  
  20864435.969   109643392.534    20864442.223    85436462.6304   20864442.297  
                
  24850043.953   130587865.182    24850049.133   101756788.9364                 
                
  20332816.977   108843179.195                    84655812.979    20332821.215  
  20332815.859  
  19335771.062   103179396.048                    80250646.096    19335774.301  
  19335769.172  
 21  8 16 17 41 40.0000000  0 12G 4G16G30G 9R13G 6G20R12G 7G 2R 3R 2
  21848038.992   114812260.815    21848047.066    89464148.3174   21848046.949  
                
  22698944.422   119283803.930    22698950.895    92948465.0044                 
                
  23008237.016   120909133.341    23008247.152    94214963.1364   23008247.340  
                
  20358273.602   106983488.784    20358281.613    83363812.1864   20358281.480  
                
  20032545.438   106972684.663                    83201017.022    20032548.613  
  20032543.496  
  24214074.250   127245788.242    24214085.238    99152617.5794   24214085.879  
                
  23311332.789   122501880.816    23311339.156    95456044.4384                 
                
  19502043.641   104176462.639                    81026140.677    19502047.094  
  19502043.105  
  20862394.930   109632666.876    20862401.137    85428104.9794   20862401.234  
                
  24851946.680   130597864.004    24851951.953   101764580.2014                 
                
  20327835.008   108816510.364                    84635070.551    20327839.234  
  20327833.906  
  19337706.258   103189722.586                    80258677.844    19337709.484  
  19337704.359  
 21  8 16 17 41 50.0000000  0 12G 4G16G30G 9R13G 6G20R12G 7G 2R 3R 2
  21852120.969   114833711.690    21852129.074    89480863.2774   21852128.922  
                
  22702783.938   119303980.682    22702790.445    92964187.1554                 
                
  23002914.523   120881163.597    23002924.688    94193168.5494   23002924.871  
                
  20358724.719   106985859.422    20358732.730    83365659.4334   20358732.602  
                
  20027746.602   106947059.185                    83181086.100    20027749.793  
  20027744.668  
  24219154.609   127272485.541    24219165.605    99173420.6604   24219166.246  
                
  23305916.562   122473418.330    23305922.973    95433865.8794                 
                
  19504958.703   104192034.332                    81038252.004    19504962.160  
  19504958.191  
  20860361.000   109621978.573    20860367.168    85419776.4384   20860367.273  
                
  24853857.875   130607907.280    24853863.148   101772406.1354                 
                
  20322860.375   108789880.796                    84614358.664    20322864.570  
  20322859.281  
  19339653.586   103200113.876                    80266759.945    19339656.812  
  19339651.688  
 21  8 16 17 42  0.0000000  0 12G 4G16G30G 9R13G 6G20R12G 7G 2R 3R 2
  21856208.344   114855190.884    21856216.473    89497600.3064   21856216.309  
                
  22706635.367   119324219.962    22706641.918    92979958.0174                 
                
  22997596.719   120853218.348    22997606.914    94171393.0474   22997607.082  
                
  20359183.539   106988270.511    20359191.562    83367538.2054   20359191.438  
                
  20022960.344   106921500.823                    83161207.386    20022963.543  
  20022958.418  
  24224239.633   127299207.527    24224250.672    99194242.9474   24224251.316  
                
  23300507.914   122444995.738    23300514.359    95411718.4054                 
                
  19507887.414   104207678.923                    81050420.013    19507890.848  
  19507886.891  
  20858334.180   109611327.572    20858340.309    85411476.9604   20858340.426  
                
  24855777.516   130617994.935    24855782.699   101780266.6664                 
                
  20317893.117   108763290.641                    84593677.429    20317897.316  
  20317892.027  
  19341613.094   103210570.152                    80274892.613    19341616.305  
  19341611.199  
 21  8 16 17 42 10.0000000  0 12G 4G16G30G 9R13G 6G20R12G 7G 2R 3R 2
  21860301.055   114876698.205    21860309.203    89514359.2524   21860309.020  
                
  22710498.625   119344521.517    22710505.184    92995777.4014                 
                
  22992283.562   120825297.512    22992293.762    94149636.5734   22992293.922  
                
  20359650.031   106990721.919    20359658.070    83369448.3954   20359657.941  
                
  20018186.680   106896009.815                    83141381.061    20018189.883  
  20018184.758  
  24229329.359   127325953.875    24229340.344    99215084.2374   24229341.027  
                
  23295106.852   122416613.001    23295113.352    95389601.9974                 
                
  19510829.734   104223396.303                    81062644.652    19510833.168  
  19510829.215  
  20856314.406   109600713.656    20856320.512    85403206.3824   20856320.637  
                
  24857705.555   130628126.754    24857710.645   101788161.6234                 
                
  20312933.180   108736739.710                    84573026.708    20312937.363  
  20312932.094  
  19343584.695   103221090.986                    80283075.471    19343587.906  
  19343582.797  
 21  8 16 17 42 20.0000000  0 12G 4G16G30G 9R13G 6G20R12G 7G 2R 3R 2
  21864399.133   114898233.714    21864407.305    89531140.1584   21864407.109  
                
  22714373.750   119364885.347    22714380.281    93011645.3284                 
                
  22986975.062   120797401.139    22986985.262    94127899.1424   22986985.430  
                
  20360124.195   106993213.708    20360132.250    83371390.0444   20360132.105  
                
  20013425.570   106870585.770                    83121606.806    20013428.777  
  20013423.633  
  24234423.711   127352724.544    24234434.668    99235944.4754   24234435.367  
                
  23289713.398   122388270.217    23289719.922    95367516.7094                 
                
  19513785.648   104239186.255                    81074925.718    19513789.070  
  19513785.125  
  20854301.727   109590136.988    20854307.824    85394964.8234   20854307.953  
                
  24859641.984   130638302.774    24859647.035   101796090.9624                 
                
  20307980.664   108710228.476                    84552406.849    20307984.824  
  20307979.582  
  19345568.445   103231676.642                    80291308.773    19345571.660  
  19345566.547  
 21  8 16 17 42 30.0000000  0 12G 4G16G30G 9R13G 6G20R12G 7G 2R 3R 2
  21868502.602   114919797.566    21868510.801    89547943.1454   21868510.566  
                
  22718260.727   119385311.530    22718267.230    93027561.8474                 
                
  22981671.242   120769529.428    22981681.453    94106180.9384   22981681.629  
                
  20360606.086   106995746.074    20360614.164    83373363.3164   20360614.012  
                
  20008677.047   106845228.976                    83101884.883    20008680.262  
  20008675.094  
  24239522.586   127379519.569    24239533.602    99256823.6944   24239534.324  
                
  23284327.578   122359967.627    23284334.133    95345462.7414                 
                
  19516755.195   104255049.081                    81087263.487    19516758.617  
  19516754.691  
  20852296.148   109579597.691    20852302.258    85386752.3934   20852302.363  
                
  24861586.836   130648523.095    24861591.926   101804054.8064                 
                
  20303035.562   108683756.958                    84531817.896    20303039.711  
  20303034.480  
  19347564.320   103242327.046                    80299592.409    19347567.531  
  19347562.422  
 21  8 16 17 42 40.0000000  0 12G 4G16G30G 9R13G 6G20R12G 7G 2R 3R 2
  21872611.453   114941389.708    21872619.660    89564768.1854   21872619.430  
                
  22722159.555   119405799.976    22722166.031    93043526.8604                 
                
  22976372.125   120741682.378    22976382.371    94084481.9634   22976382.527  
                
  20361095.711   106998319.023    20361103.816    83375368.2114   20361103.652  
                
  20003941.141   106819939.584                    83082215.364    20003944.328  
  20003939.176  
  24244626.117   127406338.843    24244637.164    99277721.7954   24244637.879  
                
  23278949.438   122331705.323    23278956.016    95323440.1694                 
                
  19519738.359   104270984.578                    81099657.761    19519741.766  
  19519737.848  
  20850297.680   109569095.710    20850303.801    85378569.0384   20850303.906  
                
  24863540.102   130658787.505    24863545.270   101812053.0464                 
                
  20298097.930   108657325.431                    84511260.060    20298102.074  
  20298096.844  
  19349572.453   103253042.758                    80307926.849    19349575.645  
  19349570.551  
 21  8 16 17 42 50.0000000  0 12G 4G16G30G 9R13G 6G20R12G 7G 2R 3R 2
  21876725.641   114963009.920    21876733.855    89581615.0964   21876733.629  
                
  22726070.172   119426350.419    22726076.625    93059540.1894                 
                
  22971077.672   120713859.832    22971087.957    94062802.0644   22971088.094  
                
  20361593.008   107000932.351    20361601.152    83377404.5734   20361600.969  
                
  19999217.891   106794717.705                    83062598.349    19999221.086  
  19999215.910  
  24249734.180   127433182.032    24249745.258    99298638.5414   24249745.984  
                
  23273578.938   122303483.219    23273585.531    95301448.9174                 
                
  19522735.055   104286992.404                    81112108.288    19522738.449  
  19522734.547  
  20848306.281   109558630.829    20848312.422    85370414.5934   20848312.508  
                
  24865501.727   130669095.772    24865506.906   101820085.4344                 
                
  20293167.719   108630933.704                    84490733.146    20293171.867  
  20293166.648  
  19351592.656   103263822.940                    80316311.427    19351595.852  
  19351590.754  
 21  8 16 17 43  0.0000000  0 12G 4G16G30G 9R13G 6G20R12G 7G 2R 3R 2
  21880845.211   114984658.372    21880853.422    89598484.0134   21880853.184  
                
  22729992.602   119446962.937    22729999.027    93075601.8974                 
                
  22965787.906   120686062.013    22965798.207    94041141.4344   22965798.340  
                
  20362098.031   107003586.272    20362106.211    83379472.5664   20362106.008  
                
  19994507.320   106769563.497                    83043033.984    19994510.520  
  19994505.332  
  24254846.820   127460049.187    24254857.895    99319573.9614   24254858.641  
                
  23268216.148   122275301.602    23268222.773    95279489.2374                 
                
  19525745.289   104303072.503                    81124615.033    19525748.680  
  19525744.789  
  20846321.961   109548203.192    20846328.113    85362289.1644   20846328.184  
                
  24867471.719   130679448.011    24867476.934   101828152.1214                 
                
  20288245.008   108604582.046                    84470237.421    20288249.168  
  20288243.934  
  19353625.062   103274668.246                    80324746.668    19353628.254  
  19353623.160  
 21  8 16 17 43 10.0000000  0 12G 4G16G30G 9R13G 6G20R12G 7G 2R 3R 2
  21884970.125   115006334.882    21884978.297    89615374.7864   21884978.086  
                
  22733926.773   119467637.201    22733933.148    93091711.7134                 
                
  22960502.805   120658288.717    22960513.102    94019499.9234   22960513.219  
                
  20362610.750   107006280.595    20362618.957    83381572.0294   20362618.734  
                
  19989809.391   106744476.794                    83023522.111    19989812.578  
  19989807.402  
  24259964.008   127486940.020    24259975.027    99340527.8404   24259975.793  
                
  23262861.031   122247160.356    23262867.688    95257560.9974                 
                
  19528769.023   104319224.756                    81137177.898    19528772.410  
  19528768.539  
  20844344.688   109537812.596    20844350.855    85354192.6014   20844350.914  
                
  24869450.031   130689844.090    24869455.285   101836252.9434                 
                
  20283329.766   108578270.415                    84449772.821    20283333.918  
  20283328.672  
  19355669.570   103285578.133                    80333232.125    19355672.750  
  19355667.668  
 21  8 16 17 43 20.0000000  0 12G 4G16G30G 9R13G 6G20R12G 7G 2R 3R 2
  21889100.414   115028039.621    21889108.527    89632287.5644   21889108.355  
                
  22737872.719   119488373.346    22737879.066    93107869.7404                 
                
  22955222.430   120630540.233    22955232.715    93997877.7444   22955232.844  
                
  20363131.203   107009015.559    20363139.438    83383703.1704   20363139.195  
                
  19985124.133   106719457.739                    83004062.849    19985127.312  
  19985122.137  
  24265085.750   127513854.599    24265096.730    99361500.2394   24265097.488  
                
  23257513.680   122219059.850    23257520.324    95235664.4964                 
                
  19531806.281   104335449.170                    81149796.895    19531809.648  
  19531805.801  
  20842374.523   109527459.307    20842380.711    85346125.1104   20842380.770  
                
  24871436.703   130700284.193    24871441.949   101844388.0534                 
                
  20278422.062   108551999.114                    84429339.590    20278426.238  
  20278420.961  
  19357726.312   103296553.266                    80341768.336    19357729.477  
  19357724.406  
 21  8 16 17 43 30.0000000  0 12G 4G16G30G 9R13G 6G20R12G 7G 2R 3R 2
  21893236.031   115049772.432    21893244.094    89649222.2144   21893243.965  
                
  22741830.406   119509171.155    22741836.715    93124075.8184                 
                
  22949946.750   120602816.430    22949957.012    93976274.7914   22949957.133  
                
  20363659.359   107011791.051    20363667.617    83385865.8874   20363667.367  
                
  19980451.523   106694506.281                    82984656.167    19980454.672  
  19980449.516  
  24270211.922   127540792.698    24270222.918    99382490.9384   24270223.688  
                
  23252174.062   122190999.875    23252180.672    95213799.5864                 
                
  19534857.016   104351745.663                    81162471.957    19534860.383  
  19534856.547  
  20840411.422   109517143.163    20840417.633    85338086.5704   20840417.672  
                
  24873431.703   130710767.955    24873436.941   101852557.1984                 
                
  20273521.883   108525768.132                    84408937.705    20273526.066  
  20273520.762  
  19359795.164   103307593.102                    80350354.873    19359798.328  
  19359793.254  
 21  8 16 17 43 40.0000000  0 12G 4G16G30G 9R13G 6G20R12G 7G 2R 3R 2
  21897377.031   115071533.483    21897385.074    89666178.8654   21897384.934  
                
  22745799.836   119530030.671    22745806.090    93140330.0034                 
                
  22944675.812   120575117.489    22944686.055    93954691.2104   22944686.164  
                
  20364195.258   107014607.223    20364203.531    83388060.3054   20364203.277  
                
  19975791.594   106669622.569                    82965302.188    19975794.742  
  19975789.574  
  24275342.539   127567754.338    24275353.602    99403499.9804   24275354.355  
                
  23246842.227   122162980.790    23246848.805    95191966.5444                 
                
  19537921.227   104368114.089                    81175202.948    19537924.578  
  19537920.758  
  20838455.422   109506864.311    20838461.656    85330077.0804   20838461.680  
                
  24875435.047   130721295.483    24875440.285   101860760.4664                 
                
  20268629.320   108499577.871                    84388567.505    20268633.504  
  20268628.184  
  19361876.258   103318698.217                    80358992.171    19361879.410  
  19361874.344  
 21  8 16 17 43 50.0000000  0 12G 4G16G30G 9R13G 6G20R12G 7G 2R 3R 2
  21901523.352   115093322.500    21901531.363    89683157.3084   21901531.227  
                
  22749780.953   119550951.585    22749787.160    93156632.0064                 
                
  22939409.555   120547443.206    22939419.777    93933126.8444   22939419.879  
                
  20364738.859   107017463.842    20364747.145    83390286.2424   20364746.879  
                
  19971144.344   106644806.573                    82946000.866    19971147.508  
  19971142.316  
  24280477.648   127594739.138    24280488.738    99424527.0764   24280489.461  
                
  23241518.148   122135002.461    23241524.711    95170165.2564                 
                
  19540998.844   104384554.177                    81187989.688    19541002.195  
  19540998.383  
  20836506.477   109496622.495    20836512.746    85322096.4514   20836512.754  
                
  24877446.703   130731866.552    24877451.941   101868997.6894                 
                
  20263744.297   108473427.953                    84368228.685    20263748.469  
  20263743.129  
  19363969.469   103329867.938                    80367679.742    19363972.609  
  19363967.559  
 21  8 16 17 44  0.0000000  0 12G 4G16G30G 9R13G 6G20R12G 7G 2R 3R 2
  21905675.023   115115139.611    21905682.996    89700157.6554   21905682.898  
                
  22753773.750   119571933.901    22753779.910    93172981.8704                 
                
  22934148.023   120519793.723    22934158.242    93911581.8064   22934158.336  
                
  20365290.188   107020361.099    20365298.480    83392543.8434   20365298.203  
                
  19966509.805   106620058.476                    82926752.351    19966512.957  
  19966507.770  
  24285617.180   127621747.148    24285628.258    99445572.2714   24285628.957  
                
  23236201.844   122107065.088    23236208.371    95148395.8654                 
                
  19544089.859   104401065.862                    81200832.121    19544093.203  
  19544089.379  
  20834564.609   109486417.925    20834570.926    85314144.8454   20834570.902  
                
  24879466.602   130742481.227    24879471.887   101877268.8474                 
                
  20258866.906   108447318.915                    84347921.666    20258871.078  
  20258865.734  
  19366074.820   103341102.506                    80376417.727    19366077.965  
  19366072.910  
 21  8 16 17 44 10.0000000  0 12G 4G16G30G 9R13G 6G20R12G 7G 2R 3R 2
  21909832.039   115136984.842    21909840.000    89717179.8984   21909839.898  
                
  22757778.227   119592977.562    22757784.328    93189379.5454                 
                
  22928891.227   120492169.108    22928901.453    93890056.1494   22928901.543  
                
  20365849.258   107023299.021    20365857.547    83394833.1384   20365857.273  
                
  19961888.039   106595378.526                    82907556.844    19961891.188  
  19961886.004  
  24290761.070   127648778.279    24290772.164    99466635.4734   24290772.844  
                
  23230893.359   122079168.794    23230899.844    95126658.4744                 
                
  19547194.320   104417649.348                    81213730.386    19547197.664  
  19547193.844  
  20832629.828   109476250.569    20832636.203    85306222.2354   20832636.141  
                
  24881494.773   130753139.417    24881500.176   101885573.8534                 
                
  20253997.141   108421250.701                    84327646.385    20254001.316  
  20253995.996  
  19368192.352   103352402.065                    80385206.276    19368195.496  
  19368190.438  
 21  8 16 17 44 20.0000000  0 12G 4G16G30G 9R13G 6G20R12G 7G 2R 3R 2
  21913994.414   115158858.252    21914002.363    89734224.1034   21914002.273  
                
  22761794.391   119614082.637    22761800.449    93205825.0594                 
                
  22923639.219   120464569.532    22923649.434    93868550.0004   22923649.535  
                
  20366416.094   107026277.737    20366424.375    83397154.2124   20366424.102  
                
  19957279.055   106570766.817                    82888414.411    19957282.199  
  19957277.047  
  24295909.336   127675832.505    24295920.422    99487716.6574   24295921.082  
                
  23225592.734   122051313.810    23225599.168    95104953.3104                 
                
  19550312.141   104434304.203                    81226684.170    19550315.484  
  19550311.660  
  20830702.148   109466120.511    20830708.578    85298328.6914   20830708.480  
                
  24883531.250   130763841.082    24883536.773   101893912.7884                 
                
  20249135.047   108395223.507                    84307403.014    20249139.223  
  20249133.898  
  19370322.078   103363766.674                    80394045.407    19370325.211  
  19370320.148  
 21  8 16 17 44 30.0000000  0 12G 4G16G30G 9R13G 6G20R12G 7G 2R 3R 2
  21918162.109   115180759.598    21918170.039    89751290.0814   21918169.961  
                
  22765822.180   119635248.828    22765828.215    93222318.1774                 
                
  22918391.914   120436994.742    22918402.105    93847063.1504   22918402.219  
                
  20366990.641   107029296.992    20366998.906    83399506.8744   20366998.641  
                
  19952682.766   106546222.978                    82869324.765    19952685.895  
  19952680.746  
  24301061.969   127702909.461    24301073.004    99508815.5774   24301073.652  
                
  23220299.945   122023500.033    23220306.320    95083280.2244                 
                
  19553443.336   104451030.441                    81239693.465    19553446.688  
  19553442.836  
  20828781.508   109456027.459    20828787.984    85290463.9824   20828787.859  
                
  24885575.953   130774585.994    24885581.570   101902285.4364                 
                
  20244280.625   108369237.397                    84287191.595    20244284.805  
  20244279.465  
  19372463.992   103375196.309                    80402935.122    19372467.117  
  19372462.078  
 21  8 16 17 44 40.0000000  0 12G 4G16G30G 9R13G 6G20R12G 7G 2R 3R 2
  21922335.141   115202688.966    21922343.090    89768377.8974   21922343.000  
                
  22769861.594   119656476.136    22769867.629    93238858.9324                 
                
  22913149.336   120409444.872    22913159.512    93825595.7254   22913159.629  
                
  20367572.930   107032356.930    20367581.172    83401891.2364   20367580.918  
                
  19948099.266   106521747.374                    82850288.182    19948102.395  
  19948097.250  
  24306218.969   127730009.144    24306229.930    99529932.2054   24306230.539  
                
  23215015.031   121995727.629    23215021.375    95061639.3894                 
                
  19556587.844   104467827.854                    81252758.124    19556591.207  
  19556587.332  
  20826867.930   109445971.526    20826874.445    85282628.1914   20826874.305  
                
  24887628.891   130785374.228    24887634.508   101910691.8674                 
                
  20239433.875   108343292.376                    84267012.144    20239438.055  
  20239432.707  
  19374618.102   103386691.004                    80411875.425    19374621.234  
  19374616.184  
 21  8 16 17 44 50.0000000  0 12G 4G16G30G 9R13G 6G20R12G 7G 2R 3R 2
  21926513.492   115224646.308    21926521.480    89785487.5044   21926521.371  
                
  22773912.602   119677764.417    22773918.652    93255447.1964                 
                
  22907911.492   120381919.911    22907921.672    93804147.7194   22907921.785  
                
  20368162.953   107035457.513    20368171.172    83404307.2724   20368170.934  
                
  19943528.523   106497339.917                    82831304.616    19943531.637  
  19943526.508  
  24311380.203   127757131.395    24311391.180    99551066.4004   24311391.750  
                
  23209737.984   121967996.581    23209744.309    95040030.7734                 
                
  19559745.641   104484696.271                    81265878.006    19559749.020  
  19559745.133  
  20824961.391   109435952.615    20824967.934    85274821.2524   20824967.777  
                
  24889690.039   130796205.686    24889695.641   101919131.9354                 
                
  20234594.844   108317388.684                    84246864.818    20234599.031  
  20234593.680  
  19376784.359   103398250.567                    80420866.196    19376787.496  
  19376782.457  
 21  8 16 17 45  0.0000000  0 12G 4G16G30G 9R13G 6G20R12G 7G 2R 3R 2
  21930697.180   115246631.690    21930705.191    89802618.9624   21930705.062  
                
  22777975.219   119699113.695    22777981.297    93272082.9904                 
                
  22902678.398   120354419.956    22902688.594    93782719.2084   22902688.711  
                
  20368760.727   107038598.847    20368768.914    83406755.0614   20368768.688  
                
  19938970.555   106473000.614                    82812374.063    19938973.629  
  19938968.527  
  24316545.727   127784276.170    24316556.703    99572218.1474   24316557.250  
                
  23204468.844   121940307.125    23204475.172    95018454.5634                 
                
  19562916.742   104501635.739                    81279053.142    19562920.117  
  19562916.219  
  20823061.922   109425970.850    20823068.488    85267043.2554   20823068.316  
                
  24891759.438   130807080.374    24891765.062   101927605.7104                 
                
  20229763.539   108291526.378                    84226749.698    20229767.727  
  20229762.375  
  19378962.773   103409874.976                    80429907.405    19378965.926  
  19378960.859  
 21  8 16 17 45 10.0000000  0 12G 4G16G30G 9R13G 6G20R12G 7G 2R 3R 2
  21934886.211   115268645.175    21934894.234    89819772.3184   21934894.105  
                
  22782049.453   119720523.938    22782055.562    93288766.2874                 
                
  22897450.086   120326945.139    22897460.285    93761310.2814   22897460.410  
                
  20369366.273   107041781.026    20369374.426    83409234.6814   20369374.219  
                
  19934425.438   106448729.973                    82793496.907    19934428.488  
  19934423.422  
  24321715.508   127811443.426    24321726.516    99593387.4184   24321727.043  
                
  23199207.656   121912659.460    23199214.012    94996910.9344                 
                
  19566101.125   104518646.182                    81292283.491    19566104.516  
  19566100.602  
  20821169.531   109416026.249    20821176.121    85259294.2134   20821175.945  
                
  24893837.070   130817998.302    24893842.789   101936113.1764                 
                
  20224940.023   108265705.758                    84206666.988    20224944.203  
  20224938.855  
  19381153.375   103421564.468                    80438999.235    19381156.543  
  19381151.461  
 21  8 16 17 45 20.0000000  0 12G 4G16G30G 9R13G 6G20R12G 7G 2R 3R 2
  21939080.586   115290686.727    21939088.625    89836947.5464   21939088.477  
                
  22786135.234   119741994.924    22786141.379    93305496.9384                 
                
  22892226.555   120299495.414    22892236.734    93739920.9094   22892236.895  
                
  20369979.594   107045004.062    20369987.707    83411746.1394   20369987.523  
                
  19929893.188   106424528.135                    82774673.258    19929896.238  
  19929891.195  
  24326889.477   127838633.024    24326900.570    99614574.0964   24326901.090  
                
  23193954.422   121885053.579    23193960.816    94975399.8644                 
                
  19569298.812   104535727.650                    81305569.081    19569302.215  
  19569298.281  
  20819284.211   109406118.806    20819290.828    85251574.1324   20819290.648  
                
  24895922.883   130828959.341    24895928.699   101944654.1914                 
                
  20220124.305   108239926.843                    84186616.724    20220128.477  
  20220123.133  
  19383356.180   103433319.031                    80448141.656    19383359.348  
  19383354.258  
 21  8 16 17 45 30.0000000  0 12G 4G16G30G 9R13G 6G20R12G 7G 2R 3R 2
  21943280.273   115312756.213    21943288.320    89854144.5564   21943288.164  
                
  22790232.508   119763526.327    22790238.613    93322274.6474                 
                
  22887007.812   120272070.793    22887017.949    93718551.0874   22887018.137  
                
  20370600.664   107048267.818    20370608.742    83414289.3224   20370608.586  
                
  19925373.727   106400394.557                    82755902.714    19925376.773  
  19925371.738  
  24332067.688   127865844.764    24332078.855    99635778.0244   24332079.340  
                
  23188709.133   121857489.481    23188715.598    94953921.3594                 
                
  19572509.711   104552879.710                    81318909.564    19572513.129  
  19572509.168  
  20817405.961   109396248.539    20817412.598    85243883.0234   20817412.406  
                
  24898016.859   130839963.358    24898022.695   101953228.7654                 
                
  20215316.375   108214189.697                    84166598.944    20215320.547  
  20215315.191  
  19385571.203   103445138.823                    80457334.824    19385574.375  
  19385569.289  
 21  8 16 17 45 40.0000000  0 12G 4G16G30G 9R13G 6G20R12G 7G 2R 3R 2
  21947485.297   115334853.711    21947493.336    89871363.3824   21947493.191  
                
  22794341.320   119785118.388    22794347.359    93339099.6224                 
                
  22881793.852   120244671.331    22881803.934    93697200.8534   22881804.133  
                
  20371229.508   107051572.417    20371237.555    83416864.3314   20371237.418  
                
  19920867.094   106376329.399                    82737185.369    19920870.129  
  19920865.105  
  24337250.141   127893078.569    24337261.332    99656999.1494   24337261.797  
                
  23183471.828   121829967.356    23183478.348    94932475.5534                 
                
  19575733.828   104570102.428                    81332305.012    19575737.270  
  19575733.270  
  20815534.789   109386415.491    20815541.441    85236220.9104   20815541.246  
                
  24900119.039   130851010.329    24900124.738   101961836.7964                 
                
  20210516.305   108188494.523                    84146613.821    20210520.453  
  20210515.121  
  19387798.414   103457023.630                    80466578.561    19387801.590  
  19387796.500  
 21  8 16 17 45 50.0000000  0 12G 4G16G30G 9R13G 6G20R12G 7G 2R 3R 2
  21951695.625   115356979.061    21951703.656    89888603.9104   21951703.523  
                
  22798461.656   119806770.951    22798467.668    93355971.7544                 
                
  22876584.664   120217296.902    22876594.695    93675870.1364   22876594.922  
                
  20371866.109   107054917.746    20371874.121    83419471.0754   20371874.004  
                
  19916373.406   106352333.389                    82718521.820    19916376.453  
  19916371.391  
  24342436.742   127920334.187    24342447.926    99678237.2784   24342448.371  
                
  23178242.500   121802487.150    23178249.066    94911062.4134                 
                
  19578971.133   104587395.520                    81345755.187    19578974.590  
  19578970.559  
  20813670.672   109376619.481    20813677.324    85228587.6534   20813677.152  
                
  24902229.375   130862100.017    24902234.957   101970478.1184                 
                
  20205724.062   108162841.274                    84126661.281    20205728.207  
  20205722.875  
  19390037.789   103468973.327                    80475872.766    19390040.953  
  19390035.887  
 21  8 16 17 46  0.0000000  0 12G 4G16G30G 9R13G 6G20R12G 7G 2R 3R 2
  21955911.250   115379132.302    21955919.289    89905866.1684   21955919.164  
                
  22802593.508   119828484.035    22802599.504    93372891.0504                 
                
  22871380.250   120189947.608    22871390.223    93654559.0084   22871390.469  
                
  20372510.461   107058303.863    20372518.449    83422109.6044   20372518.340  
                
  19911892.578   106328406.090                    82699911.705    19911895.617  
  19911890.574  
  24347627.477   127947611.578    24347638.629    99699492.3654   24347639.098  
                
  23173021.188   121775049.018    23173027.797    94889682.0544                 
                
  19582221.625   104604759.052                    81359260.159    19582225.102  
  19582221.039  
  20811813.602   109366860.537    20811820.254    85220983.2804   20811820.086  
                
  24904347.867   130873232.481    24904353.410   101979152.7464                 
                
  20200939.672   108137230.053                    84106741.442    20200943.824  
  20200938.484  
  19392289.367   103480988.178                    80485217.640    19392292.539  
  19392287.469  
 21  8 16 17 46 10.0000000  0 12G 4G16G30G 9R13G 6G20R12G 7G 2R 3R 2
  21960132.203   115401313.553    21960140.262    89923150.2594   21960140.129  
                
  22806736.883   119850257.629    22806742.875    93389857.4914                 
                
  22866180.656   120162623.606    22866190.582    93633267.5914   22866190.828  
                
  20373162.602   107061730.913    20373170.574    83424780.0384   20373170.488  
                
  19907424.641   106304547.565                    82681355.095    19907427.688  
  19907422.641  
  24352822.320   127974910.757    24352833.492    99720764.4264   24352834.004  
                
  23167807.906   121747653.154    23167814.543    94868334.6214                 
                
  19585485.273   104622192.871                    81372819.792    19585488.773  
  19585484.691  
  20809963.594   109357138.742    20809970.246    85213407.8634   20809970.078  
                
  24906474.445   130884407.689    24906480.016   101987860.6464                 
                
  20196163.219   108111661.295                    84086854.631    20196167.383  
  20196162.051  
  19394553.117   103493067.989                    80494613.054    19394556.301  
  19394551.199  
 21  8 16 17 46 20.0000000  0 12G 4G16G30G 9R13G 6G20R12G 7G 2R 3R 2
  21964358.461   115423522.673    21964366.535    89940456.0674   21964366.398  
                
  22810891.734   119872091.478    22810897.723    93406870.8844                 
                
  22860985.867   120135324.838    22860995.754    93611995.8304   22860996.016  
                
  20373822.523   107065198.815    20373830.477    83427482.2974   20373830.398  
                
  19902969.547   106280757.710                    82662851.879    19902972.613  
  19902967.547  
  24358021.242   128002231.487    24358032.477    99742053.2754   24358032.977  
                
  23162602.695   121720299.669    23162609.340    94847020.2204                 
                
  19588762.031   104639696.747                    81386433.926    19588765.547  
  19588761.453  
  20808120.648   109347453.990    20808127.297    85205861.3084   20808127.125  
                
  24908609.141   130895625.570    24908614.789   101996601.8184                 
                
  20191394.664   108086134.829                    84067000.718    20191398.836  
  20191393.500  
  19396829.094   103505212.994                    80504059.175    19396832.281  
  19396827.172  
 21  8 16 17 46 30.0000000  0 12G 4G16G30G 9R13G 6G20R12G 7G 2R 3R 2
  21968590.039   115445759.728    21968598.129    89957783.6304   21968597.980  
                
  22815058.023   119893985.478    22815063.992    93423931.1574                 
                
  22855795.898   120108051.360    22855805.770    93590743.7804   22855806.047  
                
  20374490.227   107068707.639    20374498.168    83430216.4424   20374498.098  
                
  19898527.352   106257036.693                    82644402.223    19898530.418  
  19898525.352  
  24363224.266   128029573.714    24363235.551    99763358.8754   24363236.039  
                
  23157405.570   121692988.631    23157412.230    94825738.9114                 
                
  19592051.914   104657270.712                    81400102.564    19592055.441  
  19592051.332  
  20806284.750   109337806.330    20806291.398    85198343.6614   20806291.230  
                
  24910751.953   130906886.036    24910757.578   102005376.1834                 
                
  20186634.047   108060650.852                    84047179.857    20186638.246  
  20186632.883  
  19399117.266   103517423.116                    80513555.927    19399120.457  
  19399115.324  
 21  8 16 17 46 40.0000000  0 12G 4G16G30G 9R13G 6G20R12G 7G 2R 3R 2
  21972826.898   115468024.529    21972835.000    89975132.8134   21972834.832  
                
  22819235.711   119915939.362    22819241.652    93441038.0784                 
                
  22850610.703   120080803.039    22850620.570    93569511.3364   22850620.859  
                
  20375165.695   107072257.249    20375173.621    83432982.3704   20375173.551  
                
  19894098.102   106233384.741                    82626006.261    19894101.160  
  19894096.105  
  24368431.414   128056937.125    24368442.637    99784680.9974   24368443.156  
                
  23152216.508   121665719.931    23152223.199    94804490.5644                 
                
  19595354.883   104674914.589                    81413825.576    19595358.422  
  19595354.297  
  20804455.883   109328195.615    20804462.520    85190854.7964   20804462.359  
                
  24912902.867   130918188.919    24912908.359   102014183.6714                 
                
  20181881.344   108035209.293                    84027392.001    20181885.566  
  20181880.168  
  19401417.617   103529698.227                    80523103.230    19401420.809  
  19401415.680  
 21  8 16 17 46 50.0000000  0 12G 4G16G30G 9R13G 6G20R12G 7G 2R 3R 2
  21977069.062   115490317.224    21977077.156    89992503.7444   21977077.016  
                
  22823424.820   119937953.301    22823430.762    93458191.7904                 
                
  22845430.336   120053580.095    22845440.191    93548298.6624   22845440.473  
                
  20375848.953   107075847.813    20375856.867    83435780.2104   20375856.820  
                
  19889681.773   106209801.839                    82607664.010    19889684.812  
  19889679.785  
  24373642.570   128084321.816    24373653.762    99806019.6904   24373654.301  
                
  23147035.562   121638493.877    23147042.281    94783275.4774                 
                
  19598670.930   104692628.345                    81427602.950    19598674.488  
  19598670.340  
  20802634.086   109318622.055    20802640.707    85183394.8854   20802640.566  
                
  24915061.875   130929534.320    24915067.254   102023024.2514                 
                
  20177136.656   108009810.586                    84007637.446    20177140.906  
  20177135.473  
  19403730.164   103542038.379                    80532701.122    19403733.355  
  19403728.230  
 21  8 16 17 47  0.0000000  0 12G 4G16G30G 9R13G 6G20R12G 7G 2R 3R 2
  21981316.523   115512637.765    21981324.617    90009896.3644   21981324.484  
                
  22827625.336   119960027.177    22827631.293    93475392.2084                 
                
  22840254.781   120026382.471    22840264.613    93527105.7204   22840264.906  
                
  20376540.000   107079479.291    20376547.906    83438609.9294   20376547.863  
                
  19885278.375   106186288.021                    82589375.500    19885281.402  
  19885276.398  
  24378857.750   128111727.584    24378868.898    99827374.8004   24378869.449  
                
  23141862.742   121611310.562    23141869.469    94762093.6674                 
                
  19601999.992   104710411.633                    81441434.393    19602003.562  
  19601999.402  
  20800819.344   109309085.550    20800825.941    85175963.8474   20800825.812  
                
  24917228.914   130940922.140    24917234.289   102031897.8474                 
                
  20172399.938   107984454.644                    83987916.160    20172404.203  
  20172398.770  
  19406054.891   103554443.579                    80542349.607    19406058.078  
  19406052.957  
 21  8 16 17 47 10.0000000  0 12G 4G16G30G 9R13G 6G20R12G 7G 2R 3R 2
  21985569.305   115534986.221    21985577.430    90027310.7394   21985577.289  
                
  22831837.227   119982160.804    22831843.195    93492639.1994                 
                
  22835084.070   119999210.307    22835093.867    93505932.6174   22835094.195  
                
  20377238.852   107083151.793    20377246.758    83441471.6184   20377246.715  
                
  19880887.961   106162843.465                    82571140.846    19880890.977  
  19880885.988  
  24384076.906   128139154.443    24384088.051    99848746.3424   24384088.641  
                
  23136698.086   121584170.128    23136704.781    94740945.2884                 
                
  19605342.117   104728264.684                    81455320.089    19605345.691  
  19605341.504  
  20799011.648   109299586.089    20799018.215    85168561.6814   20799018.090  
                
  24919404.023   130952352.361    24919409.441   102040804.4984                 
                
  20167671.281   107959141.760                    83968228.355    20167675.555  
  20167670.141  
  19408391.883   103566914.229                    80552048.996    19408395.074  
  19408389.949  
 21  8 16 17 47 20.0000000  0 12G 4G16G30G 9R13G 6G20R12G 7G 2R 3R 2
  21989827.375   115557362.511    21989835.527    90044746.8064   21989835.375  
                
  22836060.484   120004354.181    22836066.453    93509932.7494                 
                
  22829918.219   119972063.582    22829927.965    93484779.3294   22829928.316  
                
  20377945.508   107086865.298    20377953.422    83444365.2544   20377953.391  
                
  19876510.531   106139468.306                    82552960.189    19876513.543  
  19876508.574  
  24389300.094   128166602.159    24389311.195    99870134.1534   24389311.785  
                
  23131541.602   121557072.605    23131548.285    94719830.3514                 
                
  19608697.234   104746187.167                    81469259.808    19608700.824  
  19608696.621  
  20797211.016   109290123.761    20797217.527    85161188.4334   20797217.430  
                
  24921587.172   130963824.859    24921592.629   102049744.0874                 
                
  20162950.672   107933871.926                    83948574.052    20162954.961  
  20162949.543  
  19410741.047   103579449.783                    80561798.871    19410744.242  
  19410739.113  
 21  8 16 17 47 30.0000000  0 12G 4G16G30G 9R13G 6G20R12G 7G 2R 3R 2
  21994090.719   115579766.439    21994098.875    90062204.3984   21994098.723  
                
  22840295.078   120026607.076    22840301.020    93527272.6654                 
                
  22824757.172   119944942.127    22824766.895    93463645.7414   22824767.258  
                
  20378659.930   107090619.601    20378667.855    83447290.6834   20378667.820  
                
  19872146.062   106116162.296                    82534833.292    19872149.066  
  19872144.102  
  24394527.203   128194070.466    24394538.238    99891538.0134   24394538.844  
                
  23126393.258   121530017.892    23126399.957    94698748.7654                 
                
  19612065.328   104764178.922                    81483253.399    19612068.906  
  19612064.699  
  20795417.391   109280698.248    20795423.848    85153843.8864   20795423.785  
                
  24923778.336   130975339.353    24923783.797   102058716.4334                 
                
  20158238.078   107908645.045                    83928953.149    20158242.379  
  20158236.941  
  19413102.383   103592050.292                    80571599.258    19413105.590  
  19413100.441  
 21  8 16 17 47 40.0000000  0 12G 4G16G30G 9R13G 6G20R12G 7G 2R 3R 2
  21998359.344   115602198.173    21998367.520    90079683.6694   21998367.359  
                
  22844540.992   120048919.527    22844546.902    93544658.9944                 
                
  22819600.969   119917846.176    22819610.680    93442532.0194   22819611.051  
                
  20379382.148   107094414.956    20379390.086    83450248.0954   20379390.043  
                
  19867794.539   106092925.469                    82516760.220    19867797.555  
  19867792.582  
  24399758.266   128221559.449    24399769.215    99912957.9794   24399769.844  
                
  23121253.117   121503006.286    23121259.836    94677700.7764                 
                
  19615446.375   104782239.852                    81497300.783    19615449.930  
  19615445.750  
  20793630.812   109271309.795    20793637.203    85146528.2144   20793637.184  
                
  24925977.500   130986896.072    24925982.992   102067721.6614                 
                
  20153533.586   107883461.559                    83909365.995    20153537.895  
  20153532.434  
  19415475.914   103604715.934                    80581450.317    19415479.129  
  19415473.969  
 21  8 16 17 47 50.0000000  0 12G 4G16G30G 9R13G 6G20R12G 7G 2R 3R 2
  22002633.242   115624657.614    22002641.441    90097184.5184   22002641.277  
                
  22848798.211   120071291.353    22848804.109    93562091.5964                 
                
  22814449.602   119890775.631    22814459.312    93421438.0974   22814459.676  
                
  20380112.172   107098251.241    20380120.121    83453237.4114   20380120.070  
                
  19863455.992   106069757.864                    82498740.985    19863459.000  
  19863454.020  
  24404993.211   128249068.867    24405004.133    99934393.8574   24405004.766  
                
  23116121.180   121476037.777    23116127.910    94656686.3574                 
                
  19618840.367   104800369.948                    81511401.983    19618843.914  
  19618839.754  
  20791851.258   109261958.208    20791857.590    85139241.2664   20791857.594  
                
  24928184.656   130998494.731    24928190.098   102076759.6064                 
                
  20148837.164   107858321.283                    83889812.464    20148841.500  
  20148836.016  
  19417861.609   103617446.452                    80591351.825    19417864.816  
  19417859.660  
 21  8 16 17 48  0.0000000  0 12G 4G16G30G 9R13G 6G20R12G 7G 2R 3R 2
  22006912.445   115647144.928    22006920.648    90114707.0934   22006920.484  
                
  22853066.750   120093722.622    22853072.641    93579570.4984                 
                
  22809303.117   119863730.700    22809312.828    93400364.1444   22809313.191  
                
  20380850.016   107102128.666    20380857.984    83456258.7814   20380857.918  
                
  19859130.562   106046660.300                    82480776.211    19859133.562  
  19859128.594  
  24410232.031   128276598.782    24410242.941    99955845.7194   24410243.562  
                
  23110997.492   121449112.629    23111004.215    94635705.7254                 
                
  19622247.289   104818569.125                    81525556.898    19622250.812  
  19622246.684  
  20790078.758   109252643.675    20790085.035    85131983.1914   20790085.070  
                
  24930399.812   131010135.488    24930405.105   102085830.3264                 
                
  20144148.938   107833224.835                    83870293.004    20144153.273  
  20144147.797  
  19420259.570   103630242.430                    80601304.247    19420262.766  
  19420257.617  
 21  8 16 17 48 10.0000000  0 12G 4G16G30G 9R13G 6G20R12G 7G 2R 3R 2
  22011196.930   115669660.031    22011205.129    90132251.3084   22011204.973  
                
  22857346.547   120116213.108    22857352.453    93597095.5684                 
                
  22804161.492   119836711.344    22804171.184    93379310.1154   22804171.543  
                
  20381595.680   107106047.170    20381603.664    83459312.1574   20381603.598  
                
  19854818.109   106023632.126                    82462865.415    19854821.098  
  19854816.152  
  24415474.734   128304149.005    24415485.609    99977313.4124   24415486.227  
                
  23105882.062   121422230.896    23105888.727    94614758.9224                 
                
  19625667.109   104836837.209                    81539765.405    19625670.617  
  19625666.496  
  20788313.289   109243366.170    20788319.523    85124753.9754   20788319.574  
                
  24932622.938   131021818.213    24932628.086   102094933.7654                 
                
  20139468.859   107808172.023                    83850807.494    20139473.203  
  20139467.707  
  19422669.727   103643103.517                    80611307.310    19422672.910  
  19422667.770  
 21  8 16 17 48 20.0000000  0 12G 4G16G30G 9R13G 6G20R12G 7G 2R 3R 2
  22015486.688   115692202.806    22015494.902    90149817.0944   22015494.738  
                
  22861637.594   120138762.718    22861643.543    93614666.6864                 
                
  22799024.758   119809717.552    22799034.398    93358275.9904   22799034.781  
                
  20382349.148   107110006.708    20382357.152    83462397.5114   20382357.082  
                
  19850518.719   106000673.654                    82445008.836    19850521.711  
  19850516.762  
  24420721.195   128331719.381    24420732.129    99998796.7884   24420732.742  
                
  23100774.906   121395392.562    23100781.512    94593845.9424                 
                
  19629099.789   104855174.009                    81554027.366    19629103.285  
  19629099.164  
  20786554.867   109234125.617    20786561.059    85117553.5544   20786561.125  
                
  24934854.016   131033542.767    24934859.086   102104069.7484                 
                
  20134796.938   107783162.823                    83831355.906    20134801.285  
  20134795.785  
  19425092.070   103656029.596                    80621360.920    19425095.246  
  19425090.117  
 21  8 16 17 48 30.0000000  0 12G 4G16G30G 9R13G 6G20R12G 7G 2R 3R 2
  22019781.719   115714773.363    22019789.957    90167404.5254   22019789.777  
                
  22865939.906   120161371.529    22865945.895    93632283.9474                 
                
  22793892.875   119782749.410    22793902.516    93337261.8754   22793902.906  
                
  20383110.445   107114007.386    20383118.473    83465514.9214   20383118.391  
                
  19846232.398   105977784.981                    82427206.524    19846235.387  
  19846230.453  
  24425971.500   128359309.844    24425982.473   100020295.8264   24425983.090  
                
  23095676.031   121368597.815    23095682.621    94572966.9294                 
                
  19632545.352   104873579.618                    81568342.840    19632548.840  
  19632544.719  
  20784803.492   109224922.121    20784809.641    85110382.0044   20784809.727  
                
  24937093.008   131045309.209    24937098.125   102113238.3484                 
                
  20130133.234   107758197.677                    83811938.567    20130137.578  
  20130132.086  
  19427526.680   103669021.146                    80631465.443    19427529.848  
  19427524.707  
 21  8 16 17 48 40.0000000  0 12G 4G16G30G 9R13G 6G20R12G 7G 2R 3R 2
  22024082.055   115737371.662    22024090.301    90185013.5794   22024090.117  
                
  22870253.453   120184039.314    22870259.453    93649947.1624                 
                
  22788765.906   119755806.958    22788775.594    93316267.7734   22788775.949  
                
  20383879.586   107118049.216    20383887.637    83468664.3984   20383887.547  
                
  19841959.109   105954965.816                    82409458.296    19841962.086  
  19841957.156  
  24431225.625   128386920.296    24431236.609   100041810.4374   24431237.238  
                
  23090585.477   121341846.756    23090592.066    94552121.9514                 
                
  19636003.742   104892053.717                    81582711.582    19636007.215  
  19636003.094  
  20783059.156   109215755.616    20783065.258    85103239.2704   20783065.363  
                
  24939340.031   131057117.328    24939345.172   102122439.4584                 
                
  20125477.758   107733276.515                    83792555.442    20125482.070  
  20125476.617  
  19429973.492   103682077.823                    80641620.638    19429976.668  
  19429971.512  
 21  8 16 17 48 50.0000000  0 12G 4G16G30G 9R13G 6G20R12G 7G 2R 3R 2
  22028387.625   115759997.541    22028395.883    90202644.1204   22028395.695  
                
  22874578.164   120206765.794    22874584.180    93667656.0904                 
                
  22783643.781   119728890.057    22783653.527    93295293.5774   22783653.844  
                
  20384656.516   107122132.037    20384664.598    83471845.8134   20384664.492  
                
  19837698.891   105932216.474                    82391764.385    19837701.879  
  19837696.953  
  24436483.469   128414550.458    24436494.488   100063340.3894   24436495.113  
                
  23085503.219   121315139.357    23085509.785    94531311.0034                 
                
  19639474.922   104910596.161                    81597133.488    19639478.375  
  19639474.285  
  20781321.828   109206625.908    20781327.883    85096125.2104   20781328.004  
                
  24941594.984   131068966.932    24941600.145   102131672.9084                 
                
  20120830.508   107708399.407                    83773206.589    20120834.812  
  20120829.371  
  19432432.422   103695199.158                    80651826.107    19432435.602  
  19432430.430  
 21  8 16 17 49  0.0000000  0 12G 4G16G30G 9R13G 6G20R12G 7G 2R 3R 2
  22032698.469   115782651.146    22032706.746    90220296.2584   22032706.547  
                
  22878914.086   120229551.159    22878920.125    93685410.9264                 
                
  22778526.547   119701998.877    22778536.309    93274339.4314   22778536.613  
                
  20385441.281   107126256.024    20385449.391    83475059.3154   20385449.277  
                
  19833451.781   105909537.197                    82374124.950    19833454.758  
  19833449.848  
  24441745.125   128442200.347    24441756.086   100084885.7374   24441756.754  
                
  23080429.312   121288475.809    23080435.871    94510534.2224                 
                
  19642958.906   104929207.016                    81611608.603    19642962.340  
  19642958.281  
  20779591.547   109197533.253    20779597.570    85089040.0304   20779597.711  
                
  24943857.789   131080858.193    24943863.047   102140938.8134                 
                
  20116191.516   107683566.521                    83753892.130    20116195.793  
  20116190.395  
  19434903.625   103708385.948                    80662082.493    19434906.805  
  19434901.621  
 21  8 16 17 49 10.0000000  0 12G 4G16G30G 9R13G 6G20R12G 7G 2R 3R 2
  22037014.578   115805332.413    22037022.875    90237969.9554   22037022.668  
                
  22883261.172   120252395.219    22883267.234    93703211.4714                 
                
  22773414.227   119675133.432    22773423.957    93253405.3234   22773424.270  
                
  20386233.875   107130421.166    20386242.008    83478304.8784   20386241.883  
                
  19829217.711   105886927.502                    82356539.643    19829220.672  
  19829215.773  
  24447010.469   128469869.846    24447021.438   100106446.3544   24447022.133  
                
  23075363.773   121261856.204    23075370.309    94489791.6774                 
                
  19646455.672   104947886.110                    81626136.785    19646459.074  
  19646455.047  
  20777868.305   109188477.559    20777874.320    85081983.6484   20777874.461  
                
  24946128.453   131092790.988    24946133.824   102150237.0254                 
                
  20111560.828   107658778.067                    83734612.218    20111565.090  
  20111559.727  
  19437386.977   103721637.637                    80672389.355    19437390.152  
  19437384.977  
 21  8 16 17 49 20.0000000  0 12G 4G16G30G 9R13G 6G20R12G 7G 2R 3R 2
  22041335.969   115828041.435    22041344.285    90255665.2914   22041344.059  
                
  22887619.430   120275298.056    22887625.484    93721057.8434                 
                
  22768306.812   119648293.818    22768316.535    93232491.3484   22768316.844  
                
  20387034.320   107134627.583    20387042.461    83481582.6004   20387042.340  
                
  19824996.773   105864387.982                    82339008.917    19824999.738  
  19824994.832  
  24452279.508   128497558.880    24452290.539   100128022.2044   24452291.215  
                
  23070306.625   121235280.729    23070313.156    94469083.5244                 
                
  19649965.211   104966633.449                    81640718.050    19649968.594  
  19649964.586  
  20776152.117   109179458.948    20776158.141    85074956.1684   20776158.266  
                
  24948407.000   131104765.277    24948412.488   102159567.6554                 
                
  20106938.469   107634034.219                    83715367.015    20106942.723  
  20106937.363  
  19439882.594   103734954.740                    80682747.094    19439885.770  
  19439880.590  
 21  8 16 17 49 30.0000000  0 12G 4G16G30G 9R13G 6G20R12G 7G 2R 3R 2
  22045662.672   115850778.368    22045670.988    90273382.3714   22045670.758  
                
  22891988.883   120298259.703    22891994.926    93738950.0264                 
                
  22763204.359   119621480.254    22763214.094    93211597.6794   22763214.379  
                
  20387842.664   107138875.464    20387850.820    83484892.6374   20387850.695  
                
  19820789.062   105841919.063                    82321533.106    19820792.023  
  19820787.117  
  24457552.281   128525267.557    24457563.402   100149613.3584   24457564.055  
                
  23065257.922   121208749.612    23065264.473    94448409.9304                 
                
  19653487.508   104985448.974                    81655352.355    19653490.863  
  19653486.898  
  20774443.008   109170477.553    20774449.051    85067957.6734   20774449.141  
                
  24950693.508   131116781.186    24950699.020   102168930.7174                 
                
  20102324.484   107609335.215                    83696156.691    20102328.734  
  20102323.375  
  19442390.484   103748337.315                    80693155.764    19442393.672  
  19442388.473  
 21  8 16 17 49 40.0000000  0 12G 4G16G30G 9R13G 6G20R12G 7G 2R 3R 2
  22049994.539   115873542.422    22050002.848    90291120.5834   22050002.637  
                
  22896369.375   120321279.347    22896375.375    93756887.4054                 
                
  22758106.719   119594692.007    22758116.465    93190723.7284   22758116.727  
                
  20388658.742   107143164.023    20388666.918    83488234.3734   20388666.777  
                
  19816594.344   105819519.590                    82304111.294    19816597.301  
  19816592.398  
  24462828.602   128552994.992    24462839.805   100171219.1134   24462840.445  
                
  23060217.523   121182262.160    23060224.086    94427770.3664                 
                
  19657022.430   105004331.882                    81670039.055    19657025.770  
  19657021.812  
  20772740.828   109161532.546    20772746.898    85060987.5434   20772746.965  
                
  24952987.820   131128837.950    24952993.285   102178325.6004                 
                
  20097718.742   107584680.342                    83676980.681    20097722.969  
  20097717.625  
  19444910.500   103761784.624                    80703614.768    19444913.660  
  19444908.480  
 21  8 16 17 49 50.0000000  0 12G 4G16G30G 9R13G 6G20R12G 7G 2R 3R 2
  22054331.672   115896334.138    22054339.961    90308880.3544   22054339.754  
                
  22900760.977   120344357.396    22900766.969    93774870.3134                 
                
  22753014.008   119567929.653    22753023.758    93169869.9594   22753024.008  
                
  20389482.680   107147493.885    20389490.875    83491608.2924   20389490.719  
                
  19812412.812   105797190.484                    82286744.225    19812415.758  
  19812410.855  
  24468108.617   128580741.585    24468119.863   100192839.8194   24468120.469  
                
  23055185.555   121155819.075    23055192.121    94407165.3834                 
                
  19660570.055   105023282.659                    81684778.558    19660573.383  
  19660569.441  
  20771045.695   109152624.554    20771051.781    85054046.2524   20771051.840  
                
  24955289.984   131140935.944    24955295.391   102187752.6194                 
                
  20093121.383   107560070.313                    83657839.561    20093125.605  
  20093120.246  
  19447442.734   103775297.114                    80714124.476    19447445.887  
  19447440.707  
 21  8 16 17 50  0.0000000  0 12G 4G16G30G 9R13G 6G20R12G 7G 2R 3R 2
  22058674.062   115919153.519    22058682.352    90326661.6744   22058682.148  
                
  22905163.672   120367493.719    22905169.688    93792898.6134                 
                
  22747926.227   119541193.229    22747935.969    93149036.3974   22747936.219  
                
  20390314.484   107151865.032    20390322.703    83495014.3834   20390322.535  
                
  19808244.461   105774931.679                    82269431.818    19808247.402  
  19808242.512  
  24473392.305   128608507.257    24473403.527   100214475.3764   24473404.109  
                
  23050162.070   121129420.477    23050168.656    94386595.0584                 
                
  19664130.359   105042301.234                    81699570.783    19664133.684  
  19664129.758  
  20769357.602   109143753.537    20769363.703    85047133.7664   20769363.738  
                
  24957599.992   131153075.189    24957605.414   102197211.7154                 
                
  20088532.453   107535505.432                    83638733.555    20088536.676  
  20088531.289  
  19449987.195   103788874.866                    80724684.944    19449990.359  
  19449985.164  
 21  8 16 17 50 10.0000000  0 12G 4G16G30G 9R13G 6G20R12G 7G 2R 3R 2
  22063021.695   115942000.463    22063030.004    90344464.4694   22063029.785  
                
  22909577.438   120390688.239    22909583.508    93810972.2494                 
                
  22742843.367   119514482.693    22742853.105    93128223.0074   22742853.367  
                
  20391154.125   107156277.423    20391162.363    83498452.6044   20391162.184  
                
  19804089.227   105752742.952                    82252173.933    19804092.168  
  19804087.262  
  24478679.562   128636291.814    24478690.785   100236125.6584   24478691.348  
                
  23045147.031   121103066.336    23045153.660    94366059.3744                 
                
  19667703.312   105061387.293                    81714415.501    19667706.621  
  19667702.707  
  20767676.516   109134919.364    20767682.637    85040250.0074   20767682.656  
                
  24959917.836   131165255.510    24959923.305   102206702.8394                 
                
  20083951.930   107510985.570                    83619662.541    20083956.137  
  20083950.777  
  19452543.875   103802517.834                    80735296.147    19452547.051  
  19452541.840  
 21  8 16 17 50 20.0000000  0 12G 4G16G30G 9R13G 6G20R12G 7G 2R 3R 2
  22067374.562   115964874.903    22067382.871    90362288.7004   22067382.648  
                
  22914002.242   120413940.802    22914008.344    93829091.1124                 
                
  22737765.438   119487797.997    22737775.172    93107429.7594   22737775.445  
                
  20392001.609   107160730.998    20392009.859    83501922.9244   20392009.680  
                
  19799947.141   105730624.517                    82234970.715    19799950.086  
  19799945.176  
  24483970.367   128664095.068    24483981.605   100257790.4974   24483982.145  
                
  23040140.492   121076756.777    23040147.148    94345558.4264                 
                
  19671288.852   105080540.626                    81729312.528    19671292.156  
  19671288.242  
  20766002.438   109126122.023    20766008.586    85033394.9364   20766008.590  
                
  24962243.484   131177476.758    24962248.945   102216225.8944                 
                
  20079379.828   107486510.779                    83600626.593    20079384.008  
  20079378.684  
  19455112.734   103816225.766                    80745957.857    19455115.926  
  19455110.688  
 21  8 16 17 50 30.0000000  0 12G 4G16G30G 9R13G 6G20R12G 7G 2R 3R 2
  22071732.656   115987776.846    22071740.973    90380134.3574   22071740.750  
                
  22918438.055   120437251.241    22918444.191    93847255.0914                 
                
  22732692.422   119461139.201    22732702.129    93086656.6814   22732702.438  
                
  20392856.945   107165225.821    20392865.203    83505425.3844   20392865.016  
                
  19795818.242   105708576.407                    82217822.198    19795821.195  
  19795816.270  
  24489264.781   128691916.899    24489275.977   100279469.8264   24489276.496  
                
  23035142.438   121050491.855    23035149.105    94325092.2564                 
                
  19674887.008   105099761.337                    81744261.975    19674890.320  
  19674886.402  
  20764335.359   109117361.449    20764341.547    85026568.5184   20764341.535  
                
  24964576.914   131189738.934    24964582.320   102225780.8344                 
                
  20074816.164   107462081.138                    83581625.769    20074820.320  
  20074815.023  
  19457693.805   103829998.851                    80756670.249    19457696.996  
  19457691.758  
 21  8 16 17 50 40.0000000  0 12G 4G16G30G 9R13G 6G20R12G 7G 2R 3R 2
  22076096.000   116010706.374    22076104.352    90398001.5084   22076104.109  
                
  22922884.898   120460619.564    22922891.047    93865464.1684                 
                
  22727624.359   119434506.443    22727634.020    93065903.8864   22727634.344  
                
  20393720.141   107169761.982    20393728.395    83508960.0584   20393728.211  
                
  19791702.547   105686598.849                    82200728.557    19791705.496  
  19791700.602  
  24494562.625   128719757.352    24494573.867   100301163.6564   24494574.371  
                
  23030152.891   121024271.724    23030159.570    94304660.9934                 
                
  19678497.727   105119049.157                    81759263.612    19678501.031  
  19678497.133  
  20762675.297   109108637.790    20762681.523    85019770.8644   20762681.480  
                
  24966918.133   131202041.948    24966923.453   102235367.5904                 
                
  20070261.023   107437697.117                    83562660.414    20070265.148  
  20070259.883  
  19460287.070   103843837.044                    80767433.281    19460290.281  
  19460285.020  
 21  8 16 17 50 50.0000000  0 12G 4G16G30G 9R13G 6G20R12G 7G 2R 3R 2
  22080464.594   116033663.450    22080472.957    90415890.1374   22080472.711  
                
  22927342.750   120484045.734    22927348.918    93883718.3104                 
                
  22722561.258   119407899.692    22722570.863    93045171.3694   22722571.219  
                
  20394591.211   107174339.482    20394599.461    83512526.9444   20394599.277  
                
  19787600.039   105664691.659                    82183689.641    19787602.984  
  19787598.129  
  24499863.984   128747616.248    24499875.262   100322871.8544   24499875.766  
                
  23025171.922   120998096.526    23025178.598    94284264.7584                 
                
  19682121.023   105138404.113                    81774317.466    19682124.328  
  19682120.434  
  20761022.266   109099951.007    20761028.531    85013001.9494   20761028.465  
                
  24969267.125   131214385.704    24969272.434   102244986.0944                 
                
  20065714.375   107413358.558                    83543730.431    20065718.477  
  20065713.246  
  19462892.609   103857740.658                    80778247.174    19462895.809  
  19462890.570  
 21  8 16 17 51  0.0000000  0 12G 4G16G30G 9R13G 6G20R12G 7G 2R 3R 2
  22084838.375   116056647.847    22084846.727    90433800.0384   22084846.504  
                
  22931811.547   120507529.357    22931817.730    93902017.2454                 
                
  22717503.070   119381318.782    22717512.656    93024458.9894   22717513.023  
                
  20395470.102   107178958.117    20395478.344    83516125.8764   20395478.168  
                
  19783510.789   105642855.304                    82166705.815    19783513.707  
  19783508.883  
  24505168.812   128775493.240    24505180.113   100344594.1604   24505180.594  
                
  23020199.461   120971966.123    23020206.121    94263903.4054                 
                
  19685756.805   105157825.799                    81789423.224    19685760.113  
  19685756.238  
  20759376.203   109091300.892    20759382.508    85006261.5994   20759382.410  
                
  24971623.812   131226770.051    24971629.195   102254636.1994                 
                
  20061176.227   107389065.498                    83524835.831    20061180.309  
  20061175.109  
  19465510.266   103871708.957                    80789111.409    19465513.461  
  19465508.246  
 21  8 16 17 51 10.0000000  0 12G 4G16G30G 9R13G 6G20R12G 7G 2R 3R 2
  22089217.430   116079659.880    22089225.801    90451731.4864   22089225.559  
                
  22936291.289   120531070.530    22936297.496    93920361.0104                 
                
  22712449.883   119354764.107    22712459.480    93003767.0514   22712459.844  
                
  20396356.891   107183618.271    20396365.125    83519757.1684   20396364.945  
                
  19779434.750   105621089.495                    82149776.850    19779437.672  
  19779432.848  
  24510477.094   128803388.584    24510488.445   100366330.7674   24510488.906  
                
  23015235.617   120945880.958    23015242.266    94243577.3004                 
                
  19689405.141   105177314.572                    81804581.167    19689408.457  
  19689404.578  
  20757737.188   109082687.801    20757743.539    84999550.1024   20757743.418  
                
  24973988.273   131239195.282    24973993.703   102264318.1654                 
                
  20056646.664   107364818.367                    83505976.969    20056650.742  
  20056645.539  
  19468140.156   103885742.516                    80800026.395    19468143.352  
  19468138.164  
 21  8 16 17 51 20.0000000  0 12G 4G16G30G 9R13G 6G20R12G 7G 2R 3R 2
  22093601.695   116102699.326    22093610.078    90469684.2854   22093609.824  
                
  22940782.000   120554669.285    22940788.223    93938749.6334                 
                
  22707401.648   119328235.439    22707411.262    92983095.3744   22707411.578  
                
  20397251.539   107188319.690    20397259.770    83523420.6064   20397259.598  
                
  19775371.898   105599394.155                    82132902.709    19775374.812  
  19775369.980  
  24515788.812   128831301.947    24515800.219   100388081.4134   24515800.680  
                
  23010280.328   120919840.834    23010286.953    94223286.2964                 
                
  19693065.953   105196870.017                    81819790.946    19693069.273  
  19693065.379  
  20756105.164   109074111.484    20756111.555    84992867.2614   20756111.418  
                
  24976360.469   131251661.095    24976365.898   102274031.7944                 
                
  20052125.633   107340616.972                    83487153.653    20052129.707  
  20052124.504  
  19470782.242   103899841.162                    80810992.004    19470785.445  
  19470780.262  
 21  8 16 17 51 30.0000000  0 12G 4G16G30G 9R13G 6G20R12G 7G 2R 3R 2
  22097991.195   116125766.307    22097999.582    90487658.5594   22097999.336  
                
  22945283.664   120578325.612    22945289.879    93957183.1464                 
                
  22702358.391   119301732.958    22702368.016    92962444.1104   22702368.324  
                
  20398154.078   107193062.567    20398162.301    83527116.3544   20398162.125  
                
  19771322.367   105577769.905                    82116083.854    19771325.258  
  19771320.438  
  24521103.992   128859233.346    24521115.418   100409846.1164   24521115.891  
                
  23005333.680   120893846.028    23005340.285    94203030.6274                 
                
  19696739.250   105216492.096                    81835052.566    19696742.590  
  19696738.680  
  20754480.172   109065572.088    20754486.609    84986213.1954   20754486.449  
                
  24978740.398   131264167.486    24978745.766   102283777.0804                 
                
  20047613.234   107316461.721                    83468366.248    20047617.316  
  20047612.105  
  19473436.602   103914005.271                    80822008.521    19473439.789  
  19473434.648  
 21  8 16 17 51 40.0000000  0 12G 4G16G30G 9R13G 6G20R12G 7G 2R 3R 2
  22102385.875   116148860.449    22102394.273    90505653.9764   22102394.035  
                
  22949796.188   120602039.011    22949802.332    93975661.1194                 
                
  22697320.062   119275256.359    22697329.680    92941812.9984   22697329.988  
                
  20399064.430   107197846.567    20399072.637    83530844.1484   20399072.469  
                
  19767285.992   105556215.906                    82099319.635    19767288.898  
  19767284.059  
  24526422.570   128887182.286    24526433.965   100431624.4824   24526434.430  
                
  23000395.609   120867896.298    23000402.230    94182810.0714                 
                
  19700424.930   105236180.329                    81850365.624    19700428.273  
  19700424.371  
  20752862.125   109057069.218    20752868.602    84979587.5834   20752868.418  
                
  24981127.961   131276714.081    24981133.316   102293553.6314                 
                
  20043109.375   107292352.221                    83449614.424    20043113.473  
  20043108.250  
  19476103.102   103928234.182                    80833075.444    19476106.305  
  19476101.180  
 21  8 16 17 51 50.0000000  0 12G 4G16G30G 9R13G 6G20R12G 7G 2R 3R 2
  22106785.789   116171982.108    22106794.211    90523670.8434   22106793.973  
                
  22954319.633   120625809.746    22954325.715    93994183.7614                 
                
  22692286.719   119248805.982    22692296.344    92921202.3254   22692296.645  
                
  20399982.688   107202672.046    20399990.871    83534604.2634   20399990.715  
                
  19763262.914   105534732.904                    82082610.645    19763265.820  
  19763260.984  
  24531744.547   128915149.032    24531755.891   100453416.7384   24531756.348  
                
  22995466.211   120841992.089    22995472.855    94162624.9704                 
                
  19704123.062   105255935.063                    81865730.421    19704126.410  
  19704122.508  
  20751251.094   109048603.192    20751257.613    84972990.6844   20751257.410  
                
  24983523.172   131289301.131    24983528.629   102303361.6744                 
                
  20038614.180   107268289.056                    83430898.628    20038618.289  
  20038613.035  
  19478781.859   103942528.496                    80844193.243    19478785.066  
  19478779.957  
 21  8 16 17 52  0.0000000  0 12G 4G16G30G 9R13G 6G20R12G 7G 2R 3R 2
  22111190.914   116195131.137    22111199.363    90541709.0414   22111199.109  
                
  22958853.938   120649637.592    22958859.953    94012750.9234                 
                
  22687258.344   119222381.785    22687268.004    92900612.0644   22687268.285  
                
  20400908.820   107207538.905    20400916.980    83538396.6254   20400916.836  
                
  19759253.094   105513320.748                    82065956.757    19759256.023  
  19759251.176  
  24537069.891   128943133.357    24537081.125   100475222.6914   24537081.555  
                
  22990545.430   120816133.356    22990552.113    94142475.3334                 
                
  19707833.594   105275756.038                    81881146.734    19707836.941  
  19707833.043  
  20749647.055   109040173.938    20749653.613    84966422.4394   20749653.398  
                
  24985926.094   131301928.451    24985931.637   102313201.0844                 
                
  20034127.633   107244272.255                    83412218.900    20034131.762  
  20034126.488  
  19481472.789   103956887.764                    80855361.556    19481475.992  
  19481470.910  
 21  8 16 17 52 10.0000000  0 12G 4G16G30G 9R13G 6G20R12G 7G 2R 3R 2
  22115601.250   116218307.551    22115609.723    90559768.5644   22115609.480  
                
  22963399.086   120673522.440    22963405.070    94031362.4874                 
                
  22682234.953   119195983.739    22682244.641    92880042.1784   22682244.922  
                
  20401842.820   107212447.152    20401850.953    83542221.2284   20401850.820  
                
  19755256.539   105491979.458                    82049357.986    19755259.484  
  19755254.621  
  24542398.531   128971135.128    24542409.699   100497042.2314   24542410.117  
                
  22985633.336   120790320.180    22985640.035    94122361.1754                 
                
  19711556.500   105295643.098                    81896614.459    19711559.855  
  19711555.949  
  20748050.008   109031781.399    20748056.602    84959882.8034   20748056.375  
                
  24988336.719   131314596.008    24988342.336   102323071.8964                 
                
  20029649.750   107220301.785                    83393575.202    20029653.883  
  20029648.602  
  19484175.906   103971312.059                    80866580.443    19484179.102  
  19484174.051  
 21  8 16 17 52 20.0000000  0 12G 4G16G30G 9R13G 6G20R12G 7G 2R 3R 2
  22120016.797   116241511.316    22120025.320    90577849.4154   22120025.059  
                
  22967955.062   120697464.192    22967960.996    94050018.3874                 
                
  22677216.555   119169611.931    22677226.254    92859492.7324   22677226.547  
                
  20402784.719   107217396.839    20402792.820    83546078.1254   20402792.695  
                
  19751273.320   105470709.353                    82032814.571    19751276.250  
  19751271.383  
  24547730.414   128999154.252    24547741.574   100518875.2834   24547741.996  
                
  22980729.961   120764552.737    22980736.617    94102282.6434                 
                
  19715291.750   105315596.131                    81912133.473    19715295.117  
  19715291.207  
  20746459.930   109023425.518    20746466.555    84953371.7364   20746466.320  
                
  24990754.961   131327303.697    24990760.637   102332974.0054                 
                
  20025180.578   107196377.945                    83374967.778    20025184.711  
  20025179.434  
  19486891.250   103985801.591                    80877850.078    19486894.461  
  19486889.414  
 21  8 16 17 52 30.0000000  0 12G 4G16G30G 9R13G 6G20R12G 7G 2R 3R 2
  22124437.570   116264742.509    22124446.152    90595951.6354   22124445.848  
                
  22972521.883   120721462.856    22972527.750    94068718.6324                 
                
  22672203.180   119143266.487    22672212.879    92838963.8354   22672213.199  
                
  20403734.516   107222388.053    20403742.590    83549967.3874   20403742.484  
                
  19747303.469   105449510.524                    82016326.607    19747306.383  
  19747301.535  
  24553065.555   129027190.722    24553076.742   100540721.8494   24553077.176  
                
  22975835.328   120738831.210    22975841.973    94082239.8984                 
                
  19719039.359   105335615.165                    81927703.834    19719042.738  
  19719038.816  
  20744876.867   109015106.472    20744883.516    84946889.3684   20744883.266  
                
  24993180.836   131340051.616    24993186.574   102342907.4744                 
                
  20020720.156   107172500.902                    83356396.753    20020724.297  
  20020719.023  
  19489618.820   104000356.386                    80889170.461    19489622.027  
  19489616.984  
 21  8 16 17 52 40.0000000  0 12G 4G16G30G 9R13G 6G20R12G 7G 2R 3R 2
  22128863.531   116288001.031    22128872.145    90614075.1384   22128871.820  
                
  22977099.477   120745518.239    22977105.297    94087463.1004                 
                
  22667194.797   119116947.301    22667204.480    92818455.3864   22667204.797  
                
  20404692.195   107227420.731    20404700.242    83553888.9494   20404700.152  
                
  19743346.883   105428382.724                    81999893.874    19743349.797  
  19743344.953  
  24558403.938   129055244.272    24558415.164   100562581.7324   24558415.582  
                
  22970949.375   120713155.413    22970956.000    94062232.7964                 
                
  19722799.266   105355699.916                    81943325.306    19722802.672  
  19722798.707  
  20743300.789   109006824.131    20743307.465    84940435.5994   20743307.199  
                
  24995614.281   131352839.532    24995620.074   102352872.0494                 
                
  20016268.477   107148670.707                    83337862.159    20016272.617  
  20016267.363  
  19492358.555   104014976.102                    80900541.342    19492361.766  
  19492356.719  
 21  8 16 17 52 50.0000000  0 12G 4G16G30G 9R13G 6G20R12G 7G 2R 3R 2
  22133294.727   116311287.009    22133303.352    90632220.0474   22133303.016  
                
  22981687.875   120769630.396    22981693.625    94106251.7944                 
                
  22662191.453   119090654.572    22662201.133    92797967.5594   22662201.430  
                
  20405657.797   107232495.018    20405665.809    83557842.9354   20405665.730  
                
  19739403.633   105407326.101                    81983516.501    19739406.551  
  19739401.703  
  24563745.617   129083314.974    24563756.848   100584454.9734   24563757.289  
                
  22966072.188   120687525.737    22966078.824    94042261.6294                 
                
  19726571.477   105375850.435                    81958997.933    19726574.918  
  19726570.887  
  20741731.727   108998578.677    20741738.430    84934010.5694   20741738.148  
                
  24998055.344   131365667.460    24998061.238   102362867.8174                 
                
  20011825.578   107124887.529                    83319364.141    20011829.719  
  20011824.469  
  19495110.570   104029661.333                    80911963.189    19495113.793  
  19495108.723  
 21  8 16 17 53  0.0000000  0 12G 4G16G30G 9R13G 6G20R12G 7G 2R 3R 2
  22137731.102   116334600.228    22137739.734    90650386.1854   22137739.395  
                
  22986287.000   120793798.946    22986292.656    94125084.4284                 
                
  22657193.102   119064388.080    22657202.770    92777500.1834   22657203.074  
                
  20406631.281   107237610.714    20406639.258    83561829.1934   20406639.199  
                
  19735473.695   105386340.453                    81967194.342    19735476.621  
  19735471.770  
  24569090.500   129111402.483    24569101.723   100606341.3264   24569102.184  
                
  22961203.758   120661942.057    22961210.406    94022326.3024                 
                
  19730355.930   105396066.370                    81974721.433    19730359.387  
  19730355.332  
  20740169.641   108990369.926    20740176.379    84927614.1484   20740176.082  
                
  25000504.008   131378535.154    25000509.984   102372894.5584                 
                
  20007391.484   107101151.470                    83300902.769    20007395.629  
  20007390.379  
  19497874.688   104044411.193                    80923435.289    19497877.918  
  19497872.828  
 21  8 16 17 53 10.0000000  0 12G 4G16G30G 9R13G 6G20R12G 7G 2R 3R 2
  22142172.672   116357940.769    22142181.316    90668573.5974   22142180.969  
                
  22990896.844   120818023.860    22990902.449    94143960.9884                 
                
  22652199.781   119038148.019    22652209.441    92757053.3874   22652209.758  
                
  20407612.672   107242767.952    20407620.613    83565847.8144   20407620.570  
                
  19731557.133   105365426.216                    81950927.728    19731560.043  
  19731555.195  
  24574438.617   129139506.820    24574449.820   100628240.7864   24574450.293  
                
  22956344.125   120636404.560    22956350.777    94002426.9684                 
                
  19734152.656   105416347.818                    81990495.883    19734156.137  
  19734152.043  
  20738614.555   108982197.886    20738621.316    84921246.3364   20738621.008  
                
  25002960.234   131391442.651    25002966.227   102382952.3554                 
                
  20002966.156   107077462.323                    83282477.883    20002970.293  
  20002965.051  
  19500651.086   104059226.554                    80934958.342    19500654.328  
  19500649.227  
 21  8 16 17 53 20.0000000  0 12G 4G16G30G 9R13G 6G20R12G 7G 2R 3R 2
  22146619.406   116381308.429    22146628.066    90686782.1514   22146627.703  
                
  22995517.406   120842305.028    22995522.984    94162881.3884                 
                
  22647211.453   119011934.177    22647221.098    92736627.0234   22647221.406  
                
  20408601.938   107247966.550    20408609.848    83569898.6644   20408609.824  
                
  19727653.898   105344583.114                    81934716.428    19727656.809  
  19727651.961  
  24579789.922   129167627.635    24579801.039   100650153.0874   24579801.516  
                
  22951493.273   120610913.191    22951499.930    93982563.5704                 
                
  19737961.562   105436694.320                    82006320.939    19737965.059  
  19737960.934  
  20737066.414   108974062.395    20737073.191    84914907.0064   20737072.883  
                
  25005423.992   131404389.716    25005429.957   102393040.9774                 
                
  19998549.648   107053820.409                    83264089.729    19998553.789  
  19998548.535  
  19503439.570   104074106.458                    80946531.582    19503442.812  
  19503437.676  
 21  8 16 17 53 30.0000000  0 12G 4G16G30G 9R13G 6G20R12G 7G 2R 3R 2
  22151071.336   116404703.442    22151080.004    90705012.0354   22151079.633  
                
  23000148.695   120866642.648    23000154.211    94181845.7514                 
                
  22642228.164   118985746.830    22642237.812    92716221.3094   22642238.113  
                
  20409599.117   107253206.783    20409606.996    83573981.9544   20409606.980  
                
  19723764.016   105323811.425                    81918560.674    19723766.938  
  19723762.082  
  24585144.359   129195765.051    24585155.383   100672078.3344   24585155.910  
                
  22946651.250   120585468.246    22946657.895    93962736.3514                 
                
  19741782.688   105457106.125                    82022196.785    19741786.199  
  19741782.062  
  20735525.273   108965963.648    20735532.051    84908596.3014   20735531.742  
                
  25007895.258   131417376.486    25007901.203   102403160.5084                 
                
  19994142.016   107030225.976                    83245738.496    19994146.145  
  19994140.898  
  19506240.336   104089051.915                    80958155.841    19506243.594  
  19506238.422  
 21  8 16 17 53 40.0000000  0 12G 4G16G30G 9R13G 6G20R12G 7G 2R 3R 2
  22155528.453   116428125.740    22155537.109    90723263.1494   22155536.762  
                
  23004790.680   120891036.558    23004796.133    94200853.9894                 
                
  22637249.898   118959585.981    22637259.578    92695836.2464   22637259.859  
                
  20410604.211   107258488.582    20410612.066    83578097.6414   20410612.062  
                
  19719887.539   105303111.288                    81902460.585    19719890.465  
  19719885.609  
  24590501.883   129223918.964    24590512.883   100694016.4204   24590513.422  
                
  22941818.094   120560069.765    22941824.691    93942945.3244                 
                
  19745615.977   105477582.860                    82038123.141    19745619.492  
  19745615.359  
  20733991.117   108957901.643    20733997.891    84902314.2254   20733997.582  
                
  25010374.062   131430402.850    25010379.996   102413310.9164                 
                
  19989743.250   107006679.071                    83227424.248    19989747.363  
  19989742.133  
  19509053.258   104104062.228                    80969830.502    19509056.527  
  19509051.324  
 21  8 16 17 53 50.0000000  0 12G 4G16G30G 9R13G 6G20R12G 7G 2R 3R 2
  22159990.758   116451575.303    22159999.402    90741535.5184   22159999.078  
                
  23009443.367   120915486.584    23009448.750    94219905.9794                 
                
  22632276.688   118933451.610    22632286.379    92675471.8234   22632286.652  
                
  20411617.227   107263811.991    20411625.062    83582245.7504   20411625.066  
                
  19716024.406   105282482.426                    81886415.916    19716027.336  
  19716022.496  
  24595862.492   129252089.206    24595873.555   100715967.2284   24595874.035  
                
  22936993.781   120534717.796    22937000.363    93923190.5434                 
                
  19749461.461   105498124.749                    82054100.167    19749464.988  
  19749460.848  
  20732463.953   108949876.353    20732470.715    84896060.7594   20732470.410  
                
  25012860.398   131443468.748    25012866.332   102423492.0854                 
                
  19985353.406   106983179.866                    83209147.080    19985357.512  
  19985352.293  
  19511878.461   104119138.052                    80981556.139    19511881.738  
  19511876.512  
 21  8 16 17 54  0.0000000  0 12G 4G16G30G 9R13G 6G20R12G 7G 2R 3R 2
  22164458.242   116475052.076    22164466.875    90759829.0974   22164466.566  
                
  23014106.672   120939992.498    23014112.016    94239001.5034                 
                
  22627308.523   118907343.738    22627318.191    92655128.0334   22627318.473  
                
  20412638.148   107269176.974    20412645.965    83586426.2544   20412645.980  
                
  19712174.609   105261924.742                    81870426.604    19712177.539  
  19712172.695  
  24601226.133   129280275.645    24601237.320   100737930.6724   24601237.727  
                
  22932178.344   120509412.469    22932184.914    93903472.1154                 
                
  19753319.078   105518731.466                    82070127.612    19753322.609  
  19753318.473  
  20730943.766   108941887.731    20730950.520    84889835.8624   20730950.227  
                
  25015354.258   131456574.054    25015360.180   102433704.0034                 
                
  19980972.484   106959728.427                    83190907.085    19980976.578  
  19980971.375  
  19514715.805   104134278.651                    80993332.156    19514719.094  
  19514713.840  
 21  8 16 17 54 10.0000000  0 12G 4G16G30G 9R13G 6G20R12G 7G 2R 3R 2
  22168930.914   116498556.067    22168939.520    90778143.8894   22168939.234  
                
  23018780.609   120964554.302    23018785.941    94258140.5594                 
                
  22622345.406   118881262.443    22622355.059    92634804.9544   22622355.340  
                
  20413667.000   107274583.595    20413674.801    83590639.2014   20413674.820  
                
  19708338.312   105241439.116                    81854493.351    19708341.234  
  19708336.418  
  24606592.922   129308478.158    24606604.121   100759906.6434   24606604.492  
                
  22927371.797   120484153.889    22927378.309    93883790.1064                 
                
  19757188.805   105539402.896                    82086205.384    19757192.340  
  19757188.203  
  20729430.547   108933935.751    20729437.281    84883639.5164   20729437.008  
                
  25017855.609   131469718.707    25017861.484   102443946.5954                 
                
  19976600.500   106936324.896                    83172704.329    19976604.582  
  19976599.402  
  19517565.367   104149484.469                    81005158.886    19517568.656  
  19517563.379  
 21  8 16 17 54 20.0000000  0 12G 4G16G30G 9R13G 6G20R12G 7G 2R 3R 2
  22173408.734   116522087.162    22173417.328    90796479.8004   22173417.051  
                
  23023465.133   120989171.638    23023470.500    94277322.9064                 
                
  22617387.328   118855207.596    22617396.996    92614502.4944   22617397.266  
                
  20414703.742   107280031.711    20414711.527    83594884.4844   20414711.562  
                
  19704515.383   105221024.884                    81838615.622    19704518.305  
  19704513.488  
  24611962.750   129336696.557    24611973.953   100781894.9874   24611974.289  
                
  22922574.141   120458941.996    22922580.566    93864144.4674                 
                
  19761070.594   105560138.702                    82102333.228    19761074.137  
  19761069.996  
  20727924.289   108926020.344    20727931.004    84877471.6724   20727930.746  
                
  25020364.398   131482902.535    25020370.316   102454219.7204                 
                
  19972237.453   106912969.132                    83154538.746    19972241.535  
  19972236.352  
  19520427.086   104164755.178                    81017036.100    19520430.367  
  19520425.074  
 21  8 16 17 54 30.0000000  0 12G 4G16G30G 9R13G 6G20R12G 7G 2R 3R 2
  22177891.727   116545645.381    22177900.312    90814836.8404   22177900.035  
                
  23028160.242   121013844.626    23028165.668    94296548.6004                 
                
  22612434.305   118829179.284    22612443.977    92594220.7034   22612444.234  
                
  20415748.406   107285521.412    20415756.168    83599162.1614   20415756.211  
                
  19700705.867   105200682.343                    81822793.653    19700708.820  
  19700703.965  
  24617335.602   129364930.742    24617346.797   100803895.6184   24617347.121  
                
  22917785.398   120433776.957    22917791.766    93844535.3454                 
                
  19764964.422   105580938.864                    82118511.133    19764967.977  
  19764963.824  
  20726425.023   108918141.676    20726431.707    84871332.4454   20726431.469  
                
  25022880.656   131496125.578    25022886.656   102464523.3604                 
                
  19967883.367   106889661.422                    83136410.516    19967887.445  
  19967882.281  
  19523300.945   104180090.628                    81028963.660    19523304.223  
  19523298.930  
 21  8 16 17 54 40.0000000  0 12G 4G16G30G 9R13G 6G20R12G 7G 2R 3R 2
  22182379.898   116569230.858    22182388.492    90833215.1334   22182388.203  
                
  23032865.953   121038573.374    23032871.496    94315817.7584                 
                
  22607486.352   118803177.673    22607496.031    92573959.7164   22607496.277  
                
  20416801.008   107291052.871    20416808.742    83603472.3874   20416808.793  
                
  19696909.789   105180411.584                    81807027.516    19696912.750  
  19696907.879  
  24622711.398   129393180.744    24622722.637   100825908.5904   24622722.938  
                
  22913005.617   120408658.947    22913011.945    93824962.8614                 
                
  19768870.320   105601803.465                    82134739.146    19768873.879  
  19768869.719  
  20724932.734   108910299.675    20724939.383    84865221.7964   20724939.168  
                
  25025404.359   131509387.771    25025410.414   102474857.5174                 
                
  19963538.344   106866402.140                    83118319.976    19963542.418  
  19963537.250  
  19526187.117   104195491.781                    81040942.340    19526190.398  
  19526185.105  
 21  8 16 17 54 50.0000000  0 12G 4G16G30G 9R13G 6G20R12G 7G 2R 3R 2
  22186873.203   116592843.364    22186881.789    90851614.4704   22186881.492  
                
  23037582.227   121063357.491    23037587.867    94335130.0724                 
                
  22602543.445   118777202.579    22602553.129    92553719.3934   22602553.379  
                
  20417861.516   107296625.860    20417869.223    83607814.9784   20417869.289  
                
  19693127.109   105160212.330                    81791316.995    19693130.078  
  19693125.199  
  24628090.188   129421446.264    24628101.406   100847933.6434   24628101.703  
                
  22908234.766   120383587.906    22908241.082    93805426.9904                 
                
  19772788.211   105622732.142                    82151017.012    19772791.793  
  19772787.613  
  20723447.375   108902494.102    20723453.996    84859139.5274   20723453.793  
                
  25027935.508   131522688.895    25027941.594   102485222.0224                 
                
  19959202.305   106843191.003                    83100266.866    19959206.379  
  19959201.199  
  19529085.367   104210957.412                    81052971.164    19529088.660  
  19529083.355  
 21  8 16 17 55  0.0000000  0 12G 4G16G30G 9R13G 6G20R12G 7G 2R 3R 2
  22191371.711   116616483.071    22191380.281    90870035.0204   22191379.984  
                
  23042309.062   121088197.159    23042314.801    94354485.6524                 
                
  22597605.633   118751254.251    22597615.320    92533499.9404   22597615.582  
                
  20418929.977   107302240.623    20418937.652    83612190.1174   20418937.742  
                
  19689357.977   105140085.352                    81775662.688    19689360.969  
  19689356.070  
  24633471.930   129449727.406    24633483.148   100869970.8554   24633483.422  
                
  22903472.922   120358564.192    22903479.219    93785927.9974                 
                
  19776718.141   105643725.084                    82167344.858    19776721.719  
  19776717.559  
  20721968.992   108894725.141    20721975.590    84853085.7974   20721975.402  
                
  25030474.125   131536029.110    25030480.207   102495616.9694                 
                
  19954875.344   106820028.431                    83082251.539    19954879.418  
  19954874.215  
  19531995.852   104226488.267                    81065050.705    19531999.133  
  19531993.840  
 21  8 16 17 55 10.0000000  0 12G 4G16G30G 9R13G 6G20R12G 7G 2R 3R 2
  22195875.336   116640149.722    22195883.918    90888476.5644   22195883.617  
                
  23047046.383   121113091.969    23047052.191    94373884.1944                 
                
  22592672.867   118725332.433    22592682.535    92513301.1324   22592682.805  
                
  20420006.336   107307896.916    20420013.969    83616597.6194   20420014.078  
                
  19685602.289   105120030.195                    81760064.238    19685605.297  
  19685600.398  
  24638856.562   129478023.737    24638867.801   100892019.9304   24638868.035  
                
  22898720.039   120333587.589    22898726.309    93766465.7114                 
                
  19780660.000   105664781.754                    82183722.273    19780663.582  
  19780659.449  
  20720497.531   108886992.581    20720504.102    84847060.4324   20720503.926  
                
  25033020.086   131549408.051    25033026.164   102506042.1164                 
                
  19950557.406   106796914.182                    83064273.789    19950561.488  
  19950556.270  
  19534918.555   104242084.359                    81077180.989    19534921.828  
  19534916.551  
 21  8 16 17 55 20.0000000  0 12G 4G16G30G 9R13G 6G20R12G 7G 2R 3R 2
  22200384.102   116663843.435    22200392.672    90906939.1784   22200392.371  
                
  23051794.203   121138041.948    23051800.066    94393325.7354                 
                
  22587745.164   118699437.301    22587754.805    92493123.1164   22587755.082  
                
  20421090.617   107313594.842    20421098.207    83621037.5624   20421098.340  
                
  19681860.031   105100046.818                    81744521.616    19681863.070  
  19681858.121  
  24644244.086   129506335.277    24644255.332   100914080.8314   24644255.543  
                
  22893976.148   120308658.238    22893982.402    93747040.2394                 
                
  19784613.812   105685902.298                    82200149.371    19784617.375  
  19784613.289  
  20719033.008   108879296.529    20719039.555    84841063.5144   20719039.375  
                
  25035573.445   131562825.784    25035579.441   102516497.4794                 
                
  19946248.562   106773848.647                    83046333.934    19946252.645  
  19946247.402  
  19537853.406   104257745.286                    81089361.704    19537856.672  
  19537851.406  
 21  8 16 17 55 30.0000000  0 12G 4G16G30G 9R13G 6G20R12G 7G 2R 3R 2
  22204898.047   116687564.298    22204906.582    90925422.9574   22204906.297  
                
  23056552.523   121163047.095    23056558.461    94412810.2544                 
                
  22582822.586   118673568.955    22582832.203    92472965.9844   22582832.500  
                
  20422182.859   107319334.589    20422190.406    83625510.0934   20422190.562  
                
  19678131.289   105080135.520                    81729035.069    19678134.340  
  19678129.363  
  24649634.523   129534662.055    24649645.770   100936153.6164   24649645.969  
                
  22889241.305   120283776.405    22889247.555    93727651.8014                 
                
  19788579.570   105707086.622                    82216626.058    19788583.102  
  19788579.070  
  20717575.477   108871637.121    20717581.992    84835095.1484   20717581.820  
                
  25038134.180   131576282.356    25038140.086   102526983.1024                 
                
  19941948.844   106750831.950                    83028432.060    19941952.934  
  19941947.672  
  19540800.453   104273471.269                    81101593.019    19540803.707  
  19540798.457  
 21  8 16 17 55 40.0000000  0 12G 4G16G30G 9R13G 6G20R12G 7G 2R 3R 2
  22209417.109   116711312.111    22209425.621    90943927.7434   22209425.352  
                
  23061321.297   121188107.167    23061327.285    94432337.5964                 
                
  22577905.078   118647727.282    22577914.688    92452829.6254   22577914.961  
                
  20423283.016   107325115.934    20423290.520    83630015.0384   20423290.695  
                
  19674415.961   105060295.888                    81713604.238    19674419.016  
  19674414.020  
  24655027.867   129563003.742    24655039.012   100958238.0294   24655039.203  
                
  22884515.469   120258941.975    22884521.707    93708300.2854                 
                
  19792557.211   105728334.441                    82233152.146    19792560.738  
  19792556.734  
  20716124.867   108864014.127    20716131.344    84829155.1464   20716131.195  
                
  25040702.258   131589777.439    25040708.094   102537498.7374                 
                
  19937658.266   106727864.180                    83010568.239    19937662.336  
  19937657.086  
  19543759.664   104289262.188                    81113874.842    19543762.914  
  19543757.688  
 21  8 16 17 55 50.0000000  0 12G 4G16G30G 9R13G 6G20R12G 7G 2R 3R 2
  22213941.312   116735086.981    22213949.816    90962453.6104   22213949.570  
                
  23066100.523   121213222.116    23066106.535    94451907.6754                 
                
  22572992.656   118621912.401    22573002.277    92432714.1334   22573002.527  
                
  20424391.109   107330939.024    20424398.566    83634552.5094   20424398.773  
                
  19670714.109   105040528.253                    81698229.429    19670717.172  
  19670712.148  
  24660423.984   129591360.331    24660435.055   100980334.0514   24660435.301  
                
  22879798.703   120234155.183    22879804.914    93688985.9044                 
                
  19796546.727   105749645.696                    82249727.567    19796550.242  
  19796546.262  
  20714681.180   108856427.562    20714687.629    84823243.5344   20714687.504  
                
  25043277.625   131603311.116    25043283.473   102548044.4244                 
                
  19933376.836   106704945.377                    82992742.499    19933380.887  
  19933375.656  
  19546731.047   104305118.052                    81126207.166    19546734.285  
  19546729.082  
 21  8 16 17 56  0.0000000  0 12G 4G16G30G 9R13G 6G20R12G 7G 2R 3R 2
  22218470.680   116758888.972    22218479.168    90981000.5884   22218478.930  
                
  23070890.203   121238391.967    23070896.254    94471520.5444                 
                
  22568085.359   118596124.414    22568094.988    92412619.6054   22568095.223  
                
  20425507.180   107336803.951    20425514.602    83639122.5874   20425514.832  
                
  19667025.781   105020832.837                    81682910.777    19667028.859  
  19667023.816  
  24665822.938   129619731.818    24665833.906   101002441.6794   24665834.227  
                
  22875091.047   120209416.246    22875097.227    93669708.8084                 
                
  19800548.109   105771020.312                    82266352.253    19800551.621  
  19800547.641  
  20713244.477   108848877.618    20713250.898    84817360.4594   20713250.797  
                
  25045860.328   131616883.333    25045866.199   102558620.1754                 
                
  19929104.617   106682075.859                    82974955.100    19929108.633  
  19929103.438  
  19549714.656   104321039.099                    81138590.199    19549717.898  
  19549712.707  
 21  8 16 17 56 10.0000000  0 12G 4G16G30G 9R13G 6G20R12G 7G 2R 3R 2
  22223005.180   116782717.932    22223013.629    90999568.6044   22223013.430  
                
  23075690.273   121263616.449    23075696.359    94491175.9924                 
                
  22563183.156   118570363.254    22563192.805    92392546.0004   22563193.004  
                
  20426631.180   107342710.627    20426638.566    83643725.1864   20426638.824  
                
  19663350.961   105001209.560                    81667648.249    19663354.043  
  19663348.980  
  24671224.617   129648117.978    24671235.574   101024560.7414   24671235.926  
                
  22870392.484   120184725.088    22870398.621    93650468.9404                 
                
  19804561.336   105792458.270                    82283026.227    19804564.848  
  19804560.879  
  20711814.719   108841364.248    20711821.129    84811505.8884   20711821.039  
                
  25048450.375   131630493.982    25048456.219   102569225.8974                 
                
  19924841.617   106659255.678                    82957206.084    19924845.609  
  19924840.453  
  19552710.383   104337024.867                    81151023.568    19552713.617  
  19552708.441  
 21  8 16 17 56 20.0000000  0 12G 4G16G30G 9R13G 6G20R12G 7G 2R 3R 2
  22227544.820   116806573.874    22227553.262    91018157.6564   22227553.082  
                
  23080500.742   121288895.562    23080506.824    94510873.9914                 
                
  22558286.070   118544628.942    22558295.742    92372493.2954   22558295.914  
                
  20427763.133   107348659.063    20427770.492    83648360.3304   20427770.766  
                
  19659689.672   104981658.554                    81652441.910    19659692.727  
  19659687.688  
  24676629.078   129676518.687    24676640.035   101046691.1234   24676640.371  
                
  22865702.992   120160081.596    22865709.129    93631266.2324                 
                
  19808586.375   105813959.286                    82299749.229    19808589.871  
  19808585.930  
  20710391.930   108833887.437    20710398.332    84805679.8044   20710398.238  
                
  25051047.727   131644143.130    25051053.578   102579861.5484                 
                
  19920587.828   106636484.793                    82939495.385    19920591.789  
  19920586.664  
  19555718.312   104353075.710                    81163507.546    19555721.543  
  19555716.391  
 21  8 16 17 56 30.0000000  0 12G 4G16G30G 9R13G 6G20R12G 7G 2R 3R 2
  22232089.609   116830456.917    22232098.039    91036767.7964   22232097.859  
                
  23085321.602   121314229.246    23085327.660    94530614.5124                 
                
  22553394.125   118518921.608    22553403.805    92352461.6144   22553403.984  
                
  20428903.062   107354649.388    20428910.410    83653028.1104   20428910.691  
                
  19656041.922   104962179.759                    81637291.753    19656044.949  
  19656039.910  
  24682036.234   129704933.925    24682047.254   101068832.8624   24682047.566  
                
  22861022.664   120135486.262    22861028.828    93612101.0344                 
                
  19812623.234   105835523.392                    82316521.318    19812626.730  
  19812622.816  
  20708976.109   108826447.223    20708982.504    84799882.2404   20708982.402  
                
  25053652.367   131657830.605    25053658.254   102590527.1014                 
                
  19916343.289   106613763.451                    82921823.229    19916347.219  
  19916342.129  
  19558738.414   104369191.499                    81176042.039    19558741.645  
  19558736.504  
 21  8 16 17 56 40.0000000  0 12G 4G16G30G 9R13G 6G20R12G 7G 2R 3R 2
  22236639.539   116854366.922    22236647.957    91055398.9634   22236647.777  
                
  23090152.820   121339617.456    23090158.859    94550397.5394                 
                
  22548507.297   118493241.207    22548516.957    92332450.9284   22548517.152  
                
  20430050.945   107360681.524    20430058.289    83657728.4724   20430058.562  
                
  19652407.688   104942773.302                    81622197.857    19652410.715  
  19652405.676  
  24687446.211   129733363.508    24687457.160   101090985.7694   24687457.527  
                
  22856351.484   120110939.053    22856357.688    93592973.3394                 
                
  19816671.859   105857150.403                    82333342.333    19816675.348  
  19816671.445  
  20707567.211   108819043.444    20707573.594    84794113.0634   20707573.488  
                
  25056264.281   131671556.337    25056270.168   102601222.4734                 
                
  19912108.023   106591091.751                    82904189.698    19912111.945  
  19912106.863  
  19561770.773   104385372.683                    81188627.405    19561774.004  
  19561768.879  
 21  8 16 17 56 50.0000000  0 12G 4G16G30G 9R13G 6G20R12G 7G 2R 3R 2
  22241194.578   116878303.730    22241203.004    91074051.0144   22241202.801  
                
  23094994.359   121365059.852    23095000.387    94570222.7754                 
                
  22543625.578   118467587.606    22543635.211    92312461.0994   22543635.422  
                
  20431206.750   107366755.317    20431214.102    83662461.2954   20431214.371  
                
  19648786.992   104923439.012                    81607160.075    19648790.020  
  19648784.988  
  24692858.773   129761807.184    24692869.797   101113149.6274   24692870.188  
                
  22851689.438   120086439.844    22851695.645    93573883.0544                 
                
  19820732.227   105878840.136                    82350212.114    19820735.707  
  19820731.809  
  20706165.234   108811676.030    20706171.602    84788372.2184   20706171.504  
                
  25058883.469   131685320.014    25058889.227   102611947.4194                 
                
  19907882.039   106568469.755                    82886594.795    19907885.949  
  19907880.887  
  19564815.234   104401618.476                    81201263.018    19564818.457  
  19564813.359  
 21  8 16 17 57  0.0000000  0 12G 4G16G30G 9R13G 6G20R12G 7G 2R 3R 2
  22245754.727   116902267.452    22245763.137    91092724.0494   22245762.949  
                
  23099846.195   121390556.419    23099852.168    94590090.2194                 
                
  22538748.969   118441960.952    22538758.621    92292492.3044   22538758.820  
                
  20432370.523   107372870.944    20432377.883    83667226.7114   20432378.141  
                
  19645179.805   104904176.882                    81592178.423    19645182.801  
  19645177.805  
  24698274.031   129790264.936    24698285.074   101135324.4824   24698285.520  
                
  22847036.562   120061988.894    22847042.793    93554830.3804                 
                
  19824804.281   105900592.313                    82367130.482    19824807.746  
  19824803.848  
  20704770.203   108804345.105    20704776.555    84782659.8214   20704776.473  
                
  25061509.922   131699121.660    25061515.559   102622701.9534                 
                
  19903665.375   106545897.658                    82869038.722    19903669.281  
  19903664.234  
  19567871.867   104417929.209                    81213949.128    19567875.094  
  19567870.012  
 21  8 16 17 57 10.0000000  0 12G 4G16G30G 9R13G 6G20R12G 7G 2R 3R 2
  22250319.992   116926258.019    22250328.367    91111417.9874   22250328.219  
                
  23104708.289   121416106.889    23104714.215    94609999.6814                 
                
  22533877.492   118416361.214    22533887.180    92272544.4784   22533887.367  
                
  20433542.242   107379028.351    20433549.625    83672024.6874   20433549.867  
                
  19641586.156   104884987.026                    81577252.992    19641589.133  
  19641584.152  
  24703692.031   129818736.628    24703703.035   101157510.1714   24703703.484  
                
  22842392.875   120037586.233    22842399.141    93535815.3264                 
                
  19828888.031   105922406.985                    82384097.450    19828891.504  
  19828887.586  
  20703382.094   108797050.531    20703388.434    84776975.7454   20703388.352  
                
  25064143.562   131712961.288    25064149.164   102633486.0344                 
                
  19899458.031   106523375.467                    82851521.461    19899461.922  
  19899456.883  
  19570940.633   104434304.665                    81226685.583    19570943.863  
  19570938.793  
 21  8 16 17 57 20.0000000  0 12G 4G16G30G 9R13G 6G20R12G 7G 2R 3R 2
  22254890.398   116950275.560    22254898.793    91130132.9424   22254898.629  
                
  23109580.688   121441711.485    23109586.594    94629951.3004                 
                
  22529011.180   118390788.605    22529020.895    92252617.7774   22529021.086  
                
  20434721.961   107385227.721    20434729.359    83676855.3634   20434729.590  
                
  19638006.117   104865869.890                    81562384.113    19638009.090  
  19638004.125  
  24709112.703   129847222.251    24709123.695   101179706.7404   24709124.145  
                
  22837758.438   120013232.152    22837764.727    93516838.1094                 
                
  19832983.477   105944284.129                    82401113.006    19832986.949  
  19832983.023  
  20702000.930   108789792.493    20702007.254    84771320.1314   20702007.176  
                
  25066784.406   131726839.010    25066790.031   102644299.7964                 
                
  19895260.062   106500903.397                    82834043.193    19895263.961  
  19895258.895  
  19574021.594   104450745.204                    81239472.673    19574024.828  
  19574019.762  
 21  8 16 17 57 30.0000000  0 12G 4G16G30G 9R13G 6G20R12G 7G 2R 3R 2
  22259465.859   116974319.740    22259474.273    91148868.6604   22259474.102  
                
  23114463.297   121467369.799    23114469.184    94649944.7854                 
                
  22524149.961   118365242.778    22524159.676    92232711.9444   22524159.867  
                
  20435909.586   107391468.704    20435917.000    83681718.4684   20435917.215  
                
  19634439.625   104846825.074                    81547571.497    19634442.605  
  19634437.637  
  24714536.008   129875721.397    24714546.934   101201913.8464   24714547.379  
                
  22833133.180   119988926.332    22833139.441    93497898.5154                 
                
  19837090.547   105966223.349                    82418176.836    19837094.012  
  19837090.086  
  20700626.656   108782570.662    20700632.977    84765692.7324   20700632.895  
                
  25069432.508   131740754.262    25069437.988   102655142.8564                 
                
  19891071.414   106478481.287                    82816603.756    19891075.297  
  19891070.242  
  19577114.672   104467250.466                    81252310.088    19577117.910  
  19577112.848  
 21  8 16 17 57 40.0000000  0 11G 4G16G30G 9R13G20R12G 7G 2R 3R 2
  22264046.453   116998390.856    22264054.848    91167625.3614   22264054.691  
                
  23119356.172   121493082.026    23119362.023    94669980.2854                 
                
  22519293.906   118339724.085    22519303.594    92212827.2594   22519303.809  
                
  20437105.195   107397751.638    20437112.621    83686614.2554   20437112.824  
                
  19630886.758   104827852.950                    81532815.404    19630889.715  
  19630884.781  
  22828517.195   119964669.173    22828523.395    93478996.8294                 
                
  19841209.250   105988224.706                    82435289.004    19841212.703  
  19841208.781  
  20699259.336   108775385.308    20699265.645    84760093.7604   20699265.574  
                
  25072087.750   131754707.374    25072093.121   102666015.4124                 
                
  19886892.188   106456109.550                    82799203.517    19886896.066  
  19886891.004  
  19580219.883   104483820.397                    81265197.809    19580223.133  
  19580218.051  
 21  8 16 17 57 50.0000000  0 11G 4G16G30G 9R13G20R12G 7G 2R 3R 2
  22268632.164   117022488.910    22268640.570    91186403.0534   22268640.422  
                
  23124259.273   121518848.037    23124265.074    94690057.7014                 
                
  22514443.023   118314232.556    22514452.688    92192963.7504   22514452.930  
                
  20438308.805   107404076.550    20438316.242    83691542.7584   20438316.453  
                
  19627347.477   104808953.359                    81518115.728    19627350.414  
  19627345.473  
  22823910.500   119940460.790    22823916.652    93460133.1554                 
                
  19845339.570   106010288.083                    82452449.402    19845343.000  
  19845339.102  
  20697898.945   108768236.410    20697905.242    84754523.1924   20697905.180  
                
  25074750.148   131768698.345    25074755.555   102676917.4034                 
                
  19882722.414   106433788.456                    82781842.655    19882726.301  
  19882721.230  
  19583337.297   104500455.454                    81278136.173    19583340.547  
  19583335.461  
 21  8 16 17 58  0.0000000  0 11G 4G16G30G 9R13G20R12G 7G 2R 3R 2
  22273222.961   117046613.640    22273231.398    91205201.5354   22273231.219  
                
  23129172.570   121544667.560    23129178.309    94710176.8134                 
                
  22509597.273   118288767.996    22509606.930    92173121.2434   22509607.172  
                
  20439520.352   107410443.210    20439527.812    83696503.7874   20439528.008  
                
  19623821.750   104790126.256                    81503472.440    19623824.676  
  19623819.754  
  22819313.047   119916301.045    22819319.211    93441307.3834                 
                
  19849481.445   106032413.191                    82469657.823    19849484.871  
  19849480.973  
  20696545.445   108761123.753    20696551.719    84748980.8634   20696551.668  
                
  25077419.711   131782726.673    25077425.129   102687848.5854                 
                
  19878562.047   106411517.680                    82764520.954    19878565.934  
  19878560.855  
  19586466.797   104517155.060                    81291124.759    19586470.059  
  19586464.953  
 21  8 16 17 58 10.0000000  0 11G 4G16G30G 9R13G20R12G 7G 2R 3R 2
  22277818.859   117070765.227    22277827.324    91224020.9504   22277827.133  
                
  23134096.062   121570540.656    23134101.801    94730337.6564                 
                
  22504756.695   118263330.646    22504766.375    92153299.9404   22504766.578  
                
  20440739.883   107416851.844    20440747.375    83701497.5234   20440747.566  
                
  19620309.617   104771371.678                    81488885.551    19620312.523  
  19620307.613  
  22814724.906   119892190.220    22814731.094    93422519.7494                 
                
  19853634.898   106054600.216                    82486914.401    19853638.305  
  19853634.414  
  20695198.883   108754047.486    20695205.137    84743466.8884   20695205.102  
                
  25080096.359   131796792.617    25080101.832   102698809.0704                 
                
  19874411.164   106389297.707                    82747238.745    19874415.074  
  19874409.953  
  19589608.523   104533919.923                    81304164.081    19589611.789  
  19589606.660  
 21  8 16 17 58 20.0000000  0 11G 4G16G30G 9R13G20R12G 7G 2R 3R 2
  22282419.891   117094943.699    22282428.363    91242861.3194   22282428.156  
                
  23139029.727   121596467.208    23139035.500    94750540.1634                 
                
  22499921.312   118237920.546    22499931.020    92133499.8794   22499931.191  
                
  20441967.414   107423302.524    20441974.945    83706524.0214   20441975.109  
                
  19616811.133   104752690.037                    81474355.384    19616814.055  
  19616809.137  
  22810146.109   119868128.484    22810152.316    93403770.3504                 
                
  19857799.914   106076848.944                    82504218.968    19857803.301  
  19857799.422  
  20693859.250   108747007.670    20693865.488    84737981.3154   20693865.453  
                
  25082780.078   131810896.150    25082785.691   102709798.7884                 
                
  19870269.750   106367128.450                    82729995.992    19870273.672  
  19870268.527  
  19592762.414   104550749.675                    81317253.882    19592765.688  
  19592760.562  
 21  8 16 17 58 30.0000000  0 11G 4G16G30G 9R13G20R12G 7G 2R 3R 2
  22287026.008   117119148.977    22287034.473    91261722.5574   22287034.285  
                
  23143973.539   121622447.099    23143979.312    94770784.2184                 
                
  22495091.109   118212537.668    22495100.824    92113721.0224   22495100.973  
                
  20443202.938   107429795.154    20443210.523    83711583.2144   20443210.660  
                
  19613326.281   104734081.173                    81459881.834    19613329.223  
  19613324.262  
  22805576.648   119844115.818    22805582.840    93385059.1824                 
                
  19861976.445   106099159.204                    82521571.382    19861979.812  
  19861975.938  
  20692526.523   108740004.161    20692532.758    84732524.0424   20692532.723  
                
  25085470.938   131825036.937    25085476.691   102720817.5814                 
                
  19866137.875   106345010.174                    82712792.895    19866141.809  
  19866136.648  
  19595928.367   104567643.765                    81330393.719    19595931.629  
  19595926.500  
 21  8 16 17 58 40.0000000  0 11G 4G16G30G 9R13G20R12G 7G 2R 3R 2
  22291637.195   117143380.906    22291645.668    91280604.5604   22291645.492  
                
  23148927.469   121648480.129    23148933.191    94791069.7034                 
                
  22490266.055   118187181.849    22490275.742    92093963.2514   22490275.898  
                
  20444446.414   107436329.614    20444454.062    83716674.9934   20444454.172  
                
  19609855.008   104715544.762                    81445464.626    19609857.922  
  19609852.961  
  22801016.508   119820152.150    22801022.691    93366386.1914                 
                
  19866164.430   106121530.686                    82538971.435    19866167.773  
  19866163.906  
  20691200.695   108733036.911    20691206.930    84727095.0174   20691206.895  
                
  25088168.867   131839214.848    25088174.738   102731865.2934                 
                
  19862015.508   106322942.858                    82695629.422    19862019.469  
  19862014.289  
  19599106.477   104584602.774                    81343584.045    19599109.754  
  19599104.613  
 21  8 16 17 58 50.0000000  0 11G 4G16G30G 9R13G20R12G 7G 2R 3R 2
  22296253.469   117167639.597    22296261.941    91299507.4244   22296261.762  
                
  23153891.492   121674566.255    23153897.148    94811396.5604                 
                
  22485446.188   118161853.321    22485455.828    92074226.7394   22485455.996  
                
  20445697.883   107442906.086    20445705.598    83721799.5094   20445705.672  
                
  19606397.375   104697081.237                    81431104.118    19606400.297  
  19606395.320  
  22796465.742   119796237.772    22796471.926    93347751.6164                 
                
  19870363.898   106143963.511                    82556419.182    19870367.223  
  19870363.344  
  20689881.781   108726106.005    20689888.023    84721694.3144   20689887.984  
                
  25090873.844   131853430.030    25090879.836   102742942.0574                 
                
  19857902.711   106300926.724                    82678505.758    19857906.668  
  19857901.488  
  19602296.773   104601626.842                    81356824.994    19602300.062  
  19602294.922  
 21  8 16 17 59  0.0000000  0 12G 4G16G30G 9R13G20R12G 7G 2R 3R14R 2
  22300874.852   117191925.101    22300883.316    91318431.1924   22300883.168  
                
  23158865.641   121700705.522    23158871.273    94831764.8334                 
                
  22480631.523   118136552.139    22480641.145    92054511.5464   22480641.320  
                
  20446957.359   107449524.640    20446965.145    83726956.8274   20446965.184  
                
  19602953.430   104678690.755                    81416800.417    19602956.336  
  19602951.363  
  22791924.414   119772373.010    22791930.578    93329155.6994                 
                
  19874574.828   106166457.571                    82573914.564    19874578.148  
  19874574.262  
  20688569.789   108719211.406    20688576.047    84716321.9054   20688575.996  
                
  25093585.969   131867682.472    25093592.008   102754047.8794                 
                
  19853799.500   106278961.923                    82661422.031    19853803.473  
  19853798.277  
  23562554.734   125601666.475                    97690183.048    23562560.152  
  23562554.406  
  19605499.180   104618715.442                    81370116.103    19605502.469  
  19605497.328  
 21  8 16 17 59 10.0000000  0 12G 4G16G30G 9R13G20R12G 7G 2R 3R14R 2
  22305501.266   117216237.095    22305509.734    91337375.5854   22305509.594  
                
  23163849.805   121726897.445    23163855.441    94852174.1094                 
                
  22475822.008   118111278.003    22475831.637    92034817.4294   22475831.797  
                
  20448224.781   107456184.923    20448232.629    83732146.6514   20448232.629  
                
  19599523.070   104660372.823                    81402553.150    19599525.980  
  19599521.008  
  22787392.398   119748557.234    22787398.562    93310597.9624                 
                
  19878797.133   106189012.361                    82591457.176    19878800.445  
  19878796.559  
  20687264.641   108712352.852    20687270.906    84710977.5754   20687270.840  
                
  25096305.156   131881971.703    25096311.211   102765182.3384                 
                
  19849705.836   106257048.245                    82644378.056    19849709.828  
  19849704.617  
  23554712.414   125559863.779                    97657669.887    23554718.332  
  23554712.191  
  19608713.664   104635868.518                    81383457.392    19608716.949  
  19608711.828  
 21  8 16 17 59 20.0000000  0 12G 4G16G30G 9R13G20R12G 7G 2R 3R14R 2
  22310132.781   117240575.810    22310141.289    91356340.8064   22310141.098  
                
  23168844.016   121753142.198    23168849.652    94872624.5674                 
                
  22471017.695   118086031.193    22471027.328    92015144.6054   22471027.473  
                
  20449500.203   107462887.253    20449508.113    83737369.2444   20449508.094  
                
  19596106.406   104642128.062                    81388362.778    19596109.312  
  19596104.367  
  22782869.797   119724790.917    22782875.973    93292078.7654                 
                
  19883030.836   106211628.049                    82609047.151    19883034.148  
  19883030.262  
  20685966.406   108705530.618    20685972.676    84705661.5554   20685972.609  
                
  25099031.391   131896297.954    25099037.461   102776345.6234                 
                
  19845621.820   106235186.210                    82627374.238    19845625.816  
  19845620.590  
  23546873.789   125518079.789                    97625171.275    23546879.848  
  23546873.547  
  19611940.367   104653086.739                    81396849.331    19611943.648  
  19611938.539  
 21  8 16 17 59 30.0000000  0 12G 4G16G30G 9R13G20R12G 7G 2R 3R14R 2
  22314769.367   117264941.136    22314777.875    91375326.7704   22314777.664  
                
  23173848.266   121779439.617    23173853.887    94893116.0684                 
                
  22466218.570   118060811.670    22466228.207    91995493.0384   22466228.336  
                
  20450783.609   107469631.547    20450791.586    83742624.5394   20450791.539  
                
  19592703.422   104623956.341                    81374229.228    19592706.336  
  19592701.391  
  22778356.633   119701074.184    22778362.828    93273598.2134                 
                
  19887275.906   106234304.460                    82626684.375    19887279.215  
  19887275.328  
  20684675.062   108698744.561    20684681.332    84700373.7234   20684681.270  
                
  25101764.602   131910661.043    25101770.695   102787537.6004                 
                
  19841547.406   106213375.614                    82610410.447    19841551.414  
  19841546.172  
  23539038.703   125476314.493                    97592687.195    23539044.836  
  23539038.477  
  19615179.164   104670369.535                    81410291.491    19615182.426  
  19615177.352  
 21  8 16 17 59 40.0000000  0 12G 4G16G30G 9R13G20R12G 7G 2R 3R14R 2
  22319411.023   117289333.117    22319419.512    91394333.5124   22319419.305  
                
  23178862.508   121805789.640    23178868.121    94913648.5514                 
                
  22461424.648   118035619.501    22461434.285    91975862.7864   22461434.414  
                
  20452075.016   107476417.853    20452083.051    83747912.5564   20452082.965  
                
  19589314.047   104605857.367                    81360152.261    19589316.973  
  19589312.023  
  22773852.914   119677407.095    22773859.121    93255156.3354                 
                
  19891532.328   106257041.533                    82644368.756    19891535.629  
  19891531.754  
  20683390.617   108691994.782    20683396.887    84695114.1634   20683396.824  
                
  25104504.844   131925060.991    25104510.895   102798758.3284                 
                
  19837482.688   106191616.908                    82593487.005    19837486.703  
  19837481.457  
  23531207.227   125434568.013                    97560217.738    23531213.348  
  23531206.953  
  19618430.078   104687716.994                    81423783.967    19618433.336  
  19618428.281  
 21  8 16 17 59 50.0000000  0 12G 4G16G30G 9R13G20R12G 7G 2R 3R14R 2
  22324057.727   117313751.673    22324066.191    91413360.9674   22324066.004  
                
  23183886.703   121832191.912    23183892.344    94934221.7604                 
                
  22456635.930   118010454.649    22456645.559    91956253.8184   22456645.668  
                
  20453374.398   107483246.133    20453382.492    83753233.2924   20453382.387  
                
  19585938.352   104587831.360                    81346132.038    19585941.266  
  19585936.336  
  22769358.664   119653789.692    22769364.883    93236753.1844                 
                
  19895800.055   106279838.968                    82662100.098    19895803.352  
  19895799.469  
  20682113.055   108685281.184    20682119.320    84689882.7844   20682119.258  
                
  25107252.086   131939497.581    25107258.020   102810007.6074                 
                
  19833427.602   106169909.739                    82576603.649    19833431.641  
  19833426.348  
  23523379.227   125392840.376                    97527762.955    23523385.348  
  23523378.883  
  19621693.094   104705129.032                    81437326.644    19621696.336  
  19621691.301  
 21  8 16 18  0  0.0000000  0 12G 4G16G30G 9R13G20R12G 7G 2R 3R14R 2
  22328709.477   117338196.741    22328717.941    91432409.0594   22328717.766  
                
  23188920.820   121858646.442    23188926.523    94954835.6614                 
                
  22451852.398   117985317.071    22451862.000    91936666.1054   22451862.117  
                
  20454681.758   107490116.334    20454689.902    83758586.6904   20454689.770  
                
  19582576.344   104569878.418                    81332168.647    19582579.238  
  19582574.316  
  22764873.883   119630222.044    22764880.102    93218388.7774                 
                
  19900079.070   106302696.720                    82679878.356    19900082.375  
  19900078.477  
  20680842.367   108678603.702    20680848.637    84684679.5544   20680848.570  
                
  25110006.266   131953970.701    25110012.133   102821285.3514                 
                
  19829382.195   106148254.430                    82559760.627    19829386.230  
  19829380.922  
  23515554.695   125351131.635                    97495322.872    23515560.883  
  23515554.379  
  19624968.180   104722605.463                    81450919.421    19624971.434  
  19624966.391  
 21  8 16 18  0 10.0000000  0 12G 4G16G30G 9R13G20R12G 7G 2R 3R14R 2
  22333366.336   117362668.621    22333374.824    91451478.0484   22333374.645  
                
  23193964.930   121885153.429    23193970.715    94975490.4554                 
                
  22447074.133   117960207.142    22447083.703    91917099.9424   22447083.844  
                
  20455997.180   107497028.837    20456005.375    83763973.0504   20456005.223  
                
  19579228.078   104551998.863                    81318262.336    19579230.977  
  19579226.051  
  22760398.656   119606704.566    22760404.871    93200063.4804                 
                
  19904369.406   106325614.917                    82697703.608    19904372.699  
  19904368.797  
  20679578.633   108671962.698    20679584.902    84679504.7494   20679584.832  
                
  25112767.438   131968480.621    25112773.262   102832591.7504                 
                
  19825346.594   106126651.591                    82542958.428    19825350.637  
  19825345.316  
  23507733.805   125309442.211                    97462897.809    23507740.016  
  23507733.535  
  19628255.438   104740146.833                    81464562.707    19628258.711  
  19628253.656  
 21  8 16 18  0 20.0000000  0 12G 4G16G30G 9R13G20R12G 7G 2R 3R14R 2
  22338028.234   117387167.003    22338036.734    91470567.6814   22338036.570  
                
  23199018.984   121911712.678    23199024.805    94996185.9604                 
                
  22442301.070   117935124.577    22442310.613    91897555.0954   22442310.785  
                
  20457320.578   107503983.301    20457328.824    83769392.1064   20457328.660  
                
  19575893.484   104534192.322                    81304412.817    19575896.387  
  19575891.465  
  22755932.906   119583236.949    22755939.102    93181777.0194                 
                
  19908670.992   106348593.223                    82715575.621    19908674.297  
  19908670.383  
  20678321.773   108665357.878    20678328.055    84674358.1394   20678327.984  
                
  25115535.523   131983026.932    25115541.375   102843926.5024                 
                
  19821320.727   106105100.819                    82526196.708    19821324.777  
  19821319.434  
  23499916.586   125267771.908                    97430487.613    23499922.762  
  23499916.242  
  19631554.836   104757753.000                    81478256.383    19631558.105  
  19631553.059  
 21  8 16 18  0 30.0000000  0 12G 4G16G30G 9R13G20R12G 7G 2R 3R14R 2
  22342695.125   117411691.670    22342703.656    91489677.8074   22342703.484  
                
  23204082.914   121938323.783    23204088.793    95016921.8974                 
                
  22437533.195   117910069.227    22437542.738    91878031.4524   22437542.906  
                
  20458651.938   107510979.602    20458660.230    83774843.7704   20458660.047  
                
  19572572.547   104516458.755                    81290620.049    19572575.453  
  19572570.555  
  22751476.648   119559819.186    22751482.824    93163529.4184                 
                
  19912983.758   106371631.248                    82733494.086    19912987.074  
  19912983.137  
  20677071.750   108658788.964    20677078.039    84669239.5104   20677077.965  
                
  25118310.508   131997609.366    25118316.355   102855289.4174                 
                
  19817304.578   106083602.131                    82509475.503    19817308.645  
  19817303.281  
  23492102.789   125226120.661                    97398092.225    23492109.070  
  23492102.520  
  19634866.258   104775423.352                    81491999.986    19634869.527  
  19634864.473  
 21  8 16 18  0 40.0000000  0 12G 4G16G30G 9R13G20R12G 7G 2R 3R14R 2
  22347367.031   117436242.666    22347375.617    91508808.4374   22347375.426  
                
  23209156.703   121964986.724    23209162.648    95037698.2104                 
                
  22432770.508   117885041.141    22432780.055    91858529.0634   22432780.227  
                
  20459991.266   107518017.768    20459999.605    83780328.0514   20459999.395  
                
  19569265.266   104498798.111                    81276884.004    19569268.180  
  19569263.301  
  22747029.898   119536451.392    22747036.059    93145320.7374                 
                
  19917307.688   106394728.891                    82751458.917    19917310.992  
  19917307.074  
  20675828.555   108652255.963    20675834.848    84664148.8714   20675834.770  
                
  25121092.375   132012227.917    25121098.238   102866680.4874                 
                
  19813298.164   106062155.518                    82492794.798    19813302.230  
  19813296.867  
  23484292.648   125184488.591                    97365711.757    23484298.984  
  23484292.410  
  19638189.734   104793158.014                    81505793.594    19638193.016  
  19638187.941  
 21  8 16 18  0 50.0000000  0 12G 4G16G30G 9R13G20R12G 7G 2R 3R14R 2
  22352044.000   117460820.287    22352052.641    91527959.8194   22352052.422  
                
  23214240.383   121991701.682    23214246.379    95058515.0534                 
                
  22428013.070   117860040.664    22428022.609    91839048.1774   22428022.777  
                
  20461338.617   107525098.136    20461347.004    83785845.2164   20461346.781  
                
  19565971.766   104481210.990                    81263205.136    19565974.684  
  19565969.816  
  22742592.727   119513133.919    22742598.891    93127151.3054                 
                
  19921642.820   106417886.369                    82769470.285    19921646.125  
  19921642.223  
  20674592.266   108645759.277    20674598.562    84659086.5234   20674598.484  
                
  25123881.125   132026882.821    25123887.031   102878099.8824                 
                
  19809301.617   106040761.664                    82476155.123    19809305.691  
  19809300.340  
  23476486.172   125142876.181                    97333346.601    23476492.605  
  23476485.965  
  19641525.328   104810957.377                    81519637.540    19641528.617  
  19641523.531  
 21  8 16 18  1  0.0000000  0 12G 4G16G30G 9R13G20R12G 7G 2R 3R14R 2
  22356726.047   117485424.573    22356734.703    91547131.9834   22356734.484  
                
  23219333.938   122018468.526    23219339.961    95079372.3144                 
                
  22423260.906   117835067.889    22423270.449    91819588.8784   22423270.625  
                
  20462694.008   107532220.757    20462702.445    83791395.3114   20462702.199  
                
  19562692.008   104463697.249                    81249583.344    19562694.914  
  19562690.051  
  22738165.164   119489866.970    22738171.328    93109021.2114                 
                
  19925989.164   106441103.726                    82787528.232    19925992.465  
  19925988.582  
  20673362.891   108639298.862    20673369.199    84654052.4404   20673369.117  
                
  25126676.805   132041574.128    25126682.758   102889547.6384                 
                
  19805314.938   106019420.633                    82459556.542    19805319.008  
  19805313.672  
  23468683.438   125101283.542                    97300996.804    23468689.902  
  23468683.184  
  19644873.047   104828821.428                    81533531.790    19644876.348  
  19644871.258  
 21  8 16 18  1 10.0000000  0 12G 4G16G30G 9R13G20R12G 7G 2R 3R14R 2
  22361413.164   117510055.505    22361421.812    91566324.9204   22361421.590  
                
  23224437.344   122045287.186    23224443.375    95100269.9724                 
                
  22418514.016   117810122.820    22418523.570    91800151.1684   22418523.746  
                
  20464057.445   107539385.655    20464065.926    83796978.3494   20464065.672  
                
  19559425.969   104446256.833                    81236018.584    19559428.871  
  19559424.031  
  22733747.242   119466650.642    22733753.395    93090930.5814                 
                
  19930346.648   106464380.622                    82805632.487    19930349.965  
  19930346.059  
  20672140.406   108632874.700    20672146.734    84649046.6074   20672146.641  
                
  25129479.344   132056301.659    25129485.328   102901023.6314                 
                
  19801338.133   105998132.507                    82442999.103    19801342.215  
  19801336.891  
  23460884.445   125059710.756                    97268662.435    23460890.906  
  23460884.109  
  19648232.938   104846750.462                    81547476.581    19648236.254  
  19648231.121  
 21  8 16 18  1 20.0000000  0 12G 4G16G30G 9R13G20R12G 7G 2R 3R14R 2
  22366105.328   117534712.935    22366113.953    91585538.4874   22366113.738  
                
  23229550.570   122072157.461    23229556.594    95121207.8354                 
                
  22413772.367   117785205.369    22413781.934    91780734.9844   22413782.098  
                
  20465428.906   107546592.729    20465437.422    83802594.2464   20465437.152  
                
  19556173.695   104428889.929                    81222511.008    19556176.590  
  19556171.770  
  22729338.938   119443484.884    22729345.082    93072879.3364                 
                
  19934715.273   106487717.042                    82823783.038    19934718.598  
  19934714.680  
  20670924.789   108626486.637    20670931.145    84644068.8984   20670931.055  
                
  25132288.734   132071065.183    25132294.770   102912527.6784                 
                
  19797371.180   105976897.119                    82426482.699    19797375.277  
  19797369.945  
  23453089.148   125018157.689                    97236343.428    23453095.621  
  23453088.781  
  19651604.883   104864743.812                    81561471.398    19651608.219  
  19651603.047  
 21  8 16 18  1 30.0000000  0 13G 4G16G30G 9R13R 4G20R12G 7G 2R 3R14
                                R 2
  22370802.523   117559396.787    22370811.133    91604772.6464   22370810.938  
                
  23234673.578   122099079.168    23234679.625    95142185.7804                 
                
  22409035.992   117760315.507    22409045.543    91761340.2944   22409045.711  
                
  20466808.383   107553841.908    20466816.934    83808242.9554   20466816.660  
                
  19552935.164   104411596.354                    81209060.443    19552938.039  
  19552933.246  
  23598367.789   126368187.686                    98286355.682    23598372.230  
  23598365.871  
  22724940.273   119420369.685    22724946.410    93054867.5034                 
                
  19939094.977   106511112.632                    82841979.611    19939098.309  
  19939094.375  
  20669716.047   108620134.626    20669722.438    84639119.2884   20669722.332  
                
  25135104.984   132085864.658    25135111.090   102924059.7334                 
                
  19793414.156   105955714.838                    82410007.591    19793418.254  
  19793412.945  
  23445297.695   124976624.583                    97204039.897    23445304.055  
  23445297.270  
  19654988.945   104882801.786                    81575516.488    19654992.289  
  19654987.086  
 21  8 16 18  1 40.0000000  0 13G 4G16G30G 9R13R 4G20R12G 7G 2R 3R14
                                R 2
  22375504.758   117584107.131    22375513.359    91624027.4544   22375513.160  
                
  23239806.375   122126052.254    23239812.438    95163203.7704                 
                
  22404304.859   117735453.316    22404314.402    91741967.1684   22404314.574  
                
  20468195.883   107561133.300    20468204.469    83813924.5534   20468204.188  
                
  19549710.406   104394376.321                    81195667.100    19549713.262  
  19549708.492  
  23590864.156   126328007.743                    98255104.660    23590868.984  
  23590862.598  
  22720551.266   119397305.312    22720557.398    93036895.2794                 
                
  19943485.742   106534567.346                    82860222.163    19943489.094  
  19943485.129  
  20668514.180   108613818.785    20668520.586    84634197.8504   20668520.465  
                
  25137928.023   132100700.023    25137934.254   102935619.7514                 
                
  19789467.078   105934585.809                    82393573.909    19789471.191  
  19789465.871  
  23437509.930   124935111.405                    97171751.933    23437516.277  
  23437509.469  
  19658385.117   104900924.408                    81589611.846    19658388.465  
  19658383.242  
 21  8 16 18  1 50.0000000  0 13G 4G16G30G 9R13R 4G20R12G 7G 2R 3R14
                                R 2
  22380212.031   117608843.891    22380220.586    91643302.8404   22380220.418  
                
  23244948.945   122153076.609    23244955.016    95184261.7094                 
                
  22399579.008   117710618.804    22399588.539    91722615.6044   22399588.723  
                
  20469591.414   107568466.845    20469600.035    83819638.9974   20469599.734  
                
  19546499.430   104377229.862                    81182330.975    19546502.281  
  19546497.500  
  23583361.008   126287828.150                    98223853.847    23583365.805  
  23583359.898  
  22716171.922   119374291.702    22716178.039    93018962.5994                 
                
  19947887.578   106558081.164                    82878510.690    19947890.957  
  19947886.965  
  20667319.188   108607539.053    20667325.609    84629304.5604   20667325.488  
                
  25140757.898   132115571.122    25140764.188   102947207.6104                 
                
  19785529.938   105913509.958                    82377181.574    19785534.062  
  19785528.746  
  23429725.828   124893618.396                    97139479.619    23429732.281  
  23429725.449  
  19661793.383   104919111.543                    81603757.387    19661796.734  
  19661791.508  
 21  8 16 18  2  0.0000000  0 13G 4G16G30G 9R13R 4G20R12G 7G 2R 3R14
                                R 2
  22384924.289   117633606.923    22384932.809    91662598.7044   22384932.664  
                
  23250101.211   122180152.008    23250107.289    95205359.4334                 
                
  22394858.383   117685811.827    22394867.891    91703285.4964   22394868.078  
                
  20470994.930   107575842.454    20471003.582    83825386.2174   20471003.277  
                
  19543302.141   104360156.609                    81169051.779    19543304.988  
  19543300.219  
  23575858.070   126247648.759                    98192603.216    23575862.645  
  23575857.070  
  22711802.227   119351328.825    22711808.340    93001069.4564                 
                
  19952300.406   106581653.676                    82896844.859    19952303.789  
  19952299.793  
  20666131.031   108601295.295    20666137.465    84624439.2924   20666137.332  
                
  25143594.531   132130477.696    25143600.797   102958823.1094                 
                
  19781602.734   105892487.319                    82360830.639    19781606.867  
  19781601.559  
  23421945.523   124852145.241                    97107222.775    23421952.004  
  23421945.152  
  19665213.664   104937362.834                    81617952.824    19665217.012  
  19665211.785  
 21  8 16 18  2 10.0000000  0 13G 4G16G30G 9R13R 4G20R12G 7G 2R 3R14
                                R 2
  22389641.578   117658396.379    22389650.102    91681915.1534   22389649.961  
                
  23255263.219   122207278.524    23255269.285    95226496.9694                 
                
  22390143.055   117661032.613    22390152.547    91683977.0314   22390152.746  
                
  20472406.500   107583260.304    20472415.188    83831166.3584   20472414.863  
                
  19540118.641   104343156.928                    81155829.815    19540121.469  
  19540116.707  
  23568355.188   126207469.926                    98161353.028    23568359.527  
  23568354.199  
  22707442.250   119328417.002    22707448.367    92983216.0874                 
                
  19956724.250   106605285.064                    82915224.835    19956727.641  
  19956723.648  
  20664949.750   108595087.610    20664956.199    84619602.1374   20664956.051  
                
  25146437.977   132145419.936    25146444.191   102970466.4064                 
                
  19777685.523   105871518.182                    82344521.308    19777689.664  
  19777684.363  
  23414169.109   124810692.501                    97074981.798    23414175.520  
  23414168.723  
  19668646.078   104955678.789                    81632198.564    19668649.422  
  19668644.199  
 21  8 16 18  2 20.0000000  0 13G 4G16G30G 9R13R 4G20R12G 7G 2R 3R14
                                R 2
  22394363.867   117683212.184    22394372.418    91701252.1214   22394372.273  
                
  23260434.914   122234455.944    23260440.977    95247674.1694                 
                
  22385433.000   117636281.105    22385442.496    91664690.1414   22385442.695  
                
  20473826.086   107590720.309    20473834.812    83836979.3454   20473834.480  
                
  19536948.883   104326230.706                    81142664.979    19536951.703  
  19536946.957  
  23560852.148   126167291.518                    98130103.180    23560856.516  
  23560851.152  
  22703091.977   119305556.219    22703098.121    92965402.5004                 
                
  19961159.055   106628974.983                    82933650.326    19961162.473  
  19961158.484  
  20663775.312   108588915.909    20663781.781    84614793.0254   20663781.629  
                
  25149288.180   132160397.684    25149294.355   102982137.3374                 
                
  19773778.320   105850602.609                    82328253.646    19773782.469  
  19773777.148  
  23406396.570   124769260.097                    97042756.608    23406402.844  
  23406396.129  
  19672090.500   104974058.832                    81646494.151    19672093.840  
  19672088.633  
 21  8 16 18  2 30.0000000  0 13G 4G16G30G 9R13R 4G20R12G 7G 2R 3R14
                                R 2
  22399091.156   117708054.209    22399099.719    91720609.5324   22399099.566  
                
  23265616.281   122261684.131    23265622.324    95268890.9454                 
                
  22380728.195   117611557.218    22380737.707    91645424.7854   22380737.898  
                
  20475253.680   107598222.413    20475262.438    83842825.1394   20475262.094  
                
  19533792.938   104309378.194                    81129557.479    19533795.762  
  19533791.004  
  23553349.203   126127113.735                    98098853.790    23553353.531  
  23553348.273  
  22698751.422   119282746.463    22698757.586    92947628.6774                 
                
  19965604.781   106652723.238                    82952121.182    19965608.199  
  19965604.230  
  20662607.719   108582780.167    20662614.203    84610011.9334   20662614.043  
                
  25152145.086   132175410.750    25152151.191   102993835.8244                 
                
  19769881.125   105829740.649                    82312027.684    19769885.273  
  19769879.945  
  23398627.711   124727847.976                    97010547.208    23398634.000  
  23398627.301  
  19675546.953   104992503.085                    81660839.673    19675550.285  
  19675545.102  
 21  8 16 18  2 40.0000000  0 13G 4G16G30G 9R13R 4G20R12G 7G 2R 3R14
                                R 2
  22403823.461   117732922.595    22403832.055    91739987.4854   22403831.887  
                
  23270807.289   122288963.033    23270813.301    95290147.2294                 
                
  22376028.680   117586861.115    22376038.191    91626181.0824   22376038.383  
                
  20476689.312   107605766.760    20476698.094    83848703.8434   20476697.750  
                
  19530650.797   104292599.388                    81116507.295    19530653.617  
  19530648.844  
  23545846.484   126086936.814                    98067605.075    23545850.719  
  23545845.586  
  22694420.617   119259987.922    22694426.797    92929894.7474                 
                
  19970061.438   106676529.853                    82970637.447    19970064.867  
  19970060.902  
  20661446.977   108576680.428    20661453.480    84605258.8984   20661453.312  
                
  25155008.773   132190459.233    25155014.785   103005561.8954                 
                
  19765993.984   105808932.478                    82295843.541    19765998.137  
  19765992.801  
  23390862.727   124686456.416                    96978353.808    23390869.004  
  23390862.328  
  19679015.570   105011012.218                    81675235.666    19679018.891  
  19679013.738  
 21  8 16 18  2 50.0000000  0 13G 4G16G30G 9R13R 4G20R12G 7G 2R 3R14
                                R 2
  22408560.758   117757817.195    22408569.383    91759385.8684   22408569.180  
                
  23276007.898   122316292.471    23276013.863    95311442.9064                 
                
  22371334.438   117562192.730    22371343.922    91606958.9654   22371344.125  
                
  20478132.961   107613353.233    20478141.762    83854615.3864   20478141.418  
                
  19527522.414   104275894.054                    81103514.263    19527525.215  
  19527520.441  
  23538343.961   126046760.630                    98036356.932    23538348.062  
  23538343.117  
  22690099.547   119237280.560    22690105.723    92912200.7104                 
                
  19974528.969   106700394.597                    82989198.911    19974532.383  
  19974528.438  
  20660293.070   108570616.617    20660299.594    84600533.8534   20660299.410  
                
  25157879.180   132205542.967    25157885.105   103017315.4554                 
                
  19762116.883   105788178.075                    82279701.240    19762121.047  
  19762115.703  
  23383101.648   124645085.380                    96946176.359    23383107.883  
  23383101.246  
  19682496.156   105029585.254                    81689681.365    19682499.457  
  19682494.359  
 21  8 16 18  3  0.0000000  0 13G 4G16G30G 9R13R 4G20R12G 7G 2R 3R14
                                R 2
  22413303.039   117782738.083    22413311.672    91778804.7404   22413311.457  
                
  23281218.125   122343672.402    23281224.027    95332777.9144                 
                
  22366645.477   117537552.147    22366654.910    91587758.5224   22366655.145  
                
  20479584.648   107620981.969    20479593.461    83860559.8454   20479593.117  
                
  19524407.859   104259262.559                    81090578.664    19524410.625  
  19524405.883  
  23530841.555   126006585.242                    98005109.414    23530845.547  
  23530840.750  
  22685788.250   119214624.566    22685794.402    92894546.6964                 
                
  19979007.383   106724317.473                    83007805.591    19979010.789  
  19979006.855  
  20659146.016   108564588.829    20659152.562    84595836.8804   20659152.367  
                
  25160756.273   132220661.894    25160762.125   103029096.4394                 
                
  19758249.891   105767477.781                    82263601.008    19758254.062  
  19758248.715  
  23375344.492   124603735.141                    96914015.104    23375350.648  
  23375344.047  
  19685988.758   105048222.394                    81704176.905    19685992.035  
  19685986.984  
 21  8 16 18  3 10.0000000  0 13G 4G16G30G 9R13R 4G20R12G 7G 2R 3R14
                                R 2
  22418050.328   117807685.271    22418058.965    91798244.0904   22418058.742  
                
  23286437.984   122371102.775    23286443.820    95354152.2364                 
                
  22361961.828   117512939.416    22361971.234    91568579.7714   22361971.504  
                
  20481044.375   107628652.936    20481053.199    83866537.2214   20481052.844  
                
  19521307.078   104242704.531                    81077700.199    19521309.828  
  19521305.086  
  23523339.297   125966410.960                    97973862.799    23523343.328  
  23523338.500  
  22681486.758   119192020.078    22681492.898    92876932.7984                 
                
  19983496.664   106748298.375                    83026457.401    19983500.070  
  19983496.148  
  20658005.812   108558596.997    20658012.387    84591167.9254   20658012.172  
                
  25163640.039   132235815.972    25163645.859   103040904.8044                 
                
  19754393.008   105746831.578                    82247542.849    19754397.188  
  19754391.824  
  23367591.367   124562405.816                    96881870.089    23367597.340  
  23367590.773  
  19689493.484   105066924.182                    81718722.734    19689496.762  
  19689491.734  
 21  8 16 18  3 20.0000000  0 13G 4G16G30G 9R13R 4G20R12G 7G 2R 3R14
                                R 2
  22422802.625   117832658.783    22422811.242    91817703.9384   22422811.023  
                
  23291667.414   122398583.521    23291673.242    95375565.8174                 
                
  22357283.477   117488354.605    22357292.883    91549422.7884   22357293.137  
                
  20482512.156   107636366.233    20482521.000    83872547.5794   20482520.641  
                
  19518220.133   104226220.496                    81064879.300    19518222.879  
  19518218.125  
  23515837.227   125926237.869                    97942617.085    23515841.285  
  23515836.461  
  22677195.078   119169467.204    22677201.234    92859359.1424                 
                
  19987996.797   106772337.255                    83045154.308    19988000.195  
  19987996.258  
  20656872.453   108552641.173    20656879.051    84586527.0364   20656878.828  
                
  25166530.430   132251005.195    25166536.285   103052740.5364                 
                
  19750546.273   105726239.735                    82231526.982    19750550.461  
  19750545.074  
  23359841.969   124521097.399                    96849741.324    23359847.953  
  23359841.414  
  19693010.273   105085690.376                    81733318.650    19693013.535  
  19693008.539  
 21  8 16 18  3 30.0000000  0 13G 4G16G30G 9R13R 4G20R12G 7G 2R 3R14
                                R 2
  22427559.906   117857658.497    22427568.504    91837184.2294   22427568.301  
                
  23296906.391   122426114.480    23296912.191    95397018.4954                 
                
  22352610.445   117463797.695    22352619.844    91530287.5424   22352620.094  
                
  20483987.977   107644121.791    20483996.840    83878590.8694   20483996.469  
                
  19515146.945   104209809.904                    81052115.507    19515149.707  
  19515144.934  
  23508335.422   125886066.036                    97911372.342    23508339.484  
  23508334.668  
  22672913.242   119146966.004    22672919.398    92841825.7534                 
                
  19992507.727   106796433.823                    83063896.085    19992511.129  
  19992507.195  
  20655745.930   108546721.284    20655752.547    84581914.1374   20655752.309  
                
  25169427.422   132266229.347    25169433.348   103064603.4794                 
                
  19746709.695   105705702.258                    82215553.390    19746713.883  
  19746708.488  
  23352096.445   124479809.935                    96817628.888    23352102.539  
  23352095.992  
  19696539.070   105104520.672                    81747964.431    19696542.320  
  19696537.355  
 21  8 16 18  3 40.0000000  0 12G 4G16G30G 9R13R 4G20R12G 7R 3R14R 2
  22432322.312   117882685.101    22432330.910    91856685.4804   22432330.707  
                
  23302155.031   122453696.246    23302160.828    95418510.7724                 
                
  22347942.844   117439269.336    22347952.242    91511174.5414   22347952.500  
                
  20485471.977   107651920.297    20485480.859    83884667.6214   20485480.488  
                
  19512087.719   104193473.814                    81039409.664    19512090.496  
  19512085.715  
  23500834.008   125845896.145                    97880129.092    23500838.043  
  23500833.270  
  22668641.391   119124517.216    22668647.539    92824333.2004                 
                
  19997029.555   106820588.582                    83082683.124    19997032.965  
  19997029.039  
  20654626.367   108540837.910    20654632.992    84577329.6944   20654632.730  
                
  19742883.461   105685220.126                    82199622.843    19742887.656  
  19742882.234  
  23344355.180   124438544.225                    96785533.379    23344361.211  
  23344354.695  
  19700080.031   105123415.823                    81762660.662    19700083.289  
  19700078.344  
 21  8 16 18  3 50.0000000  0 12G 4G16G30G 9R13R 4G20R12G 7R 3R14R 2
  22437089.695   117907737.849    22437098.320    91876207.0754   22437098.094  
                
  23307413.180   122481327.988    23307418.969    95440041.9964                 
                
  22343280.547   117414768.847    22343289.969    91492083.2564   22343290.219  
                
  20486964.008   107659761.023    20486972.910    83890777.2754   20486972.523  
                
  19509042.312   104177211.531                    81026761.227    19509045.090  
  19509040.336  
  23493332.859   125805727.614                    97848886.893    23493336.824  
  23493332.156  
  22664379.375   119102120.193    22664385.539    92806880.9854                 
                
  20001562.125   106844800.748                    83101514.808    20001565.539  
  20001561.609  
  20653513.617   108534990.396    20653520.250    84572773.1884   20653519.977  
                
  19739067.406   105664792.490                    82183734.681    19739071.617  
  19739066.188  
  23336617.781   124397299.779                    96753454.414    23336623.848  
  23336617.355  
  19703633.008   105142375.104                    81777406.755    19703636.250  
  19703631.316  
 21  8 16 18  4  0.0000000  0 12G 4G16G30G 9R13R 4G20R12G 7R 3R14R 2
  22441861.977   117932816.319    22441870.633    91895748.7364   22441870.383  
                
  23312680.734   122509009.181    23312686.531    95461611.7794                 
                
  22338623.477   117390295.850    22338632.941    91473013.4034   22338633.195  
                
  20488463.992   107667643.581    20488472.910    83896919.5264   20488472.523  
                
  19506010.703   104161022.926                    81014170.099    19506013.477  
  19506008.730  
  23485831.914   125765560.029                    97817645.437    23485835.758  
  23485831.254  
  22660127.148   119079774.616    22660133.320    92789468.8444                 
                
  20006105.359   106869069.868                    83120390.799    20006108.762  
  20006104.844  
  20652407.617   108529178.326    20652414.258    84568244.3054   20652413.992  
                
  19735261.477   105644419.070                    82167888.689    19735265.684  
  19735260.266  
  23328884.375   124356076.072                    96721391.557    23328890.324  
  23328883.918  
  19707197.969   105161398.366                    81792202.628    19707201.211  
  19707196.289  
 21  8 16 18  4 10.0000000  0 12G 4G16G30G 9R13R 4G20R12G 7R 3R14R 2
  22446639.172   117957920.640    22446647.863    91915310.5394   22446647.574  
                
  23317957.719   122536739.916    23317963.527    95483220.1364                 
                
  22333971.664   117365850.526    22333981.184    91453965.1094   22333981.406  
                
  20489971.977   107675568.143    20489980.906    83903094.5044   20489980.508  
                
  19502992.828   104144907.723                    81001636.062    19502995.617  
  19502990.871  
  23478331.102   125725393.664                    97786404.957    23478334.941  
  23478330.496  
  22655884.766   119057480.696    22655890.891    92772096.9674                 
                
  20010659.250   106893395.928                    83139311.067    20010662.648  
  20010658.742  
  20651308.375   108523401.790    20651315.020    84563743.1054   20651314.742  
                
  19731465.742   105624100.199                    82152085.127    19731469.957  
  19731464.539  
  23321154.977   124314873.574                    96689345.190    23321160.789  
  23321154.453  
  19710774.812   105180485.030                    81807047.801    19710778.062  
  19710773.113  
 21  8 16 18  4 20.0000000  0 12G 4G16G30G 9R13R 4G20R12G 7R 3R14R 2
  22451421.383   117983051.210    22451430.086    91934892.7914   22451429.762  
                
  23323244.164   122564520.406    23323249.969    95504867.2604                 
                
  22329325.211   117341433.299    22329334.793    91434938.7174   22329335.016  
                
  20491488.039   107683535.125    20491496.969    83909302.5334   20491496.566  
                
  19499988.828   104128866.523                    80989159.573    19499991.637  
  19499986.902  
  23470830.609   125685229.138                    97755165.926    23470834.492  
  23470829.973  
  22651652.312   119035238.928    22651658.387    92754765.7204                 
                
  20015223.836   106917779.095                    83158275.758    20015227.230  
  20015223.344  
  20650215.984   108517661.212    20650222.625    84559269.9344   20650222.359  
                
  19727680.305   105603836.416                    82136324.412    19727684.543  
  19727679.117  
  23313429.539   124273692.525                    96657315.508    23313435.285  
  23313428.996  
  19714363.734   105199636.165                    81821943.121    19714366.988  
  19714362.012  
 21  8 16 18  4 30.0000000  0 12G 4G16G30G 9R13R 4G20R12G 7R 3R14R 2
  22456208.539   118008207.863    22456217.211    91954495.3674   22456216.898  
                
  23328540.047   122592350.414    23328545.824    95526553.0074                 
                
  22324684.078   117317044.041    22324693.719    91415934.1204   22324693.934  
                
  20493012.141   107691544.371    20493021.074    83915543.5024   20493020.672  
                
  19496998.672   104112899.225                    80976740.574    19497001.496  
  19496996.762  
  23463330.500   125645066.408                    97723928.241    23463334.402  
  23463329.824  
  22647429.750   119013049.230    22647435.781    92737475.0484                 
                
  20019799.086   106942219.229                    83177284.744    20019802.461  
  20019798.609  
  20649130.406   108511956.489    20649137.027    84554824.6924   20649136.770  
                
  19723905.156   105583627.763                    82120606.582    19723909.414  
  19723903.965  
  23305708.125   124232533.042                    96625302.597    23305713.852  
  23305707.559  
  19717964.672   105218851.453                    81836888.328    19717967.930  
  19717962.930  
 21  8 16 18  4 40.0000000  0 12G 4G16G30G 9R13R 4G20R12G 7R 3R14R 2
  22461000.664   118033390.550    22461009.293    91974118.2334   22461009.000  
                
  23333845.344   122620229.901    23333851.094    95548277.2704                 
                
  22320048.281   117292682.769    22320057.953    91396951.3204   22320058.156  
                
  20494544.289   107699595.888    20494553.215    83921817.4094   20494552.824  
                
  19494022.352   104097005.871                    80964379.082    19494025.184  
  19494020.457  
  23455830.758   125604905.401                    97692691.894    23455834.617  
  23455830.035  
  22643217.117   118990911.706    22643223.098    92720225.0384                 
                
  20024384.945   106966716.053                    83196337.833    20024388.309  
  20024384.469  
  20648051.648   108506287.577    20648058.250    84550407.3584   20648058.004  
                
  19720140.289   105563474.155                    82104931.543    19720144.555  
  19720139.105  
  23297990.703   124191395.219                    96593306.536    23297996.492  
  23297990.160  
  19721577.570   105238130.541                    81851883.174    19721580.848  
  19721575.828  
 21  8 16 18  4 50.0000000  0 12G 4G16G30G 9R13R 4G20R12G 7R 3R14R 2
  22465797.727   118058599.231    22465806.293    91993761.3464   22465806.043  
                
  23339160.000   122648158.637    23339165.746    95570039.9224                 
                
  22315417.797   117268349.471    22315427.484    91377990.3134   22315427.672  
                
  20496084.477   107707689.659    20496093.395    83928124.2354   20496093.008  
                
  19491059.883   104081186.461                    80952075.102    19491062.730  
  19491057.992  
  23448331.375   125564746.258                    97661456.980    23448335.156  
  23448330.676  
  22639014.430   118968826.431    22639020.383    92703015.7324                 
                
  20028981.398   106991269.519                    83215434.977    20028984.770  
  20028980.910  
  20646979.680   108500654.332    20646986.262    84546017.8204   20646986.031  
                
  19716385.734   105543375.747                    82089299.463    19716389.996  
  19716384.555  
  23290277.258   124150278.960                    96561327.267    23290283.184  
  23290276.828  
  19725202.484   105257473.766                    81866927.876    19725205.770  
  19725200.707  
 21  8 16 18  5  0.0000000  0 12G 4G16G30G 9R13R 4G20R12G 7R 3R14R 2
  22470599.758   118083833.980    22470608.262    92013424.7874   22470608.039  
                
  23344484.055   122676136.728    23344489.809    95591841.0294                 
                
  22310792.672   117244044.249    22310802.375    91359051.1904   22310802.574  
                
  20497632.727   107715825.788    20497641.629    83934464.0684   20497641.234  
                
  19488111.250   104065440.970                    80939828.624    19488114.113  
  19488109.371  
  23440832.344   125524589.105                    97630223.635    23440835.984  
  23440831.574  
  22634821.719   118946793.569    22634827.648    92685847.2814                 
                
  20033588.445   107015879.571                    83234576.112    20033591.824  
  20033587.910  
  20645914.539   108495056.995    20645921.094    84541656.2634   20645920.871  
                
  19712641.531   105523332.754                    82073710.466    19712645.789  
  19712640.352  
  23282568.094   124109184.649                    96529365.056    23282573.988  
  23282567.629  
  19728839.422   105276881.183                    81882022.526    19728842.719  
  19728837.637  
 21  8 16 18  5 10.0000000  0 12G 4G16G30G 9R13R 4G20R12G 7R 3R14R 2
  22475406.859   118109095.326    22475415.281    92033108.9594   22475415.094  
                
  23349817.562   122704164.504    23349823.320    95613680.8544                 
                
  22306172.992   117219767.697    22306182.699    91340134.4034   22306182.895  
                
  20499189.148   107724004.821    20499198.027    83940837.3404   20499197.633  
                
  19485176.578   104049769.927                    80927640.044    19485179.441  
  19485174.695  
  23433333.695   125484434.699                    97598992.455    23433337.395  
  23433332.891  
  22630639.102   118924813.750    22630645.008    92668720.1584                 
                
  20038206.164   107040546.621                    83253761.594    20038209.555  
  20038205.586  
  20644856.320   108489496.018    20644862.855    84537323.0424   20644862.645  
                
  19708907.805   105503345.794                    82058165.059    19708912.047  
  19708906.609  
  23274863.062   124068112.799                    96497420.316    23274868.992  
  23274862.637  
  19732488.484   105296353.226                    81897167.442    19732491.809  
  19732486.684  
 21  8 16 18  5 20.0000000  0 12G 4G16G30G 9R13R 4G20R12G 7R 3R14R 2
  22480218.711   118134381.661    22480227.098    92052812.5964   22480226.930  
                
  23355160.211   122732240.330    23355165.996    95635558.1194                 
                
  22301558.461   117195518.230    22301568.137    91321238.7174   22301568.340  
                
  20500753.438   107732225.196    20500762.281    83947242.8184   20500761.910  
                
  19482255.609   104034172.116                    80915508.429    19482258.469  
  19482253.719  
  23425835.227   125444281.432                    97567762.132    23425838.996  
  23425834.449  
  22626466.297   118902885.534    22626472.199    92651633.2434                 
                
  20042834.242   107065268.972                    83272990.093    20042837.641  
  20042833.645  
  20643804.711   108483969.754    20643811.219    84533016.8604   20643811.023  
                
  19705184.297   105483413.597                    82042662.243    19705188.531  
  19705183.098  
  23267162.039   124027061.946                    96465491.919    23267167.934  
  23267161.605  
  19736149.281   105315887.939                    81912361.093    19736152.629  
  19736147.477  
 21  8 16 18  5 30.0000000  0 12G 4G16G30G 9R13R 4G20R12G 7R 3R14R 2
  22485035.570   118159694.301    22485043.980    92072536.7304   22485043.801  
                
  23360512.242   122760365.406    23360518.035    95657473.7674                 
                
  22296949.344   117171297.199    22296958.969    91302365.2004   22296959.191  
                
  20502325.844   107740488.235    20502334.652    83953681.5454   20502334.289  
                
  19479348.586   104018648.721                    80903434.683    19479351.438  
  19479346.691  
  23418337.359   125404130.836                    97536533.908    23418341.195  
  23418336.613  
  22622303.562   118881010.243    22622309.484    92634587.5594                 
                
  20047472.891   107090047.841                    83292262.540    20047476.293  
  20047472.289  
  20642759.953   108478479.497    20642766.438    84528738.7364   20642766.254  
                
  19701471.250   105463537.364                    82027202.945    19701475.457  
  19701470.051  
  23259465.172   123986033.595                    96433580.989    23259471.078  
  23259464.750  
  19739822.133   105335486.944                    81927604.751    19739825.508  
  19739820.320  
 21  8 16 18  5 40.0000000  0 12G 4G16G30G 9R13R 4G20R12G 7R 3R14R 2
  22489857.391   118185033.096    22489865.832    92092281.2354   22489865.621  
                
  23365873.586   122788539.456    23365879.398    95679427.5734                 
                
  22292345.617   117147104.492    22292355.211    91283513.7484   22292355.445  
                
  20503906.344   107748793.825    20503915.109    83960153.4374   20503914.762  
                
  19476455.461   104003199.633                    80891418.732    19476458.305  
  19476453.551  
  23410839.992   125363982.804                    97505307.655    23410843.859  
  23410839.348  
  22618150.883   118859187.810    22618156.805    92617583.0794                 
                
  20052122.055   107114882.861                    83311578.672    20052125.477  
  20052121.457  
  20641722.000   108473025.073    20641728.465    84524488.5394   20641728.285  
                
  19697768.672   105443717.204                    82011787.279    19697772.867  
  19697767.461  
  23251772.422   123945027.623                    96401687.492    23251778.402  
  23251772.109  
  19743507.023   105355150.195                    81942898.388    19743510.422  
  19743505.203  
 21  8 16 18  5 50.0000000  0 12G 4G16G30G 9R13R 4G20R12G 7R 3R14R 2
  22494684.156   118210397.914    22494692.648    92112046.0034   22494692.422  
                
  23371244.172   122816762.042    23371250.012    95701419.1864                 
                
  22287747.266   117122940.011    22287756.844    91264684.2824   22287757.082  
                
  20505494.930   107757141.854    20505503.645    83966658.3934   20505503.316  
                
  19473576.242   103987824.809                    80879460.547    19473579.105  
  19473574.332  
  23403343.133   125323837.275                    97474083.365    23403347.043  
  23403342.547  
  22614008.273   118837418.268    22614014.156    92600619.7934                 
                
  20056781.711   107139773.896                    83330938.359    20056785.145  
  20056781.105  
  20640690.867   108467606.414    20640697.320    84520266.2054   20640697.137  
                
  19694076.555   105423953.035                    81996415.147    19694080.738  
  19694075.352  
  23244083.789   123904043.961                    96369811.337    23244089.910  
  23244083.652  
  19747203.914   105374877.433                    81958241.776    19747207.320  
  19747202.090  
 21  8 16 18  6  0.0000000  0 12G 4G16G30G 9R13R 4G20R12G 7R 3R14R 2
  22499515.852   118235788.635    22499524.395    92131830.9814   22499524.164  
                
  23376624.031   122845033.434    23376629.883    95723448.8174                 
                
  22283154.273   117098803.715    22283163.828    91245876.7834   22283164.055  
                
  20507091.570   107765532.229    20507100.234    83973196.3464   20507099.930  
                
  19470710.922   103972524.164                    80867560.057    19470713.789  
  19470709.000  
  23395846.781   125283694.332                    97442861.056    23395850.625  
  23395846.180  
  22609875.703   118815701.519    22609881.555    92583697.6554                 
                
  20061451.773   107164720.544                    83350341.306    20061455.223  
  20061451.152  
  20639666.516   108462223.408    20639672.957    84516071.6624   20639672.781  
                
  19690394.922   105404244.970                    81981086.651    19690399.090  
  19690393.715  
  23236399.414   123863082.657                    96337952.566    23236405.660  
  23236399.371  
  19750912.727   105394668.348                    81973634.699    19750916.137  
  19750910.895  
 21  8 16 18  6 10.0000000  0 12G 4G16G30G 9R13R 4G20R12G 7R 3R14R 2
  22504352.477   118261205.296    22504361.070    92151636.1534   22504360.801  
                
  23382013.156   122873353.432    23382019.012    95745516.3584                 
                
  22278566.656   117074695.655    22278576.191    91227091.2954   22278576.434  
                
  20508696.289   107773965.042    20508704.898    83979767.3724   20508704.613  
                
  19467859.484   103957297.707                    80855717.265    19467862.344  
  19467857.559  
  23388350.875   125243554.111                    97411640.901    23388354.723  
  23388350.230  
  22605753.211   118794037.757    22605759.059    92566816.7994                 
                
  20066132.273   107189722.979                    83369787.637    20066135.746  
  20066131.652  
  20638648.953   108456876.111    20638655.371    84511904.9384   20638655.199  
                
  19686723.781   105384593.119                    81965801.881    19686727.945  
  19686722.562  
  23228719.391   123822143.888                    96306111.317    23228725.648  
  23228719.332  
  19754633.492   105414523.063                    81989077.253    19754636.926  
  19754631.672  
 21  8 16 18  6 20.0000000  0 12G 4G16G30G 9R13R 4G20R12G 7R 3R14R 2
  22509194.023   118286647.780    22509202.645    92171461.4624   22509202.375  
                
  23387411.500   122901721.812    23387417.363    95767621.5914                 
                
  22273984.406   117050615.768    22273993.938    91208327.7484   22273994.176  
                
  20510309.070   107782440.191    20510317.629    83986371.3884   20510317.355  
                
  19465021.945   103942145.386                    80843932.129    19465024.828  
  19465020.008  
  23380855.469   125203416.639                    97380422.853    23380859.289  
  23380854.801  
  22601640.805   118772426.966    22601646.664    92549977.2344                 
                
  20070823.172   107214780.916                    83389277.147    20070826.641  
  20070822.570  
  20637638.188   108451564.465    20637644.574    84507765.9984   20637644.418  
                
  19683063.172   105364997.573                    81950560.904    19683067.332  
  19683061.961  
  23221043.570   123781227.576                    96274287.536    23221049.848  
  23221043.512  
  19758366.219   105434441.539                    82004569.396    19758369.656  
  19758364.398  
 21  8 16 18  6 30.0000000  0 12G 4G16G30G 9R13R 4G20R12G 7R 3R14R 2
  22514040.492   118312116.140    22514049.141    92191306.9264   22514048.855  
                
  23392819.000   122930138.438    23392824.906    95789764.4104                 
                
  22269407.523   117026564.136    22269417.062    91189586.2184   22269417.293  
                
  20511929.914   107790957.732    20511938.418    83993008.4274   20511938.156  
                
  19462198.273   103927067.213                    80832204.673    19462201.152  
  19462196.328  
  23373360.609   125163282.017                    97349207.028    23373364.414  
  23373359.934  
  22597538.492   118750869.251    22597544.355    92533179.0314                 
                
  20075524.430   107239894.180                    83408809.681    20075527.898  
  20075523.840  
  20636634.203   108446288.493    20636640.559    84503654.8494   20636640.418  
                
  19679413.078   105345458.396                    81935363.765    19679417.219  
  19679411.859  
  23213371.953   123740333.945                    96242481.420    23213378.297  
  23213371.930  
  19762110.867   105454423.618                    82020111.003    19762114.301  
  19762109.066  
 21  8 16 18  6 40.0000000  0 12G 4G16G30G 9R13R 4G20R12G 7R 3R14R 2
  22518891.875   118337610.326    22518900.520    92211172.5294   22518900.242  
                
  23398235.680   122958603.303    23398241.629    95811944.8174                 
                
  22264836.016   117002540.746    22264845.582    91170866.7074   22264845.785  
                
  20513558.828   107799517.677    20513567.266    83999678.5164   20513567.023  
                
  19459388.516   103912063.327                    80820534.986    19459391.402  
  19459386.547  
  23365866.273   125123150.224                    97317993.405    23365870.031  
  23365865.613  
  22593446.312   118729364.743    22593452.184    92516422.2714                 
                
  20080236.047   107265062.786                    83428385.265    20080239.500  
  20080235.461  
  20635637.000   108441048.161    20635643.324    84499571.4724   20635643.199  
                
  19675773.547   105325975.704                    81920210.554    19675777.672  
  19675772.336  
  23205704.594   123699463.061                    96210692.976    23205710.977  
  23205704.578  
  19765867.484   105474469.624                    82035702.336    19765870.902  
  19765865.691  
 21  8 16 18  6 50.0000000  0 12G 4G16G30G 9R13R 4G20R12G 7R 3R14R 2
  22523748.211   118363130.489    22523756.836    92231058.3634   22523756.590  
                
  23403661.539   122987116.352    23403667.535    95834162.7714                 
                
  22260269.930   116978545.814    22260279.539    91152169.3754   22260279.715  
                
  20515195.852   107808120.188    20515204.219    84006381.7684   20515204.016  
                
  19456592.648   103897133.638                    80808923.003    19456595.527  
  19456590.664  
  23358372.578   125083021.772                    97286782.414    23358376.332  
  23358371.914  
  22589364.289   118707913.661    22589370.176    92499707.1504                 
                
  20084958.008   107290286.619                    83448003.792    20084961.449  
  20084957.414  
  20634646.602   108435843.597    20634652.898    84495515.9704   20634652.793  
                
  19672144.664   105306549.996                    81905101.686    19672148.785  
  19672143.461  
  23198041.492   123658615.338                    96178922.534    23198047.961  
  23198041.508  
  19769636.102   105494579.589                    82051343.423    19769639.523  
  19769634.320  
 21  8 16 18  7  0.0000000  0 12G 4G16G30G 9R13R 4G20R12G 7R 3R14R 2
  22528609.422   118388676.363    22528618.078    92250964.2254   22528617.816  
                
  23409096.523   123015677.353    23409102.566    95856418.0764                 
                
  22255709.203   116954579.100    22255718.855    91133494.0244   22255719.000  
                
  20516840.914   107816765.033    20516849.207    84013118.0074   20516849.027  
                
  19453810.719   103882278.353                    80797368.906    19453813.609  
  19453808.711  
  23350879.406   125042896.376                    97255573.800    23350883.219  
  23350878.730  
  22585292.414   118686515.879    22585298.312    92483033.5574                 
                
  20089690.219   107315565.277                    83467664.975    20089693.656  
  20089689.617  
  20633662.961   108430674.535    20633669.238    84491488.1324   20633669.148  
                
  19668526.328   105287180.801                    81890036.754    19668530.426  
  19668525.129  
  23190382.688   123617790.272                    96147169.767    23190389.266  
  23190382.699  
  19773416.633   105514753.186                    82067033.998    19773420.051  
  19773414.855  
 21  8 16 18  7 10.0000000  0 12G 4G16G30G 9R13R 4G20R12G 7R 3R14R 2
  22533475.594   118414248.253    22533484.293    92270890.3684   22533484.000  
                
  23414540.688   123044286.453    23414546.750    95878710.8734                 
                
  22251153.914   116930640.943    22251163.594    91114840.9234   22251163.723  
                
  20518494.109   107825452.521    20518502.332    84019887.4864   20518502.180  
                
  19451042.789   103867497.806                    80785872.931    19451045.699  
  19451040.797  
  23343386.852   125002774.383                    97224367.828    23343390.734  
  23343386.168  
  22581230.742   118665171.767    22581236.652    92466401.8034                 
                
  20094432.766   107340899.076                    83487369.039    20094436.188  
  20094432.156  
  20632686.133   108425541.243    20632692.395    84487488.1634   20632692.312  
                
  19664918.688   105267868.802                    81875016.319    19664922.781  
  19664917.488  
  23182728.414   123576988.600                    96115435.167    23182734.965  
  23182728.344  
  19777209.117   105534990.532                    82082774.126    19777212.508  
  19777207.332  
 21  8 16 18  7 20.0000000  0 12G 4G16G30G 9R13R 4G20R12G 7R 3R14R 2
  22538346.648   118439845.815    22538355.340    92290836.5134   22538355.035  
                
  23419993.891   123072943.144    23419999.910    95901040.7654                 
                
  22246604.008   116906731.033    22246613.680    91096209.8334   22246613.824  
                
  20520155.359   107834182.359    20520163.516    84026689.9604   20520163.391  
                
  19448288.719   103852791.317                    80774434.548    19448291.629  
  19448286.719  
  23335894.992   124962655.692                    97193164.377    23335898.816  
  23335894.301  
  22577179.250   118643881.124    22577185.172    92449811.6994                 
                
  20099185.539   107366287.512                    83507115.610    20099188.953  
  20099184.957  
  20631716.047   108420443.417    20631722.297    84483515.8354   20631722.227  
                
  19661321.656   105248613.618                    81860040.062    19661325.742  
  19661320.469  
  23175078.477   123536209.977                    96083718.482    23175084.992  
  23175078.344  
  19781013.445   105555291.096                    82098563.468    19781016.840  
  19781011.652  
 21  8 16 18  7 30.0000000  0 12G 4G16G30G 9R13R 4G20R12G 7R 3R14R 2
  22543222.594   118465469.106    22543231.234    92310802.7094   22543230.961  
                
  23425456.148   123101647.441    23425462.176    95923407.7634                 
                
  22242059.484   116882849.483    22242069.148    91077600.8424   22242069.312  
                
  20521824.664   107842954.617    20521832.762    84033525.4954   20521832.664  
                
  19445548.586   103838159.256                    80763054.061    19445551.500  
  19445546.578  
  23328403.750   124922540.310                    97161963.478    23328407.465  
  23328403.066  
  22573137.945   118622644.048    22573143.867    92433263.3204                 
                
  20103948.523   107391730.555                    83526904.624    20103951.938  
  20103947.941  
  20630752.719   108415381.126    20630758.961    84479571.1924   20630758.895  
                
  19657735.289   105229415.534                    81845108.236    19657739.355  
  19657734.109  
  23167432.805   123495454.434                    96052019.801    23167439.328  
  23167432.641  
  19784829.695   105575655.419                    82114402.373    19784833.070  
  19784827.891  
 21  8 16 18  7 40.0000000  0 12G 4G16G30G 9R13R 4G20R12G 7R 3R14R 2
  22548103.477   118491118.197    22548112.098    92330789.0134   22548111.844  
                
  23430927.508   123130399.399    23430933.539    95945811.8784                 
                
  22237520.391   116858996.420    22237530.059    91059014.0484   22237530.234  
                
  20523502.086   107851769.440    20523510.117    84040394.1864   20523510.039  
                
  19442822.414   103823601.640                    80751731.462    19442825.328  
  19442820.395  
  23320913.219   124882428.731                    97130765.578    23320916.867  
  23320912.574  
  22569106.891   118601460.718    22569112.809    92416756.8504                 
                
  20108721.734   107417228.192                    83546736.102    20108725.145  
  20108721.152  
  20629796.219   108410354.687    20629802.457    84475654.4894   20629802.398  
                
  19654159.617   105210274.704                    81830220.919    19654163.688  
  19654158.422  
  23159791.555   123454722.296                    96020339.299    23159798.066  
  23159791.320  
  19788657.961   105596083.746                    82130291.052    19788661.312  
  19788656.148  
 21  8 16 18  7 50.0000000  0 13G 4G16G30G 9R13R 4G20R12G 7G27R 3R14
                                R 2
  22552989.148   118516792.487    22552997.785    92350794.9534   22552997.516  
                
  23436407.812   123159198.397    23436413.848    95968252.6534                 
                
  22232986.609   116835171.279    22232996.262    91040449.0094   22232996.453  
                
  20525187.492   107860626.213    20525195.453    84047295.5684   20525195.410  
                
  19440110.055   103809117.857                    80740466.313    19440112.969  
  19440108.055  
  23313423.297   124842320.223                    97099570.078    23313426.859  
  23313422.637  
  22565085.969   118580330.666    22565091.934    92400291.8804                 
                
  20113505.008   107442779.614                    83566609.431    20113508.430  
  20113504.422  
  20628846.375   108405363.206    20628852.617    84471765.0274   20628852.559  
                
  24482193.664   128654781.781    24482203.469   100250527.9704   24482203.465  
                
  19650594.570   105191190.731                    81815377.839    19650598.641  
  19650593.363  
  23152154.633   123414013.078                    95988676.582    23152161.070  
  23152154.328  
  19792498.008   105616574.898                    82146228.620    19792501.367  
  19792496.168  
 21  8 16 18  8  0.0000000  0 13G 4G16G30G 9R13R 4G20R12G 7G27R 3R14
                                R 2
  22557879.750   118542492.663    22557888.379    92370821.0614   22557888.113  
                
  23441897.164   123188044.894    23441903.168    95990730.4544                 
                
  22228458.281   116811374.780    22228467.906    91021906.2914   22228468.109  
                
  20526881.016   107869525.650    20526888.906    84054230.1964   20526888.891  
                
  19437411.641   103794708.500                    80729259.037    19437414.547  
  19437409.637  
  23305934.039   124802215.552                    97068377.563    23305937.605  
  23305933.371  
  22561075.312   118559254.606    22561081.340    92383868.9844                 
                
  20118298.500   107468385.543                    83586525.163    20118301.918  
  20118297.910  
  20627903.297   108400407.308    20627909.547    84467903.2874   20627909.480  
                
  24478688.750   128636364.079    24478698.652   100236176.5424   24478698.715  
                
  19647040.305   105172164.447                    81800579.623    19647044.371  
  19647039.113  
  23144522.164   123373327.595                    95957032.326    23144528.527  
  23144521.863  
  19796350.008   105637129.908                    82162215.845    19796353.371  
  19796348.141  
 21  8 16 18  8 10.0000000  0 13G 4G16G30G 9R13R 4G20R12G 7G27R 3R14
                                R 2
  22562775.266   118568218.743    22562783.855    92390867.3574   22562783.609  
                
  23447395.508   123216938.813    23447401.508    96013245.1994                 
                
  22223935.406   116787606.958    22223945.008    91003385.9194   22223945.219  
                
  20528582.656   107878467.777    20528590.473    84061198.0854   20528590.496  
                
  19434727.234   103780373.988                    80718109.978    19434730.152  
  19434725.258  
  23298445.508   124762114.965                    97037188.258    23298449.172  
  23298444.832  
  22557074.945   118538232.652    22557081.051    92367488.2664                 
                
  20123102.125   107494045.682                    83606483.053    20123105.527  
  20123101.512  
  20626967.016   108395487.140    20626973.277    84464069.3944   20626973.211  
                
  24475192.742   128617992.602    24475202.684   100221861.1314   24475202.723  
                
  19643496.812   105153195.890                    81785826.297    19643500.875  
  19643495.633  
  23136894.234   123332665.884                    95925406.573    23136900.441  
  23136893.859  
  19800213.922   105657748.478                    82178252.499    19800217.281  
  19800212.047  
 21  8 16 18  8 20.0000000  0 13G 4G16G30G 9R13R 4G20R12G 7G27R 3R14
                                R 2
  22567675.680   118593970.447    22567684.266    92410933.6144   22567684.008  
                
  23452902.820   123245879.817    23452908.836    96035796.6334                 
                
  22219417.930   116763867.581    22219427.523    90984887.7144   22219427.742  
                
  20530292.375   107887452.373    20530300.117    84068199.0664   20530300.176  
                
  19432056.766   103766113.876                    80707018.781    19432059.699  
  19432054.789  
  23290957.703   124722018.261                    97006001.946    23290961.414  
  23290956.973  
  22553084.859   118517264.705    22553091.016    92351149.6264                 
                
  20127915.859   107519759.779                    83626482.898    20127919.250  
  20127915.230  
  20626037.477   108390602.374    20626043.754    84460263.0774   20626043.672  
                
  24471705.555   128599667.230    24471715.504   100207581.6454   24471715.539  
                
  19639964.094   105134284.977                    81771117.813    19639968.148  
  19639962.914  
  23129270.719   123292027.845                    95893799.228    23129276.816  
  23129270.258  
  19804089.742   105678430.619                    82194338.602    19804093.098  
  19804087.855  
