     2.11           OBSERVATION DATA    M (MIXED)           RINEX VERSION / TYPE
EFT-CORS.RU                             20210817 144837 UTC PGM / RUN BY / DATE 
MDNG                                                        MARKER NAME         
                                                            MARKER NUMBER       
MDNG                EFT-CORS.RU                             OBSERVER / AGENCY   
0                   TRIMBLE BD970       2.0                 REC # / TYPE / VERS 
0                   UNKNOWN EXT NONE                        ANT # / TYPE        
  3463911.2830  3030468.2400  4402179.3760                  APPROX POSITION XYZ 
        0.0000        0.0000        0.0000                  ANTENNA: DELTA H/E/N
     1     1                                                WAVELENGTH FACT L1/2
     6    C1    L1    P2    L2    C2    P1                  # / TYPES OF OBSERV 
    10.000                                                  INTERVAL            
  2021     8    16     9    30    0.0000000     GPS         TIME OF FIRST OBS   
  2021     8    16    10    30    0.0000000     GPS         TIME OF LAST OBS    
     0                                                      RCV CLOCK OFFS APPL 
                                                            END OF HEADER       
 21  8 16  9 30  0.0000000  0 14R 6R21R22G32R 5G16G18G27R20G 8G21G10
                                G23R 7
  19197977.586   102444119.269                                                  
  19197975.266  
  19426403.648   103954623.630                    80853588.883    19426407.133  
  19426401.438  
  20581077.070   109863203.741                    85449182.839    20581079.473  
  20581075.336  
  22483342.594   118150781.381    22483352.469    92065596.1494   22483352.855  
                
  22847315.859   122132017.931                    94991562.204    22847320.957  
  22847315.648  
  24478477.758   128635250.655    24478486.062   100235281.0574                 
                
  23065901.656   121212142.649    23065909.691    94451032.3684   23065909.816  
                
  20623732.531   108378441.712    20623741.062    84450789.9044   20623741.191  
                
  22988984.375   122932410.738                    95614111.018    22988993.141  
  22988983.922  
  21860823.008   114879396.302    21860832.371    89516469.3184   21860832.953  
                
  24526469.133   128887469.499    24526476.496   100431825.0694                 
                
  20441748.250   107422151.285    20441757.492    83705631.0544   20441756.891  
                
  21569803.797   113350116.158    21569811.340    88324800.6964   21569811.148  
                
  20747132.531   111061058.597                    86380819.375    20747137.758  
  20747131.047  
 21  8 16  9 30 10.0000000  0 14R 6R21R22G32R 5G16G18G27R20G 8G21G10
                                G23R 7
  19198954.109   102449330.177                                                  
  19198951.785  
  19427325.289   103959555.589                    80857424.841    19427328.766  
  19427323.059  
  20575899.750   109835566.883                    85427687.504    20575902.145  
  20575898.000  
  22477568.758   118120439.716    22477578.688    92041953.3124   22477579.043  
                
  22854895.227   122172533.932                    95023074.614    22854900.312  
  22854894.984  
  24484578.273   128667308.541    24484586.496   100260261.2034                 
                
  23071093.375   121239425.336    23071101.402    94472291.5894   23071101.547  
                
  20624014.031   108379920.977    20624022.535    84451942.5804   20624022.676  
                
  22995498.008   122967241.086                    95641201.282    22995506.562  
  22995497.430  
  21857111.016   114859889.659    21857120.359    89501269.3364   21857120.949  
                
  24521528.422   128861507.105    24521536.043   100411594.6084                 
                
  20442469.523   107425941.600    20442478.758    83708584.5434   20442478.156  
                
  21574332.688   113373915.643    21574340.234    88343345.7424   21574340.039  
                
  20740988.594   111028169.711                    86355239.130    20740993.809  
  20740987.109  
 21  8 16  9 30 20.0000000  0 14R 6R21R22G32R 5G16G18G27R20G 8G21G10
                                G23R 7
  19199946.109   102454623.690                                                  
  19199943.770  
  19428258.867   103964551.458                    80861310.512    19428262.340  
  19428256.594  
  20570728.758   109807963.789                    85406218.435    20570731.156  
  20570726.992  
  22471801.133   118090130.670    22471811.129    92018335.8954   22471811.453  
                
  22862478.719   122213071.985                    95054604.197    22862483.824  
  22862478.500  
  24490680.688   128699376.654    24490688.852   100285249.3074                 
                
  23076288.672   121266726.780    23076296.711    94493565.4204   23076296.848  
                
  20624308.141   108381466.525    20624316.625    84453146.8974   20624316.773  
                
  23002016.883   123002099.657                    95668313.474    23002025.277  
  23002016.129  
  21853408.828   114840434.559    21853418.164    89486109.5174   21853418.770  
                
  24516588.258   128835547.807    24516596.195   100391366.6804                 
                
  20443199.219   107429776.167    20443208.438    83711572.5204   20443207.852  
                
  21578866.883   113397743.045    21578874.445    88361912.5424   21578874.250  
                
  20734855.086   110995336.690                    86329702.359    20734860.352  
  20734853.578  
 21  8 16  9 30 30.0000000  0 14R 6R21R22G32R 5G16G18G27R20G 8G21G10
                                G23R 7
  19200953.430   102459998.939                                                  
  19200951.086  
  19429204.219   103969610.298                    80865245.163    19429207.695  
  19429201.934  
  20565563.945   109780393.644                    85384774.992    20565566.359  
  20565562.176  
  22466039.578   118059853.586    22466049.621    91994743.3774   22466049.930  
                
  22870066.172   122253631.103                    95086150.163    22870071.238  
  22870065.984  
  24496784.820   128731453.908    24496792.934   100310244.5634                 
                
  23081487.398   121294046.166    23081495.469    94514853.2354   23081495.590  
                
  20624614.719   108383077.539    20624623.191    84454402.2394   20624623.348  
                
  23008541.055   123036985.948                    95695447.240    23008549.168  
  23008540.105  
  21849716.305   114821030.252    21849725.621    89470989.2764   21849726.250  
                
  24511648.805   128809590.993    24511656.848   100371140.6004                 
                
  20443937.180   107433654.175    20443946.379    83714594.3454   20443945.805  
                
  21583406.234   113421597.523    21583413.805    88380500.4334   21583413.605  
                
  20728731.922   110962559.030                    86304208.631    20728737.238  
  20728730.406  
 21  8 16  9 30 40.0000000  0 14R 6R21R22G32R 5G16G18G27R20G 8G21G10
                                G23R 7
  19201976.109   102465456.180                                                  
  19201973.773  
  19430161.461   103974732.799                    80869229.325    19430164.938  
  19430159.160  
  20560405.375   109752856.819                    85363357.471    20560407.789  
  20560403.605  
  22460284.219   118029609.046    22460294.289    91971176.2144   22460294.582  
                
  22877657.648   122294211.873                    95117712.986    22877662.719  
  22877657.492  
  24502890.727   128763540.752    24502898.844   100335247.2694                 
                
  23086689.609   121321383.978    23086697.699    94536155.4094   23086697.801  
                
  20624933.852   108384754.564    20624942.324    84455709.0034   20624942.480  
                
  23015070.289   123071900.030                    95722602.624    23015078.281  
  23015069.309  
  21846033.586   114801677.414    21846042.895    89455909.1504   21846043.543  
                
  24506709.883   128783636.994    24506718.039   100350916.7094                 
                
  20444683.500   107437576.069    20444692.680    83717650.3604   20444692.121  
                
  21587950.820   113445479.486    21587958.375    88399109.7504   21587958.199  
                
  20722619.164   110929837.020                    86278758.187    20722624.539  
  20722617.633  
 21  8 16  9 30 50.0000000  0 14R 6R21R22G32R 5G16G18G27R20G 8G21G10
                                G23R 7
  19203014.297   102470996.153                                                  
  19203011.949  
  19431130.711   103979919.536                    80873263.444    19431134.188  
  19431128.398  
  20555253.227   109725354.330                    85341966.657    20555255.703  
  20555251.449  
  22454535.180   117999397.623    22454545.254    91947634.8624   22454545.547  
                
  22885253.203   122334814.468                    95149292.753    22885258.320  
  22885253.066  
  24508998.508   128795637.545    24509006.668   100360257.7264                 
                
  23091895.438   121348740.660    23091903.516    94557472.2884   23091903.621  
                
  20625265.633   108386498.052    20625274.109    84457067.5684   20625274.270  
                
  23021604.789   123106842.433                    95749780.000    23021612.711  
  23021603.793  
  21842360.727   114782376.443    21842370.047    89440869.4344   21842370.680  
                
  24501771.688   128757686.428    24501779.816   100330695.5254                 
                
  20445438.250   107441542.273    20445447.414    83720740.9094   20445446.867  
                
  21592500.719   113469389.363    21592508.254    88417740.8264   21592508.090  
                
  20716516.930   110897171.419                    86253351.633    20716522.359  
  20716515.398  
 21  8 16  9 31  0.0000000  0 14R 6R21R22G32R 5G16G18G27R20G 8G21G10
                                G23R 7
  19204067.820   102476617.947                                                  
  19204065.473  
  19432111.859   103985169.989                    80877347.127    19432115.328  
  19432109.539  
  20550107.438   109697885.798                    85320602.230    20550109.922  
  20550105.664  
  22448792.375   117969218.984    22448802.410    91924119.0434   22448802.707  
                
  22892852.742   122375438.406                    95180889.125    22892857.898  
  22892852.582  
  24515108.133   128827743.764    24515116.277   100385275.5474                 
                
  23097104.758   121376115.801    23097112.863    94578803.5494   23097112.973  
                
  20625609.977   108388307.618    20625618.457    84458477.6164   20625618.625  
                
  23028144.344   123141812.986                    95776979.288    23028152.395  
  23028143.496  
  21838697.695   114763127.131    21838707.027    89425869.9704   21838707.660  
                
  24496834.062   128731738.884    24496842.141   100310476.6864                 
                
  20446201.336   107445552.356    20446210.484    83723865.6464   20446209.941  
                
  21597055.836   113493326.666    21597063.344    88436393.2654   21597063.191  
                
  20710425.172   110864561.856                    86227988.644    20710430.645  
  20710423.652  
 21  8 16  9 31 10.0000000  0 14R 6R21R22G32R 5G16G18G27R20G 8G21G10
                                G23R 7
  19205136.711   102482321.792                                                  
  19205134.359  
  19433104.922   103990484.122                    80881480.332    19433108.387  
  19433102.598  
  20544967.977   109670451.050                    85299264.108    20544970.480  
  20544966.176  
  22443055.820   117939073.169    22443065.781    91900628.7974   22443066.086  
                
  22900456.234   122416083.372                    95212501.858    22900461.379  
  22900456.074  
  24521219.641   128859859.180    24521227.672   100410300.5184                 
                
  23102317.578   121403509.240    23102325.734    94600149.0834   23102325.824  
                
  20625966.891   108390183.142    20625975.391    84459939.0594   20625975.551  
                
  23034689.203   123176811.145                    95804200.083    23034697.289  
  23034688.305  
  21835044.500   114743929.449    21835053.816    89410910.7354   21835054.480  
                
  24491896.945   128705794.228    24491904.934   100290260.0644                 
                
  20446972.758   107449606.163    20446981.891    83727024.4534   20446981.352  
                
  21601616.148   113517291.229    21601623.633    88455066.9444   21601623.500  
                
  20704343.898   110832008.282                    86202669.197    20704349.387  
  20704342.387  
 21  8 16  9 31 20.0000000  0 14R 6R21R22G32R 5G16G18G27R20G 8G21G10
                                G23R 7
  19206220.922   102488107.324                                                  
  19206218.551  
  19434109.867   103995861.848                    80885663.013    19434113.340  
  19434107.539  
  20539834.875   109643050.341                    85277952.438    20539837.414  
  20539833.070  
  22437325.484   117908960.145    22437335.410    91877164.1194   22437335.723  
                
  22908063.648   122456749.246                    95244130.856    22908068.785  
  22908063.480  
  24527332.875   128891983.567    24527340.766   100435332.4884                 
                
  23107533.852   121430920.942    23107542.070    94621508.8204   23107542.148  
                
  20626336.336   108392124.577    20626344.855    84461451.8594   20626345.016  
                
  23041239.172   123211836.888                    95831442.282    23041247.336  
  23041238.328  
  21831401.078   114724783.200    21831410.359    89395991.5774   21831411.031  
                
  24486960.461   128679852.431    24486968.383   100270045.6964                 
                
  20447752.477   107453703.587    20447761.598    83730217.2484   20447761.062  
                
  21606181.609   113541282.883    21606189.094    88473761.7324   21606188.949  
                
  20698273.086   110799510.774                    86177393.375    20698278.562  
  20698271.566  
 21  8 16  9 31 30.0000000  0 14R 6R21R22G32R 5G16G18G27R20G 8G21G10
                                G23R 7
  19207320.477   102493974.826                                                  
  19207318.090  
  19435126.781   104001303.658                    80889895.521    19435130.250  
  19435124.449  
  20534708.227   109615683.947                    85256667.493    20534710.762  
  20534706.398  
  22431601.492   117878880.408    22431611.434    91853725.3774   22431611.746  
                
  22915675.000   122497436.149                    95275776.205    22915680.129  
  22915674.852  
  24533447.680   128924117.226    24533455.562   100460371.6644                 
                
  23112753.664   121458351.221    23112761.914    94642883.0324   23112762.012  
                
  20626718.391   108394132.266    20626726.934    84463016.2894   20626727.082  
                
  23047794.250   123246890.590                    95858706.221    23047802.617  
  23047793.582  
  21827767.578   114705689.061    21827776.828    89381113.0314   21827777.527  
                
  24482024.477   128653913.833    24482032.465   100249833.8584                 
                
  20448540.547   107457844.931    20448549.648    83733444.2704   20448549.129  
                
  21610752.289   113565301.931    21610759.770    88492477.8684   21610759.625  
                
  20692212.852   110767069.835                    86152161.549    20692218.324  
  20692211.344  
 21  8 16  9 31 40.0000000  0 14R 6R21R22G32R 5G16G18G27R20G 8G21G10
                                G23R 7
  19208435.398   102499924.255                                                  
  19208432.992  
  19436155.656   104006809.476                    80894177.826    19436159.117  
  19436153.320  
  20529588.016   109588352.011                    85235409.314    20529590.578  
  20529586.211  
  22425883.844   117848834.022    22425893.812    91830312.6224   22425894.117  
                
  22923290.250   122538143.955                    95307437.819    22923295.434  
  22923290.125  
  24539564.227   128956260.007    24539572.113   100485417.9644                 
                
  23117977.016   121485800.023    23117985.270    94664271.6884   23117985.383  
                
  20627113.055   108396206.216    20627121.621    84464632.3464   20627121.762  
                
  23054354.719   123281972.182                    95885991.835    23054363.137  
  23054354.059  
  21824143.977   114686646.967    21824153.219    89366275.0424   21824153.938  
                
  24477089.273   128627978.574    24477097.031   100229624.5134                 
                
  20449336.969   107462030.138    20449346.055    83736705.4754   20449345.543  
                
  21615328.156   113589348.284    21615335.637    88511215.2744   21615335.500  
                
  20686163.141   110734685.297                    86126973.588    20686168.605  
  20686161.664  
 21  8 16  9 31 50.0000000  0 14R 6R21R22G32R 5G16G18G27R20G 8G21G10
                                G23R 7
  19209565.609   102505955.313                                                  
  19209563.180  
  19437196.508   104012379.303                    80898509.903    19437199.965  
  19437194.164  
  20524474.242   109561054.371                    85214177.821    20524476.820  
  20524472.438  
  22420172.516   117818820.857    22420182.496    91806925.7544   22420182.805  
                
  22930909.375   122578872.373                    95339115.461    22930914.527  
  22930909.250  
  24545682.555   128988411.573    24545690.367   100510471.1014                 
                
  23123203.844   121513267.112    23123212.094    94685674.5994   23123212.219  
                
  20627520.289   108398346.187    20627528.879    84466299.8534   20627528.996  
                
  23060920.406   123317081.260                    95913298.853    23060928.793  
  23060919.656  
  21820530.273   114667656.854    21820539.523    89351477.5474   21820540.250  
                
  24472154.578   128602046.314    24472162.223   100209417.5804                 
                
  20450141.703   107466258.960    20450150.758    83740000.6604   20450150.270  
                
  21619909.172   113613421.653    21619916.660    88529973.7384   21619916.531  
                
  20680123.992   110702357.219                    86101829.535    20680129.418  
  20680122.531  
 21  8 16  9 32  0.0000000  0 14R 6R21R22G32R 5G16G18G27R20G 8G21G10
                                G23R 7
  19210711.125   102512067.994                                                  
  19210708.664  
  19438249.242   104018012.791                    80902891.496    19438252.695  
  19438246.906  
  20519366.891   109533791.046                    85192973.013    20519369.410  
  20519365.086  
  22414467.492   117788840.854    22414477.484    91783564.7294   22414477.785  
                
  22938532.266   122619621.074                    95370808.876    22938537.438  
  22938532.133  
  24551802.539   129020571.649    24551810.219   100535530.8714                 
                
  23128434.102   121540752.336    23128442.367    94707091.6444   23128442.496  
                
  20627940.047   108400552.033    20627948.648    84468018.6924   20627948.773  
                
  23067491.148   123352217.785                    95940627.233    23067499.574  
  23067490.410  
  21816926.453   114648718.646    21816935.715    89336720.5074   21816936.430  
                
  24467220.461   128576116.979    24467227.832   100189212.8174                 
                
  20450954.680   107470531.184    20450963.699    83743329.6654   20450963.242  
                
  21624495.281   113637521.817    21624502.770    88548753.0734   21624502.645  
                
  20674095.391   110670085.642                    86076729.429    20674100.781  
  20674093.945  
 21  8 16  9 32 10.0000000  0 14R 6R21R22G32R 5G16G18G27R20G 8G21G10
                                G23R 7
  19211871.961   102518262.460                                                  
  19211869.500  
  19439314.000   104023710.551                    80907323.078    19439317.445  
  19439311.691  
  20514266.078   109506562.546                    85171795.296    20514268.621  
  20514264.258  
  22408768.906   117758894.649    22408778.883    91760230.0434   22408779.188  
                
  22946159.039   122660390.456                    95402518.372    22946164.262  
  22946158.871  
  24557924.086   129052740.642    24557931.793   100560597.6024                 
                
  23133667.891   121568256.195    23133676.195    94728523.1834   23133676.340  
                
  20628372.453   108402824.282    20628381.066    84469789.2784   20628381.180  
                
  23074066.945   123387382.207                    95967977.292    23074075.516  
  23074066.348  
  21813332.594   114629832.798    21813341.863    89322004.2674   21813342.566  
                
  24462286.953   128550191.069    24462294.270   100169010.8584                 
                
  20451776.023   107474847.306    20451785.000    83746692.8814   20451784.555  
                
  21629086.578   113661649.211    21629094.066    88567553.6354   21629093.945  
                
  20668077.438   110637871.028                    86051673.612    20668082.770  
  20668075.996  
 21  8 16  9 32 20.0000000  0 14R 6R21R22G32R 5G16G18G27R20G 8G21G10
                                G23R 7
  19213048.023   102524538.257                                                  
  19213045.582  
  19440390.711   104029472.296                    80911804.433    19440394.152  
  19440388.453  
  20509171.758   109479368.735                    85150644.551    20509174.297  
  20509169.926  
  22403076.695   117728981.927    22403086.566    91736921.4314   22403086.910  
                
  22953789.602   122701180.087                    95434243.627    22953794.836  
  22953789.445  
  24564047.227   129084918.101    24564054.938   100585670.9224                 
                
  23138905.164   121595778.257    23138913.488    94749968.9134   23138913.625  
                
  20628817.414   108405162.531    20628826.023    84471611.2824   20628826.137  
                
  23080648.133   123422574.010                    95995348.679    23080656.559  
  23080647.426  
  21809748.625   114610998.954    21809757.914    89307328.5484   21809758.605  
                
  24457354.102   128524268.193    24457361.309   100148811.1884                 
                
  20452605.625   107479206.871    20452614.551    83750089.9454   20452614.129  
                
  21633682.961   113685803.368    21633690.441    88586375.0574   21633690.324  
                
  20662070.062   110605713.106                    86026661.895    20662075.355  
  20662068.613  
 21  8 16  9 32 30.0000000  0 14R 6R21R22G32R 5G16G18G27R20G 8G21G10
                                G23R 7
  19214239.406   102530895.767                                                  
  19214236.938  
  19441479.414   104035298.205                    80916335.689    19441482.844  
  19441477.203  
  20504083.984   109452209.940                    85129521.052    20504086.527  
  20504082.145  
  22397390.930   117699103.036    22397400.676    91713639.1814   22397401.066  
                
  22961423.898   122741989.776                    95465984.493    22961429.141  
  22961423.742  
  24570171.992   129117104.082    24570179.676   100610750.8754                 
                
  23144145.938   121623318.721    23144154.305    94771429.0234   23144154.406  
                
  20629274.984   108407567.050    20629283.582    84473484.9324   20629283.707  
                
  23087234.398   123457793.391                    96022741.519    23087242.754  
  23087233.668  
  21806174.656   114592217.634    21806183.961    89292693.7604   21806184.633  
                
  24452421.703   128498348.570    24452428.984   100128614.1384                 
                
  20453443.531   107483610.095    20453452.410    83753521.0304   20453452.004  
                
  21638284.469   113709984.498    21638291.969    88605217.4874   21638291.852  
                
  20656073.383   110573612.464                    86001694.744    20656078.664  
  20656071.934  
 21  8 16  9 32 40.0000000  0 14R 6R21R22G32R 5G16G18G27R20G 8G21G10
                                G23R 7
  19215446.055   102537334.785                                                  
  19215443.547  
  19442580.133   104041188.404                    80920916.948    19442583.539  
  19442577.945  
  20499002.797   109425086.238                    85108424.848    20499005.363  
  20499000.938  
  22391711.633   117669258.121    22391721.320    91690383.4094   22391721.730  
                
  22969061.977   122782819.645                    95497741.034    22969067.242  
  22969061.840  
  24576298.477   129149298.521    24576306.043   100635837.4254                 
                
  23149390.203   121650877.649    23149398.590    94792903.4904   23149398.695  
                
  20629745.172   108410037.859    20629753.758    84475410.2384   20629753.902  
                
  23093825.688   123493040.357                    96050155.814    23093834.141  
  23093825.055  
  21802610.695   114573488.891    21802620.004    89278099.9344   21802620.672  
                
  24447490.000   128472432.336    24447497.359   100108419.7074                 
                
  20454289.750   107488056.970    20454298.594    83756986.1284   20454298.203  
                
  21642891.102   113734192.544    21642898.633    88624080.8824   21642898.504  
                
  20650087.359   110541568.886                    85976771.975    20650092.625  
  20650085.910  
 21  8 16  9 32 50.0000000  0 14R 6R21R22G32R 5G16G18G27R20G 8G21G10
                                G23R 7
  19216667.930   102543854.983                                                  
  19216665.410  
  19443692.867   104047142.887                    80925548.213    19443696.262  
  19443690.703  
  20493928.211   109397997.810                    85087356.068    20493930.715  
  20493926.352  
  22386038.812   117639447.243    22386048.520    91667154.1774   22386048.910  
                
  22976703.828   122823669.621                    95529513.218    22976709.086  
  22976703.723  
  24582426.539   129181501.236    24582433.996   100660930.4244                 
                
  23154638.023   121678455.027    23154646.414    94814392.3234   23154646.512  
                
  20630227.984   108412574.976    20630236.562    84477387.2114   20630236.707  
                
  23100422.172   123528314.707                    96077591.400    23100430.676  
  23100421.609  
  21799056.742   114554812.752    21799066.039    89263547.0974   21799066.715  
                
  24442558.906   128446519.453    24442566.320   100088227.8684                 
                
  20455144.266   107492547.467    20455153.082    83760485.2104   20455152.715  
                
  21647502.859   113758427.431    21647510.426    88642965.2104   21647510.285  
                
  20644112.047   110509582.602                    85951893.769    20644117.312  
  20644110.578  
 21  8 16  9 33  0.0000000  0 14R 6R21R22G32R 5G16G18G27R20G 8G21G10
                                G23R 7
  19217905.062   102550456.665                                                  
  19217902.520  
  19444817.594   104053161.539                    80930229.379    19444820.980  
  19444815.461  
  20488860.234   109370944.593                    85066314.682    20488862.723  
  20488858.363  
  22380372.430   117609670.246    22380382.176    91643951.3384   22380382.547  
                
  22984349.305   122864539.146                    95561300.599    22984354.605  
  22984349.234  
  24588556.078   129213711.866    24588563.480   100686029.6274                 
                
  23159889.289   121706050.491    23159897.688    94835895.2674   23159897.781  
                
  20630723.344   108415178.090    20630731.918    84479415.6074   20630732.074  
                
  23107023.859   123563616.169                    96105048.062    23107032.297  
  23107023.238  
  21795512.734   114536188.894    21795522.027    89249035.0114   21795522.711  
                
  24437628.430   128420609.645    24437635.922   100068038.4774                 
                
  20456007.016   107497081.220    20456015.820    83764018.0074   20456015.445  
                
  21652119.641   113782688.814    21652127.223    88661870.1644   21652127.078  
                
  20638147.391   110477653.372                    85927059.930    20638152.641  
  20638145.910  
 21  8 16  9 33 10.0000000  0 14R 6R21R22G32R 5G16G18G27R20G 8G21G10
                                G23R 7
  19219157.383   102557139.351                                                  
  19219154.820  
  19445954.312   104059244.351                    80934960.448    19445957.680  
  19445952.230  
  20483798.844   109343926.570                    85045300.670    20483801.312  
  20483796.953  
  22374712.547   117579927.350    22374722.305    91620775.0724   22374722.668  
                
  22991998.453   122905428.259                    95593103.226    22992003.785  
  22991998.430  
  24594687.047   129245930.506    24594694.535   100711134.9994                 
                
  23165144.039   121733664.194    23165152.406    94857412.4324   23165152.500  
                
  20631231.297   108417847.371    20631239.875    84481495.5644   20631240.035  
                
  23113630.859   123598944.877                    96132525.909    23113638.961  
  23113629.902  
  21791978.750   114517617.698    21791988.059    89234563.9494   21791988.730  
                
  24432698.570   128394703.123    24432706.066   100047851.5374                 
                
  20456878.023   107501658.363    20456886.824    83767584.6154   20456886.453  
                
  21656741.477   113806976.751    21656749.062    88680795.8304   21656748.914  
                
  20632193.453   110445781.520                    85902270.729    20632198.695  
  20632191.977  
 21  8 16  9 33 20.0000000  0 14R 6R21R22G32R 5G16G18G27R20G 8G21G10
                                G23R 7
  19220424.945   102563903.397                                                  
  19220422.348  
  19447103.039   104065391.394                    80939741.475    19447106.391  
  19447101.008  
  20478744.086   109316943.983                    85024314.217    20478746.535  
  20478742.203  
  22369059.180   117550218.663    22369068.941    91597625.4544   22369069.301  
                
  22999651.219   122946336.789                    95624920.969    22999656.559  
  22999651.262  
  24600819.555   129278157.039    24600827.090   100736246.5644                 
                
  23170402.195   121761296.147    23170410.559    94878943.7944   23170410.652  
                
  20631751.844   108420582.819    20631760.438    84483627.0774   20631760.586  
                
  23120242.875   123634300.841                    96160024.960    23120250.750  
  23120241.641  
  21788454.773   114499099.050    21788464.090    89220133.8434   21788464.742  
                
  24427769.352   128368799.851    24427776.734   100027667.1774                 
                
  20457757.273   107506278.855    20457766.074    83771184.9964   20457765.691  
                
  21661368.367   113831291.182    21661375.949    88699742.1264   21661375.785  
                
  20626250.250   110413967.087                    85877526.179    20626255.484  
  20626248.789  
 21  8 16  9 33 30.0000000  0 14R 6R21R22G32R 5G16G18G27R20G 8G21G10
                                G23R 7
  19221707.648   102570748.227                                                  
  19221705.031  
  19448263.758   104071602.595                    80944572.401    19448267.094  
  19448261.789  
  20473695.930   109289996.710                    85003355.218    20473698.340  
  20473694.051  
  22363412.305   117520544.095    22363422.070    91574502.4244   22363422.402  
                
  23007307.555   122987264.551                    95656753.654    23007312.902  
  23007307.578  
  24606953.539   129310391.259    24606961.086   100761364.1204                 
                
  23175663.805   121788946.100    23175672.102    94900489.1844   23175672.250  
                
  20632284.930   108423384.232    20632293.551    84485809.9924   20632293.688  
                
  23126859.594   123669683.844                    96187545.035    23126867.625  
  23126858.461  
  21784940.812   114480633.099    21784950.137    89205744.7924   21784950.781  
                
  24422840.820   128342899.728    24422848.012   100007485.2754                 
                
  20458644.727   107510942.451    20458653.531    83774818.9704   20458653.145  
                
  21666000.234   113855631.845    21666007.801    88718708.8734   21666007.625  
                
  20620317.742   110382209.938                    85852826.170    20620322.988  
  20620316.285  
 21  8 16  9 33 40.0000000  0 14R 6R21R22G32R 5G16G18G27R20G 8G21G10
                                G23R 7
  19223005.555   102577674.102                                                  
  19223002.938  
  19449436.469   104077877.929                    80949453.219    19449439.781  
  19449434.562  
  20468654.477   109263085.087                    84982423.969    20468656.855  
  20468652.617  
  22357771.969   117490903.872    22357781.711    91551406.1504   22357782.039  
                
  23014967.500   123028211.417                    95688601.192    23014972.879  
  23014967.496  
  24613089.000   129342632.962    24613096.516   100786487.5124                 
                
  23180928.883   121816614.154    23180937.141    94922048.7134   23180937.324  
                
  20632830.609   108426251.743    20632839.262    84488044.4104   20632839.379  
                
  23133481.484   123705093.688                    96215085.975    23133489.551  
  23133480.277  
  21781436.906   114462219.940    21781446.246    89191396.8744   21781446.887  
                
  24417912.844   128317002.884    24417919.949    99987305.9174                 
                
  20459540.414   107515649.251    20459549.219    83778486.6074   20459548.820  
                
  21670637.117   113879998.802    21670644.645    88737696.1134   21670644.473  
                
  20614395.984   110350510.298                    85828170.913    20614401.254  
  20614394.535  
 21  8 16  9 33 50.0000000  0 14R 6R21R22G32R 5G16G18G27R20G 8G21G10
                                G23R 7
  19224318.672   102584681.189                                                  
  19224316.023  
  19450621.266   104084217.922                    80954384.324    19450624.574  
  19450619.418  
  20463619.758   109236209.365                    84961520.628    20463622.188  
  20463617.910  
  22352138.242   117461298.394    22352147.941    91528336.9534   22352148.270  
                
  23022631.102   123069177.689                    95720463.812    23022636.480  
  23022631.109  
  24619225.930   129374882.423    24619233.418   100811616.9464                 
                
  23186197.477   121844300.634    23186205.746    94943622.5624   23186205.922  
                
  20633388.930   108429185.686    20633397.613    84490330.5944   20633397.715  
                
  23140108.320   123740530.992                    96242648.294    23140116.625  
  23140107.203  
  21777943.141   114443860.033    21777952.500    89177090.4554   21777953.125  
                
  24412985.602   128291109.667    24412992.570    99967129.3684                 
                
  20460444.367   107520399.517    20460453.168    83782188.1144   20460452.766  
                
  21675279.055   113904392.308    21675286.516    88756704.0454   21675286.371  
                
  20608485.102   110318868.849                    85803560.917    20608490.391  
  20608483.652  
 21  8 16  9 34  0.0000000  0 14R 6R21R22G32R 5G16G18G27R20G 8G21G10
                                G23R 7
  19225646.938   102591769.187                                                  
  19225644.281  
  19451818.086   104090622.310                    80959365.515    19451821.379  
  19451816.289  
  20458591.719   109209369.468                    84940645.151    20458594.180  
  20458589.883  
  22346511.086   117431727.488    22346520.758    91505294.7054   22346521.098  
                
  23030298.234   123110162.830                    95752341.127    23030303.617  
  23030298.234  
  24625364.148   129407139.282    24625371.730   100836752.1304                 
                
  23191469.531   121872005.269    23191477.820    94965210.5754   23191477.977  
                
  20633959.844   108432185.844    20633968.562    84492668.3734   20633968.637  
                
  23146740.320   123775995.205                    96270231.516    23146748.715  
  23146739.176  
  21774459.477   114425553.271    21774468.848    89162825.4534   21774469.457  
                
  24408058.898   128265219.759    24408065.848    99946955.4414                 
                
  20461356.539   107525192.973    20461365.320    83785923.2724   20461364.926  
                
  21679925.977   113928812.036    21679933.379    88775732.4034   21679933.258  
                
  20602585.016   110287285.177                    85778995.843    20602590.305  
  20602583.586  
 21  8 16  9 34 10.0000000  0 14R 6R21R22G32R 5G16G18G27R20G 8G21G10
                                G23R 7
  19226990.328   102598937.877                                                  
  19226987.664  
  19453027.000   104097091.336                    80964396.970    19453030.281  
  19453025.270  
  20453570.484   109182565.826                    84919797.866    20453572.902  
  20453568.633  
  22340890.555   117402191.396    22340900.230    91482279.5844   22340900.578  
                
  23037968.898   123151166.837                    95784233.123    23037974.270  
  23037968.875  
  24631503.836   129439403.481    24631511.504   100861893.0324                 
                
  23196745.070   121899728.149    23196753.320    94986812.8054   23196753.480  
                
  20634543.359   108435252.224    20634552.109    84495057.7614   20634552.164  
                
  23153377.133   123811486.499                    96297835.793    23153385.812  
  23153376.180  
  21770985.906   114407299.520    21770995.293    89148601.7444   21770995.879  
                
  24403132.891   128239333.359    24403139.809    99926784.2234                 
                
  20462276.938   107530029.672    20462285.691    83789692.1264   20462285.309  
                
  21684577.891   113953258.044    21684585.270    88794781.2284   21684585.176  
                
  20596695.750   110255759.414                    85754475.815    20596701.043  
  20596694.336  
 21  8 16  9 34 20.0000000  0 14R 6R21R22G32R 5G16G18G27R20G 8G21G10
                                G23R 7
  19228348.844   102606187.230                                                  
  19228346.172  
  19454247.914   104103624.608                    80969478.399    19454251.160  
  19454246.227  
  20448555.977   109155798.018                    84898978.483    20448558.348  
  20448554.117  
  22335276.625   117372689.940    22335286.305    91459291.4484   22335286.652  
                
  23045643.031   123192189.419                    95816139.544    23045648.422  
  23045643.004  
  24637644.828   129471674.730    24637652.609   100887039.4134                 
                
  23202023.977   121927468.946    23202032.219    95008429.0144   23202032.387  
                
  20635139.438   108438384.604    20635148.211    84497498.5704   20635148.246  
                
  23160019.141   123847004.596                    96325460.907    23160027.895  
  23160018.137  
  21767522.391   114389098.636    21767531.789    89134419.2444   21767532.359  
                
  24398207.445   128213450.110    24398214.426    99906615.4774                 
                
  20463205.508   107534909.305    20463214.230    83793494.4354   20463213.863  
                
  21689234.742   113977729.972    21689242.121    88813850.2504   21689242.031  
                
  20590817.289   110224291.553                    85730000.821    20590822.566  
  20590815.883  
 21  8 16  9 34 30.0000000  0 14R 6R21R22G32R 5G16G18G27R20G 8G21G10
                                G23R 7
  19229722.508   102613517.393                                                  
  19229719.855  
  19455480.914   104110222.563                    80974610.143    19455484.152  
  19455479.285  
  20443548.273   109129066.518                    84878187.322    20443550.645  
  20443546.387  
  22329669.359   117343223.548    22329679.027    91436330.6334   22329679.383  
                
  23053320.695   123233230.758                    95848060.568    23053326.074  
  23053320.711  
  24643787.203   129503953.285    24643795.059   100912191.5024                 
                
  23207306.367   121955228.076    23207314.637    95030059.4694   23207314.816  
                
  20635748.141   108441583.341    20635756.934    84499991.0934   20635756.949  
                
  23166666.570   123882549.521                    96353106.918    23166675.008  
  23166665.730  
  21764069.031   114370951.115    21764078.453    89120278.3264   21764079.000  
                
  24393282.680   128187570.498    24393289.633    99886449.5364                 
                
  20464142.320   107539832.268    20464151.020    83797330.5094   20464150.664  
                
  21693896.594   114002228.100    21693903.969    88832939.7014   21693903.875  
                
  20584949.711   110192881.934                    85705571.130    20584954.961  
  20584948.301  
 21  8 16  9 34 40.0000000  0 14R 6R21R22G32R 5G16G18G27R20G 8G21G10
                                G23R 7
  19231111.242   102620927.944                                                  
  19231108.566  
  19456725.922   104116884.748                    80979791.826    19456729.141  
  19456724.340  
  20438547.344   109102371.235                    84857424.320    20438549.727  
  20438545.438  
  22324068.727   117313791.995    22324078.371    91413396.9664   22324078.734  
                
  23061001.766   123274290.372                    95879995.815    23061007.152  
  23061001.820  
  24649930.914   129536238.568    24649938.719   100937348.8534                 
                
  23212592.109   121983005.126    23212600.523    95051703.8794   23212600.668  
                
  20636369.422   108444848.111    20636378.227    84502535.0694   20636378.223  
                
  23173318.898   123918121.039                    96380773.615    23173327.141  
  23173317.703  
  21760625.797   114352856.783    21760635.250    89106178.8454   21760635.758  
                
  24388358.578   128161694.210    24388365.484    99866286.2144                 
                
  20465087.273   107544797.998    20465095.941    83801199.9124   20465095.594  
                
  21698563.336   114026752.029    21698570.707    88852049.2444   21698570.625  
                
  20579092.969   110161530.335                    85681186.569    20579098.191  
  20579091.562  
 21  8 16  9 34 50.0000000  0 14R 6R21R22G32R 5G16G18G27R20G 8G21G10
                                G23R 7
  19232515.078   102628419.118                                                  
  19232512.410  
  19457983.000   104123611.534                    80985023.771    19457986.188  
  19457981.473  
  20433553.234   109075712.380                    84836689.650    20433555.613  
  20433551.344  
  22318474.766   117284395.567    22318484.406    91390490.6724   22318484.762  
                
  23068686.234   123315368.224                    95911945.222    23068691.637  
  23068686.293  
  24656075.984   129568530.774    24656083.688   100962511.5744                 
                
  23217881.344   122010800.290    23217889.824    95073362.4104   23217889.945  
                
  20637003.281   108448179.098    20637012.090    84505130.6364   20637012.082  
                
  23179975.922   123953719.367                    96408461.140    23179984.246  
  23179974.562  
  21757192.734   114334815.947    21757202.227    89092121.0564   21757202.699  
                
  24383435.039   128135821.346    24383441.996    99846125.5354                 
                
  20466040.414   107549806.770    20466049.059    83805102.8504   20466048.727  
                
  21703235.016   114051301.885    21703242.387    88871179.0034   21703242.309  
                
  20573247.133   110130237.163                    85656847.427    20573252.332  
  20573245.738  
 21  8 16  9 35  0.0000000  0 14R 6R21R22G32R 5G16G18G27R20G 8G21G10
                                G23R 7
  19233934.023   102635990.882                                                  
  19233931.363  
  19459252.195   104130403.116                    80990306.110    19459255.367  
  19459250.723  
  20428566.039   109049090.282                    84815983.580    20428568.395  
  20428564.156  
  22312887.531   117255034.466    22312897.172    91367611.9034   22312897.520  
                
  23076374.156   123356464.409                    95943908.896    23076379.594  
  23076374.191  
  24662222.297   129600829.814    24662230.031   100987679.6414                 
                
  23223174.055   122038613.612    23223182.570    95095035.1084   23223182.676  
                
  20637649.781   108451576.388    20637658.594    84507777.8744   20637658.586  
                
  23186638.070   123989344.654                    96436169.684    23186646.398  
  23186636.750  
  21753769.875   114316828.646    21753779.395    89078104.9814   21753779.855  
                
  24378512.242   128109952.109    24378519.203    99825967.7294                 
                
  20467001.758   107554858.617    20467010.387    83809039.3524   20467010.070  
                
  21707911.648   114075877.711    21707919.035    88890328.9794   21707918.965  
                
  20567412.234   110099002.444                    85632553.765    20567417.395  
  20567410.844  
 21  8 16  9 35 10.0000000  0 14R 6R21R22G32R 5G16G18G27R20G 8G21G10
                                G23R 7
  19235368.031   102643643.040                                                  
  19235365.414  
  19460533.438   104137259.183                    80995638.594    19460536.582  
  19460532.012  
  20423585.656   109022504.774                    84795305.986    20423588.090  
  20423583.773  
  22307307.008   117225708.606    22307316.637    91344760.6034   22307316.992  
                
  23084065.445   123397578.544                    95975886.549    23084070.879  
  23084065.480  
  24668369.914   129633135.460    24668377.672   101012852.8564                 
                
  23228470.180   122066444.925    23228478.727    95116721.8234   23228478.828  
                
  20638308.859   108455039.829    20638317.676    84510476.6624   20638317.656  
                
  23193305.148   124024996.348                    96463898.771    23193313.461  
  23193303.840  
  21750357.188   114298894.861    21750366.730    89064130.6094   21750367.164  
                
  24373590.125   128084086.372    24373597.086    99805812.6464                 
                
  20467971.258   107559953.320    20467979.871    83813009.2554   20467979.570  
                
  21712593.172   114100479.257    21712600.566    88909499.0074   21712600.488  
                
  20561588.250   110067826.207                    85608305.611    20561593.387  
  20561586.859  
 21  8 16  9 35 20.0000000  0 14R 6R21R22G32R 5G16G18G27R20G 8G21G10
                                G23R 7
  19236817.039   102651375.266                                                  
  19236814.465  
  19461826.719   104144179.671                    81001021.199    19461829.828  
  19461825.324  
  20418612.117   108995955.767                    84774656.757    20418614.547  
  20418610.230  
  22301733.164   117196417.859    22301742.738    91321936.6474   22301743.105  
                
  23091760.062   123438710.411                    96007877.987    23091765.520  
  23091760.109  
  24674518.734   129665447.363    24674526.512   101038030.9254                 
                
  23233769.672   122094294.003    23233778.273    95138422.3854   23233778.324  
                
  20638980.477   108458569.196    20638989.297    84513226.8054   20638989.277  
                
  23199977.094   124060674.464                    96491648.362    23199985.473  
  23199975.820  
  21746954.664   114281014.478    21746964.219    89050197.8404   21746964.625  
                
  24368668.641   128058223.870    24368675.543    99785660.0194                 
                
  20468948.859   107565090.632    20468957.469    83817012.3574   20468957.168  
                
  21717279.523   114125106.244    21717286.906    88928688.8524   21717286.844  
                
  20555775.164   110036708.346                    85584102.825    20555780.277  
  20555773.789  
 21  8 16  9 35 30.0000000  0 14R 6R21R22G32R 5G16G18G27R20G 8G21G10
                                G23R 7
  19238281.172   102659188.140                                                  
  19238278.605  
  19463132.141   104151165.176                    81006454.376    19463135.246  
  19463130.762  
  20413645.555   108969443.940                    84754036.438    20413648.004  
  20413643.656  
  22296166.141   117167162.974    22296175.645    91299140.6404   22296176.035  
                
  23099458.031   123479860.312                    96039883.443    23099463.539  
  23099458.098  
  24680668.789   129697766.073    24680676.641   101063214.3064                 
                
  23239072.719   122122161.425    23239081.312    95160137.2574   23239081.328  
                
  20639664.758   108462165.112    20639673.598    84516028.8164   20639673.578  
                
  23206653.891   124096379.459                    96519418.869    23206662.500  
  23206652.328  
  21743562.414   114263188.062    21743571.961    89036307.1294   21743572.367  
                
  24363747.844   128032365.216    24363754.816    99765510.4544                 
                
  20469934.688   107570271.151    20469943.297    83821049.1224   20469942.996  
                
  21721970.836   114149759.232    21721978.199    88947898.9634   21721978.133  
                
  20549973.109   110005649.512                    85559945.971    20549978.230  
  20549971.746  
 21  8 16  9 35 40.0000000  0 13R 6R21R22G32R 5G16G18G27G 8G21G10G23
                                R 7
  19239760.297   102667081.059                                                  
  19239757.762  
  19464449.648   104158215.307                    81011937.801    19464452.742  
  19464448.281  
  20408685.906   108942969.020                    84733444.841    20408688.375  
  20408684.008  
  22290605.867   117137943.520    22290615.340    91276372.2514   22290615.754  
                
  23107159.258   123521027.760                    96071902.544    23107164.816  
  23107159.320  
  24686820.062   129730090.937    24686827.898   101088402.4794                 
                
  23244379.180   122150046.688    23244387.770    95181866.0004   23244387.754  
                
  20640361.609   108465827.064    20640370.477    84518882.2774   20640370.438  
                
  21740180.367   114245415.257    21740189.891    89022458.1934   21740190.305  
                
  24358827.781   128006510.035    24358834.738    99745363.5674                 
                
  20470928.633   107575494.301    20470937.250    83825119.1074   20470936.945  
                
  21726666.984   114174437.622    21726674.316    88967128.8804   21726674.277  
                
  20544182.023   109974649.362                    85535834.760    20544187.152  
  20544180.641  
 21  8 16  9 35 50.0000000  0 14R 6R21R22G32R 5G16G18G27R20G 8G21G10
                                G23R 7
  19241254.398   102675053.864                                                  
  19241251.875  
  19465779.188   104165329.833                    81017471.320    19465782.262  
  19465777.840  
  20403733.148   108916530.928                    84712881.881    20403735.684  
  20403731.266  
  22285052.344   117108759.570    22285061.844    91253631.5334   22285062.250  
                
  23114863.719   123562212.481                    96103935.090    23114869.297  
  23114863.766  
  24692972.422   129762421.881    24692980.328   101113595.4104                 
                
  23249689.008   122177949.747    23249697.566    95203608.6224   23249697.523  
                
  20641071.023   108469555.015    20641079.922    84521787.1754   20641079.859  
                
  23220022.328   124167868.179                    96575021.147    23220031.242  
  23220019.758  
  21736808.508   114227696.054    21736818.020    89008651.0194   21736818.434  
                
  24353908.367   127980658.262    24353915.363    99725219.3754                 
                
  20471930.664   107580760.031    20471939.293    83829222.2714   20471938.980  
                
  21731367.953   114199141.336    21731375.254    88986378.5284   21731375.211  
                
  20538401.852   109943707.726                    85511769.058    20538406.988  
  20538400.453  
 21  8 16  9 36  0.0000000  0 14R 6R21R22G32R 5G16G18G27R20G 8G21G10
                                G23R 7
  19242763.492   102683106.683                                                  
  19242760.980  
  19467120.836   104172509.209                    81023055.270    19467123.895  
  19467119.512  
  20398787.352   108890130.009                    84692347.850    20398789.973  
  20398785.438  
  22279505.625   117079611.360    22279515.168    91230918.6644   22279515.555  
                
  23122571.406   123603414.529                    96135981.100    23122577.031  
  23122571.438  
  24699125.914   129794758.822    24699133.922   101138793.0104                 
                
  23255002.234   122205870.713    23255010.762    95225365.2094   23255010.707  
                
  20641793.016   108473349.126    20641801.945    84524743.6194   20641801.859  
                
  23226714.219   124203651.865                    96602852.880    23226723.066  
  23226712.148  
  21733446.930   114210030.810    21733456.430    88994885.8894   21733456.848  
                
  24348989.664   127954810.058    24348996.609    99705077.8804                 
                
  20472940.828   107586068.427    20472949.465    83833358.6824   20472949.160  
                
  21736073.750   114223870.456    21736081.000    89005647.9644   21736080.996  
                
  20532632.719   109912825.147                    85487749.272    20532637.855  
  20532631.324  
 21  8 16  9 36 10.0000000  0 14R 6R21R22G32R 5G16G18G27R20G 8G21G10
                                G23R 7
  19244287.602   102691239.587                                                  
  19244285.105  
  19468474.609   104179753.425                    81028689.663    19468477.664  
  19468473.285  
  20393848.602   108863766.635                    84671843.009    20393851.262  
  20393846.680  
  22273965.750   117050499.112    22273975.285    91208233.8024   22273975.676  
                
  23130282.367   123644634.004                    96168040.665    23130288.035  
  23130282.348  
  24705280.578   129827101.815    24705288.664   101163995.3134                 
                
  23260318.898   122233809.687    23260327.355    95247135.8294   23260327.316  
                
  20642527.633   108477209.500    20642536.590    84527751.6954   20642536.473  
                
  23233410.922   124239462.142                    96630705.275    23233420.031  
  23233408.668  
  21730095.641   114192419.670    21730105.121    88981162.9234   21730105.547  
                
  24344071.633   127928965.522    24344078.609    99684939.3364                 
                
  20473959.117   107591419.564    20473967.762    83837528.3984   20473967.453  
                
  21740784.391   114248625.030    21740791.598    89024937.2314   21740791.641  
                
  20526874.641   109882001.668                    85463775.458    20526879.777  
  20526873.242  
 21  8 16  9 36 20.0000000  0 14R 6R21R22G32R 5G16G18G27R20G 8G21G10
                                G23R 7
  19245826.656   102699452.253                                                  
  19245824.180  
  19469840.484   104187062.403                    81034374.418    19469843.535  
  19469839.164  
  20388916.836   108837440.557                    84651367.170    20388919.500  
  20388914.941  
  22268432.695   117021422.755    22268442.141    91185576.9024   22268442.578  
                
  23137996.531   123685870.495                    96200113.471    23138002.191  
  23137996.477  
  24711436.445   129859450.791    24711444.527   101189202.2924                 
                
  23265638.906   122261766.491    23265647.328    95268920.3264   23265647.332  
                
  20643274.812   108481135.958    20643283.801    84530811.2774   20643283.672  
                
  23240112.711   124275298.580                    96658578.004    23240121.648  
  23240111.215  
  21726754.625   114174862.502    21726764.082    88967482.0164   21726764.527  
                
  24339154.273   127903124.604    24339161.176    99664803.5394                 
                
  20474985.500   107596813.253    20474994.148    83841731.2704   20474993.848  
                
  21745499.836   114273404.812    21745507.027    89044246.1464   21745507.078  
                
  20521127.594   109851237.323                    85439847.640    20521132.723  
  20521126.188  
 21  8 16  9 36 30.0000000  0 14R 6R21R22G32R 5G16G18G27R20G 8G21G10
                                G23R 7
  19247380.625   102707744.473                                                  
  19247378.191  
  19471218.445   104194436.092                    81040109.509    19471221.508  
  19471217.109  
  20383992.047   108811151.784                    84630920.342    20383994.727  
  20383990.164  
  22262906.477   116992382.340    22262915.848    91162948.0174   22262916.316  
                
  23145713.852   123727123.762                    96232199.331    23145719.488  
  23145713.758  
  24717593.328   129891805.259    24717601.410   101214413.5354                 
                
  23270962.281   122289741.058    23270970.703    95290718.6834   23270970.711  
                
  20644034.570   108485128.480    20644043.590    84533922.3294   20644043.453  
                
  23246819.383   124311161.089                    96686471.029    23246828.180  
  23246818.227  
  21723423.867   114157359.282    21723433.305    88953843.1454   21723433.762  
                
  24334237.688   127877287.300    24334244.488    99644670.5704                 
                
  20476019.961   107602249.406    20476028.617    83845967.2264   20476028.316  
                
  21750220.055   114298209.724    21750227.250    89063574.6384   21750227.293  
                
  20515391.578   109820531.967                    85415965.716    20515396.691  
  20515390.172  
 21  8 16  9 36 40.0000000  0 14R 6R21R22G32R 5G16G18G27R20G 8G21G10
                                G23R 7
  19248949.508   102716116.357                                                  
  19248947.098  
  19472608.539   104201874.664                    81045895.055    19472611.605  
  19472607.195  
  20379074.352   108784900.771                    84610502.893    20379077.023  
  20379072.477  
  22257387.156   116963378.142    22257396.543    91140347.3554   22257396.992  
                
  23153434.320   123768393.914                    96264298.336    23153439.945  
  23153434.219  
  24723751.211   129924165.359    24723759.398   101239629.1754                 
                
  23276289.078   122317733.563    23276297.535    95312531.0044   23276297.547  
                
  20644806.930   108489187.217    20644815.980    84537084.9764   20644815.836  
                
  23253531.086   124347049.737                    96714384.393    23253539.582  
  23253529.859  
  21720103.461   114139910.404    21720112.883    88940246.6194   21720113.340  
                
  24329321.648   127851453.597    24329328.457    99624540.4164                 
                
  20477062.531   107607728.136    20477071.203    83850236.3704   20477070.898  
                
  21754945.070   114323039.843    21754952.270    89082922.7814   21754952.312  
                
  20509666.664   109789886.085                    85392130.034    20509671.773  
  20509665.270  
 21  8 16  9 36 50.0000000  0 14R 6R21R22G32R 5G16G18G27R20G 8G21G10
                                G23R 7
  19250533.414   102724568.348                                                  
  19250531.031  
  19474010.820   104209378.459                    81051731.327    19474013.898  
  19474009.461  
  20374163.789   108758687.889                    84590115.100    20374166.453  
  20374161.941  
  22251874.781   116934410.482    22251884.219    91117775.1754   22251884.633  
                
  23161157.969   123809681.235                    96296410.694    23161163.586  
  23161157.844  
  24729910.219   129956531.210    24729918.449   101264849.3084                 
                
  23281619.281   122345744.199    23281627.785    95334357.4564   23281627.824  
                
  20645591.930   108493312.427    20645601.012    84540299.4204   20645600.859  
                
  23260247.289   124382964.628                    96742318.147    23260255.863  
  23260246.121  
  21716793.406   114122515.939    21716802.820    88926692.4794   21716803.277  
                
  24324406.414   127825623.898    24324413.230    99604413.4034                 
                
  20478113.250   107613249.663    20478121.938    83854538.8584   20478121.629  
                
  21759674.922   114347895.350    21759682.145    89102290.7044   21759682.176  
                
  20503952.914   109759299.889                    85368340.767    20503958.020  
  20503951.516  
 21  8 16  9 37  0.0000000  0 14R 6R21R22G32R 5G16G18G27R20G 8G21G10
                                G23R 7
  19252132.234   102733099.920                                                  
  19252129.859  
  19475425.250   104216947.271                    81057618.181    19475428.332  
  19475423.875  
  20369260.344   108732512.905                    84569756.792    20369262.992  
  20369258.480  
  22246369.344   116905479.261    22246378.828    91095231.3914   22246379.227  
                
  23168884.719   123850985.224                    96328535.991    23168890.344  
  23168884.578  
  24736070.242   129988902.559    24736078.531   101290073.6984                 
                
  23286952.914   122373772.747    23286961.504    95356197.8544   23286961.547  
                
  20646389.539   108497503.886    20646398.645    84543565.4854   20646398.473  
                
  23266968.242   124418905.858                    96770272.390    23266977.051  
  23266967.262  
  21713493.703   114105175.877    21713503.121    88913180.7414   21713503.562  
                
  24319491.922   127799798.029    24319498.715    99584289.3404                 
                
  20479172.062   107618813.738    20479180.773    83858874.5014   20479180.453  
                
  21764409.547   114372775.983    21764416.812    89121678.2044   21764416.816  
                
  20498250.289   109728773.281                    85344597.867    20498255.398  
  20498248.906  
 21  8 16  9 37 10.0000000  0 14R 6R21R22G32R 5G16G18G27R20G 8G21G10
                                G23R 7
  19253745.930   102741710.905                                                  
  19253743.562  
  19476851.789   104224580.921                    81063555.464    19476854.891  
  19476850.410  
  20364363.984   108706375.778                    84549427.909    20364366.629  
  20364362.133  
  22240870.844   116876584.386    22240880.348    91072715.9184   22240880.727  
                
  23176614.531   123892305.589                    96360674.028    23176620.125  
  23176614.391  
  24742231.281   130021279.139    24742239.582   101315302.1754                 
                
  23292289.898   122401819.013    23292298.582    95378052.0594   23292298.629  
                
  20647199.719   108501761.391    20647208.836    84546883.0194   20647208.664  
                
  23273694.266   124454872.708                    96798246.538    23273703.035  
  23273693.500  
  21710204.344   114087890.184    21710213.770    88899711.3784   21710214.211  
                
  24314578.062   127773975.762    24314584.895    99564168.1394                 
                
  20480238.914   107624420.112    20480247.656    83863243.1064   20480247.328  
                
  21769148.906   114397681.464    21769156.195    89141085.0654   21769156.191  
                
  20492558.766   109698306.167                    85320901.249    20492563.895  
  20492557.379  
 21  8 16  9 37 20.0000000  0 14R 6R21R22G32R 5G16G18G27R20G 8G21G10
                                G23R 7
  19255374.539   102750401.442                                                  
  19255372.148  
  19478290.469   104232279.538                    81069543.266    19478293.598  
  19478289.059  
  20359474.766   108680276.789                    84529128.700    20359477.402  
  20359472.914  
  22235379.281   116847726.040    22235388.777    91050228.9024   22235389.148  
                
  23184347.398   123933642.168                    96392824.686    23184352.977  
  23184347.246  
  24748393.398   130053660.868    24748401.613   101340534.6554                 
                
  23297630.289   122429883.025    23297639.020    95399920.0944   23297639.055  
                
  20648022.484   108506085.031    20648031.613    84550252.0854   20648031.445  
                
  23280425.422   124490865.545                    96826240.942    23280433.930  
  23280424.609  
  21706925.344   114070658.923    21706934.762    88886284.4164   21706935.219  
                
  24309664.953   127748157.251    24309671.738    99544049.7714                 
                
  20481313.844   107630068.846    20481322.613    83867644.7164   20481322.277  
                
  21773892.992   114422611.831    21773900.305    89160511.3074   21773900.293  
                
  20486878.414   109667898.846                    85297251.113    20486883.586  
  20486876.996  
 21  8 16  9 37 30.0000000  0 14R 6R21R22G32R 5G16G18G27R20G 8G21G10
                                G23R 7
  19257017.961   102759171.021                                                  
  19257015.574  
  19479741.297   104240043.179                    81075581.655    19479744.461  
  19479739.859  
  20354592.727   108654216.130                    84508859.297    20354595.355  
  20354590.883  
  22229894.703   116818904.364    22229904.168    91027770.4674   22229904.555  
                
  23192083.297   123974995.051                    96424988.030    23192088.867  
  23192083.117  
  24754556.367   130086047.629    24754564.641   101365771.0584                 
                
  23302974.047   122457964.884    23302982.844    95421802.0484   23302982.883  
                
  20648857.852   108510474.870    20648866.984    84553672.7374   20648866.816  
                
  23287161.328   124526884.336                    96854255.502    23287169.672  
  23287160.359  
  21703656.750   114053482.354    21703666.156    88872900.0844   21703666.637  
                
  24304752.570   127722342.515    24304759.379    99523934.4754                 
                
  20482396.828   107635759.952    20482405.621    83872079.3474   20482405.273  
                
  21778641.820   114447567.066    21778649.172    89179956.9434   21778649.141  
                
  20481209.195   109637551.188                    85273647.389    20481214.383  
  20481207.766  
 21  8 16  9 37 40.0000000  0 14R 6R21R22G32R 5G16G18G27R20G 8G21G10
                                G23R 7
  19258676.242   102768019.932                                                  
  19258673.859  
  19481204.266   104247871.810                    81081670.583    19481207.449  
  19481202.793  
  20349717.828   108628193.584                    84488619.537    20349720.422  
  20349715.969  
  22224417.102   116790119.358    22224426.535    91005340.6044   22224426.930  
                
  23199822.211   124016363.946                    96457163.809    23199827.750  
  23199822.035  
  24760720.312   130118439.253    24760728.605   101391011.2644                 
                
  23308321.117   122486064.418    23308330.035    95443697.7494   23308330.062  
                
  20649705.781   108514930.790    20649714.918    84557144.8724   20649714.750  
                
  23293901.656   124562928.760                    96882290.000    23293910.164  
  23293899.605  
  21700398.555   114036360.446    21700407.953    88859558.3394   21700408.426  
                
  24299840.859   127696531.471    24299847.660    99503821.9634                 
                
  20483487.844   107641493.292    20483496.656    83876546.8774   20483496.305  
                
  21783395.344   114472546.996    21783402.707    89199421.8154   21783402.676  
                
  20475551.172   109607263.415                    85250090.246    20475556.340  
  20475549.734  
 21  8 16  9 37 50.0000000  0 13R 6R21R22G32R 5G16G18G27G 8G21G10G23
                                R 7
  19260349.367   102776948.022                                                  
  19260346.996  
  19482679.391   104255765.498                    81087810.109    19482682.594  
  19482677.891  
  20344850.133   108602209.580                    84468409.778    20344852.699  
  20344848.270  
  22218946.508   116761371.187    22218955.914    90982939.4364   22218956.305  
                
  23207564.148   124057748.899                    96489352.091    23207569.684  
  23207564.020  
  24766885.203   130150835.790    24766893.453   101416255.2914                 
                
  23313671.672   122514181.687    23313680.617    95465607.2864   23313680.617  
                
  20650566.297   108519452.855    20650575.426    84560668.5564   20650575.262  
                
  21697150.719   114019292.951    21697160.117    88846258.9974   21697160.590  
                
  24294929.977   127670724.371    24294936.664    99483712.5224                 
                
  20484586.891   107647268.862    20484595.727    83881047.3214   20484595.359  
                
  21788153.570   114497551.620    21788160.934    89218905.9384   21788160.902  
                
  20469904.336   109577035.510                    85226579.658    20469909.480  
  20469902.867  
 21  8 16  9 38  0.0000000  0 13R 6R21R22G32R 5G16G18G27G 8G21G10G23
                                R 7
  19262037.312   102785955.182                                                  
  19262034.941  
  19484166.625   104263723.983                    81094000.029    19484169.852  
  19484165.094  
  20339989.648   108576263.903                    84448229.796    20339992.191  
  20339987.781  
  22213482.891   116732659.688    22213492.312    90960566.8554   22213492.684  
                
  23215308.977   124099149.279                    96521552.378    23215314.512  
  23215308.918  
  24773051.000   130183236.774    24773059.223   101441502.8024                 
                
  23319025.586   122542316.438    23319034.508    95487530.4344   23319034.492  
                
  20651439.359   108524040.795    20651448.477    84564243.5704   20651448.320  
                
  21693913.289   114002280.099    21693922.691    88833002.2254   21693923.172  
                
  24290019.688   127644920.836    24290026.344    99463605.8954                 
                
  20485693.938   107653086.390    20485702.797    83885580.4614   20485702.418  
                
  21792916.445   114522580.637    21792923.809    89238409.0574   21792923.770  
                
  20464268.672   109546867.504                    85203115.656    20464273.801  
  20464267.191  
 21  8 16  9 38 10.0000000  0 14R 6R21R22G32R 5G16G18G27R20G 8G21G10
                                G23R 7
  19263739.969   102795040.920                                                  
  19263737.602  
  19485665.977   104271747.273                    81100240.358    19485669.238  
  19485664.406  
  20335136.297   108550356.461                    84428079.574    20335138.832  
  20335134.438  
  22208026.258   116703984.908    22208035.723    90938222.8874   22208036.051  
                
  23223056.656   124140565.095                    96553764.669    23223062.207  
  23223056.648  
  24779217.656   130215642.118    24779225.805   101466753.6984                 
                
  23324382.773   122570468.558    23324391.613    95509467.1444   23324391.641  
                
  20652324.938   108528694.569    20652334.047    84567869.8824   20652333.902  
                
  23314151.664   124671215.717                    96966513.031    23314159.848  
  23314151.012  
  21690686.234   113985321.864    21690695.648    88819788.0104   21690696.133  
                
  24285110.094   127619120.878    24285116.719    99443502.0614                 
                
  20486808.938   107658945.776    20486817.816    83890146.2164   20486817.430  
                
  21797683.938   114547633.915    21797691.293    89257931.0874   21797691.254  
                
  20458644.211   109516759.357                    85179698.226    20458649.316  
  20458642.719  
 21  8 16  9 38 20.0000000  0 14R 6R21R22G32R 5G16G18G27R20G 8G21G10
                                G23R 7
  19265457.453   102804205.674                                                  
  19265455.070  
  19487177.500   104279835.746                    81106531.376    19487180.789  
  19487175.910  
  20330290.258   108524487.956                    84407959.625    20330292.770  
  20330288.406  
  22202576.711   116675347.341    22202586.219    90915907.9124   22202586.520  
                
  23230807.297   124181996.624                    96585989.149    23230812.875  
  23230807.320  
  24785385.031   130248052.091    24785393.238   101492008.1764                 
                
  23329743.320   122598638.453    23329752.102    95531417.6904   23329752.160  
                
  20653223.125   108533414.555    20653232.234    84571547.7894   20653232.102  
                
  23320911.367   124707362.455                    96994627.175    23320919.438  
  23320910.695  
  21687469.633   113968418.511    21687479.070    88806616.5734   21687479.566  
                
  24280201.336   127593324.952    24280207.875    99423401.3274                 
                
  20487931.984   107664847.391    20487940.883    83894744.8704   20487940.484  
                
  21802456.117   114572711.798    21802463.473    89277472.2894   21802463.422  
                
  20453031.000   109486711.464                    85156327.654    20453036.113  
  20453029.488  
 21  8 16  9 38 30.0000000  0 14R 6R21R22G32R 5G16G18G27R20G 8G21G10
                                G23R 7
  19267189.797   102813449.814                                                  
  19267187.391  
  19488701.297   104287989.908                    81112873.500    19488704.617  
  19488699.668  
  20325451.578   108498658.855                    84387870.328    20325454.094  
  20325449.719  
  22197134.328   116646747.477    22197143.844    90893622.3184   22197144.152  
                
  23238560.922   124223444.097                    96618226.041    23238566.539  
  23238560.980  
  24791553.281   130280466.880    24791561.582   101517266.4534                 
                
  23335107.367   122626826.506    23335116.027    95553382.3964   23335116.121  
                
  20654133.984   108538201.151    20654143.105    84575277.6004   20654142.984  
                
  23327675.812   124743535.090                    97022761.412    23327683.812  
  23327674.980  
  21684263.562   113951570.532    21684273.020    88793488.2764   21684273.520  
                
  24275293.375   127567533.435    24275299.863    99403304.0634                 
                
  20489063.117   107670791.560    20489072.023    83899376.6934   20489071.625  
                
  21807233.031   114597814.606    21807240.379    89297032.9124   21807240.336  
                
  20447429.156   109456724.422                    85133004.406    20447434.270  
  20447427.621  
 21  8 16  9 38 40.0000000  0 14R 6R21R22G32R 5G16G18G27R20G 8G21G10
                                G23R 7
  19268936.930   102822772.842                                                  
  19268934.527  
  19490237.250   104296209.065                    81119266.169    19490240.602  
  19490235.594  
  20320620.188   108472868.648                    84367811.273    20320622.699  
  20320618.312  
  22191699.023   116618184.849    22191708.547    90871365.7314   22191708.855  
                
  23246317.391   124264906.698                    96650474.711    23246323.055  
  23246317.473  
  24797722.391   130312885.829    24797730.727   101542527.9414                 
                
  23340474.711   122655032.121    23340483.340    95575360.7794   23340483.457  
                
  20655057.414   108543053.788    20655066.555    84579058.8694   20655066.422  
                
  23334444.977   124779733.128                    97050915.416    23334453.090  
  23334444.148  
  21681067.961   113934777.536    21681077.426    88780402.8324   21681077.945  
                
  24270386.148   127541745.716    24270392.617    99383209.7454                 
                
  20490202.242   107676777.685    20490211.148    83904041.2084   20490210.754  
                
  21812014.570   114622941.696    21812021.914    89316612.4644   21812021.879  
                
  20441838.578   109426797.711                    85109728.080    20441843.703  
  20441837.027  
 21  8 16  9 38 50.0000000  0 14R 6R21R22G32R 5G16G18G27R20G 8G21G10
                                G23R 7
  19270698.812   102832174.570                                                  
  19270696.383  
  19491785.391   104304493.511                    81125709.623    19491788.777  
  19491783.707  
  20315796.133   108447117.504                    84347782.615    20315798.676  
  20315794.238  
  22186270.836   116589659.612    22186280.379    90849138.2934   22186280.660  
                
  23254076.727   124306384.627                    96682735.291    23254082.418  
  23254076.797  
  24803892.344   130345308.991    24803900.676   101567792.7304                 
                
  23345845.391   122683255.368    23345853.977    95597352.9134   23345854.152  
                
  20655993.414   108547972.537    20656002.578    84582891.6584   20656002.434  
                
  23341218.711   124815956.469                    97079089.105    23341227.238  
  23341218.023  
  21677882.875   113918039.814    21677892.344    88767360.4474   21677892.879  
                
  24265479.672   127515961.937    24265486.156    99363118.4964                 
                
  20491349.352   107682805.809    20491358.254    83908738.4474   20491357.859  
                
  21816800.734   114648093.105    21816808.078    89336210.9494   21816808.047  
                
  20436259.297   109396931.493                    85086498.812    20436264.434  
  20436257.738  
 21  8 16  9 39  0.0000000  0 14R 6R21R22G32R 5G16G18G27R20G 8G21G10
                                G23R 7
  19272475.422   102841654.881                                                  
  19272472.984  
  19493345.750   104312843.265                    81132203.860    19493349.148  
  19493344.039  
  20310979.445   108421405.685                    84327784.523    20310981.996  
  20310977.535  
  22180849.812   116561172.015    22180859.391    90826940.1804   22180859.648  
                
  23261838.898   124347877.750                    96715007.684    23261844.605  
  23261838.973  
  24810062.977   130377736.424    24810071.469   101593060.8024                 
                
  23351219.414   122711496.368    23351228.055    95619358.8544   23351228.262  
                
  20656942.023   108552957.524    20656951.211    84586776.0544   20656951.043  
                
  23347997.445   124852205.462                    97107282.736    23348006.078  
  23347996.707  
  21674708.328   113901357.428    21674717.809    88754361.1934   21674718.340  
                
  24260573.914   127490182.094    24260580.418    99343030.3344                 
                
  20492504.484   107688876.037    20492513.383    83913468.4924   20492512.992  
                
  21821591.547   114673268.877    21821598.891    89355828.4334   21821598.852  
                
  20430691.375   109367126.001                    85063316.775    20430696.523  
  20430689.836  
 21  8 16  9 39 10.0000000  0 14R 6R21R22G32R 5G16G18G27R20G 8G21G10
                                G23R 7
  19274266.734   102851213.702                                                  
  19274264.281  
  19494918.266   104321258.140                    81138748.754    19494921.703  
  19494916.523  
  20306170.086   108395733.041                    84307816.925    20306172.641  
  20306168.188  
  22175435.914   116532721.893    22175445.543    90804771.2754   22175445.793  
                
  23269603.828   124389385.571                    96747291.534    23269609.539  
  23269603.922  
  24816234.484   130410167.701    24816243.000   101618331.8884                 
                
  23356596.805   122739754.839    23356605.512    95641378.4284   23356605.727  
                
  20657903.188   108558008.499    20657912.395    84590711.8684   20657912.207  
                
  23354780.875   124888479.677                    97135495.956    23354789.590  
  23354780.172  
  21671544.242   113884730.084    21671553.723    88741404.8224   21671554.262  
                
  24255668.891   127464406.149    24255675.438    99322945.2084                 
                
  20493667.555   107694988.045    20493676.461    83918231.0974   20493676.074  
                
  21826386.922   114698468.702    21826394.273    89375464.6534   21826394.234  
                
  20425134.773   109337381.123                    85040181.882    20425139.922  
  20425133.258  
 21  8 16  9 39 20.0000000  0 14R 6R21R22G32R 5G16G18G27R20G 8G21G10
                                G23R 7
  19276072.703   102860850.775                                                  
  19276070.254  
  19496502.961   104329738.227                    81145344.367    19496506.438  
  19496501.188  
  20301368.117   108370099.838                    84287879.990    20301370.629  
  20301366.223  
  22170029.180   116504309.381    22170038.863    90782631.6784   22170039.109  
                
  23277371.531   124430908.227                    96779586.934    23277377.230  
  23277371.617  
  24822406.602   130442602.739    24822415.188   101643605.9214                 
                
  23361977.602   122768030.794    23361986.324    95663411.6204   23361986.539  
                
  20658876.906   108563125.456    20658886.125    84594699.1024   20658885.930  
                
  23361569.047   124924779.069                    97163728.780    23361577.855  
  23361568.355  
  21668390.688   113868158.058    21668400.168    88728491.5554   21668400.711  
                
  24250764.617   127438634.193    24250771.160    99302863.1634                 
                
  20494838.586   107701141.851    20494847.508    83923026.2664   20494847.109  
                
  21831186.883   114723692.557    21831194.238    89395119.6044   21831194.176  
                
  20419589.523   109307696.930                    85017094.176    20419594.664  
  20419588.016  
 21  8 16  9 39 30.0000000  0 14R 6R21R22G32R 5G16G18G27R20G 8G21G10
                                G23R 7
  19277893.445   102870566.621                                                  
  19277890.992  
  19498099.969   104338284.168                    81151991.203    19498103.484  
  19498098.156  
  20296573.656   108344506.787                    84267974.281    20296576.125  
  20296571.797  
  22164629.734   116475935.172    22164639.453    90760521.9194   22164639.684  
                
  23285142.062   124472446.104                    96811894.153    23285147.750  
  23285142.164  
  24828579.648   130475042.016    24828588.230   101668883.2894                 
                
  23367361.922   122796324.789    23367370.586    95685458.8664   23367370.773  
                
  20659863.305   108568309.026    20659872.527    84598738.2394   20659872.336  
                
  23368362.141   124961104.106                    97191981.523    23368370.902  
  23368361.336  
  21665247.750   113851641.821    21665257.246    88715621.7624   21665257.789  
                
  24245861.188   127412866.741    24245867.758    99282784.6514                 
                
  20496017.672   107707337.992    20496026.617    83927854.4334   20496026.207  
                
  21835991.508   114748940.988    21835998.859    89414793.6944   21835998.809  
                
  20414055.750   109278074.261                    84994054.321    20414060.891  
  20414054.270  
 21  8 16  9 39 40.0000000  0 14R 6R21R22G32R 5G16G18G27R20G 8G21G10
                                G23R 7
  19279728.719   102880360.021                                                  
  19279726.273  
  19499709.008   104346894.495                    81158688.129    19499712.559  
  19499707.160  
  20291786.484   108318952.499                    84248098.725    20291788.961  
  20291784.637  
  22159237.320   116447597.925    22159247.066    90738440.9644   22159247.297  
                
  23292915.156   124513997.594                    96844212.002    23292920.746  
  23292915.250  
  24834753.156   130507484.015    24834761.781   101694162.7474                 
                
  23372749.422   122824635.388    23372758.000    95707519.0554   23372758.152  
                
  20660862.102   108573557.722    20660871.332    84602828.1304   20660871.125  
                
  23375159.859   124997453.458                    97220253.155    23375168.457  
  23375158.867  
  21662115.195   113835180.168    21662124.703    88702794.5084   21662125.258  
                
  24240958.383   127387102.469    24240964.973    99262708.6134                 
                
  20497204.531   107713574.999    20497213.496    83932714.4344   20497213.070  
                
  21840800.516   114774212.458    21840807.867    89434485.7454   21840807.809  
                
  20408533.164   109248511.462                    84971061.054    20408538.285  
  20408531.676  
 21  8 16  9 39 50.0000000  0 14R 6R21R22G32R 5G16G18G27R20G 8G21G10
                                G23R 7
  19281578.758   102890232.192                                                  
  19281576.324  
  19501330.336   104355570.592                    81165436.193    19501333.926  
  19501328.461  
  20287006.805   108293438.284                    84228254.342    20287009.270  
  20287004.973  
  22153852.195   116419299.030    22153861.961    90716389.8934   22153862.195  
                
  23300691.023   124555563.919                    96876541.359    23300696.570  
  23300691.109  
  24840927.383   130539929.917    24840936.035   101719445.2084                 
                
  23378140.219   122852963.909    23378148.816    95729593.2064   23378148.969  
                
  20661873.539   108578872.882    20661882.773    84606969.8074   20661882.562  
                
  23381961.695   125033828.096                    97248544.474    23381970.789  
  23381961.102  
  21658993.281   113818774.408    21659002.793    88690010.8004   21659003.363  
                
  24236056.406   127361342.670    24236062.965    99242636.0444                 
                
  20498399.414   107719854.145    20498408.414    83937607.2794   20498407.965  
                
  21845614.148   114799508.229    21845621.500    89454196.7304   21845621.430  
                
  20403022.031   109219009.992                    84948115.473    20403027.145  
  20403020.523  
 21  8 16  9 40  0.0000000  0 14R 6R21R22G32R 5G16G18G27R20G 8G21G10
                                G23R 7
  19283443.477   102900182.729                                                  
  19283441.043  
  19502963.914   104364312.257                    81172235.253    19502967.543  
  19502962.012  
  20282234.648   108267964.199                    84208441.166    20282237.113  
  20282232.832  
  22148474.375   116391038.415    22148484.160    90694368.6534   22148484.398  
                
  23308469.602   124597144.762                    96908882.000    23308475.172  
  23308469.680  
  24847102.312   130572379.416    24847110.992   101744730.5284                 
                
  23383534.344   122881310.110    23383543.012    95751681.1264   23383543.141  
                
  20662897.586   108584254.297    20662906.816    84611163.1134   20662906.605  
                
  23388768.508   125070227.875                    97276855.374    23388777.805  
  23388767.992  
  21655881.984   113802424.470    21655891.504    88677270.5944   21655892.055  
                
  24231155.211   127335587.166    24231161.770    99222566.8574                 
                
  20499602.266   107726175.184    20499611.297    83942532.7584   20499610.836  
                
  21850432.359   114824828.049    21850439.719    89473926.4634   21850439.625  
                
  20397522.367   109189569.878                    84925217.613    20397527.496  
  20397520.824  
 21  8 16  9 40 10.0000000  0 14R 6R21R22G32R 5G16G18G27R20G 8G21G10
                                G23R 7
  19285322.742   102910210.959                                                  
  19285320.305  
  19504609.656   104373119.028                    81179084.965    19504613.320  
  19504607.723  
  20277469.969   108242529.974                    84188659.005    20277472.457  
  20277468.148  
  22143103.750   116362815.725    22143113.570    90672376.9614   22143113.809  
                
  23316250.773   124638739.510                    96941233.431    23316256.352  
  23316250.836  
  24853277.883   130604831.990    24853286.523   101770018.1994                 
                
  23388931.695   122909673.541    23388940.434    95773782.4984   23388940.566  
                
  20663934.148   108589701.507    20663943.375    84615407.6924   20663943.160  
                
  23395580.305   125106652.444                    97305185.550    23395589.430  
  23395579.535  
  21652781.258   113786130.064    21652790.789    88664573.6534   21652791.324  
                
  24226254.797   127309835.551    24226261.270    99202500.6594                 
                
  20500812.992   107732537.631    20500822.059    83947490.5114   20500821.582  
                
  21855255.047   114850171.424    21855262.410    89493674.5244   21855262.312  
                
  20392034.102   109160190.891                    84902367.309    20392039.258  
  20392032.531  
 21  8 16  9 40 20.0000000  0 14R 6R21R22G32R 5G16G18G27R20G 8G21G10
                                G23R 7
  19287216.633   102920317.214                                                  
  19287214.184  
  19506267.617   104381991.129                    81185985.474    19506271.312  
  19506265.668  
  20272712.781   108217135.826                    84168908.003    20272715.285  
  20272710.984  
  22137740.406   116334631.208    22137750.230    90650415.0114   22137750.465  
                
  23324034.578   124680348.217                    96973595.728    23324040.211  
  23324034.652  
  24859454.000   130637287.734    24859462.641   101795308.3944                 
                
  23394332.383   122938054.340    23394341.172    95795897.3904   23394341.320  
                
  20664983.273   108595214.689    20664992.496    84619703.6764   20664992.285  
                
  23402396.648   125143101.903                    97333535.106    23402405.723  
  23402395.867  
  21649691.133   113769891.364    21649700.680    88651920.1184   21649701.199  
                
  24221355.219   127284088.027    24221361.582    99182437.6184                 
                
  20502031.633   107738941.630    20502040.734    83952480.6384   20502040.230  
                
  21860082.242   114875538.425    21860089.605    89513441.0144   21860089.500  
                
  20386557.273   109130873.012                    84879564.524    20386562.441  
  20386555.695  
 21  8 16  9 40 30.0000000  0 14R 6R21R22G32R 5G16G18G27R20G 8G21G10
                                G23R 7
  19289125.109   102930501.198                                                  
  19289122.629  
  19507937.789   104390928.596                    81192936.834    19507941.520  
  19507935.816  
  20267963.109   108191781.775                    84149188.179    20267965.652  
  20267961.324  
  22132384.352   116306484.994    22132394.145    90628482.9184   22132394.398  
                
  23331820.969   124721970.798                    97005968.819    23331826.656  
  23331821.082  
  24865630.695   130669746.543    24865639.297   101820600.9224                 
                
  23399736.406   122966452.596    23399745.254    95818025.8684   23399745.418  
                
  20666044.961   108600793.887    20666054.176    84624051.0934   20666053.980  
                
  23409217.852   125179576.262                    97361904.005    23409226.680  
  23409216.816  
  21646611.625   113753708.406    21646621.188    88639310.0254   21646621.688  
                
  24216456.438   127258344.672    24216462.762    99162377.8864                 
                
  20503258.180   107745387.177    20503267.309    83957503.1424   20503266.793  
                
  21864913.938   114900929.055    21864921.270    89533225.9254   21864921.164  
                
  20381091.930   109101616.607                    84856809.552    20381097.125  
  20381090.348  
 21  8 16  9 40 40.0000000  0 14R 6R21R22G32R 5G16G18G27R20G 8G21G10
                                G23R 7
  19291048.188   102940763.197                                                  
  19291045.723  
  19509620.203   104399931.572                    81199939.145    19509623.953  
  19509618.211  
  20263221.023   108166468.175                    84129499.830    20263223.574  
  20263219.246  
  22127035.641   116278377.365    22127045.375    90606580.8794   22127045.652  
                
  23339609.961   124763607.292                    97038352.729    23339615.688  
  23339610.082  
  24871808.031   130702208.323    24871816.520   101845895.8434                 
                
  23405143.625   122994868.360    23405152.672    95840167.9724   23405152.820  
                
  20667119.219   108606439.186    20667128.438    84628450.0224   20667128.258  
                
  23416043.422   125216075.317                    97390292.093    23416052.188  
  23416042.328  
  21643542.734   113737581.294    21643552.320    88626743.4514   21643552.828  
                
  24211558.484   127232605.604    24211564.828    99142321.4904                 
                
  20504492.648   107751874.363    20504501.801    83962558.0894   20504501.273  
                
  21869750.117   114926343.384    21869757.445    89553029.2934   21869757.336  
                
  20375638.047   109072421.672                    84834102.393    20375643.266  
  20375636.441  
 21  8 16  9 40 50.0000000  0 14R 6R21R22G32R 5G16G18G27R20G 8G21G10
                                G23R 7
  19292985.836   102951102.895                                                  
  19292983.359  
  19511314.844   104409000.016                    81206992.368    19511318.598  
  19511312.848  
  20258486.484   108141194.873                    84109842.826    20258489.059  
  20258484.699  
  22121694.250   116250308.256    22121703.949    90584708.8504   22121704.230  
                
  23347401.500   124805257.463                    97070747.283    23347407.301  
  23347401.609  
  24877985.820   130734672.942    24877994.297   101871192.8994                 
                
  23410554.188   123023301.478    23410563.383    95862323.6274   23410563.496  
                
  20668206.039   108612150.474    20668215.258    84632900.3724   20668215.070  
                
  23422873.820   125252599.185                    97418699.549    23422882.371  
  23422872.566  
  21640484.500   113721510.132    21640494.109    88614220.4724   21640494.621  
                
  24206661.297   127206870.662    24206667.770    99122268.2924                 
                
  20505735.000   107758402.996    20505744.164    83967645.3364   20505743.629  
                
  21874590.781   114951781.206    21874598.117    89572850.9664   21874597.996  
                
  20370195.695   109043288.425                    84811443.203    20370200.926  
  20370194.082  
 21  8 16  9 41  0.0000000  0 14R 6R21R22G32R 5G16G18G27R20G 8G21G10
                                G23R 7
  19294938.055   102961520.316                                                  
  19294935.594  
  19513021.727   104418133.937                    81214096.525    19513025.496  
  19513019.730  
  20253759.578   108115962.375                    84090217.548    20253762.137  
  20253757.797  
  22116360.203   116222277.748    22116369.887    90562866.9124   22116370.168  
                
  23355195.562   124846921.201                    97103152.388    23355201.398  
  23355195.664  
  24884164.164   130767140.303    24884172.645   101896492.1194                 
                
  23415968.047   123051751.964    23415977.363    95884492.8154   23415977.480  
                
  20669305.406   108617927.751    20669314.617    84637402.1344   20669314.430  
                
  23429708.547   125289147.680                    97447126.101    23429717.059  
  23429707.418  
  21637436.930   113705495.111    21637446.559    88601741.2314   21637447.047  
                
  24201764.891   127181139.916    24201771.516    99102218.4064                 
                
  20506985.234   107764973.065    20506994.406    83972764.8684   20506993.875  
                
  21879435.906   114977242.478    21879443.238    89592690.9084   21879443.105  
                
  20364764.852   109014216.741                    84788831.909    20364770.086  
  20364763.270  
 21  8 16  9 41 10.0000000  0 14R 6R21R22G32R 5G16G18G27R20G 8G21G10
                                G23R 7
  19296904.797   102972015.206                                                  
  19296902.336  
  19514740.891   104427333.529                    81221251.756    19514744.684  
  19514738.895  
  20249040.297   108090770.521                    84070623.869    20249042.887  
  20249038.527  
  22111033.570   116194286.134    22111043.238    90541055.2774   22111043.516  
                
  23362992.156   124888598.450                    97135567.995    23362998.016  
  23362992.223  
  24890343.047   130799610.494    24890351.547   101921793.5524                 
                
  23421385.297   123080219.966    23421394.668    95906675.6474   23421394.812  
                
  20670417.375   108623771.159    20670426.582    84641955.4424   20670426.398  
                
  23436547.906   125325720.844                    97475571.884    23436556.383  
  23436546.840  
  21634400.086   113689536.324    21634409.727    88589305.8114   21634410.207  
                
  24196869.312   127155413.559    24196876.043    99082171.8964                 
                
  20508243.391   107771584.693    20508252.562    83977916.7864   20508252.031  
                
  21884285.508   115002727.290    21884292.836    89612549.2024   21884292.707  
                
  20359345.562   108985206.921                    84766268.729    20359350.801  
  20359343.996  
 21  8 16  9 41 20.0000000  0 14R 6R21R22G32R 5G16G18G27R20G 8G21G10
                                G23R 7
  19298886.039   102982587.461                                                  
  19298883.543  
  19516472.281   104436598.549                    81228457.878    19516476.086  
  19516470.301  
  20244328.672   108065619.521                    84051061.997    20244331.258  
  20244326.883  
  22105714.281   116166333.183    22105723.945    90519273.7714   22105724.219  
                
  23370791.195   124930288.841                    97167993.823    23370797.098  
  23370791.250  
  24896522.312   130832083.029    24896530.887   101947096.7844                 
                
  23426805.844   123108705.163    23426815.281    95928871.8764   23426815.406  
                
  20671541.867   108629680.410    20671551.066    84646560.0434   20671550.871  
                
  23443392.227   125362318.515                    97504036.731    23443400.309  
  23443390.887  
  21631373.875   113673633.490    21631383.531    88576913.9964   21631383.996  
                
  24191974.555   127129691.349    24191981.359    99062128.6474                 
                
  20509509.383   107778237.527    20509518.559    83983100.8104   20509518.023  
                
  21889139.523   115028235.287    21889146.867    89632425.5584   21889146.734  
                
  20353937.797   108956258.756                    84743753.489    20353943.043  
  20353936.250  
 21  8 16  9 41 30.0000000  0 14R 6R21R22G32R 5G16G18G27R20G 8G21G10
                                G23R 7
  19300881.742   102993236.964                                                  
  19300879.234  
  19518215.914   104445929.078                    81235714.950    19518219.723  
  19518213.938  
  20239624.711   108040509.407                    84031531.921    20239627.336  
  20239622.910  
  22100402.383   116138419.098    22100412.043    90497522.5574   22100412.305  
                
  23378592.703   124971992.457                    97200429.951    23378598.641  
  23378592.754  
  24902702.094   130864557.894    24902710.637   101972401.8284                 
                
  23432229.680   123137207.628    23432239.184    95951081.5544   23432239.230  
                
  20672678.898   108635655.565    20672688.086    84651216.0084   20672687.898  
                
  23450240.969   125398940.628                    97532520.570    23450248.840  
  23450239.453  
  21628358.336   113657786.744    21628367.988    88564565.8884   21628368.449  
                
  24187080.617   127103973.390    24187087.395    99042088.6654                 
                
  20510783.227   107784931.622    20510792.402    83988316.9874   20510791.871  
                
  21893997.953   115053766.510    21894005.312    89652320.0084   21894005.176  
                
  20348541.586   108927372.439                    84721286.359    20348546.848  
  20348540.051  
 21  8 16  9 41 40.0000000  0 14R 6R21R22G32R 5G16G18G27R20G 8G21G10
                                G23R 7
  19302891.938   103003963.744                                                  
  19302889.414  
  19519971.734   104455324.846                    81243022.768    19519975.547  
  19519969.789  
  20234928.367   108015440.076                    84012033.541    20234931.004  
  20234926.582  
  22095097.875   116110543.792    22095107.516    90475801.5414   22095107.777  
                
  23386396.633   125013708.869                    97232876.039    23386402.551  
  23386396.688  
  24908882.344   130897034.828    24908890.793   101997708.5044                 
                
  23437656.750   123165727.133    23437666.281    95973304.5494   23437666.285  
                
  20673828.438   108641696.439    20673837.602    84655923.1674   20673837.430  
                
  23457094.203   125435586.869                    97561023.143    23457101.895  
  23457092.594  
  21625353.500   113641996.209    21625363.133    88552261.5764   21625363.598  
                
  24182187.453   127078259.471    24182194.266    99022051.8384                 
                
  20512064.883   107791666.743    20512074.062    83993565.1314   20512073.535  
                
  21898860.758   115079320.666    21898868.141    89672232.3324   21898867.992  
                
  20343156.898   108898547.849                    84698867.250    20343162.184  
  20343155.387  
 21  8 16  9 41 50.0000000  0 14R 6R21R22G32R 5G16G18G27R20G 8G21G10
                                G23R 7
  19304916.688   103014768.213                                                  
  19304914.168  
  19521739.906   104464786.657                    81250381.940    19521743.715  
  19521737.992  
  20230239.789   107990412.179                    83992567.411    20230242.445  
  20230237.988  
  22089800.875   116082707.981    22089810.496    90454111.3164   22089810.773  
                
  23394203.055   125055438.621                    97265332.534    23394208.930  
  23394203.125  
  24915063.039   130929514.395    24915071.422   102023017.2524                 
                
  23443087.234   123194264.356    23443096.734    95995541.3124   23443096.707  
                
  20674990.602   108647803.646    20674999.734    84660682.0264   20674999.570  
                
  23463951.984   125472257.935                    97589545.057    23463959.613  
  23463950.312  
  21622359.484   113626262.559    21622369.094    88540001.5854   21622369.562  
                
  24177295.102   127052550.267    24177301.973    99002018.7464                 
                
  20513354.461   107798443.502    20513363.652    83998845.7214   20513363.102  
                
  21903728.039   115104898.378    21903735.457    89692163.0044   21903735.316  
                
  20337783.898   108869785.797                    84676496.768    20337789.188  
  20337782.398  
 21  8 16  9 42  0.0000000  0 14R 6R21R22G32R 5G16G18G27R20G 8G21G10
                                G23R 7
  19306955.852   103025649.593                                                  
  19306953.348  
  19523520.297   104474313.889                    81257792.006    19523524.109  
  19523518.398  
  20225558.914   107965425.340                    83973133.210    20225561.590  
  20225557.086  
  22084511.289   116054911.151    22084520.922    90432451.4654   22084521.203  
                
  23402011.852   125097181.016                    97297798.848    23402017.684  
  23402011.926  
  24921244.070   130961995.888    24921252.410   102048327.4834                 
                
  23448520.938   123222818.625    23448530.422    96017791.3664   23448530.375  
                
  20676165.266   108653976.590    20676174.355    84665492.1094   20676174.223  
                
  23470814.273   125508953.190                    97618085.755    23470821.863  
  23470812.578  
  21619376.148   113610585.031    21619385.746    88527785.3294   21619386.211  
                
  24172403.539   127026845.219    24172410.504    98981988.8594                 
                
  20514651.828   107805261.248    20514661.031    84004158.2494   20514660.469  
                
  21908599.664   115130498.944    21908607.137    89712111.4924   21908606.957  
                
  20332422.453   108841085.627                    84654174.429    20332427.766  
  20332420.938  
 21  8 16  9 42 10.0000000  0 14R 6R21R22G32R 5G16G18G27R20G 8G21G10
                                G23R 7
  19309009.445   103036607.918                                                  
  19309006.961  
  19525312.984   104483906.921                    81265253.248    19525316.809  
  19525311.109  
  20220885.844   107940480.180                    83953731.420    20220888.496  
  20220884.012  
  22079229.242   116027153.875    22079238.918    90410822.4354   22079239.176  
                
  23409823.055   125138936.239                    97330275.100    23409828.895  
  23409823.117  
  24927425.547   130994479.561    24927433.836   102073639.4264                 
                
  23453957.984   123251390.386    23453967.449    96040055.0604   23453967.391  
                
  20677352.531   108660215.699    20677361.582    84670353.7464   20677361.465  
                
  23477681.141   125545672.971                    97646645.516    23477688.742  
  23477679.500  
  21616403.625   113594964.236    21616413.207    88515613.2854   21616413.672  
                
  24167512.930   127001144.824    24167519.867    98961962.5544                 
                
  20515957.086   107812120.368    20515966.309    84009503.0224   20515965.723  
                
  21913475.734   115156122.766    21913483.230    89732078.0974   21913483.043  
                
  20327072.672   108812447.923                    84631900.667    20327077.996  
  20327071.141  
 21  8 16  9 42 20.0000000  0 14R 6R21R22G32R 5G16G18G27R20G 8G21G10
                                G23R 7
  19311077.484   103047643.341                                                  
  19311075.020  
  19527117.930   104493565.485                    81272765.459    19527121.758  
  19527116.059  
  20216220.523   107915576.349                    83934361.769    20216223.133  
  20216218.707  
  22073954.648   115999435.787    22073964.348    90389223.9344   22073964.598  
                
  23417636.555   125180703.757                    97362760.928    23417642.414  
  23417636.594  
  24933607.352   131026965.141    24933615.633   102098952.8194                 
                
  23459398.266   123279979.189    23459407.699    96062332.0254   23459407.648  
                
  20678552.289   108666520.498    20678561.312    84675266.5754   20678561.203  
                
  23484552.133   125582416.691                    97675223.916    23484560.062  
  23484550.824  
  21613441.805   113579399.802    21613451.379    88503485.1524   21613451.836  
                
  24162623.062   126975448.600    24162629.973    98941939.5184                 
                
  20517270.125   107819020.409    20517279.359    84014879.6754   20517278.762  
                
  21918356.117   115181769.331    21918363.602    89752062.4394   21918363.441  
                
  20321734.516   108783872.382                    84609675.249    20321739.836  
  20321732.984  
 21  8 16  9 42 30.0000000  0 14R 6R21R22G32R 5G16G18G27R20G 8G21G10
                                G23R 7
  19313159.883   103058755.397                                                  
  19313157.430  
  19528935.102   104503289.539                    81280328.601    19528938.934  
  19528933.258  
  20211562.945   107890713.868                    83915024.282    20211565.539  
  20211561.148  
  22068687.539   115971757.023    22068697.250    90367656.0784   22068697.508  
                
  23425452.375   125222483.682                    97395256.406    23425458.254  
  23425452.387  
  24939789.539   131059452.271    24939797.734   102124267.4474                 
                
  23464841.844   123308585.006    23464851.227    96084622.2514   23464851.156  
                
  20679764.570   108672891.073    20679773.574    84680230.6454   20679773.477  
                
  23491428.016   125619184.476                    97703821.017    23491435.875  
  23491426.617  
  21610490.750   113563891.900    21610500.328    88491401.0684   21610500.777  
                
  24157734.008   126949756.640    24157740.934    98921919.8984                 
                
  20518590.945   107825961.362    20518600.191    84020288.2054   20518599.586  
                
  21923240.828   115207438.635    21923248.316    89772064.4754   21923248.180  
                
  20316407.977   108755359.090                    84587498.266    20316413.305  
  20316406.457  
 21  8 16  9 42 40.0000000  0 14R 6R21R22G32R 5G16G18G27R20G 8G21G10
                                G23R 7
  19315256.688   103069944.324                                                  
  19315254.246  
  19530764.555   104513079.282                    81287942.835    19530768.379  
  19530762.734  
  20206913.195   107865893.129                    83895719.269    20206915.754  
  20206911.410  
  22063427.961   115944117.866    22063437.715    90346119.0934   22063437.977  
                
  23433270.484   125264275.912                    97427761.443    23433276.379  
  23433270.469  
  24945972.016   131091941.040    24945980.180   102149583.3424                 
                
  23470288.695   123337208.053    23470298.023    96106925.9164   23470297.953  
                
  20680989.391   108679327.557    20680998.379    84685246.0874   20680998.277  
                
  23498308.125   125655976.458                    97732436.923    23498316.219  
  23498306.922  
  21607550.508   113548440.770    21607560.102    88479361.2294   21607560.527  
                
  24152845.812   126924069.206    24152852.695    98901903.7094                 
                
  20519919.578   107832943.359    20519928.832    84025728.7194   20519928.211  
                
  21928129.898   115233130.802    21928137.414    89792084.3414   21928137.277  
                
  20311093.133   108726908.359                    84565369.930    20311098.461  
  20311091.605  
 21  8 16  9 42 50.0000000  0 14R 6R21R22G32R 5G16G18G27R20G 8G21G10
                                G23R 7
  19317367.820   103081209.716                                                  
  19317365.395  
  19532606.250   104522934.535                    81295608.037    19532610.059  
  19532604.441  
  20202271.258   107841114.190                    83876446.756    20202273.801  
  20202269.461  
  22058175.906   115916518.215    22058185.727    90324612.8874   22058185.949  
                
  23441090.828   125306080.135                    97460275.794    23441096.777  
  23441090.801  
  24952154.750   131124431.087    24952162.867   102174900.2104                 
                
  23475738.805   123365848.122    23475748.066    96129242.8344   23475748.016  
                
  20682226.719   108685829.746    20682235.684    84690312.7194   20682235.582  
                
  23505193.023   125692792.169                    97761071.313    23505200.996  
  23505191.672  
  21604621.016   113533046.175    21604630.641    88467365.4434   21604631.039  
                
  24147958.477   126898386.132    24147965.375    98881890.9224                 
                
  20521255.977   107839966.172    20521265.230    84031201.0384   20521264.609  
                
  21933023.258   115258845.535    21933030.812    89812121.7974   21933030.652  
                
  20305789.961   108698520.163                    84543290.225    20305795.297  
  20305788.438  
 21  8 16  9 43  0.0000000  0 14R 6R21R22G32R 5G16G18G27R20G 8G21G10
                                G23R 7
  19319493.359   103092551.991                                                  
  19319490.941  
  19534460.273   104532855.748                    81303324.519    19534464.086  
  19534458.480  
  20197637.227   107816377.381                    83857207.024    20197639.750  
  20197635.410  
  22052931.469   115888958.534    22052941.305    90303137.8214   22052941.539  
                
  23448913.492   125347896.738                    97492799.784    23448919.500  
  23448913.445  
  24958337.695   131156922.709    24958345.855   102200218.3414                 
                
  23481192.148   123394505.557    23481201.383    96151573.2754   23481201.375  
                
  20683476.609   108692398.005    20683485.547    84695430.8384   20683485.449  
                
  23512082.219   125729632.141                    97789724.607    23512090.328  
  23512080.926  
  21601702.352   113517708.507    21601711.984    88455414.0104   21601712.371  
                
  24143072.047   126872707.744    24143078.895    98861881.8034                 
                
  20522600.211   107847030.132    20522609.449    84036705.4214   20522608.832  
                
  21937920.977   115284583.182    21937928.578    89832177.0954   21937928.387  
                
  20300498.516   108670194.703                    84521259.324    20300503.852  
  20300496.969  
 21  8 16  9 43 10.0000000  0 14R 6R21R22G32R 5G16G18G27R20G 8G21G10
                                G23R 7
  19321633.219   103103970.715                                                  
  19321630.820  
  19536326.602   104542842.847                    81311092.254    19536330.402  
  19536324.816  
  20193011.117   107791682.871                    83838000.180    20193013.641  
  20193009.316  
  22047694.641   115861438.833    22047704.422    90281693.9094   22047704.691  
                
  23456738.406   125389725.378                    97525333.150    23456744.418  
  23456738.359  
  24964521.000   131189415.819    24964529.109   102225537.6384                 
                
  23486648.766   123423180.242    23486657.977    96173917.1554   23486658.000  
                
  20684739.062   108699032.244    20684747.980    84700600.3694   20684747.902  
                
  23518975.797   125766496.020                    97818396.478    23518984.137  
  23518974.652  
  21598794.516   113502427.675    21598804.148    88443506.8704   21598804.523  
                
  24138186.461   126847033.941    24138193.281    98841876.2274                 
                
  20523952.250   107854135.109    20523961.469    84042241.7704   20523960.855  
                
  21942823.031   115310343.610    21942830.645    89852250.1464   21942830.438  
                
  20295218.812   108641932.111                    84499277.315    20295224.156  
  20295217.254  
 21  8 16  9 43 20.0000000  0 14R 6R21R22G32R 5G16G18G27R20G 8G21G10
                                G23R 7
  19323787.445   103115465.994                                                  
  19323785.055  
  19538205.234   104552895.729                    81318911.158    19538209.031  
  19538203.473  
  20188392.898   107767030.500                    83818826.128    20188395.426  
  20188391.094  
  22042465.414   115833959.072    22042475.148    90260281.1114   22042475.438  
                
  23464565.531   125431565.801                    97557875.670    23464571.523  
  23464565.496  
  24970704.516   131221910.193    24970712.582   102250857.9044                 
                
  23492108.633   123451872.028    23492117.840    96196274.3774   23492117.879  
                
  20686014.039   108705732.266    20686022.941    84705821.1624   20686022.867  
                
  23525873.891   125803383.817                    97847086.940    23525882.410  
  23525872.859  
  21595897.531   113487203.969    21595907.160    88431644.2424   21595907.531  
                
  24133301.742   126821364.643    24133308.559    98821874.2774                 
                
  20525312.055   107861280.902    20525321.250    84047809.9244   20525320.641  
                
  21947729.367   115336126.572    21947736.992    89872340.7574   21947736.773  
                
  20289950.844   108613732.304                    84477344.137    20289956.188  
  20289949.285  
 21  8 16  9 43 30.0000000  0 14R 6R21R22G32R 5G16G18G27R20G 8G21G10
                                G23R 7
  19325955.938   103127037.524                                                  
  19325953.582  
  19540096.102   104563014.163                    81326781.041    19540099.906  
  19540094.352  
  20183782.555   107742420.193                    83799684.771    20183785.086  
  20183780.781  
  22037243.773   115806519.192    22037253.516    90238899.4054   22037253.797  
                
  23472394.820   125473417.798                    97590427.217    23472400.750  
  23472394.773  
  24976888.227   131254405.500    24976896.273   102276178.8894                 
                
  23497571.727   123480580.767    23497580.941    96218644.7784   23497581.004  
                
  20687301.508   108712497.977    20687310.395    84711093.1414   20687310.328  
                
  23532776.508   125840295.228                    97875795.754    23532785.121  
  23532775.508  
  21593011.383   113472037.148    21593020.996    88419825.9394   21593021.363  
                
  24128417.859   126795699.800    24128424.535    98801875.6164                 
                
  20526679.586   107868467.353    20526688.758    84053409.7544   20526688.156  
                
  21952639.961   115361931.893    21952647.602    89892448.7804   21952647.371  
                
  20284694.570   108585595.142                    84455459.686    20284699.910  
  20284693.020  
 21  8 16  9 43 40.0000000  0 14R 6R21R22G32R 5G16G18G27R20G 8G21G10
                                G23R 7
  19328138.758   103138685.403                                                  
  19328136.418  
  19541999.305   104573198.567                    81334702.249    19542003.094  
  19541997.555  
  20179180.164   107717852.292                    83780576.404    20179182.711  
  20179178.418  
  22032029.789   115779119.513    22032039.531    90217549.0144   22032039.805  
                
  23480226.297   125515281.395                    97622987.792    23480232.141  
  23480226.254  
  24983072.133   131286901.910    24983080.215   102301500.7664                 
                
  23503038.078   123509306.617    23503047.301    96241028.5374   23503047.398  
                
  20688601.516   108719329.539    20688610.379    84716416.4314   20688610.328  
                
  23539683.617   125877230.499                    97904523.139    23539692.289  
  23539682.613  
  21590136.141   113456927.611    21590145.734    88408052.2794   21590146.105  
                
  24123534.898   126770039.646    24123541.547    98781880.6864                 
                
  20528054.898   107875694.621    20528064.047    84059041.3924   20528063.453  
                
  21957554.836   115387759.714    21957562.492    89912574.3484   21957562.242  
                
  20279450.109   108557521.150                    84433624.359    20279455.434  
  20279448.559  
 21  8 16  9 43 50.0000000  0 14R 6R21R22G32R 5G16G18G27R20G 8G21G10
                                G23R 7
  19330335.812   103150409.292                                                  
  19330333.480  
  19543914.781   104583448.650                    81342674.533    19543918.566  
  19543913.020  
  20174585.719   107693326.795                    83761501.019    20174588.246  
  20174583.980  
  22026823.445   115751759.990    22026833.172    90196229.9124   22026833.441  
                
  23488059.898   125557156.411                    97655557.259    23488065.656  
  23488059.867  
  24989256.188   131319399.162    24989264.309   102326823.2684                 
                
  23508507.680   123538049.456    23508516.918    96263425.5384   23508517.016  
                
  20689914.023   108726226.815    20689922.859    84721790.9304   20689922.824  
                
  23546595.125   125914189.277                    97933268.808    23546603.832  
  23546594.152  
  21587271.766   113441875.208    21587281.344    88396323.1364   21587281.734  
                
  24118652.812   126744384.066    24118659.473    98761889.3804                 
                
  20529437.945   107882962.544    20529447.078    84064704.7074   20529446.492  
                
  21962473.953   115413609.836    21962481.605    89932717.2874   21962481.371  
                
  20274217.430   108529510.181                    84411838.073    20274222.738  
  20274215.871  
 21  8 16  9 44  0.0000000  0 14R 6R21R22G32R 5G16G18G27R20G 8G21G10
                                G23R 7
  19332547.117   103162209.188                                                  
  19332544.793  
  19545842.531   104593764.459                    81350697.938    19545846.301  
  19545840.758  
  20169999.258   107668843.992                    83742458.837    20170001.758  
  20169997.516  
  22021624.750   115724440.699    22021634.473    90174942.1594   22021634.738  
                
  23495895.625   125599042.682                    97688135.481    23495901.305  
  23495895.609  
  24995440.352   131351897.112    24995448.543   102352146.3194                 
                
  23513980.508   123566809.262    23513989.770    96285835.7534   23513989.852  
                
  20691239.031   108733189.792    20691247.832    84727216.6274   20691247.812  
                
  23553511.328   125951171.735                    97962032.880    23553519.766  
  23553510.129  
  21584418.227   113426879.782    21584427.797    88384638.3894   21584428.188  
                
  24113771.594   126718733.113    24113778.332    98741901.6224                 
                
  20530828.711   107890271.045    20530837.836    84070399.6434   20530837.250  
                
  21967397.297   115439482.176    21967404.918    89952877.5504   21967404.703  
                
  20268996.516   108501562.274                    84390100.821    20269001.812  
  20268994.953  
 21  8 16  9 44 10.0000000  0 14R 6R21R22G32R 5G16G18G27R20G 8G21G10
                                G23R 7
  19334772.617   103174084.896                                                  
  19334770.297  
  19547782.555   104604145.912                    81358772.396    19547786.312  
  19547780.789  
  20165420.766   107644403.698                    83723449.742    20165423.285  
  20165419.035  
  22016433.695   115697161.590    22016443.418    90153685.7264   22016443.684  
                
  23503733.398   125640939.943                    97720722.229    23503739.059  
  23503733.406  
  25001624.711   131384395.508    25001632.840   102377469.6934                 
                
  23519456.531   123595585.866    23519465.809    96308259.0454   23519465.871  
                
  20692576.516   108740218.299    20692585.285    84732693.3784   20692585.281  
                
  23560431.680   125988177.521                    97990815.093    23560440.059  
  23560430.711  
  21581575.578   113411941.547    21581585.137    88372998.2034   21581585.539  
                
  24108891.234   126693086.565    24108898.055    98721917.3274                 
                
  20532227.164   107897619.956    20532236.285    84076126.0624   20532235.695  
                
  21972324.836   115465376.547    21972332.426    89973054.9764   21972332.230  
                
  20263787.367   108473677.365                    84368412.566    20263792.648  
  20263785.809  
 21  8 16  9 44 20.0000000  0 14R 6R21R22G32R 5G16G18G27R20G 8G21G10
                                G23R 7
  19337012.359   103186036.550                                                  
  19337010.039  
  19549734.906   104614593.307                    81366898.143    19549738.645  
  19549733.145  
  20160850.328   107620006.384                    83704474.035    20160852.863  
  20160848.602  
  22011250.383   115669923.089    22011260.082    90132460.9354   22011260.375  
                
  23511573.273   125682848.425                    97753317.681    23511578.961  
  23511573.230  
  25007809.148   131416894.607    25007817.258   102402793.6304                 
                
  23524935.820   123624379.604    23524945.125    96330695.6894   23524945.148  
                
  20693926.531   108747312.673    20693935.277    84738221.4584   20693935.281  
                
  23567356.469   126025206.839                    98019615.629    23567364.820  
  23567355.398  
  21578743.883   113397060.855    21578753.441    88361402.8574   21578753.863  
                
  24104011.773   126667444.725    24104018.551    98701936.6564                 
                
  20533633.367   107905009.560    20533642.488    84081884.1954   20533641.898  
                
  21977256.633   115491293.220    21977264.227    89993249.7814   21977264.035  
                
  20258590.078   108445855.927                    84346773.674    20258595.344  
  20258588.523  
 21  8 16  9 44 30.0000000  0 13R 6R21R22G32R 5G16G18G27G 8G21G10G23
                                R 7
  19339266.336   103198064.267                                                  
  19339264.016  
  19551699.594   104625106.701                    81375075.219    19551703.312  
  19551697.848  
  20156287.961   107595652.175                    83685531.886    20156290.523  
  20156286.230  
  22006074.828   115642725.397    22006084.488    90111267.9284   22006084.801  
                
  23519415.227   125724768.175                    97785921.868    23519420.977  
  23519415.129  
  25013993.641   131449394.361    25014001.824   102428118.0844                 
                
  23530418.359   123653190.481    23530427.688    96353145.7044   23530427.660  
                
  20695289.078   108754472.943    20695297.801    84743800.8844   20695297.812  
                
  21575923.125   113382237.687    21575932.680    88349852.3454   21575933.121  
                
  24099133.234   126641807.739    24099140.059    98681959.7954                 
                
  20535047.312   107912439.906    20535056.430    84087674.0714   20535055.844  
                
  21982192.664   115517232.198    21982200.262    90013461.9684   21982200.062  
                
  20253404.656   108418097.978                    84325184.157    20253409.902  
  20253403.094  
 21  8 16  9 44 40.0000000  0 14R 6R21R22G32R 5G16G18G27R20G 8G21G10
                                G23R 7
  19341534.516   103210167.682                                                  
  19341532.184  
  19553676.570   104635685.841                    81383303.445    19553680.254  
  19553674.840  
  20151733.648   107571340.945                    83666623.161    20151736.168  
  20151731.941  
  22000906.992   115615568.259    22000916.613    90090106.5264   22000916.945  
                
  23527259.172   125766698.545                    97818534.311    23527264.977  
  23527259.062  
  25020178.172   131481894.436    25020186.438   102453442.7924                 
                
  23535904.148   123682018.194    23535913.414    96375608.8404   23535913.352  
                
  20696664.125   108761698.813    20696672.820    84749431.4284   20696672.844  
                
  23581219.125   126099336.134                    98077271.659    23581227.707  
  23581218.070  
  21573113.305   113367471.952    21573122.848    88338346.5764   21573123.324  
                
  24094255.523   126616175.386    24094262.406    98661986.5724                 
                
  20536468.953   107919910.622    20536478.070    84093495.4104   20536477.484  
                
  21987132.875   115543193.127    21987140.480    90033691.2464   21987140.266  
                
  20248231.070   108390403.434                    84303643.971    20248236.320  
  20248229.523  
 21  8 16  9 44 50.0000000  0 14R 6R21R22G32R 5G16G18G27R20G 8G21G10
                                G23R 7
  19343816.867   103222346.740                                                  
  19343814.512  
  19555665.875   104646331.011                    81391583.003    19555669.547  
  19555664.129  
  20147187.477   107547073.207                    83647748.250    20147189.961  
  20147185.750  
  21995746.922   115588452.020    21995756.484    90068977.0044   21995756.848  
                
  23535105.156   125808639.745                    97851155.207    23535110.977  
  23535105.094  
  25026362.789   131514394.897    25026371.121   102478767.8054                 
                
  23541393.156   123710862.976    23541402.355    96398085.2874   23541402.277  
                
  20698051.680   108768990.500    20698060.352    84755113.2584   20698060.387  
                
  23588156.914   126136435.898                    98106127.004    23588165.539  
  23588155.523  
  21570314.445   113352763.899    21570323.988    88326885.7554   21570324.477  
                
  24089378.734   126590547.999    24089385.656    98642017.1904                 
                
  20537898.305   107927421.935    20537907.422    84099348.3794   20537906.832  
                
  21992077.297   115569176.171    21992084.898    90053937.7754   21992084.684  
                
  20243069.414   108362772.687                    84282153.410    20243074.652  
  20243067.879  
 21  8 16  9 45  0.0000000  0 13R 6R21R22G32R 5G16G18G27G 8G21G10G23
                                R 7
  19346113.359   103234601.218                                                  
  19346111.008  
  19557667.492   104657042.030                    81399913.786    19557671.141  
  19557665.758  
  20142649.391   107522848.586                    83628906.889    20142651.902  
  20142647.641  
  21990594.641   115561376.610    21990604.164    90047879.2934   21990604.535  
                
  23542953.125   125850591.513                    97883784.328    23542958.973  
  23542953.094  
  25032547.445   131546895.562    25032555.844   102504092.9724                 
                
  23546885.391   123739724.633    23546894.512    96420574.8964   23546894.438  
                
  20699451.734   108776347.802    20699460.383    84760846.2204   20699460.430  
                
  21567526.547   113338113.401    21567536.102    88315469.7824   21567536.574  
                
  24084502.883   126564925.373    24084509.848    98622051.4854                 
                
  20539335.344   107934973.606    20539344.457    84105232.7974   20539343.867  
                
  21997025.883   115595181.111    21997033.441    90074201.3604   21997033.266  
                
  20237919.625   108335205.489                    84260712.255    20237924.844  
  20237918.098  
 21  8 16  9 45 10.0000000  0 13R 6R21R22G32R 5G16G18G27G 8G21G10G23
                                R 7
  19348424.016   103246931.282                                                  
  19348421.676  
  19559681.453   104667819.079                    81408295.941    19559685.098  
  19559679.727  
  20138119.430   107498667.409                    83610099.305    20138121.977  
  20138117.672  
  21985450.164   115534342.202    21985459.711    90026813.5294   21985460.070  
                
  23550803.086   125892553.885                    97916421.712    23550808.969  
  23550803.094  
  25038732.133   131579396.198    25038740.539   102529418.1414                 
                
  23552380.844   123768603.213    23552389.910    96443077.6524   23552389.828  
                
  20700864.297   108783770.821    20700872.926    84766630.3884   20700872.988  
                
  21564749.617   113323520.528    21564759.203    88304098.7184   21564759.660  
                
  24079627.953   126539307.625    24079634.973    98602089.6284                 
                
  20540780.070   107942565.687    20540789.180    84111148.7094   20540788.594  
                
  22001978.641   115621207.961    22001986.176    90094482.0134   22001986.012  
                
  20232781.750   108307702.080                    84239320.710    20232786.961  
  20232780.219  
 21  8 16  9 45 20.0000000  0 13R 6R21R22G32R 5G16G18G27G 8G21G10G23
                                R 7
  19350748.758   103259336.520                                                  
  19350746.445  
  19561707.664   104678661.719                    81416729.095    19561711.289  
  19561705.945  
  20133597.594   107474529.566                    83591325.444    20133600.172  
  20133595.809  
  21980313.445   115507348.593    21980323.035    90005779.5584   21980323.387  
                
  23558654.953   125934526.461                    97949067.023    23558660.840  
  23558655.000  
  25044916.711   131611896.468    25044925.160   102554742.9894                 
                
  23557879.414   123797498.433    23557888.461    96465593.3894   23557888.418  
                
  20702289.289   108791259.196    20702297.906    84772465.4864   20702297.980  
                
  21561983.609   113308985.048    21561993.227    88292772.3784   21561993.680  
                
  24074753.891   126513694.346    24074760.977    98582131.2344                 
                
  20542232.422   107950197.834    20542241.531    84117095.8364   20542240.938  
                
  22006935.500   115647256.360    22006942.996    90114779.4564   22006942.840  
                
  20227655.750   108280262.152                    84217978.559    20227660.945  
  20227654.227  
 21  8 16  9 45 30.0000000  0 13R 6R21R22G32R 5G16G18G27G 8G21G10G23
                                R 7
  19353087.617   103271817.067                                                  
  19353085.332  
  19563746.242   104689570.554                    81425213.745    19563749.855  
  19563744.512  
  20129083.969   107450435.600                    83572585.697    20129086.562  
  20129082.184  
  21975184.570   115480396.250    21975194.129    89984777.7424   21975194.512  
                
  23566508.734   125976509.249                    97981720.291    23566514.590  
  23566508.852  
  25051101.336   131644396.617    25051109.785   102580067.7424                 
                
  23563381.203   123826410.650    23563390.277    96488122.3484   23563390.242  
                
  20703726.797   108798813.340    20703735.406    84778351.8264   20703735.480  
                
  21559228.656   113294507.692    21559238.289    88281491.3174   21559238.734  
                
  24069880.734   126488085.942    24069887.938    98562176.6904                 
                
  20543692.461   107957870.388    20543701.566    84123074.4534   20543700.965  
                
  22011896.508   115673326.637    22011903.973    90135093.9564   22011903.836  
                
  20222541.688   108252886.193                    84196686.150    20222546.871  
  20222540.180  
 21  8 16  9 45 40.0000000  0 13R 6R21R22G32R 5G16G18G27G 8G21G10G23
                                R 7
  19355440.562   103284372.828                                                  
  19355438.285  
  19565797.188   104700545.533                    81433749.830    19565800.801  
  19565795.445  
  20124578.570   107426385.481                    83553880.046    20124581.141  
  20124576.781  
  21970063.586   115453485.360    21970073.074    89963808.2304   21970073.508  
                
  23574364.445   126018502.344                    98014381.585    23574370.293  
  23574364.625  
  25057285.969   131676896.768    25057294.438   102605392.5034                 
                
  23568886.273   123855339.924    23568895.363    96510664.6064   23568895.340  
                
  20705176.844   108806433.313    20705185.445    84784289.4664   20705185.512  
                
  21556484.758   113280088.416    21556494.410    88270255.5164   21556494.844  
                
  24065008.562   126462482.656    24065015.793    98542226.1284                 
                
  20545160.195   107965583.406    20545169.301    84129084.5964   20545168.699  
                
  22016861.703   115699418.847    22016869.145    90155425.5324   22016869.035  
                
  20217439.625   108225574.448                    84175443.701    20217444.812  
  20217438.129  
 21  8 16  9 45 50.0000000  0 13R 6R21R22G32R 5G16G18G27G 8G21G10G23
                                R 7
  19357807.570   103297003.546                                                  
  19357805.305  
  19567860.383   104711586.094                    81442336.932    19567863.992  
  19567858.613  
  20120081.328   107402378.859                    83535208.239    20120083.875  
  20120079.531  
  21964950.391   115426615.395    21964959.828    89942870.5964   21964960.297  
                
  23582221.961   126060505.224                    98047050.483    23582227.789  
  23582222.137  
  25063470.375   131709396.107    25063478.914   102630716.6574                 
                
  23574394.484   123884285.578    23574403.598    96533219.6554   23574403.566  
                
  20706639.281   108814118.453    20706647.871    84790277.8824   20706647.922  
                
  21553751.805   113265726.638    21553761.480    88259064.5234   21553761.906  
                
  24060137.281   126436883.882    24060144.484    98522279.0074                 
                
  20546635.508   107973336.202    20546644.617    84135125.7334   20546644.020  
                
  22021830.914   115725532.241    22021838.355    90175773.6284   22021838.258  
                
  20212349.438   108198326.312                    84154250.717    20212354.621  
  20212347.953  
 21  8 16  9 46  0.0000000  0 13R 6R21R22G32R 5G16G18G27G 8G21G10G23
                                R 7
  19360188.664   103309709.510                                                  
  19360186.383  
  19569935.969   104722692.929                    81450975.569    19569939.578  
  19569934.180  
  20115592.398   107378416.650                    83516570.960    20115594.941  
  20115590.609  
  21959845.141   115399787.137    21959854.582    89921965.4744   21959855.043  
                
  23590081.398   126102518.297                    98079727.312    23590087.176  
  23590081.539  
  25069654.742   131741895.237    25069663.332   102656040.6214                 
                
  23579905.945   123913248.332    23579915.098    96555788.0184   23579915.055  
                
  20708114.258   108821869.451    20708122.832    84796317.6184   20708122.887  
                
  21551029.945   113251423.210    21551039.656    88247919.0004   21551040.070  
                
  24055266.992   126411290.328    24055274.125    98502335.9874                 
                
  20548118.508   107981129.426    20548127.617    84141198.3694   20548127.016  
                
  22026804.289   115751667.496    22026811.723    90196138.7484   22026811.633  
                
  20207271.273   108171142.502                    84133107.763    20207276.461  
  20207269.781  
 21  8 16  9 46 10.0000000  0 13R 6R21R22G32R 5G16G18G27G 8G21G10G23
                                R 7
  19362583.773   103322490.309                                                  
  19362581.492  
  19572023.859   104733865.671                    81459665.483    19572027.473  
  19572022.051  
  20111111.695   107354498.352                    83497967.835    20111114.242  
  20111109.891  
  21954747.766   115373000.319    21954757.234    89901092.6384   21954757.676  
                
  23597942.617   126144540.993                    98112411.602    23597948.359  
  23597942.738  
  25075838.977   131774393.663    25075847.617   102681364.0494                 
                
  23585420.562   123942227.831    23585429.785    96578369.3964   23585429.723  
                
  20709601.680   108829685.926    20709610.238    84802408.3764   20709610.309  
                
  21548319.141   113237177.889    21548328.883    88236818.7464   21548329.285  
                
  24050397.625   126385701.648    24050404.641    98482396.7374                 
                
  20549609.117   107988962.672    20549618.223    84147302.2034   20549617.621  
                
  22031781.734   115777824.176    22031789.180    90216520.5684   22031789.074  
                
  20202205.102   108144022.940                    84112014.781    20202210.297  
  20202203.609  
 21  8 16  9 46 20.0000000  0 13R 6R21R22G32R 5G16G18G27G 8G21G10G23
                                R 7
  19364992.836   103335345.478                                                  
  19364990.535  
  19574124.070   104745104.313                    81468406.632    19574127.688  
  19574122.246  
  20106639.234   107330624.090                    83479398.984    20106641.773  
  20106637.422  
  21949658.281   115346254.898    21949667.762    89880252.0554   21949668.195  
                
  23605805.602   126186573.090                    98145103.209    23605811.320  
  23605805.684  
  25082023.133   131806891.218    25082031.762   102706686.7974                 
                
  23590938.344   123971223.869    23590947.609    96600963.6784   23590947.504  
                
  20711101.547   108837567.716    20711110.082    84808550.0154   20711110.152  
                
  21545619.367   113222990.455    21545629.125    88225763.6044   21545629.508  
                
  24045529.148   126360117.686    24045536.160    98462461.1864                 
                
  20551107.328   107996835.788    20551116.426    84153437.0994   20551115.836  
                
  22036763.219   115804002.077    22036770.668    90236918.9164   22036770.582  
                
  20197150.906   108116967.398                    84090971.590    20197156.102  
  20197149.426  
 21  8 16  9 46 30.0000000  0 13R 6R21R22G32R 5G16G18G27G 8G21G10G23
                                R 7
  19367415.891   103348275.307                                                  
  19367413.582  
  19576236.578   104756408.786                    81477198.995    19576240.211  
  19576234.750  
  20102175.086   107306794.159                    83460864.581    20102177.594  
  20102173.266  
  21944576.695   115319551.040    21944586.156    89859443.8694   21944586.621  
                
  23613670.344   126228614.618                    98177802.152    23613676.039  
  23613670.379  
  25088207.055   131839387.831    25088215.699   102732008.8174                 
                
  23596459.328   124000236.530    23596468.539    96623570.9504   23596468.426  
                
  20712613.859   108845514.923    20712622.379    84814742.6444   20712622.453  
                
  21542930.656   113208861.231    21542940.422    88214753.8194   21542940.801  
                
  24040661.609   126334538.646    24040668.602    98442529.4824                 
                
  20552613.117   108004748.820    20552622.203    84159603.0944   20552621.621  
                
  22041748.766   115830201.253    22041756.203    90257333.8474   22041756.125  
                
  20192108.680   108089975.995                    84069978.285    20192113.871  
  20192107.219  
 21  8 16  9 46 40.0000000  0 12R 6R21R22G32G16G18G27G 8G21G10G23R 7
  19369852.922   103361279.798                                                  
  19369850.625  
  19578361.445   104767779.343                    81486042.765    19578365.094  
  19578359.605  
  20097719.273   107283008.766                    83442364.844    20097721.797  
  20097717.473  
  21939503.086   115292889.077    21939512.516    89838668.3234   21939512.996  
                
  25094390.875   131871883.597    25094399.445   102757330.1804                 
                
  23601983.477   124029266.028    23601992.664    96646191.3064   23601992.590  
                
  20714138.648   108853527.723    20714147.152    84820986.3814   20714147.238  
                
  21540253.031   113194790.233    21540262.805    88203789.4074   21540263.180  
                
  24035795.062   126308964.767    24035802.023    98422601.7904                 
                
  20554126.547   108012701.926    20554135.621    84165800.3164   20554135.055  
                
  22046738.375   115856421.840    22046745.832    90277765.4744   22046745.742  
                
  20187078.539   108063049.275                    84049035.295    20187083.734  
  20187077.078  
 21  8 16  9 46 50.0000000  0 12R 6R21R22G32G16G18G27G 8G21G10G23R 7
  19372303.977   103374359.120                                                  
  19372301.676  
  19580498.672   104779216.101                    81494938.011    19580502.332  
  19580496.816  
  20093271.852   107259268.079                    83423899.851    20093274.332  
  20093270.066  
  21934437.453   115266269.032    21934446.855    89817925.4344   21934447.348  
                
  25100574.484   131904378.346    25100583.027   102782650.7544                 
                
  23607510.836   124058312.287    23607519.977    96668824.7264   23607519.906  
                
  20715675.898   108861606.013    20715684.395    84827281.1494   20715684.480  
                
  21537586.500   113180777.523    21537596.270    88192870.4144   21537596.652  
                
  24030929.453   126283395.988    24030936.418    98402678.0824                 
                
  20555647.578   108020694.998    20555656.645    84172028.6854   20555656.090  
                
  22051732.039   115882663.720    22051739.496    90298213.6784   22051739.402  
                
  20182060.461   108036187.058                    84028142.459    20182065.645  
  20182059.012  
 21  8 16  9 47  0.0000000  0 12R 6R21R22G32G16G18G27G 8G21G10G23R 7
  19374768.906   103387512.502                                                  
  19374766.586  
  19582648.234   104790718.825                    81503884.580    19582651.902  
  19582646.363  
  20088832.750   107235571.932                    83405469.529    20088835.207  
  20088830.969  
  21929379.805   115239690.931    21929389.172    89797215.2364   21929389.676  
                
  25106757.789   131936871.932    25106766.344   102807970.3874                 
                
  23613041.375   124087375.193    23613050.461    96691471.1284   23613050.402  
                
  20717225.609   108869749.745    20717234.098    84833626.9184   20717234.188  
                
  21534931.062   113166823.145    21534940.816    88181996.8784   21534941.223  
                
  24026064.789   126257832.249    24026071.777    98382758.3144                 
                
  20557176.188   108028727.928    20557185.250    84178288.1144   20557184.707  
                
  22056729.742   115908926.769    22056737.180    90318678.3834   22056737.117  
                
  20177054.453   108009389.497                    84007299.916    20177059.609  
  20177053.031  
 21  8 16  9 47 10.0000000  0 11R 6R21R22G32G18G27G 8G21G10G23R 7
  19377247.781   103400740.251                                                  
  19377245.469  
  19584810.133   104802287.571                    81512882.470    19584813.820  
  19584808.246  
  20084402.047   107211920.486                    83387073.960    20084404.461  
  20084400.281  
  21924330.133   115213154.765    21924339.469    89776537.7144   21924339.977  
                
  23618575.039   124116454.639    23618584.086    96714130.4124   23618584.051  
                
  20718787.742   108877958.799    20718796.238    84840023.5714   20718796.328  
                
  21532286.734   113152927.104    21532296.449    88171168.7904   21532296.883  
                
  24021201.078   126232273.435    24021208.125    98362842.4074                 
                
  20558712.367   108036800.598    20558721.422    84184578.5034   20558720.891  
                
  22061731.438   115935210.823    22061738.887    90339159.4554   22061738.824  
                
  20172060.484   107982656.356                    83986507.479    20172065.625  
  20172059.070  
 21  8 16  9 47 20.0000000  0 11R 6R21R22G32G18G27G 8G21G10G23R 7
  19379740.477   103414041.800                                                  
  19379738.160  
  19586984.336   104813922.177                    81521931.600    19586988.035  
  19586982.434  
  20079979.711   107188313.809                    83368713.214    20079982.113  
  20079977.953  
  21919288.445   115186660.504    21919297.777    89755892.8404   21919298.254  
                
  23624111.820   124145550.504    23624120.836    96736802.4974   23624120.797  
                
  20720362.281   108886233.018    20720370.785    84846471.0154   20720370.867  
                
  21529653.492   113139089.374    21529663.180    88160386.1434   21529663.629  
                
  24016338.328   126206719.528    24016345.422    98342930.2824                 
                
  20560256.062   108044912.810    20560265.121    84190899.7114   20560264.594  
                
  22066737.094   115961515.705    22066744.547    90359656.7554   22066744.496  
                
  20167078.562   107955987.698                    83965765.197    20167083.684  
  20167077.148  
 21  8 16  9 47 30.0000000  0 11R 6R21R22G32G18G27G 8G21G10G23R 7
  19382247.164   103427417.943                                                  
  19382244.816  
  19589170.922   104825623.045                    81531032.270    19589174.656  
  19589169.016  
  20075565.844   107164752.255                    83350387.563    20075568.219  
  20075564.078  
  21914254.836   115160208.708    21914264.156    89735281.0474   21914264.629  
                
  23629651.789   124174663.202    23629660.797    96759487.6974   23629660.773  
                
  20721949.305   108894572.852    20721957.816    84852969.5814   20721957.898  
                
  21527031.453   113125310.450    21527041.125    88149649.3194   21527041.598  
                
  24011476.562   126181170.949    24011483.715    98323022.3014                 
                
  20561807.367   108053064.992    20561816.438    84197252.0584   20561815.902  
                
  22071746.789   115987841.797    22071754.234    90380170.5844   22071754.207  
                
  20162108.781   107929384.114                    83945073.532    20162113.891  
  20162107.379  
 21  8 16  9 47 40.0000000  0 11R 6R21R22G32G18G27G 8G21G10G23R 7
  19384767.719   103440868.134                                                  
  19384765.395  
  19591369.844   104837389.937                    81540184.271    19591373.586  
  19591367.926  
  20071160.445   107141235.944                    83332097.103    20071162.812  
  20071158.688  
  21909229.266   115133799.164    21909238.578    89714702.1854   21909239.055  
                
  23635194.930   124203792.451    23635203.926    96782185.7764   23635203.926  
                
  20723548.750   108902977.955    20723557.270    84859519.0084   20723557.352  
                
  21524420.547   113111590.077    21524430.215    88138958.1214   21524430.699  
                
  24006615.797   126155627.491    24006622.961    98303118.3054                 
                
  20563366.219   108061256.812    20563375.309    84203635.2944   20563374.766  
                
  22076760.461   116014188.787    22076767.906    90400700.6934   22076767.898  
                
  20157151.109   107902845.281                    83924432.231    20157156.219  
  20157149.703  
 21  8 16  9 47 50.0000000  0 11R 6R21R22G32G18G27G 8G21G10G23R 7
  19387302.125   103454392.243                                                  
  19387299.809  
  19593581.125   104849222.980                    81549387.752    19593584.895  
  19593579.211  
  20066763.516   107117764.824                    83313841.790    20066765.918  
  20066761.773  
  21904211.766   115107432.104    21904221.086    89694156.4314   21904221.559  
                
  23640741.211   124232938.320    23640750.277    96804896.8334   23640750.242  
                
  20725160.641   108911448.507    20725169.168    84866119.4304   20725169.254  
                
  21521820.812   113097928.405    21521830.477    88128312.6604   21521830.961  
                
  24001756.055   126130089.315    24001763.238    98283218.4474                 
                
  20564932.633   108069488.379    20564941.738    84210049.5014   20564941.184  
                
  22081778.133   116040556.717    22081785.609    90421247.1264   22081785.582  
                
  20152205.555   107876371.416                    83903841.446    20152210.652  
  20152204.164  
 21  8 16  9 48  0.0000000  0 11R 6R21R22G32G18G27G 8G21G10G23R 7
  19389850.367   103467990.131                                                  
  19389848.086  
  19595804.797   104861122.293                    81558642.755    19595808.578  
  19595802.891  
  20062375.117   107094339.236                    83295621.882    20062377.492  
  20062373.387  
  21899202.367   115081107.573    21899211.676    89673643.8124   21899212.148  
                
  23646290.680   124262100.793    23646299.816    96827620.7984   23646299.742  
                
  20726784.969   108919984.385    20726793.520    84872770.7594   20726793.590  
                
  21519232.242   113084325.426    21519241.898    88117712.9374   21519242.395  
                
  23996897.320   126104556.436    23996904.492    98263322.6914                 
                
  20566506.586   108077759.584    20566515.699    84216494.5954   20566515.137  
                
  22086799.750   116066945.491    22086807.227    90441809.8084   22086807.199  
                
  20147272.188   107849962.686                    83883301.333    20147277.293  
  20147270.793  
 21  8 16  9 48 10.0000000  0 11R 6R21R22G32G18G27G 8G21G10G23R 7
  19392412.477   103481662.031                                                  
  19392410.191  
  19598040.875   104873087.960                    81567949.375    19598044.676  
  19598038.980  
  20057995.273   107070959.307                    83277437.494    20057997.676  
  20057993.539  
  21894201.125   115054825.895    21894210.398    89653164.5954   21894210.895  
                
  23651843.344   124291280.108    23651852.492    96850357.8824   23651852.391  
                
  20728421.773   108928585.844    20728430.359    84879473.1884   20728430.410  
                
  21516654.969   113070781.775    21516664.621    88107159.4444   21516665.125  
                
  23992039.641   126079029.071    23992046.805    98243431.2844                 
                
  20568088.125   108086070.634    20568097.246    84222970.7374   20568096.676  
                
  22091825.383   116093355.316    22091832.840    90462388.8744   22091832.824  
                
  20142351.000   107823619.216                    83862811.975    20142356.109  
  20142349.598  
 21  8 16  9 48 20.0000000  0 11R 6R21R22G32G18G27G 8G21G10G23R 7
  19394988.523   103495408.226                                                  
  19394986.223  
  19600289.414   104885120.341                    81577307.886    19600293.219  
  19600287.535  
  20053624.094   107047625.681                    83259289.121    20053626.504  
  20053622.375  
  21889208.109   115028587.542    21889217.359    89632719.1344   21889217.867  
                
  23657399.227   124320476.597    23657408.387    96873108.3764   23657408.273  
                
  20730071.125   108937253.237    20730079.746    84886226.9984   20730079.773  
                
  21514088.969   113057297.375    21514098.621    88096652.1154   21514099.125  
                
  23987183.055   126053507.568    23987190.160    98223544.4084                 
                
  20569677.312   108094421.864    20569686.422    84229478.1964   20569685.852  
                
  22096855.062   116119786.465    22096862.512    90482984.5754   22096862.500  
                
  20137442.141   107797341.750                    83842373.954    20137447.262  
  20137440.742  
 21  8 16  9 48 30.0000000  0 11R 6R21R22G32G18G27G 8G21G10G23R 7
  19397578.195   103509227.213                                                  
  19397575.883  
  19602550.219   104897218.327                    81586717.414    19602554.035  
  19602548.371  
  20049261.383   107024337.273                    83241175.914    20049263.781  
  20049259.680  
  21884223.109   115002391.269    21884232.359    89612306.4634   21884232.867  
                
  23662958.141   124349688.861    23662967.293    96895871.1634   23662967.203  
                
  20731732.766   108945985.169    20731741.406    84893031.0974   20731741.418  
                
  21511534.062   113043871.287    21511543.723    88086190.2374   21511544.211  
                
  23982327.359   126027990.654    23982334.418    98203661.1044                 
                
  20571273.883   108102811.883    20571282.977    84236015.8704   20571282.410  
                
  22101888.539   116146237.573    22101895.992    90503595.8084   22101895.973  
                
  20132545.344   107771128.822                    83821986.141    20132550.488  
  20132543.934  
 21  8 16  9 48 40.0000000  0 11R 6R21R22G32G18G27G 8G21G10G23R 7
  19400181.578   103523119.321                                                  
  19400179.254  
  19604823.320   104909382.020                    81596178.063    19604827.145  
  19604821.500  
  20044907.203   107001094.373                    83223098.111    20044909.602  
  20044905.508  
  21879246.211   114976237.549    21879255.496    89591926.9554   21879255.980  
                
  23668520.117   124378917.338    23668529.309    96918646.5614   23668529.215  
                
  20733406.758   108954782.038    20733415.402    84899885.7924   20733415.422  
                
  21508990.344   113030503.958    21508999.992    88075774.1344   21509000.477  
                
  23977472.594   126002478.740    23977479.645    98183781.6904                 
                
  20572877.898   108111241.033    20572886.980    84242584.0374   20572886.414  
                
  22106925.875   116172708.930    22106933.344    90524222.8404   22106933.305  
                
  20127660.672   107744980.824                    83801648.815    20127665.836  
  20127659.234  
 21  8 16  9 48 50.0000000  0 11R 6R21R22G32G18G27G 8G21G10G23R 7
  19402798.680   103537084.670                                                  
  19402796.352  
  19607108.758   104921611.827                    81605690.122    19607112.582  
  19607106.957  
  20040561.602   106977897.258                    83205055.925    20040564.039  
  20040559.863  
  21874277.477   114950126.745    21874286.797    89571580.8854   21874287.246  
                
  23674085.234   124408162.222    23674094.457    96941434.7464   23674094.359  
                
  20735093.148   108963644.067    20735101.805    84906791.2654   20735101.832  
                
  21506457.852   113017195.632    21506467.488    88065404.0084   21506467.996  
                
  23972618.852   125976972.126    23972625.848    98163906.3984                 
                
  20574489.398   108119709.531    20574498.473    84249182.8714   20574497.906  
                
  22111967.102   116199200.768    22111974.582    90544865.8184   22111974.535  
                
  20122788.211   107718898.207                    83781362.343    20122793.383  
  20122786.738  
 21  8 16  9 49  0.0000000  0 11R 6R21R22G32G18G27G 8G21G10G23R 7
  19405429.492   103551123.216                                                  
  19405427.137  
  19609406.523   104933907.581                    81615253.493    19609410.355  
  19609404.754  
  20036224.586   106954746.008                    83187049.386    20036227.051  
  20036222.840  
  21869316.891   114924058.761    21869326.219    89551268.1784   21869326.668  
                
  23679653.492   124437423.334    23679662.656    96964235.5874   23679662.570  
                
  20736791.891   108972571.054    20736800.559    84913747.3594   20736800.590  
                
  21503936.555   113003946.162    21503946.188    88055079.7474   21503946.684  
                
  23967766.070   125951470.717    23967772.996    98144035.1514                 
                
  20576108.344   108128217.177    20576117.422    84255812.2044   20576116.844  
                
  22117012.180   116225712.846    22117019.668    90565524.5754   22117019.625  
                
  20117927.930   107692880.807                    83761126.600    20117933.109  
  20117926.465  
 21  8 16  9 49 10.0000000  0 11R 6R21R22G32G18G27G 8G21G10G23R 7
  19408073.961   103565234.588                                                  
  19408071.590  
  19611716.609   104946269.240                    81624868.110    19611720.430  
  19611714.863  
  20031896.211   106931640.783                    83169078.675    20031898.707  
  20031894.449  
  21864364.469   114898033.643    21864373.805    89530988.8724   21864374.258  
                
  23685224.852   124466700.617    23685233.918    96987049.0374   23685233.871  
                
  20738503.000   108981562.950    20738511.684    84920754.0214   20738511.711  
                
  21501426.461   112990755.547    21501436.094    88044801.3454   21501436.586  
                
  23962914.242   125925974.427    23962921.129    98124167.9394                 
                
  20577734.727   108136763.846    20577743.809    84262471.9464   20577743.227  
                
  22122061.094   116252245.033    22122068.590    90586199.0034   22122068.547  
                
  20113079.875   107666928.779                    83740941.695    20113085.035  
  20113078.410  
 21  8 16  9 49 20.0000000  0 11R 6R21R22G32G18G27G 8G21G10G23R 7
  19410732.133   103579419.219                                                  
  19410729.742  
  19614039.133   104958697.467                    81634534.499    19614042.945  
  19614037.422  
  20027576.531   106908582.097                    83151144.140    20027579.070  
  20027574.750  
  21859420.320   114872052.026    21859429.676    89510743.4584   21859430.113  
                
  23690799.414   124495994.578    23690808.332    97009875.5034   23690808.320  
                
  20740226.547   108990620.248    20740235.254    84927811.6554   20740235.277  
                
  21498927.711   112977624.536    21498937.336    88034569.3914   21498937.828  
                
  23958063.500   125900483.831    23958070.367    98104305.1704                 
                
  20579368.633   108145350.075    20579377.715    84269162.5114   20579377.133  
                
  22127113.914   116278797.846    22127121.422    90606889.4964   22127121.383  
                
  20108244.148   107641042.785                    83720808.150    20108249.293  
  20108242.688  
 21  8 16  9 49 30.0000000  0 11R 6R21R22G32G18G27G 8G21G10G23R 7
  19413404.047   103593677.061                                                  
  19413401.656  
  19616374.023   104971191.859                    81644252.363    19616377.836  
  19616372.328  
  20023265.562   106885569.862                    83133245.736    20023268.125  
  20023263.766  
  21854484.430   114846113.794    21854493.793    89490531.8614   21854494.215  
                
  23696377.117   124525304.999    23696385.926    97032714.7694   23696385.949  
                
  20741962.500   108999742.768    20741971.234    84934920.1054   20741971.246  
                
  21496440.250   112964552.849    21496449.867    88024383.6584   21496450.355  
                
  23953213.820   125874998.760    23953220.746    98084446.7004                 
                
  20581010.016   108153975.599    20581019.090    84275883.6954   20581018.520  
                
  22132170.633   116305370.984    22132178.141    90627595.8144   22132178.109  
                
  20103420.664   107615222.336                    83700725.582    20103425.809  
  20103419.207  
 21  8 16  9 49 40.0000000  0 11R 6R21R22G32G18G27G 8G21G10G23R 7
  19416089.523   103608007.335                                                  
  19416087.137  
  19618721.227   104983752.181                    81654021.476    19618725.008  
  19618719.547  
  20018963.242   106862603.854                    83115383.291    20018965.844  
  20018961.438  
  21849556.734   114820218.643    21849566.098    89470353.8244   21849566.500  
                
  23701957.828   124554631.488    23701966.609    97055566.5684   23701966.598  
                
  20743710.773   109008930.052    20743719.527    84942079.0204   20743719.531  
                
  21493964.039   112951540.320    21493973.645    88014244.0194   21493974.141  
                
  23948365.117   125849518.845    23948372.070    98064592.2504                 
                
  20582658.781   108162639.995    20582667.844    84282635.1724   20582667.266  
                
  22137231.117   116331964.007    22137238.617    90648317.6434   22137238.602  
                
  20098609.398   107589467.351                    83680693.940    20098614.535  
  20098607.926  
 21  8 16  9 49 50.0000000  0 11R 6R21R22G32G18G27G 8G21G10G23R 7
  19418788.750   103622410.844                                                  
  19418786.355  
  19621080.867   104996379.005                    81663842.339    19621084.633  
  19621079.191  
  20014669.766   106839685.009                    83097557.515    20014672.414  
  20014667.969  
  21844637.391   114794367.310    21844646.762    89450209.9324   21844647.148  
                
  23707541.734   124583974.642    23707550.457    97078431.3474   23707550.430  
                
  20745471.508   109018182.729    20745480.285    84949288.8964   20745480.285  
                
  21491499.164   112938587.325    21491508.758    88004150.7824   21491509.238  
                
  23943517.539   125824044.753    23943524.559    98044742.3394                 
                
  20584315.078   108171343.842    20584324.125    84289417.3954   20584323.555  
                
  22142295.523   116358577.561    22142303.027    90669055.4714   22142303.039  
                
  20093810.523   107563778.649                    83660713.856    20093815.664  
  20093809.047  
 21  8 16  9 50  0.0000000  0 11R 6R21R22G32G18G27G 8G21G10G23R 7
  19421501.547   103636886.817                                                  
  19421499.117  
  19623452.867   105009071.953                    81673714.636    19623456.602  
  19623451.215  
  20010384.992   106816812.586                    83079767.867    20010387.691  
  20010383.199  
  21839726.297   114768559.374    21839735.688    89430099.8604   21839736.051  
                
  23713128.664   124613333.955    23713137.363    97101308.7204   23713137.344  
                
  20747244.578   109027500.275    20747253.383    84956549.3134   20747253.359  
                
  21489045.586   112925693.663    21489055.156    87994103.7754   21489055.648  
                
  23938670.984   125798576.030    23938678.098    98024896.6074                 
                
  20585978.773   108180086.603    20585987.801    84296229.9394   20585987.242  
                
  22147363.711   116385211.030    22147371.254    90689808.8104   22147371.258  
                
  20089023.906   107538155.591                    83640784.813    20089029.039  
  20089022.402  
 21  8 16  9 50 10.0000000  0 11R 6R21R22G32G18G27G 8G21G10G23R 7
  19424227.867   103651435.026                                                  
  19424225.406  
  19625837.195   105021830.930                    81683638.280    19625840.922  
  19625835.543  
  20006108.984   106793986.979                    83062014.623    20006111.691  
  20006107.195  
  21834823.484   114742794.929    21834832.895    89410023.6864   21834833.238  
                
  23718718.680   124642709.406    23718727.359    97124198.6704   23718727.355  
                
  20749029.992   109036882.676    20749038.832    84963860.2684   20749038.801  
                
  21486603.297   112912859.398    21486612.844    87984103.0504   21486613.352  
                
  23933825.469   125773112.732    23933832.617    98005055.1034                 
                
  20587649.867   108188868.243    20587658.871    84303072.7794   20587658.328  
                
  22152435.688   116411864.370    22152443.258    90710577.6414   22152443.246  
                
  20084249.578   107512598.265                    83620906.898    20084254.707  
  20084248.078  
 21  8 16  9 50 20.0000000  0 11R 6R21R22G32G18G27G 8G21G10G23R 7
  19426967.797   103666055.835                                                  
  19426965.320  
  19628233.883   105034656.066                    81693613.386    19628237.594  
  19628232.211  
  20001841.789   106771208.403                    83044297.950    20001844.508  
  20001839.996  
  21829928.992   114717074.184    21829938.414    89389981.5474   21829938.750  
                
  23724311.711   124672101.084    23724320.426    97147101.2324   23724320.457  
                
  20750827.758   109046329.997    20750836.629    84971221.8134   20750836.598  
                
  21484172.359   112900084.739    21484181.879    87974148.7644   21484182.391  
                
  23928981.047   125747654.974    23928988.125    97985217.8744                 
                
  20589328.375   108197688.819    20589337.355    84309945.9514   20589336.836  
                
  22157511.453   116438537.622    22157519.055    90731361.9824   22157519.039  
                
  20079487.594   107487107.059                    83601080.401    20079492.707  
  20079486.090  
 21  8 16  9 50 30.0000000  0 11R 6R21R22G32G18G27G 8G21G10G23R 7
  19429721.250   103680748.824                                                  
  19429718.770  
  19630642.938   105047547.392                    81703639.975    19630646.645  
  19630641.230  
  19997583.438   106748476.981                    83026617.956    19997586.176  
  19997581.652  
  21825042.836   114691397.244    21825052.262    89369973.5464   21825052.570  
                
  23729907.852   124701509.003    23729916.594    97170016.4674   23729916.629  
                
  20752637.875   109055842.254    20752646.762    84978633.9534   20752646.719  
                
  21481752.781   112887369.734    21481762.289    87964240.9724   21481762.797  
                
  23924137.680   125722202.758    23924144.707    97965384.9734                 
                
  20591014.281   108206548.315    20591023.242    84316849.4514   20591022.742  
                
  22162591.000   116465230.760    22162598.641    90752161.8104   22162598.594  
                
  20074737.945   107461681.880                    83581305.282    20074743.047  
  20074736.434  
 21  8 16  9 50 40.0000000  0 11R 6R21R22G32G18G27G 8G21G10G23R 7
  19432488.273   103695514.220                                                  
  19432485.793  
  19633064.359   105060504.935                    81713718.045    19633068.066  
  19633062.625  
  19993333.891   106725792.632                    83008974.582    19993336.645  
  19993332.098  
  21820165.016   114665764.222    21820174.449    89349999.7704   21820174.746  
                
  23735507.078   124730933.165    23735515.824    97192944.3404   23735515.836  
                
  20754460.359   109065419.439    20754469.250    84986096.6864   20754469.215  
                
  21479344.555   112874714.450    21479354.059    87954379.7174   21479354.547  
                
  23919295.391   125696756.145    23919302.359    97945556.4514                 
                
  20592707.594   108215446.718    20592716.539    84323783.2654   20592716.043  
                
  22167674.328   116491943.744    22167681.980    90772977.1194   22167681.906  
                
  20070000.664   107436322.843                    83561581.595    20070005.750  
  20069999.148  
 21  8 16  9 50 50.0000000  0 11R 6R21R22G32G18G27G 8G21G10G23R 7
  19435268.852   103710351.815                                                  
  19435266.402  
  19635498.180   105073528.793                    81723847.702    19635501.883  
  19635496.414  
  19989093.234   106703155.692                    82991368.073    19989095.996  
  19989091.449  
  21815295.602   114640175.270    21815305.039    89330060.3374   21815305.328  
                
  23741109.484   124760373.613    23741118.129    97215884.9424   23741118.133  
                
  20756295.211   109075061.608    20756304.109    84993610.0614   20756304.082  
                
  21476947.688   112862118.825    21476957.195    87944564.9414   21476957.664  
                
  23914454.172   125671315.262    23914461.109    97925732.3764                 
                
  20594408.312   108224384.063    20594417.250    84330747.4294   20594416.758  
                
  22172761.438   116518676.598    22172769.086    90793807.9074   22172769.020  
                
  20065275.797   107411030.322                    83541909.634    20065280.867  
  20065274.285  
 21  8 16  9 51  0.0000000  0 11R 6R21R22G32G18G27G 8G21G10G23R 7
  19438062.852   103725261.129                                                  
  19438060.418  
  19637944.359   105086618.784                    81734028.808    19637948.074  
  19637942.559  
  19984861.445   106680566.078                    82973798.374    19984864.172  
  19984859.668  
  21810434.562   114614630.295    21810444.000    89310155.1644   21810444.281  
                
  23746714.906   124789830.122    23746723.496    97238838.0604   23746723.480  
                
  20758142.375   109084768.515    20758151.285    85001173.8754   20758151.250  
                
  21474562.188   112849582.942    21474571.707    87934796.7184   21474572.156  
                
  23909613.953   125645879.889    23909620.863    97905912.6104                 
                
  20596116.391   108233360.068    20596125.324    84337741.7214   20596124.828  
                
  22177852.273   116545429.045    22177859.910    90814653.9644   22177859.859  
                
  20060563.273   107385803.870                    83522289.075    20060568.355  
  20060561.750  
 21  8 16  9 51 10.0000000  0 11R 6R21R22G32G18G27G 8G21G10G23R 7
  19440870.367   103740242.569                                                  
  19440867.934  
  19640402.875   105099774.848                    81744261.299    19640406.598  
  19640401.066  
  19980638.523   106658023.885                    82956265.550    19980641.254  
  19980636.750  
  21805581.883   114589129.381    21805591.328    89290284.3244   21805591.609  
                
  23752323.320   124819302.699    23752331.906    97261803.6774   23752331.883  
                
  20760001.852   109094540.153    20760010.777    85008788.1324   20760010.730  
                
  21472188.086   112837107.004    21472197.613    87925075.2074   21472198.047  
                
  23904774.773   125620450.159    23904781.715    97886097.2774                 
                
  20597831.812   108242374.732    20597840.734    84344766.1344   20597840.246  
                
  22182946.828   116572201.052    22182954.453    90835515.2554   22182954.422  
                
  20055863.141   107360643.741                    83502720.094    20055868.227  
  20055861.602  
 21  8 16  9 51 20.0000000  0 11R 6R21R22G32G18G27G 8G21G10G23R 7
  19443691.414   103755296.159                                                  
  19443688.961  
  19642873.812   105112997.357                    81754545.460    19642877.547  
  19642871.980  
  19976424.586   106635529.599                    82938770.000    19976427.320  
  19976422.836  
  21800737.664   114563672.862    21800747.105    89270448.0854   21800747.379  
                
  23757934.883   124848791.562    23757943.414    97284781.9854   23757943.383  
                
  20761873.703   109104376.761    20761882.633    85016453.0104   20761882.578  
                
  21469825.375   112824690.887    21469834.906    87915400.3174   21469835.328  
                
  23899936.727   125595026.252    23899943.695    97866286.4084                 
                
  20599554.641   108251428.256    20599563.559    84351820.8204   20599563.070  
                
  22188045.133   116598992.790    22188052.762    90856391.9224   22188052.734  
                
  20051175.469   107335550.287                    83483202.976    20051180.559  
  20051173.930  
 21  8 16  9 51 30.0000000  0 11R 6R21R22G32G18G27G 8G21G10G23R 7
  19446525.852   103770421.266                                                  
  19446523.375  
  19645357.156   105126286.267                    81764881.282    19645360.902  
  19645355.312  
  19972219.602   106613083.142                    82921311.637    19972222.348  
  19972217.859  
  21795901.914   114538260.812    21795911.371    89250646.4954   21795911.629  
                
  23763549.508   124878296.674    23763557.918    97307772.9554   23763557.957  
                
  20763757.898   109114278.262    20763766.828    85024168.4634   20763766.773  
                
  21467474.133   112812335.001    21467483.676    87905772.3514   21467484.078  
                
  23895099.805   125569608.230    23895106.816    97846480.2264                 
                
  20601284.844   108260520.562    20601293.762    84358905.7314   20601293.277  
                
  22193147.180   116625804.180    22193154.809    90877283.9114   22193154.781  
                
  20046500.211   107310523.315                    83463737.553    20046505.297  
  20046498.672  
 21  8 16  9 51 40.0000000  0 11R 6R21R22G32G18G27G 8G21G10G23R 7
  19449373.680   103785617.832                                                  
  19449371.199  
  19647852.859   105139641.269                    81775268.500    19647856.613  
  19647851.004  
  19968023.617   106590684.611                    82903890.566    19968026.355  
  19968021.879  
  21791074.594   114512893.130    21791084.086    89230879.4764   21791084.324  
                
  23769167.273   124907817.816    23769175.492    97330776.4204   23769175.613  
                
  20765654.406   109124244.425    20765663.328    85031934.3024   20765663.281  
                
  21465134.281   112800039.026    21465143.832    87896191.0694   21465144.238  
                
  23890263.977   125544195.877    23890270.973    97826678.4064                 
                
  20603022.391   108269651.414    20603031.316    84366020.6824   20603030.828  
                
  22198252.914   116652634.972    22198260.566    90898191.0164   22198260.539  
                
  20041837.398   107285562.921                    83444323.917    20041842.492  
  20041835.852  
 21  8 16  9 51 50.0000000  0 11R 6R21R22G32G18G27G 8G21G10G23R 7
  19452234.891   103800885.836                                                  
  19452232.410  
  19650360.930   105153062.452                    81785707.188    19650364.688  
  19650359.070  
  19963836.594   106568333.913                    82886506.687    19963839.281  
  19963834.859  
  21786255.734   114487569.864    21786265.270    89211147.0754   21786265.488  
                
  23774788.047   124937354.967    23774796.121    97353792.3504   23774796.293  
                
  20767563.203   109134275.257    20767572.113    85039750.5284   20767572.074  
                
  21462805.852   112787803.061    21462815.402    87886656.5574   21462815.809  
                
  23885429.219   125518789.248    23885436.223    97806881.0414                 
                
  20604767.250   108278820.743    20604776.195    84373165.6134   20604775.688  
                
  22203362.336   116679485.116    22203370.027    90919113.1974   22203369.977  
                
  20037187.031   107260669.203                    83424962.142    20037192.109  
  20037185.477  
 21  8 16  9 52  0.0000000  0 11R 6R21R22G32G18G27G 8G21G10G23R 7
  19455109.461   103816225.089                                                  
  19455106.953  
  19652881.336   105166549.643                    81796197.227    19652885.098  
  19652879.477  
  19959658.547   106546031.247                    82869160.166    19959661.195  
  19959656.812  
  21781445.328   114462291.072    21781454.891    89191449.3284   21781455.102  
                
  23780411.859   124966908.034    23780419.789    97376820.7164   23780420.027  
                
  20769484.289   109144370.626    20769493.191    85047617.0414   20769493.160  
                
  21460488.844   112775627.139    21460498.398    87877168.8294   21460498.812  
                
  23880595.562   125493388.369    23880602.570    97787088.1704                 
                
  20606519.422   108288028.466    20606528.375    84380340.4644   20606527.848  
                
  22208475.406   116706354.458    22208483.113    90940050.3314   22208483.055  
                
  20032549.055   107235841.843                    83405651.996    20032554.141  
  20032547.496  
 21  8 16  9 52 10.0000000  0 11R 6R21R22G32G18G27G 8G21G10G23R 7
  19457997.438   103831635.875                                                  
  19457994.930  
  19655414.156   105180103.242                    81806738.899    19655417.914  
  19655412.297  
  19955489.578   106523776.967                    82851851.291    19955492.234  
  19955487.832  
  21776643.445   114437057.042    21776653.016    89171786.4574   21776653.227  
                
  23786038.781   124996477.217    23786046.590    97399861.6054   23786046.848  
                
  20771417.703   109154530.745    20771426.598    85055534.0094   20771426.566  
                
  21458183.312   112763511.446    21458192.859    87867728.0264   21458193.281  
                
  23875763.023   125467993.389    23875770.004    97767299.8864                 
                
  20608278.938   108297274.770    20608287.902    84387545.3694   20608287.359  
                
  22213592.172   116733243.181    22213599.883    90961002.5694   22213599.840  
                
  20027923.625   107211081.565                    83386394.006    20027928.703  
  20027922.055  
 21  8 16  9 52 20.0000000  0 11R 6R21R22G32G18G27G 8G21G10G23R 7
  19460898.750   103847117.843                                                  
  19460896.277  
  19657959.305   105193722.816                    81817331.903    19657963.051  
  19657957.453  
  19951329.617   106501570.821                    82834579.847    19951332.242  
  19951327.891  
  21771850.055   114411867.607    21771859.602    89152158.3244   21771859.812  
                
  23791668.727   125026062.229    23791676.457    97422914.8334   23791676.688  
                
  20773363.375   109164755.313    20773372.266    85063501.2034   20773372.238  
                
  21455889.180   112751455.750    21455898.719    87858333.9774   21455899.148  
                
  23870931.602   125442604.159    23870938.500    97747516.0684                 
                
  20610045.719   108306559.310    20610054.688    84394780.0754   20610054.141  
                
  22218712.555   116760150.945    22218720.273    90981969.6524   22218720.234  
                
  20023310.617   107186387.882                    83367187.809    20023315.688  
  20023309.027  
 21  8 16  9 52 30.0000000  0 11R 6R21R22G32G18G27G 8G21G10G23R 7
  19463813.336   103862670.564                                                  
  19463810.895  
  19660516.844   105207408.668                    81827976.454    19660520.582  
  19660515.004  
  19947178.742   106479413.104                    82817346.064    19947181.355  
  19947177.027  
  21767065.203   114386723.062    21767074.723    89132565.1804   21767074.934  
                
  23797301.727   125055663.284    23797309.402    97445980.5834   23797309.637  
                
  20775321.352   109175044.520    20775330.230    85071518.7624   20775330.207  
                
  21453606.547   112739460.392    21453616.082    87848986.9504   21453616.500  
                
  23866101.328   125417220.901    23866108.199    97727736.9004                 
                
  20611819.828   108315882.295    20611828.801    84402044.7364   20611828.258  
                
  22223836.594   116787077.942    22223844.324    91002951.7214   22223844.277  
                
  20018710.133   107161761.181                    83348033.717    20018715.191  
  20018708.520  
 21  8 16  9 52 40.0000000  0 11R 6R21R22G32G18G27G 8G21G10G23R 7
  19466741.234   103878294.379                                                  
  19466738.793  
  19663086.727   105221160.633                    81838672.417    19663090.453  
  19663084.898  
  19943036.945   106457303.911                    82800150.020    19943039.535  
  19943035.211  
  21762288.875   114361623.312    21762298.398    89113006.9404   21762298.605  
                
  23802937.758   125085280.141    23802945.398    97469058.6364   23802945.617  
                
  20777291.594   109185398.148    20777300.465    85079586.5254   20777300.445  
                
  21451335.359   112727525.225    21451344.895    87839686.8254   21451345.312  
                
  23861272.133   125391843.390    23861279.047    97707962.2504                 
                
  20613601.195   108325243.470    20613610.160    84409339.1564   20613609.629  
                
  22228964.242   116814023.903    22228971.977    91023948.5614   22228971.926  
                
  20014122.141   107137201.343                    83328931.620    20014127.199  
  20014120.543  
 21  8 16  9 52 50.0000000  0 11R 6R21R22G32G18G27G 8G21G10G23R 7
  19469682.453   103893989.243                                                  
  19469680.012  
  19665669.031   105234979.051                    81849420.080    19665672.750  
  19665667.215  
  19938904.305   106435243.597                    82782992.009    19938906.914  
  19938902.566  
  21757521.141   114336568.725    21757530.680    89093483.9014   21757530.871  
                
  23808576.766   125114913.116    23808584.461    97492149.2344   23808584.652  
                
  20779274.133   109195816.455    20779282.996    85087704.6884   20779282.980  
                
  21449075.688   112715650.590    21449085.227    87830433.8634   21449085.637  
                
  23856444.117   125366471.927    23856451.070    97688192.3194                 
                
  20615389.875   108334643.080    20615398.824    84416663.5254   20615398.316  
                
  22234095.547   116840989.067    22234103.293    91044960.3604   22234103.246  
                
  20009546.680   107112708.641                    83309881.758    20009551.742  
  20009545.086  
 21  8 16  9 53  0.0000000  0 11R 6R21R22G32G18G27G 8G21G10G23R 7
  19472636.891   103909754.688                                                  
  19472634.445  
  19668263.656   105248863.357                    81860218.968    19668267.359  
  19668261.848  
  19934780.734   106413231.706                    82765871.664    19934783.328  
  19934778.988  
  21752761.938   114311558.950    21752771.453    89073995.7694   21752771.652  
                
  23814218.805   125144561.696    23814226.527    97515252.0204   23814226.664  
                
  20781268.898   109206298.971    20781277.758    85095872.8664   20781277.734  
                
  21446827.484   112703836.181    21446837.035    87821227.8294   21446837.449  
                
  23851617.188   125341106.199    23851624.133    97668426.8264                 
                
  20617185.781   108344080.630    20617194.715    84424017.4614   20617194.219  
                
  22239230.414   116867972.902    22239238.199    91065986.7154   22239238.152  
                
  20004983.742   107088282.854                    83290883.926    20004988.805  
  20004982.141  
 21  8 16  9 53 10.0000000  0 11R 6R21R22G32G18G27G 8G21G10G23R 7
  19475604.641   103925591.223                                                  
  19475602.180  
  19670870.727   105262814.276                    81871069.681    19670874.414  
  19670868.938  
  19930666.398   106391269.079                    82748789.613    19930669.000  
  19930664.641  
  21748011.398   114286594.741    21748020.887    89054543.1424   21748021.105  
                
  23819863.875   125174226.555    23819871.680    97538367.4694   23819871.766  
                
  20783276.000   109216846.333    20783284.855    85104091.5884   20783284.824  
                
  21444590.852   112692082.596    21444600.414    87812069.1964   21444600.828  
                
  23846791.453   125315746.832    23846798.371    97648666.2944                 
                
  20618989.016   108353556.745    20618997.934    84431401.4454   20618997.449  
                
  22244368.938   116894976.037    22244376.766    91087028.1104   22244376.699  
                
  20000433.367   107063924.449                    83271938.512    20000438.441  
  20000431.762  
 21  8 16  9 53 20.0000000  0 11R 6R21R22G32G18G27G 8G21G10G23R 7
  19478585.570   103941498.021                                                  
  19478583.082  
  19673490.164   105276831.363                    81881971.857    19673493.836  
  19673488.402  
  19926561.242   106369355.489                    82731745.706    19926563.879  
  19926559.473  
  21743269.477   114261675.728    21743278.961    89035125.7404   21743279.184  
                
  23825511.938   125203907.222    23825519.785    97561495.2304   23825519.840  
                
  20785295.352   109227458.056    20785304.199    85112360.4584   20785304.180  
                
  21442365.758   112680389.629    21442375.332    87802957.7894   21442375.758  
                
  23841966.875   125290393.432    23841973.738    97628910.4114                 
                
  20620799.508   108363070.939    20620808.418    84438815.1034   20620807.930  
                
  22249511.055   116921997.976    22249518.930    91108084.1624   22249518.848  
                
  19995895.578   107039633.336                    83253045.436    19995900.676  
  19995893.980  
 21  8 16  9 53 30.0000000  0 11R 6R21R22G32G18G27G 8G21G10G23R 7
  19481579.680   103957475.175                                                  
  19481577.191  
  19676121.898   105290914.287                    81892925.237    19676125.559  
  19676120.164  
  19922465.219   106347490.680                    82714739.742    19922467.816  
  19922463.441  
  21738536.094   114236801.676    21738545.586    89015743.3664   21738545.793  
                
  23831162.914   125233603.335    23831170.820    97584635.0384   23831170.871  
                
  20787326.875   109238133.786    20787335.711    85120679.2054   20787335.699  
                
  21440152.102   112668756.807    21440161.688    87793893.2534   21440162.109  
                
  23837143.391   125265045.694    23837150.168    97609158.9284                 
                
  20622617.180   108372622.837    20622626.082    84446258.1384   20622625.586  
                
  22254656.656   116949038.333    22254664.570    91129154.5474   22254664.484  
                
  19991370.273   107015409.038                    83234204.306    19991375.379  
  19991368.695  
 21  8 16  9 53 40.0000000  0 11R 6R21R22G32G18G27G 8G21G10G23R 7
  19484587.039   103973522.973                                                  
  19484584.566  
  19678766.094   105305063.843                    81903930.433    19678769.758  
  19678764.383  
  19918378.523   106325675.669                    82697772.509    19918381.113  
  19918376.754  
  21733811.461   114211973.571    21733820.977    88996396.8014   21733821.168  
                
  23836816.953   125263315.794    23836824.969    97607787.5704   23836825.039  
                
  20789370.750   109248874.408    20789379.562    85129048.5104   20789379.566  
                
  21437950.078   112657185.094    21437959.684    87784876.3364   21437960.098  
                
  23832321.133   125239704.513    23832327.820    97589412.5324                 
                
  20624442.180   108382213.297    20624451.082    84453731.2244   20624450.590  
                
  22259805.922   116976097.945    22259813.879    91150239.9464   22259813.797  
                
  19986857.656   106991252.693                    83215416.037    19986862.754  
  19986856.086  
 21  8 16  9 53 50.0000000  0 11R 6R21R22G32G18G27G 8G21G10G23R 7
  19487607.594   103989641.208                                                  
  19487605.129  
  19681422.711   105319279.897                    81914987.347    19681426.359  
  19681421.035  
  19914301.109   106303910.137                    82680843.773    19914303.707  
  19914299.336  
  21729095.492   114187191.064    21729105.039    88977085.7734   21729105.207  
                
  23842474.000   125293044.149    23842482.148    97630952.4914   23842482.215  
                
  20791426.875   109259679.414    20791435.664    85137467.9974   20791435.688  
                
  21435759.625   112645674.211    21435769.238    87775906.8264   21435769.637  
                
  23827500.047   125214369.537    23827506.707    97569671.0024                 
                
  20626274.438   108391841.850    20626283.340    84461233.9924   20626282.848  
                
  22264958.766   117003176.332    22264966.762    91171339.9674   22264966.672  
                
  19982357.672   106967163.915                    83196680.341    19982362.762  
  19982356.098  
 21  8 16  9 54  0.0000000  0 11R 6R21R22G32G18G27G 8G21G10G23R 7
  19490641.258   104005829.419                                                  
  19490638.836  
  19684091.688   105333562.022                    81926095.667    19684095.328  
  19684090.031  
  19910232.961   106282194.035                    82663953.474    19910235.508  
  19910231.203  
  21724388.211   114162454.104    21724397.758    88957810.2294   21724397.926  
                
  23848134.016   125322788.237    23848142.301    97654129.6714   23848142.371  
                
  20793495.242   109270548.694    20793504.012    85145937.5604   20793504.051  
                
  21433580.750   112634224.072    21433590.371    87766984.6434   21433590.766  
                
  23822680.125   125189040.651    23822686.809    97549934.2234                 
                
  20628113.906   108401508.305    20628122.805    84468766.2924   20628122.309  
                
  22270115.148   117030273.263    22270123.160    91192454.4544   22270123.078  
                
  19977870.234   106943142.316                    83177996.878    19977875.316  
  19977868.688  
 21  8 16  9 54 10.0000000  0 11R 6R21R22G32G18G27G 8G21G10G23R 7
  19493688.039   104022087.651                                                  
  19493685.633  
  19686773.023   105347910.331                    81937255.464    19686776.664  
  19686771.402  
  19906174.133   106260527.633                    82647101.820    19906176.609  
  19906172.371  
  21719689.625   114137762.853    21719699.145    88938570.2954   21719699.332  
                
  23853797.008   125352548.130    23853805.430    97677319.1784   23853805.512  
                
  20795575.836   109281482.253    20795584.578    85154457.2144   20795584.637  
                
  21431413.430   112622834.737    21431423.047    87758109.8314   21431423.453  
                
  23817861.367   125163717.922    23817868.098    97530202.2624                 
                
  20629960.594   108411212.692    20629969.496    84476328.1494   20629969.000  
                
  22275275.062   117057388.793    22275283.074    91213583.4224   22275282.988  
                
  19973395.445   106919188.435                    83159366.094    19973400.531  
  19973393.926  
 21  8 16  9 54 20.0000000  0 11R 6R21R22G32G18G27G 8G21G10G23R 7
  19496747.938   104038415.801                                                  
  19496745.512  
  19689466.727   105362324.828                    81948466.731    19689470.371  
  19689465.121  
  19902124.578   106238910.833                    82630288.752    19902126.996  
  19902122.828  
  21714999.742   114113117.350    21715009.242    88919366.0134   21715009.445  
                
  23859463.039   125382323.698    23859471.523    97700520.8784   23859471.648  
                
  20797668.641   109292480.005    20797677.363    85163026.8874   20797677.430  
                
  21429257.680   112611506.201    21429267.273    87749282.3984   21429267.699  
                
  23813043.773   125138401.305    23813050.523    97510475.0424                 
                
  20631814.469   108420954.908    20631823.375    84483919.4854   20631822.875  
                
  22280438.492   117084522.774    22280446.500    91234726.7794   22280446.426  
                
  19968933.258   106895302.014                    83140787.778    19968938.344  
  19968931.750  
 21  8 16  9 54 30.0000000  0 11R 6R21R22G32G18G27G 8G21G10G23R 7
  19499820.875   104054813.631                                                  
  19499818.457  
  19692172.773   105376805.370                    81959729.372    19692176.414  
  19692171.191  
  19898084.320   106217343.659                    82613514.283    19898086.703  
  19898082.582  
  21710318.531   114088517.482    21710328.027    88900197.2924   21710328.234  
                
  23865132.133   125412114.779    23865140.617    97723734.6834   23865140.762  
                
  20799773.625   109303541.754    20799782.320    85171646.4234   20799782.406  
                
  21427113.516   112600238.540    21427123.086    87740502.4054   21427123.539  
                
  23808227.312   125113090.692    23808234.047    97490752.4964                 
                
  20633675.508   108430734.727    20633684.422    84491540.1234   20633683.918  
                
  22285605.398   117111675.000    22285613.414    91255884.3534   22285613.340  
                
  19964483.695   106871483.173                    83122262.025    19964488.781  
  19964482.191  
 21  8 16  9 54 40.0000000  0 11R 6R21R22G32G18G27G 8G21G10G23R 7
  19502906.922   104071281.315                                                  
  19502904.496  
  19694891.188   105391352.044                    81971043.440    19694894.824  
  19694889.617  
  19894053.422   106195826.430                    82596778.661    19894055.773  
  19894051.680  
  21705646.078   114063963.547    21705655.598    88881064.3614   21705655.789  
                
  23870804.219   125441921.541    23870812.703    97746960.6974   23870812.848  
                
  20801890.820   109314667.654    20801899.492    85180315.9504   20801899.609  
                
  21424980.938   112589031.736    21424990.492    87731769.8344   21424990.984  
                
  23803412.031   125087786.334    23803418.781    97471034.8424                 
                
  20635543.734   108440552.317    20635552.660    84499190.1904   20635552.152  
                
  22290775.805   117138845.613    22290783.820    91277056.2414   22290783.723  
                
  19960046.812   106847732.194                    83103789.052    19960051.891  
  19960045.305  
 21  8 16  9 54 50.0000000  0 11R 6R21R22G32G18G27G 8G21G10G23R 7
  19506005.961   104087818.365                                                  
  19506003.566  
  19697621.984   105405965.023                    81982409.078    19697625.625  
  19697620.430  
  19890031.867   106174359.125                    82580081.863    19890034.207  
  19890030.098  
  21700982.375   114039455.617    21700991.914    88861967.2924   21700992.117  
                
  23876479.281   125471744.005    23876487.785    97770198.9574   23876487.914  
                
  20804020.219   109325857.675    20804028.867    85189035.4464   20804029.000  
                
  21422859.938   112577885.822    21422869.492    87723084.7104   21422870.004  
                
  23798597.953   125062488.246    23798604.684    97451322.0534                 
                
  20637419.141   108450407.615    20637428.082    84506869.6434   20637427.574  
                
  22295949.695   117166034.535    22295957.715    91298242.4114   22295957.602  
                
  19955622.539   106824048.747                    83085368.594    19955627.605  
  19955621.055  
 21  8 16  9 55  0.0000000  0 11R 6R21R22G32G18G27G 8G21G10G23R 7
  19509118.047   104104425.023                                                  
  19509115.637  
  19700365.117   105420644.024                    81993826.072    19700368.762  
  19700363.574  
  19886019.727   106152942.054                    82563424.157    19886022.078  
  19886017.938  
  21696327.438   114014993.738    21696336.969    88842906.0944   21696337.164  
                
  23882157.297   125501582.071    23882165.785    97793449.3734   23882165.910  
                
  20806161.797   109337111.732    20806170.426    85197804.8424   20806170.555  
                
  21420750.562   112566800.954    21420760.133    87714447.1514   21420760.637  
                
  23793785.070   125037196.381    23793791.699    97431614.1144                 
                
  20639301.695   108460300.529    20639310.660    84514578.4084   20639310.148  
                
  22301127.047   117193241.663    22301135.027    91319442.7644   22301134.918  
                
  19951210.969   106800433.242                    83067000.994    19951216.023  
  19951209.508  
 21  8 16  9 55 10.0000000  0 11R 6R21R22G32G18G27G 8G21G10G23R 7
  19512243.320   104121102.047                                                  
  19512240.902  
  19703120.828   105435390.271                    82005295.372    19703124.473  
  19703119.293  
  19882017.188   106131576.236                    82546806.292    19882019.531  
  19882015.391  
  21691681.469   113990578.993    21691690.969    88823881.6224   21691691.188  
                
  23887838.438   125531436.682    23887846.918    97816712.6844   23887847.051  
                
  20808315.758   109348430.790    20808324.363    85206624.8784   20808324.504  
                
  21418653.023   112555778.255    21418662.602    87705858.0334   21418663.102  
                
  23788973.578   125011911.744    23788980.113    97411911.7974                 
                
  20641191.609   108470232.033    20641200.598    84522317.2364   20641200.070  
                
  22306308.047   117220467.940    22306315.988    91340658.0424   22306315.891  
                
  19946812.281   106776886.693                    83048687.010    19946817.320  
  19946810.824  
 21  8 16  9 55 20.0000000  0 11R 6R21R22G32G18G27G 8G21G10G23R 7
  19515381.258   104137846.714                                                  
  19515378.836  
  19705888.586   105450201.073                    82016814.879    19705892.230  
  19705887.039  
  19878023.758   106110259.133                    82530226.324    19878026.121  
  19878021.949  
  21687043.992   113966208.927    21687053.477    88804891.9644   21687053.707  
                
  23893522.289   125561305.294    23893530.727    97839986.9214   23893530.883  
                
  20810481.586   109359812.290    20810490.188    85215493.5774   20810490.340  
                
  21416566.789   112544815.029    21416576.363    87697315.2604   21416576.863  
                
  23784162.977   124986631.852    23784169.461    97392213.1884                 
                
  20643088.359   108480199.521    20643097.375    84530084.1134   20643096.840  
                
  22311492.195   117247710.804    22311500.109    91361886.2254   22311500.016  
                
  19942425.977   106753406.483                    83030424.634    19942431.000  
  19942424.539  
 21  8 16  9 55 30.0000000  0 11R 6R21R22G32G18G27G 8G21G10G23R 7
  19518532.258   104154661.032                                                  
  19518529.832  
  19708668.781   105465078.419                    82028386.140    19708672.422  
  19708667.215  
  19874039.891   106088992.963                    82513685.969    19874042.238  
  19874038.090  
  21682415.422   113941885.647    21682424.898    88785938.7684   21682425.137  
                
  23899209.156   125591189.928    23899217.664    97863273.6044   23899217.789  
                
  20812659.672   109371258.215    20812668.277    85224412.4664   20812668.422  
                
  21414492.312   112533913.565    21414501.875    87688820.6094   21414502.375  
                
  23779353.695   124961358.851    23779360.164    97372519.9434                 
                
  20644992.336   108490204.983    20645001.379    84537880.5774   20645000.836  
                
  22316679.867   117274972.181    22316687.758    91383128.8554   22316687.660  
                
  19938052.453   106729994.682                    83012215.471    19938057.473  
  19938051.027  
 21  8 16  9 55 40.0000000  0 11R 6R21R22G32G18G27G 8G21G10G23R 7
  19521696.203   104171544.399                                                  
  19521693.773  
  19711461.398   105480022.278                    82040009.151    19711465.059  
  19711459.801  
  19870065.547   106067777.699                    82497185.222    19870067.930  
  19870063.734  
  21677795.734   113917609.071    21677805.223    88767021.9724   21677805.469  
                
  23904898.945   125621090.403    23904907.586    97886572.6724   23904907.688  
                
  20814849.984   109382768.364    20814858.602    85233381.4164   20814858.738  
                
  21412429.570   112523073.747    21412439.121    87680374.0004   21412439.629  
                
  23774545.672   124936092.499    23774552.152    97352831.8794                 
                
  20646903.500   108500248.212    20646912.566    84545706.4714   20646912.008  
                
  22321871.023   117302251.869    22321878.883    91404385.7384   22321878.789  
                
  19933691.734   106706651.344                    82994059.536    19933696.738  
  19933690.309  
 21  8 16  9 55 50.0000000  0 11R 6R21R22G32G18G27G 8G21G10G23R 7
  19524873.070   104188496.809                                                  
  19524870.664  
  19714266.391   105495032.362                    82051683.638    19714270.066  
  19714264.746  
  19866100.766   106046613.395                    82480724.094    19866103.164  
  19866098.949  
  21673184.898   113893379.027    21673194.375    88748141.4164   21673194.629  
                
  23910591.703   125651006.403    23910600.426    97909883.7994   23910600.566  
                
  20817052.461   109394342.431    20817061.086    85242400.1584   20817061.238  
                
  21410378.484   112512295.202    21410388.023    87671975.1324   21410388.527  
                
  23769738.875   124910832.534    23769745.379    97333148.8054                 
                
  20648821.797   108510328.890    20648830.883    84553561.5414   20648830.305  
                
  22327065.602   117329549.527    22327073.438    91425656.6434   22327073.348  
                
  19929343.719   106683376.070                    82975956.556    19929348.719  
  19929342.297  
 21  8 16  9 56  0.0000000  0 11R 6R21R22G32G18G27G 8G21G10G23R 7
  19528062.867   104205518.237                                                  
  19528060.461  
  19717083.734   105510108.559                    82063409.576    19717087.418  
  19717082.055  
  19862145.469   106025499.829                    82464302.429    19862147.883  
  19862143.641  
  21668582.938   113869195.596    21668592.383    88729297.1954   21668592.656  
                
  23916287.414   125680937.923    23916296.254    97933207.0444   23916296.438  
                
  20819267.102   109405980.405    20819275.730    85251468.7014   20819275.879  
                
  21408339.070   112501577.988    21408348.613    87663624.0534   21408349.090  
                
  23764933.328   124885579.092    23764939.855    97313470.8124                 
                
  20650747.203   108520446.983    20650756.309    84561445.7734   20650755.738  
                
  22332263.602   117356865.131    22332271.410    91446941.5214   22332271.340  
                
  19925008.477   106660169.151                    82957906.737    19925013.477  
  19925007.055  
 21  8 16  9 56 10.0000000  0 11R 6R21R22G32G18G27G 8G21G10G23R 7
  19531265.516   104222608.141                                                  
  19531263.070  
  19719913.406   105525250.788                    82075186.855    19719917.102  
  19719911.688  
  19858199.688   106004437.009                    82447920.244    19858202.121  
  19858197.836  
  21663989.836   113845058.698    21663999.238    88710489.2284   21663999.531  
                
  23921986.078   125710884.788    23921995.043    97956542.2374   23921995.199  
                
  20821493.859   109417682.066    20821502.496    85260586.8834   20821502.637  
                
  21406311.336   112490922.145    21406320.887    87655320.7914   21406321.344  
                
  23760128.977   124860331.986    23760135.527    97293797.7524                 
                
  20652679.695   108530602.287    20652688.812    84569358.9924   20652688.250  
                
  22337464.961   117384198.452    22337472.762    91468240.2034   22337472.695  
                
  19920685.977   106637030.431                    82939909.959    19920690.969  
  19920684.562  
 21  8 16  9 56 20.0000000  0 11R 6R21R22G32G18G27G 8G21G10G23R 7
  19534481.094   104239767.083                                                  
  19534478.648  
  19722755.531   105540459.566                    82087015.897    19722759.234  
  19722753.762  
  19854263.555   105983425.667                    82431578.093    19854265.996  
  19854261.688  
  21659405.695   113820968.910    21659415.051    88691717.9714   21659415.367  
                
  23927687.719   125740847.495    23927696.816    97979889.7714   23927696.973  
                
  20823732.828   109429447.904    20823741.469    85269755.0604   20823741.609  
                
  21404295.367   112480328.107    21404304.934    87647065.6994   21404305.379  
                
  23755325.906   124835091.676    23755332.441    97274129.9824                 
                
  20654619.352   108540795.262    20654628.488    84577301.5654   20654627.934  
                
  22342669.789   117411549.927    22342677.598    91489553.0374   22342677.500  
                
  19916376.289   106613960.303                    82921966.546    19916381.277  
  19916374.875  
 21  8 16  9 56 30.0000000  0 11R 6R21R22G32G18G27G 8G21G10G23R 7
  19537709.477   104256994.302                                                  
  19537707.020  
  19725609.938   105555734.137                    82098896.112    19725613.656  
  19725608.137  
  19850336.961   105962465.285                    82415275.579    19850339.414  
  19850335.102  
  21654830.414   113796925.706    21654839.727    88672983.0164   21654840.066  
                
  23933392.367   125770825.393    23933401.441    98003249.1474   23933401.605  
                
  20825983.883   109441277.232    20825992.520    85278972.7124   20825992.676  
                
  21402291.031   112469795.260    21402300.617    87638858.2894   21402301.055  
                
  23750524.047   124809857.652    23750530.535    97254467.0924                 
                
  20656566.047   108551025.222    20656575.211    84585272.9614   20656574.641  
                
  22347877.922   117438918.876    22347885.738    91510879.4874   22347885.625  
                
  19912079.320   106590958.292                    82904076.098    19912084.289  
  19912077.902  
 21  8 16  9 56 40.0000000  0 11R 6R21R22G32G18G27G 8G21G10G23R 7
  19540950.578   104274289.474                                                  
  19540948.121  
  19728476.641   105571074.519                    82110827.510    19728480.371  
  19728474.805  
  19846419.891   105941555.659                    82399012.542    19846422.410  
  19846418.016  
  21650263.977   113772929.029    21650273.266    88654284.3174   21650273.617  
                
  23939099.828   125800818.324    23939108.918    98026620.2324   23939109.152  
                
  20828246.992   109453169.914    20828255.621    85288239.7334   20828255.777  
                
  21400298.344   112459323.579    21400307.938    87630698.5384   21400308.363  
                
  23745723.344   124784629.790    23745729.840    97234809.0254                 
                
  20658519.742   108561291.989    20658528.930    84593273.0394   20658528.340  
                
  22353089.352   117466305.117    22353097.152    91532219.4044   22353097.043  
                
  19907795.047   106568024.292                    82886238.556    19907800.008  
  19907793.629  
 21  8 16  9 56 50.0000000  0 11R 6R21R22G32G18G27G 8G21G10G23R 7
  19544204.617   104291653.654                                                  
  19544202.148  
  19731355.844   105586481.721                    82122810.881    19731359.570  
  19731353.980  
  19842512.602   105920698.275                    82382790.138    19842515.156  
  19842510.730  
  21645706.609   113748979.976    21645715.891    88635622.7254   21645716.234  
                
  23944810.273   125830827.272    23944819.453    98050003.7744   23944819.730  
                
  20830522.328   109465126.906    20830530.945    85297556.8624   20830531.113  
                
  21398317.500   112448914.164    21398327.098    87622587.3044   21398327.531  
                
  23740923.977   124759409.094    23740930.477    97215156.5614                 
                
  20660480.641   108571596.558    20660489.855    84601302.5684   20660489.254  
                
  22358304.258   117493709.608    22358312.078    91553573.5444   22358311.953  
                
  19903523.703   106545159.448                    82868454.798    19903528.645  
  19903522.297  
 21  8 16  9 57  0.0000000  0 11R 6R21R22G32G18G27G 8G21G10G23R 7
  19547471.391   104309085.749                                                  
  19547468.918  
  19734247.375   105601954.891                    82134845.568    19734251.102  
  19734245.496  
  19838614.945   105899892.274                    82366607.702    19838617.504  
  19838613.059  
  21641158.195   113725077.939    21641167.445    88616997.7684   21641167.793  
                
  23950523.617   125860851.526    23950532.910    98073399.2464   23950533.203  
                
  20832809.773   109477147.460    20832818.387    85306923.5254   20832818.570  
                
  21396348.406   112438566.494    21396358.000    87614524.1834   21396358.445  
                
  23736125.898   124734195.019    23736132.379    97195509.2604                 
                
  20662448.578   108581938.147    20662457.809    84609360.9474   20662457.203  
                
  22363522.492   117521131.573    22363530.332    91574941.2944   22363530.191  
                
  19899265.180   106522363.180                    82850724.380    19899270.105  
  19899263.785  
 21  8 16  9 57 10.0000000  0 11R 6R21R22G32G18G27G 8G21G10G23R 7
  19550750.945   104326586.109                                                  
  19550748.473  
  19737151.281   105617494.312                    82146931.764    19737154.996  
  19737149.406  
  19834726.984   105879138.108                    82350465.569    19834729.535  
  19834725.109  
  21636618.773   113701223.178    21636627.969    88598409.6484   21636628.340  
                
  23956239.953   125890891.242    23956249.316    98096806.7844   23956249.598  
                
  20835109.328   109489231.741    20835117.938    85316339.8444   20835118.133  
                
  21394391.039   112428280.454    21394400.617    87606509.0914   21394401.070  
                
  23731329.078   124708987.632    23731335.586    97175867.1684                 
                
  20664423.586   108592316.918    20664432.824    84617448.3014   20664432.211  
                
  22368744.062   117548571.159    22368751.910    91596322.7824   22368751.781  
                
  19895019.477   106499635.624                    82833047.393    19895024.398  
  19895018.074  
 21  8 16  9 57 20.0000000  0 11R 6R21R22G32G18G27G 8G21G10G23R 7
  19554043.219   104344154.308                                                  
  19554040.738  
  19740067.523   105633099.661                    82159069.242    19740071.238  
  19740065.664  
  19830848.695   105858435.495                    82334363.537    19830851.270  
  19830846.840  
  21632088.312   113677415.484    21632097.469    88579858.1984   21632097.863  
                
  23961959.219   125920946.101    23961968.605    98120226.1344   23961968.840  
                
  20837420.961   109501379.417    20837429.582    85325805.5604   20837429.781  
                
  21392445.383   112418055.920    21392454.918    87598541.9234   21392455.391  
                
  23726533.492   124683786.737    23726540.023    97156230.1314                 
                
  20666405.609   108602732.525    20666414.840    84625564.3544   20666414.227  
                
  22373968.930   117576028.018    22373976.789    91617717.7234   22373976.645  
                
  19890786.555   106476976.486                    82815423.634    19890791.480  
  19890785.145  
 21  8 16  9 57 30.0000000  0 11R 6R21R22G32G18G27G 8G21G10G23R 7
  19557348.188   104361790.315                                                  
  19557345.688  
  19742996.102   105648771.068                    82171258.112    19742999.816  
  19742994.258  
  19826980.094   105837784.613                    82318301.741    19826982.676  
  19826978.242  
  21627566.836   113653655.021    21627575.988    88561343.5564   21627576.383  
                
  23967681.430   125951016.159    23967690.758    98143657.3314   23967690.957  
                
  20839744.656   109513590.533    20839753.309    85335320.7084   20839753.496  
                
  21390511.492   112407893.260    21390520.988    87590622.9664   21390521.480  
                
  23721739.195   124658592.500    23721745.703    97136598.2444                 
                
  20668394.648   108613185.009    20668403.855    84633709.1434   20668403.266  
                
  22379197.078   117603502.185    22379204.934    91639126.1404   22379204.801  
                
  19886566.453   106454385.920                    82797853.195    19886571.367  
  19886565.031  
 21  8 16  9 57 40.0000000  0 11R 6R21R22G32G18G27G 8G21G10G23R 7
  19560665.789   104379493.743                                                  
  19560663.258  
  19745937.000   105664508.409                    82183498.257    19745940.707  
  19745935.168  
  19823121.227   105817185.736                    82302280.398    19823123.789  
  19823119.363  
  21623054.359   113629941.880    21623063.539    88542865.7934   21623063.914  
                
  23973406.492   125981101.445    23973415.840    98167100.4144   23973415.957  
                
  20842080.422   109525865.094    20842089.117    85344885.2884   20842089.281  
                
  21388589.383   112397792.500    21388598.844    87582752.2354   21388599.348  
                
  23716946.156   124633404.913    23716952.617    97116971.5414                 
                
  20670390.695   108623674.341    20670399.875    84641882.6554   20670399.305  
                
  22384428.516   117630993.596    22384436.352    91660548.0044   22384436.246  
                
  19882359.203   106431864.190                    82780336.300    19882364.105  
  19882357.781  
 21  8 16  9 57 50.0000000  0 11R 6R21R22G32G18G27G 8G21G10G23R 7
  19563996.148   104397265.199                                                  
  19563993.617  
  19748890.312   105680312.134                    82195790.040    19748894.031  
  19748888.477  
  19819272.141   105796639.012                    82286299.612    19819274.707  
  19819270.285  
  21618550.961   113606276.426    21618560.176    88524425.1924   21618560.539  
                
  23979134.422   126011202.198    23979143.773    98190555.5124   23979143.910  
                
  20844428.305   109538203.266    20844437.027    85354499.4474   20844437.184  
                
  21386679.062   112387753.642    21386688.512    87574929.7544   21386689.012  
                
  23712154.453   124608224.318    23712160.883    97097350.3244                 
                
  20672393.805   108634200.758    20672402.961    84650085.0584   20672402.410  
                
  22389663.289   117658502.471    22389671.125    91681983.4894   22389671.016  
                
  19878164.875   106409411.620                    82762873.210    19878169.773  
  19878163.441  
 21  8 16  9 58  0.0000000  0 12R 6R21R22G32G18G27G 8G21R 8G10G23R 7
  19567339.156   104415104.112                                                  
  19567336.625  
  19751855.953   105696181.879                    82208133.164    19751859.668  
  19751854.133  
  19815432.852   105776144.545                    82270359.467    19815435.430  
  19815431.000  
  21614056.625   113582658.550    21614065.879    88506021.6564   21614066.219  
                
  23984865.297   126041318.188    23984874.641    98214022.5204   23984874.820  
                
  20846788.258   109550604.885    20846797.004    85364163.0434   20846797.145  
                
  21384780.531   112377776.785    21384789.980    87567155.5834   21384790.496  
                
  23707364.031   124583050.507    23707370.473    97077734.3864                 
                
  23597255.656   126362217.262                    98281727.007    23597260.145  
  23597254.910  
  20674403.922   108644764.013    20674413.055    84658316.1604   20674412.523  
                
  22394901.344   117686028.595    22394909.152    91703432.4104   22394909.059  
                
  19873983.383   106387027.835                    82745463.604    19873988.273  
  19873981.938  
 21  8 16  9 58 10.0000000  0 12R 6R21R22G32G18G27G 8G21R 8G10G23R 7
  19570694.789   104433010.460                                                  
  19570692.270  
  19754833.930   105712117.590                    82220527.599    19754837.633  
  19754832.105  
  19811603.375   105755702.486                    82254460.093    19811605.941  
  19811601.516  
  21609571.328   113559088.269    21609580.625    88487655.2094   21609580.945  
                
  23990599.125   126071449.328    23990608.402    98237501.3054   23990608.609  
                
  20849160.250   109563069.829    20849169.016    85373875.9784   20849169.141  
                
  21382893.758   112367861.726    21382903.203    87559429.5584   21382903.715  
                
  23702574.867   124557883.412    23702581.289    97058123.6674                 
                
  23589398.445   126320142.958                    98249002.580    23589403.352  
  23589397.652  
  20676421.023   108655363.995    20676430.148    84666575.8804   20676429.621  
                
  22400142.641   117713571.814    22400150.418    91724894.6484   22400150.348  
                
  19869814.789   106364713.026                    82728107.647    19869819.684  
  19869813.328  
 21  8 16  9 58 20.0000000  0 12R 6R21R22G32G18G27G 8G21R 8G10G23R 7
  19574063.000   104450983.856                                                  
  19574060.484  
  19757824.250   105728119.390                    82232973.433    19757827.941  
  19757822.441  
  19807783.703   105735312.778                    82238601.423    19807786.238  
  19807781.859  
  21605095.117   113535565.691    21605104.441    88469325.9394   21605104.758  
                
  23996335.930   126101595.625    23996345.125    98260991.9254   23996345.305  
                
  20851544.305   109575598.089    20851553.094    85383638.2494   20851553.203  
                
  21381018.797   112358008.698    21381028.223    87551751.8754   21381028.742  
                
  23697787.016   124532723.140    23697793.395    97038518.2684                 
                
  23581544.766   126278087.489                    98216292.819    23581549.996  
  23581543.883  
  20678445.117   108666000.688    20678454.242    84674864.2104   20678453.719  
                
  22405387.195   117741132.113    22405394.961    91746370.2014   22405394.898  
                
  19865659.078   106342467.171                    82710805.331    19865663.980  
  19865657.617  
 21  8 16  9 58 30.0000000  0 12R 6R21R22G32G18G27G 8G21R 8G10G23R 7
  19577443.805   104469024.489                                                  
  19577441.289  
  19760826.867   105744186.984                    82245470.447    19760830.555  
  19760825.066  
  19803973.836   105714975.471                    82222783.521    19803976.359  
  19803971.988  
  21600627.969   113512090.696    21600637.324    88451033.7464   21600637.637  
                
  24002075.594   126131756.913    24002084.711    98284494.1854   24002084.867  
                
  20853940.359   109588189.437    20853949.164    85393449.6804   20853949.266  
                
  21379155.617   112348217.621    21379165.016    87544122.4664   21379165.559  
                
  23693000.445   124507569.539    23693006.789    97018918.0614                 
                
  23573694.594   126236050.832                    98183597.655    23573699.969  
  23573693.680  
  20680476.156   108676673.861    20680485.285    84683180.9714   20680484.754  
                
  22410634.953   117768709.263    22410642.695    91767858.8704   22410642.648  
                
  19861516.219   106320290.125                    82693556.525    19861521.117  
  19861514.758  
 21  8 16  9 58 40.0000000  0 12R 6R21R22G32G18G27G 8G21R 8G10G23R 7
  19580837.109   104487131.796                                                  
  19580834.598  
  19763841.805   105760320.453                    82258018.698    19763845.477  
  19763840.035  
  19800173.789   105694690.556                    82207006.364    19800176.305  
  19800171.938  
  21596169.883   113488663.371    21596179.270    88432778.6914   21596179.574  
                
  24007818.047   126161933.097    24007827.094    98308008.1194   24007827.254  
                
  20856348.406   109600843.784    20856357.215    85403310.2124   20856357.316  
                
  21377304.234   112338488.503    21377313.605    87536541.3364   21377314.164  
                
  23688215.148   124482422.613    23688221.500    96999323.0684                 
                
  23565848.109   126194033.085                    98150917.189    23565853.336  
  23565847.121  
  20682514.125   108687383.458    20682523.258    84691526.1124   20682522.719  
                
  22415885.906   117796303.162    22415893.637    91789360.5924   22415893.605  
                
  19857386.234   106298182.022                    82676361.339    19857391.133  
  19857384.773  
 21  8 16  9 58 50.0000000  0 12R 6R21R22G32G18G27G 8G21R 8G10G23R 7
  19584243.055   104505306.630                                                  
  19584240.551  
  19766869.148   105776520.384                    82270618.637    19766872.820  
  19766867.383  
  19796383.695   105674458.789                    82191270.555    19796386.180  
  19796381.852  
  21591721.008   113465284.437    21591730.434    88414561.3504   21591730.734  
                
  24013563.266   126192124.921    24013572.438    98331534.1604   24013572.688  
                
  20858768.562   109613561.812    20858777.371    85413220.3504   20858777.480  
                
  21375464.781   112328822.122    21375474.117    87529009.0924   21375474.688  
                
  23683431.258   124457283.083    23683437.578    96979733.8384                 
                
  23558005.430   126152035.095                    98118252.098    23558010.480  
  23558004.379  
  20684559.133   108698130.068    20684568.273    84699900.0934   20684567.723  
                
  22421140.156   117823914.402    22421147.926    91810875.8334   22421147.879  
                
  19853269.250   106276143.545                    82659220.320    19853274.156  
  19853267.789  
 21  8 16  9 59  0.0000000  0 12R 6R21R22G32G18G27G 8G21R 8G10G23R 7
  19587661.469   104523547.965                                                  
  19587658.945  
  19769908.805   105792786.177                    82283269.801    19769912.465  
  19769907.047  
  19792603.492   105654279.860                    82175575.833    19792605.980  
  19792601.664  
  21587281.258   113441953.500    21587290.723    88396381.4064   21587291.012  
                
  24019311.367   126222331.770    24019320.656    98355071.8994   24019320.945  
                
  20861200.727   109626342.937    20861209.547    85423179.6624   20861209.660  
                
  21373637.117   112319217.684    21373646.426    87521525.1044   21373647.008  
                
  23678648.703   124432150.504    23678654.961    96960150.0154                 
                
  23550166.297   126110056.336                    98085601.959    23550171.195  
  23550165.262  
  20686611.094   108708913.184    20686620.234    84708302.5194   20686619.684  
                
  22426397.617   117851542.459    22426405.434    91832404.1874   22426405.344  
                
  19849165.203   106254174.279                    82642133.111    19849170.109  
  19849163.730  
 21  8 16  9 59 10.0000000  0 12R 6R21R22G32G18G27G 8G21R 8G10G23R 7
  19591092.469   104541856.398                                                  
  19591089.922  
  19772960.812   105809118.052                    82295972.370    19772964.457  
  19772959.059  
  19788833.234   105634153.966                    82159922.364    19788835.742  
  19788831.402  
  21582850.688   113418670.785    21582860.199    88378239.0364   21582860.473  
                
  24025062.352   126252553.754    24025071.766    98378621.4844   24025072.090  
                
  20863644.930   109639187.305    20863653.762    85433188.2594   20863653.867  
                
  21371821.352   112309675.753    21371830.652    87514089.8334   21371831.230  
                
  23673867.477   124407024.953    23673873.734    96940571.6714                 
                
  23542330.773   126068096.995                    98052966.935    23542335.523  
  23542329.711  
  20688670.016   108719732.903    20688679.145    84716733.4744   20688678.609  
                
  22431658.289   117879187.454    22431666.109    91853945.7294   22431666.023  
                
  19845074.133   106232274.481                    82625099.951    19845079.047  
  19845072.641  
 21  8 16  9 59 20.0000000  0 12R 6R21R22G32G18G27G 8G21R 8G10G23R 7
  19594535.977   104560231.650                                                  
  19594533.430  
  19776025.242   105825516.361                    82308726.599    19776028.871  
  19776023.508  
  19785073.000   105614081.590                    82144310.507    19785075.496  
  19785071.176  
  21578429.367   113395436.650    21578438.910    88360134.5304   21578439.172  
                
  24030816.148   126282791.141    24030825.820    98402183.0464   24030826.160  
                
  20866101.211   109652095.149    20866110.055    85443246.3094   20866110.160  
                
  21370017.516   112300196.536    21370026.816    87506703.4314   21370027.383  
                
  23669087.602   124381906.722    23669093.906    96920999.0524                 
                
  23534498.883   126026157.584                    98020347.433    23534503.664  
  23534497.828  
  20690735.953   108730589.455    20690745.062    84725193.1144   20690744.531  
                
  22436922.227   117906849.592    22436930.059    91875500.6344   22436929.953  
                
  19840996.062   106210444.288                    82608120.912    19841000.949  
  19840994.574  
 21  8 16  9 59 30.0000000  0 12R 6R21R22G32G18G27G 8G21R 8G10G23R 7
  19597991.930   104578673.160                                                  
  19597989.410  
  19779101.938   105841980.337                    82321531.914    19779105.570  
  19779100.238  
  19781322.703   105594062.263                    82128739.925    19781325.168  
  19781320.871  
  21574017.188   113372250.510    21574026.762    88342067.4154   21574027.008  
                
  24036572.836   126313043.319    24036582.695    98425756.1174   24036583.020  
                
  20868569.438   109665065.723    20868578.293    85453353.2504   20868578.398  
                
  21368225.453   112290779.181    21368234.758    87499365.2384   21368235.309  
                
  23664309.039   124356795.340    23664315.340    96901431.7404                 
                
  23526670.609   125984237.687                    97987743.100    23526675.434  
  23526669.535  
  20692808.766   108741482.117    20692817.855    84733680.9064   20692817.344  
                
  22442189.305   117934528.139    22442197.156    91897068.3284   22442197.023  
                
  19836930.930   106188683.313                    82591195.718    19836935.809  
  19836929.438  
 21  8 16  9 59 40.0000000  0 12R 6R21R22G32G18G27G 8G21R 8G10G23R 7
  19601460.344   104597181.279                                                  
  19601457.844  
  19782191.016   105858510.549                    82334388.728    19782194.641  
  19782189.332  
  19777582.445   105574096.560                    82113211.054    19777584.930  
  19777580.617  
  21569614.242   113349112.969    21569623.832    88324038.1684   21569624.082  
                
  24042332.484   126343310.718    24042342.391    98449341.0564   24042342.754  
                
  20871049.688   109678099.551    20871058.566    85463509.4734   20871058.656  
                
  21366445.328   112281424.572    21366454.641    87492075.9234   21366455.180  
                
  23659531.875   124331691.283    23659538.180    96881870.1584                 
                
  23518846.062   125942337.674                    97955154.243    23518850.902  
  23518844.949  
  20694888.531   108752411.389    20694897.609    84742197.2224   20694897.098  
                
  22447459.570   117962223.575    22447467.457    91918649.1794   22447467.281  
                
  19832878.773   106166991.861                    82574324.601    19832883.641  
  19832877.273  
 21  8 16  9 59 50.0000000  0 12R 6R21R22G32G18G27G 8G21R 8G10G23R 7
  19604941.117   104615755.379                                                  
  19604938.637  
  19785292.359   105875106.437                    82347296.649    19785295.992  
  19785290.688  
  19773852.133   105554183.862                    82097723.391    19773854.613  
  19773850.332  
  21565220.477   113326023.597    21565230.055    88306046.4524   21565230.320  
                
  24048095.078   126373592.828    24048104.953    98472937.4534   24048105.328  
                
  20873541.883   109691196.089    20873550.781    85473714.5534   20873550.863  
                
  21364677.055   112272132.236    21364686.383    87484835.1464   21364686.906  
                
  23654756.023   124306594.033    23654762.363    96862313.8794                 
                
  23511025.180   125900457.108                    97922580.505    23511030.020  
  23511024.031  
  20696975.164   108763376.709    20696984.234    84750741.6244   20696983.727  
                
  22452732.961   117989935.345    22452740.836    91940242.7584   22452740.668  
                
  19828839.562   106145369.683                    82557507.359    19828844.426  
  19828838.039  
 21  8 16 10  0  0.0000000  0 12R 6R21R22G32G18G27G 8G21R 8G10G23R 7
  19608434.289   104634395.578                                                  
  19608431.824  
  19788406.008   105891768.151                    82360255.740    19788409.648  
  19788404.348  
  19770131.852   105534324.746                    82082277.422    19770134.320  
  19770130.062  
  21560835.906   113302982.617    21560845.473    88288092.4464   21560845.738  
                
  24053860.477   126403889.767    24053870.355    98496545.4054   24053870.711  
                
  20876046.016   109704355.391    20876054.945    85483968.5554   20876055.023  
                
  21362920.656   112262902.319    21362929.992    87477643.0004   21362930.500  
                
  23649981.547   124281503.849    23649987.898    96842763.0834                 
                
  23503208.086   125858596.640                    97890022.363    23503212.855  
  23503206.898  
  20699068.672   108774378.163    20699077.758    84759314.1874   20699077.242  
                
  22458009.461   118017663.517    22458017.309    91961849.1094   22458017.164  
                
  19824813.297   106123816.802                    82540744.018    19824818.164  
  19824811.750  
 21  8 16 10  0 10.0000000  0 12R 6R21R22G32G18G27G 8G21R 8G10G23R 7
  19611939.773   104653101.423                                                  
  19611937.320  
  19791531.945   105908495.543                    82373265.937    19791535.586  
  19791530.301  
  19766421.586   105514519.051                    82066872.987    19766424.055  
  19766419.785  
  21556460.562   113279990.011    21556470.129    88270176.1304   21556470.387  
                
  24059628.719   126434201.431    24059638.574    98520164.8744   24059638.863  
                
  20878562.086   109717577.365    20878571.051    85494271.3874   20878571.113  
                
  21361176.109   112253734.629    21361185.441    87470499.3504   21361185.941  
                
  23645208.367   124256420.585    23645214.664    96823217.6744                 
                
  23495394.609   125816755.695                    97857479.430    23495399.344  
  23495393.430  
  20701169.031   108785415.618    20701178.141    84767914.7994   20701177.609  
                
  22463289.070   118045407.945    22463296.918    91983468.1404   22463296.750  
                
  19820800.023   106102333.442                    82524034.734    19820804.867  
  19820798.473  
 21  8 16 10  0 20.0000000  0 12R 6R21R22G32G18G27G 8G21R 8G10G23R 7
  19615457.688   104671873.713                                                  
  19615455.250  
  19794670.266   105925289.319                    82386327.761    19794673.930  
  19794668.629  
  19762721.445   105494767.448                    82051510.624    19762723.891  
  19762719.648  
  21552094.555   113257046.542    21552104.137    88252298.1184   21552104.379  
                
  24065399.828   126464528.494    24065409.695    98543796.3224   24065409.945  
                
  20881090.188   109730862.645    20881099.184    85504623.5404   20881099.219  
                
  21359443.516   112244629.783    21359452.832    87463404.6604   21359453.332  
                
  23640436.617   124231344.981    23640442.863    96803678.2504                 
                
  23487584.992   125774935.451                    97824952.615    23487589.703  
  23487583.816  
  20703276.367   108796489.722    20703285.516    84776543.9704   20703284.961  
                
  22468571.875   118073169.286    22468579.711    92005100.3484   22468579.527  
                
  19816799.852   106080920.248                    82507380.034    19816804.680  
  19816798.309  
 21  8 16 10  0 30.0000000  0 12R 6R21R22G32G18G27G 8G21R 8G10G23R 7
  19618987.953   104690711.832                                                  
  19618985.488  
  19797820.922   105942149.034                    82399440.863    19797824.602  
  19797819.281  
  19759031.422   105475069.834                    82036190.261    19759033.852  
  19759029.629  
  21547737.820   113234151.781    21547747.426    88234458.0564   21547747.645  
                
  24071173.781   126494870.388    24071183.578    98567439.3324   24071183.828  
                
  20883630.242   109744210.663    20883639.277    85515024.5944   20883639.293  
                
  21357722.836   112235587.575    21357732.129    87456358.7804   21357732.637  
                
  23635666.227   124206276.619    23635672.438    96784144.4814                 
                
  23479779.094   125733135.257                    97792441.370    23479783.801  
  23479777.910  
  20705390.570   108807599.912    20705399.750    84785201.2544   20705399.172  
                
  22473857.781   118100946.933    22473865.574    92026745.2614   22473865.418  
                
  19812812.680   106059576.617                    82490779.435    19812817.492  
  19812811.145  
 21  8 16 10  0 40.0000000  0 12R 6R21R22G32G18G27G 8G21R 8G10G23R 7
  19622530.227   104709614.005                                                  
  19622527.762  
  19800983.570   105959072.926                    82412603.875    19800987.258  
  19800981.938  
  19755351.203   105455424.568                    82020910.619    19755353.652  
  19755349.379  
  21543390.078   113211304.276    21543399.676    88216654.8164   21543399.895  
                
  24076950.281   126525225.589    24076960.016    98591092.6844   24076960.270  
                
  20886181.930   109757619.856    20886190.988    85525473.3024   20886190.992  
                
  21356013.773   112226606.371    21356023.055    87449360.4414   21356023.570  
                
  23630896.938   124181213.908    23630903.098    96764615.1054                 
                
  23471976.742   125691353.848                    97759944.739    23471981.398  
  23471975.531  
  20707511.336   108818744.591    20707520.551    84793885.4204   20707519.957  
                
  22479146.508   118128739.325    22479154.281    92048401.6564   22479154.141  
                
  19808838.242   106038301.141                    82474231.851    19808843.047  
  19808836.723  
 21  8 16 10  0 50.0000000  0 12R 6R21R22G32G18G27G 8G21R 8G10G23R 7
  19626084.969   104728582.789                                                  
  19626082.527  
  19804158.719   105976063.742                    82425818.945    19804162.418  
  19804157.086  
  19751681.312   105435834.440                    82005673.859    19751683.773  
  19751679.492  
  21539051.828   113188506.685    21539061.379    88198890.4604   21539061.637  
                
  24082729.711   126555596.620    24082739.484    98614758.4084   24082739.715  
                
  20888745.734   109771092.737    20888754.812    85535971.6484   20888754.809  
                
  21354316.859   112217689.070    21354326.148    87442411.8944   21354326.648  
                
  23626129.211   124156159.433    23626135.328    96745092.1474                 
                
  23464178.344   125649593.984                    97727464.876    23464183.020  
  23464177.156  
  20709639.141   108829926.302    20709648.387    84802598.4374   20709647.781  
                
  22484438.516   118156548.983    22484446.281    92070071.4914   22484446.148  
                
  19804877.031   106017096.519                    82457739.368    19804881.824  
  19804875.496  
 21  8 16 10  1  0.0000000  0 12R 6R21R22G32G18G27G 8G21R 8G10G23R 7
  19629652.086   104747617.589                                                  
  19629649.629  
  19807346.273   105993120.953                    82439085.650    19807349.984  
  19807344.648  
  19748021.695   105416299.185                    81990479.771    19748024.133  
  19748019.879  
  21534723.000   113165758.565    21534732.531    88181164.6584   21534732.801  
                
  24088512.070   126585982.977    24088521.895    98638436.0724   24088522.078  
                
  20891321.562   109784628.780    20891330.664    85546519.2054   20891330.652  
                
  21352631.992   112208835.032    21352641.305    87435512.6494   21352641.797  
                
  23621362.961   124131112.711    23621369.098    96725575.2184                 
                
  23456383.883   125607855.042                    97695001.284    23456388.547  
  23456382.691  
  20711773.898   108841144.513    20711783.168    84811339.8984   20711782.539  
                
  22489733.695   118184375.312    22489741.473    92091754.3444   22489741.344  
                
  19800928.984   105995962.335                    82441301.682    19800933.785  
  19800927.445  
 21  8 16 10  1 10.0000000  0 12R 6R21R22G32G18G27G 8G21R 8G10G23R 7
  19633231.484   104766717.953                                                  
  19633229.051  
  19810546.188   106010244.237                    82452403.761    19810549.898  
  19810544.551  
  19744372.305   105396818.449                    81975328.095    19744374.742  
  19744370.484  
  21530403.555   113143059.748    21530413.082    88163477.2744   21530413.348  
                
  24094297.352   126616384.362    24094307.176    98662125.4254   24094307.285  
                
  20893909.344   109798227.666    20893918.465    85557115.7364   20893918.441  
                
  21350959.133   112200044.115    21350968.473    87428662.5874   21350968.949  
                
  23616598.141   124106073.486    23616604.344    96706064.1384                 
                
  23448593.297   125566136.891                    97662553.860    23448597.957  
  23448592.113  
  20713915.539   108852398.882    20713924.832    84820109.5324   20713924.191  
                
  22495032.000   118212218.027    22495039.816    92113449.9544   22495039.664  
                
  19796994.031   105974898.270                    82424918.536    19796998.844  
  19796992.488  
 21  8 16 10  1 20.0000000  0 12R 6R21R22G32G18G27G 8G21R 8G10G23R 7
  19636823.055   104785883.226                                                  
  19636820.645  
  19813758.320   106027432.990                    82465772.784    19813762.055  
  19813756.676  
  19740733.070   105377392.044                    81960218.679    19740735.551  
  19740731.242  
  21526093.406   113120409.803    21526102.930    88145827.9744   21526103.180  
                
  24100085.297   126646800.268    24100095.172    98685826.1074   24100095.223  
                
  20896508.992   109811888.856    20896518.133    85567760.8164   20896518.094  
                
  21349298.172   112191315.704    21349307.531    87421861.2244   21349307.988  
                
  23611834.695   124081041.423    23611840.902    96686558.6464                 
                
  23440806.594   125524439.306                    97630122.429    23440811.215  
  23440805.422  
  20716063.961   108863688.882    20716073.273    84828906.9324   20716072.625  
                
  22500333.320   118240076.562    22500341.156    92135157.8944   22500340.984  
                
  19793072.078   105953903.805                    82408589.509    19793076.895  
  19793070.527  
 21  8 16 10  1 30.0000000  0 12R 6R21R22G32G18G27G 8G21R 8G10G23R 7
  19640426.797   104805113.522                                                  
  19640424.395  
  19816982.766   106044687.652                    82479193.072    19816986.508  
  19816981.117  
  19737104.055   105358020.130                    81945151.629    19737106.535  
  19737102.211  
  21521792.617   113097809.062    21521802.133    88128217.0124   21521802.395  
                
  24105876.078   126677230.911    24105885.926    98709538.2434   24105885.977  
                
  20899120.531   109825612.569    20899129.684    85578454.6094   20899129.637  
                
  21347649.148   112182650.052    21347658.520    87415108.7674   21347658.984  
                
  23607072.695   124056016.922    23607078.867    96667059.0514                 
                
  23433023.602   125482762.267                    97597706.989    23433028.301  
  23433022.516  
  20718219.195   108875014.730    20718228.520    84837732.2614   20718227.863  
                
  22505637.688   118267951.130    22505645.512    92156878.3174   22505645.332  
                
  19789163.234   105932979.466                    82392315.033    19789168.062  
  19789161.691  
 21  8 16 10  1 40.0000000  0 12R 6R21R22G32G18G27G 8G21R 8G10G23R 7
  19644042.789   104824409.091                                                  
  19644040.367  
  19820219.555   106062008.326                    82492664.684    19820223.301  
  19820217.902  
  19733485.312   105338703.135                    81930127.298    19733487.762  
  19733483.469  
  21517501.250   113075257.815    21517510.766    88110644.6334   21517511.031  
                
  24111669.734   126707676.491    24111679.512    98733262.0504   24111679.570  
                
  20901743.992   109839398.935    20901753.152    85589197.2384   20901753.102  
                
  21346012.125   112174047.449    21346021.516    87408405.4434   21346021.969  
                
  23602312.180   124031000.212    23602318.344    96647565.5074                 
                
  23425244.547   125441106.407                    97565308.028    23425249.375  
  23425243.551  
  20720381.281   108886376.579    20720390.613    84846585.6484   20720389.961  
                
  22510945.133   118295841.881    22510952.914    92178611.3634   22510952.746  
                
  19785267.500   105912125.343                    82376095.160    19785272.324  
  19785265.945  
 21  8 16 10  1 50.0000000  0 12R 6R21R22G32G18G27G 8G21R 8G10G23R 7
  19647670.891   104843769.378                                                  
  19647668.488  
  19823468.609   106079394.581                    82506187.331    19823472.359  
  19823466.969  
  19729876.828   105319440.819                    81915145.488    19729879.254  
  19729875.004  
  21513219.250   113052755.823    21513228.750    88093110.6204   21513229.027  
                
  24117466.227   126738136.646    24117475.895    98756997.2024   24117475.961  
                
  20904379.320   109853247.650    20904388.484    85599988.4324   20904388.426  
                
  21344387.102   112165507.889    21344396.520    87401751.2464   21344396.961  
                
  23597553.008   124005990.745    23597559.180    96628077.6144                 
                
  23417469.391   125399471.446                    97532925.314    23417474.348  
  23417468.457  
  20722550.148   108897774.063    20722559.480    84855466.8004   20722558.812  
                
  22516255.594   118323748.449    22516263.320    92200356.7284   22516263.188  
                
  19781384.820   105891341.086                    82359929.640    19781389.656  
  19781383.270  
 21  8 16 10  2  0.0000000  0 12R 6R21R22G32G18G27G 8G21R 8G10G23R 7
  19651311.102   104863194.283                                                  
  19651308.691  
  19826729.898   106096846.365                    82519760.921    19826733.648  
  19826728.266  
  19726278.562   105300233.042                    81900206.127    19726280.969  
  19726276.719  
  21508946.617   113030303.015    21508956.094    88075614.9314   21508956.383  
                
  24123265.445   126768611.222    24123275.012    98780743.6044   24123275.094  
                
  20907026.461   109867158.475    20907035.625    85610828.0294   20907035.566  
                
  21342774.000   112157031.026    21342783.457    87395145.8964   21342783.883  
                
  23592795.188   123980988.433    23592801.312    96608595.2834                 
                
  23409698.047   125357857.313                    97500558.819    23409703.191  
  23409697.234  
  20724725.758   108909206.976    20724735.082    84864375.5624   20724734.406  
                
  22521569.008   118351670.605    22521576.711    92222114.2524   22521576.578  
                
  19777515.180   105870626.677                    82343818.439    19777520.023  
  19777513.621  
 21  8 16 10  2 10.0000000  0 12R 6R21R22G32G18G27G 8G21R 8G10G23R 7
  19654963.516   104882684.234                                                  
  19654961.109  
  19830003.586   106114364.428                    82533386.070    19830007.336  
  19830001.980  
  19722690.711   105281080.823                    81885309.949    19722693.117  
  19722688.875  
  21504683.500   113007900.173    21504692.926    88058158.1764   21504693.250  
                
  24129067.500   126799100.910    24129077.043    98804501.7764   24129077.137  
                
  20909685.555   109881132.074    20909694.715    85621716.5364   20909694.648  
                
  21341173.000   112148617.692    21341182.492    87388590.0454   21341182.910  
                
  23588038.852   123955993.993    23588044.934    96589119.1104                 
                
  23401930.844   125316264.892                    97468209.198    23401936.039  
  23401930.066  
  20726908.242   108920675.992    20726917.539    84873312.4594   20726916.879  
                
  22526885.516   118379609.037    22526893.195    92243884.4384   22526893.055  
                
  19773658.773   105849983.056                    82327762.303    19773663.605  
  19773657.199  
 21  8 16 10  2 20.0000000  0 12R 6R21R22G32G18G27G 8G21R 8G10G23R 7
  19658628.023   104902238.745                                                  
  19658625.629  
  19833289.531   106131948.098                    82547062.257    19833293.285  
  19833287.941  
  19719113.211   105261983.881                    81870456.764    19719115.633  
  19719111.363  
  21500429.812   112985546.928    21500439.195    88040740.0694   21500439.547  
                
  24134872.359   126829605.229    24134881.824    98828271.3364   24134881.934  
                
  20912356.492   109895167.969    20912365.629    85632653.5964   20912365.574  
                
  21339583.992   112140267.419    21339593.500    87382083.3454   21339593.906  
                
  23583283.969   123931007.091    23583290.109    96569648.8544                 
                
  23394167.531   125274693.632                    97435876.028    23394172.816  
  23394166.852  
  20729097.500   108932180.611    20729106.762    84882277.0954   20729106.117  
                
  22532205.023   118407563.203    22532212.668    92265666.9054   22532212.539  
                
  19769815.445   105829409.465                    82311760.631    19769820.266  
  19769813.852  
 21  8 16 10  2 30.0000000  0 12R 6R21R22G32G18G27G 8G21R 8G10G23R 7
  19662304.578   104921857.496                                                  
  19662302.199  
  19836587.750   106149597.462                    82560789.531    19836591.508  
  19836586.180  
  19715546.023   105242941.957                    81855646.400    19715548.426  
  19715544.168  
  21496185.555   112963243.259    21496194.934    88023360.6034   21496195.293  
                
  24140680.086   126860124.046    24140689.324    98852052.2124   24140689.504  
                
  20915039.266   109909266.020    20915048.379    85643639.0824   20915048.344  
                
  21338006.953   112131980.025    21338016.469    87375625.6414   21338016.879  
                
  23578530.555   123906027.738    23578536.785    96550184.4344                 
                
  23386408.305   125233143.847                    97403559.569    23386413.621  
  23386407.645  
  20731293.516   108943720.696    20731302.730    84891269.3774   20731302.117  
                
  22537527.508   118435533.012    22537535.117    92287461.5404   22537535.004  
                
  19765985.258   105808906.160                    82295813.621    19765990.066  
  19765983.664  
 21  8 16 10  2 40.0000000  0 12R 6R21R22G32G18G27G 8G21R 8G10G23R 7
  19665993.180   104941540.573                                                  
  19665990.816  
  19839898.188   106167312.263                    82574567.696    19839901.945  
  19839896.625  
  19711989.164   105223955.224                    81840878.942    19711991.566  
  19711987.297  
  21491950.734   112940989.163    21491960.109    88006019.7574   21491960.465  
                
  24146490.477   126890657.330    24146499.625    98875844.3034   24146499.840  
                
  20917733.844   109923426.084    20917742.922    85654672.8954   20917742.906  
                
  21336441.898   112123755.614    21336451.430    87369217.0004   21336451.844  
                
  23573778.539   123881055.843    23573784.801    96530725.8194                 
                
  23378653.070   125191615.180                    97371259.512    23378658.363  
  23378652.371  
  20733496.250   108955296.137    20733505.430    84900289.1994   20733504.828  
                
  22542852.953   118463518.268    22542860.516    92309268.2434   22542860.410  
                
  19762168.195   105788473.165                    82279921.309    19762173.004  
  19762166.617  
 21  8 16 10  2 50.0000000  0 12R 6R21R22G32G18G27G 8G21R 8G10G23R 7
  19669693.797   104961287.831                                                  
  19669691.457  
  19843220.945   106185092.937                    82588397.094    19843224.684  
  19843219.395  
  19708442.727   105205024.137                    81826154.747    19708445.160  
  19708440.867  
  21487725.430   112918785.054    21487734.785    87988717.8604   21487735.141  
                
  24152303.602   126921205.301    24152312.754    98899647.8924   24152312.953  
                
  20920440.273   109937648.460    20920449.316    85665755.2694   20920449.309  
                
  21334888.906   112115594.580    21334898.469    87362857.7584   21334898.871  
                
  23569028.000   123856091.739    23569034.324    96511273.2714                 
                
  23370901.977   125150108.284                    97338976.418    23370907.191  
  23370901.133  
  20735705.766   108966907.185    20735714.906    84909336.7724   20735714.328  
                
  22548181.383   118491519.284    22548188.906    92331087.2084   22548188.816  
                
  19758364.289   105768110.589                    82264083.762    19758369.090  
  19758362.738  
 21  8 16 10  3  0.0000000  0 12R 6R21R22G32G18G27G 8G21R 8G10G23R 7
  19673406.461   104981099.369                                                  
  19673404.086  
  19846555.992   106202939.369                    82602277.667    19846559.719  
  19846554.453  
  19704906.711   105186148.677                    81811473.844    19704909.141  
  19704904.859  
  21483509.641   112896630.907    21483518.980    87971454.8954   21483519.336  
                
  24158119.492   126951767.865    24158128.648    98923462.8434   24158128.855  
                
  20923158.539   109951933.004    20923167.539    85676886.0674   20923167.551  
                
  21333347.969   112107496.899    21333357.562    87356547.8764   21333357.953  
                
  23564278.953   123831135.377    23564285.383    96491826.7894                 
                
  23363154.930   125108623.234                    97306710.298    23363160.098  
  23363154.000  
  20737922.039   108978553.737    20737931.145    84918411.9994   20737930.566  
                
  22553512.773   118519535.903    22553520.273    92352918.3174   22553520.188  
                
  19754573.562   105747818.553                    82248301.069    19754578.348  
  19754572.012  
 21  8 16 10  3 10.0000000  0 12R 6R21R22G32G18G27G 8G21R 8G10G23R 7
  19677131.094   105000974.767                                                  
  19677128.707  
  19849903.297   106220851.453                    82616209.270    19849907.020  
  19849901.750  
  19701381.133   105167328.920                    81796836.256    19701383.539  
  19701379.277  
  21479303.344   112874526.757    21479312.676    87954230.8934   21479313.027  
                
  24163938.141   126982344.973    24163947.312    98947289.1334   24163947.527  
                
  20925888.609   109966279.646    20925897.570    85688065.2644   20925897.605  
                
  21331819.055   112099462.454    21331828.668    87350287.2694   21331829.047  
                
  23559531.391   123806186.815    23559537.906    96472386.3794                 
                
  23355411.961   125067159.822                    97274460.981    23355417.012  
  23355410.984  
  20740145.039   108990235.687    20740154.117    84927514.8114   20740153.551  
                
  22558847.125   118547568.032    22558854.602    92374761.5314   22558854.531  
                
  19750795.992   105727596.945                    82232573.151    19750800.766  
  19750794.453  
 21  8 16 10  3 20.0000000  0 12R 6R21R22G32G18G27G 8G21R 8G10G23R 7
  19680867.703   105020914.046                                                  
  19680865.320  
  19853262.844   106238829.045                    82630191.824    19853266.547  
  19853261.270  
  19697866.031   105148564.984                    81782242.076    19697868.430  
  19697864.156  
  21475106.570   112852472.580    21475115.891    87937045.8304   21475116.242  
                
  24169759.469   127012936.477    24169768.688    98971126.6384   24169768.902  
                
  20928630.469   109980688.190    20928639.406    85699292.6954   20928639.461  
                
  21330302.195   112091491.303    21330311.828    87344075.9784   21330312.215  
                
  23554785.258   123781245.839    23554791.766    96452951.8374                 
                
  23347673.047   125025718.121                    97242228.560    23347678.020  
  23347672.020  
  20742374.750   109001952.879    20742383.809    84936645.0864   20742383.250  
                
  22564184.391   118575615.513    22564191.852    92396616.6884   22564191.777  
                
  19747031.586   105707445.808                    82216900.055    19747036.355  
  19747030.059  
 21  8 16 10  3 30.0000000  0 12R 6R21R22G32G18G27G 8G21R 8G10G23R 7
  19684616.281   105040917.168                                                  
  19684613.891  
  19856634.695   106256872.461                    82644225.595    19856638.402  
  19856633.113  
  19694361.398   105129857.064                    81767691.482    19694363.797  
  19694359.527  
  21470919.367   112830468.730    21470928.676    87919899.9794   21470929.031  
                
  24175583.641   127043542.662    24175592.879    98994975.5824   24175593.086  
                
  20931384.156   109995158.901    20931393.086    85710568.5664   20931393.148  
                
  21328797.430   112083583.730    21328807.090    87337914.2324   21328807.480  
                
  23550040.633   123756312.849    23550047.109    96433523.5614                 
                
  23339938.164   124984298.675                    97210013.480    23339943.207  
  23339937.195  
  20744611.211   109013705.565    20744620.254    84945803.0214   20744619.703  
                
  22569524.625   118603678.579    22569532.102    92418484.0074   22569532.000  
                
  19743280.414   105687365.505                    82201282.052    19743285.176  
  19743278.898  
 21  8 16 10  3 40.0000000  0 12R 6R21R22G32G18G27G 8G21R 8G10G23R 7
  19688376.773   105060983.825                                                  
  19688374.391  
  19860018.805   106274981.449                    82658310.349    19860022.496  
  19860017.203  
  19690867.273   105111205.208                    81753184.476    19690869.645  
  19690865.398  
  21466741.711   112808515.062    21466751.008    87902793.2314   21466751.367  
                
  24181410.516   127074163.293    24181419.809    99018835.7514   24181419.996  
                
  20934149.625   110009691.519    20934158.547    85721892.6764   20934158.613  
                
  21327304.727   112075739.518    21327314.402    87331801.8554   21327314.793  
                
  23545297.508   123731387.703    23545303.980    96414101.3624                 
                
  23332207.461   124942901.220                    97177815.494    23332212.492  
  23332206.512  
  20746854.375   109025493.461    20746863.406    84954988.3934   20746862.852  
                
  22574867.773   118631756.962    22574875.258    92440363.2604   22574875.129  
                
  19739542.422   105667355.762                    82185718.928    19739547.184  
  19739540.922  
 21  8 16 10  3 50.0000000  0 12R 6R21R22G32G18G27G 8G21R 8G10G23R 7
  19692149.164   105081114.001                                                  
  19692146.793  
  19863415.195   106293156.223                    82672446.285    19863418.883  
  19863413.570  
  19687383.711   105092609.691                    81738721.297    19687386.113  
  19687381.832  
  21462573.664   112786611.841    21462582.961    87885725.7964   21462583.324  
                
  24187240.164   127104798.518    24187249.539    99042707.3204   24187249.684  
                
  20936926.891   110024286.151    20936935.812    85733265.1164   20936935.891  
                
  21325824.117   112067958.870    21325833.812    87325739.0204   21325834.215  
                
  23540555.922   123706470.599    23540562.387    96394685.4454                 
                
  23324480.836   124901526.016                    97145634.781    23324485.887  
  23324479.973  
  20749104.273   109037316.719    20749113.289    84964201.3244   20749112.746  
                
  22580213.867   118659850.765    22580221.316    92462254.5194   22580221.211  
                
  19735817.664   105647416.874                    82170210.909    19735822.422  
  19735816.172  
 21  8 16 10  4  0.0000000  0 12R 6R21R22G32G18G27G 8G21R 8G10G23R 7
  19695933.445   105101307.604                                                  
  19695931.086  
  19866823.812   106311396.354                    82686633.054    19866827.504  
  19866822.176  
  19683910.656   105074070.304                    81724301.775    19683913.090  
  19683908.785  
  21458415.180   112764758.892    21458424.500    87868697.5344   21458424.852  
                
  24193072.562   127135448.033    24193081.949    99066590.0374   24193082.098  
                
  20939715.906   110038942.507    20939724.848    85744685.6474   20939724.914  
                
  21324355.594   112060241.721    21324365.320    87319725.6554   21324365.711  
                
  23535815.789   123681561.222    23535822.230    96375275.5454                 
                
  23316758.453   124860172.997                    97113471.344    23316763.441  
  23316757.559  
  20751360.836   109049175.016    20751369.840    84973441.5574   20751369.297  
                
  22585562.828   118687959.705    22585570.242    92484157.5794   22585570.152  
                
  19732106.094   105627548.542                    82154757.766    19732110.848  
  19732104.609  
 21  8 16 10  4 10.0000000  0 12R 6R21R22G32G18G27G 8G21R 8G10G23R 7
  19699729.531   105121564.144                                                  
  19699727.176  
  19870244.648   106329701.941                    82700870.716    19870248.355  
  19870243.004  
  19680448.156   105055587.270                    81709926.086    19680450.570  
  19680446.305  
  21454266.266   112742956.257    21454275.625    87851708.4814   21454275.957  
                
  24198907.711   127166111.829    24198917.086    99090483.8574   24198917.262  
                
  20942516.648   110053660.538    20942525.625    85756154.2394   20942525.668  
                
  21322899.102   112052587.809    21322908.863    87313761.5634   21322909.223  
                
  23531077.141   123656659.618    23531083.633    96355871.7244                 
                
  23309040.203   124818842.352                    97081325.300    23309045.184  
  23309039.352  
  20753624.055   109061068.310    20753633.039    84982709.0594   20753632.508  
                
  22590914.648   118716083.697    22590922.062    92506072.3694   22590921.961  
                
  19728407.727   105607750.967                    82139359.666    19728412.496  
  19728406.238  
 21  8 16 10  4 20.0000000  0 12R 6R21R22G32G18G27G 8G21R 8G10G23R 7
  19703537.523   105141884.261                                                  
  19703535.168  
  19873677.758   106348073.175                    82715159.438    19873681.457  
  19873676.098  
  19676996.258   105037160.826                    81695594.406    19676998.672  
  19676994.402  
  21450126.992   112721204.256    21450136.379    87834758.8794   21450136.699  
                
  24204745.758   127196790.084    24204754.961    99114388.9654   24204755.180  
                
  20945329.172   110068440.420    20945338.180    85767671.0154   20945338.199  
                
  21321454.742   112044997.670    21321464.531    87307847.1634   21321464.887  
                
  23526340.039   123631766.143    23526346.633    96336474.2234                 
                
  23301326.234   124777534.126                    97049196.705    23301331.102  
  23301325.309  
  20755893.977   109072996.789    20755902.949    84992003.9784   20755902.426  
                
  22596269.375   118744222.921    22596276.785    92527999.0264   22596276.684  
                
  19724722.609   105588024.236                    82124016.666    19724727.383  
  19724721.109  
 21  8 16 10  4 30.0000000  0 12R 6R21R22G32G18G27G 8G21R 8G10G23R 7
  19707357.219   105162266.922                                                  
  19707354.863  
  19877123.039   106366509.526                    82729498.824    19877126.738  
  19877121.367  
  19673554.891   105018790.613                    81681306.455    19673557.297  
  19673553.051  
  21445997.273   112699502.516    21446006.676    87817848.4454   21446006.992  
                
  24210586.391   127227482.348    24210595.500    99138304.9724   24210595.734  
                
  20948153.359   110083281.645    20948162.383    85779235.6024   20948162.395  
                
  21320022.438   112037470.909    21320032.238    87301982.1614   21320032.586  
                
  23521604.398   123606880.359    23521611.047    96317082.7284                 
                
  23293616.500   124736248.157                    97017085.440    23293621.234  
  23293615.398  
  20758170.492   109084959.968    20758179.449    85001325.9354   20758178.941  
                
  22601626.914   118772376.892    22601634.324    92549937.1874   22601634.234  
                
  19721050.656   105568367.996                    82108728.483    19721055.434  
  19721049.141  
 21  8 16 10  4 40.0000000  0 12R 6R21R22G32G18G27G 8G21R 8G10G23R 7
  19711188.711   105182712.490                                                  
  19711186.348  
  19880580.594   106385011.579                    82743889.305    19880584.289  
  19880578.922  
  19670124.172   105000477.142                    81667062.654    19670126.570  
  19670122.340  
  21441877.219   112677851.496    21441886.629    87800977.5284   21441886.957  
                
  24216429.750   127258188.973    24216438.781    99162232.1914   24216439.012  
                
  20950989.305   110098184.566    20950998.332    85790848.2664   20950998.324  
                
  21318602.273   112030007.808    21318612.074    87296166.7604   21318612.434  
                
  23516870.312   123582002.650    23516876.922    96297697.5194                 
                
  23285910.805   124694984.935                    96984991.863    23285915.641  
  23285909.785  
  20760453.680   109096958.155    20760462.629    85010675.1704   20760462.121  
                
  22606987.320   118800545.944    22606994.750    92571887.0824   22606994.652  
                
  19717391.938   105548782.637                    82093495.446    19717396.734  
  19717390.410  
 21  8 16 10  4 50.0000000  0 12R 6R21R22G32G18G27G 8G21R 8G10G23R 7
  19715032.055   105203221.227                                                  
  19715029.668  
  19884050.406   106403579.190                    82758330.763    19884054.098  
  19884048.738  
  19666704.086   104982220.540                    81652863.064    19666706.484  
  19666702.250  
  21437766.836   112656251.316    21437776.238    87784146.2254   21437776.574  
                
  24222275.703   127288910.052    24222284.828    99186170.6464   24222285.039  
                
  20953836.969   110113149.175    20953845.984    85802508.9924   20953845.977  
                
  21317194.227   112022608.494    21317204.027    87290401.0594   21317204.383  
                
  23512137.797   123557133.087    23512144.348    96278318.6304                 
                
  23278209.445   124653744.481                    96952915.969    23278214.277  
  23278208.445  
  20762743.516   109108991.378    20762752.465    85020051.7034   20762751.961  
                
  22612350.594   118828730.069    22612358.039    92593848.7224   22612357.938  
                
  19713746.492   105529268.340                    82078317.648    19713751.285  
  19713744.980  
 21  8 16 10  5  0.0000000  0 12R 6R21R22G32G18G27G 8G21R 8G10G23R 7
  19718887.141   105223792.753                                                  
  19718884.746  
  19887532.453   106422212.310                    82772823.183    19887536.133  
  19887530.805  
  19663294.719   104964021.117                    81638707.956    19663297.078  
  19663292.895  
  21433666.148   112634702.120    21433675.566    87767354.6554   21433675.902  
                
  24228124.469   127319645.571    24228133.605    99210120.3974   24228133.824  
                
  20956696.391   110128175.492    20956705.395    85814217.8104   20956705.406  
                
  21315798.328   112015273.022    21315808.129    87284685.1034   21315808.488  
                
  23507406.828   123532271.743    23507413.344    96258946.1584                 
                
  23270512.359   124612526.982                    96920857.942    23270517.156  
  23270511.316  
  20765040.031   109121059.656    20765048.984    85029455.5524   20765048.484  
                
  22617716.727   118856929.267    22617724.164    92615822.1214   22617724.090  
                
  19710114.375   105509825.342                    82063195.330    19710119.160  
  19710112.848  
 21  8 16 10  5 10.0000000  0 12R 6R21R22G32G18G27G 8G21R 8G10G23R 7
  19722753.930   105244426.662                                                  
  19722751.543  
  19891026.711   106440910.744                    82787366.405    19891030.371  
  19891025.074  
  19659896.031   104945878.719                    81624597.209    19659898.379  
  19659894.203  
  21429575.133   112613203.714    21429584.594    87750602.6634   21429584.914  
                
  24233975.992   127350395.213    24233985.004    99234081.1324   24233985.293  
                
  20959567.484   110143263.204    20959576.469    85825974.4594   20959576.492  
                
  21314414.539   112008001.132    21314424.324    87279018.6984   21314424.688  
                
  23502677.367   123507418.453    23502683.898    96239579.9744                 
                
  23262819.562   124571332.354                    96888817.718    23262824.367  
  23262818.461  
  20767343.156   109133162.668    20767352.113    85038886.4664   20767351.621  
                
  22623085.688   118885143.241    22623093.113    92637807.0244   22623093.066  
                
  19706495.469   105490453.090                    82048128.032    19706500.254  
  19706493.949  
 21  8 16 10  5 20.0000000  0 12R 6R21R22G32G18G27G 8G21R 8G10G23R 7
  19726632.367   105265122.710                                                  
  19726629.973  
  19894533.188   106459674.482                    82801960.415    19894536.844  
  19894531.566  
  19656508.023   104927793.333                    81610530.796    19656510.410  
  19656506.199  
  21425493.789   112591756.126    21425503.293    87733890.2654   21425503.590  
                
  24239830.102   127381158.961    24239839.156    99258052.8524   24239839.480  
                
  20962450.242   110158412.181    20962459.203    85837778.8544   20962459.227  
                
  21313042.852   112000792.846    21313052.609    87273401.8554   21313052.996  
                
  23497949.430   123482573.135    23497956.012    96220220.0284                 
                
  23255131.070   124530160.579                    96856795.260    23255135.855  
  23255129.906  
  20769652.875   109145300.308    20769661.844    85048344.3734   20769661.355  
                
  22628457.438   118913371.867    22628464.895    92659803.3514   22628464.828  
                
  19702889.812   105471151.819                    82033115.944    19702894.598  
  19702888.281  
 21  8 16 10  5 30.0000000  0 12R 6R21R22G32G18G27G 8G21R 8G10G23R 7
  19730522.477   105285880.974                                                  
  19730520.109  
  19898051.859   106478503.536                    82816605.224    19898055.488  
  19898050.254  
  19653130.688   104909764.946                    81596508.725    19653133.105  
  19653128.828  
  21421422.141   112570359.441    21421431.660    87717217.5324   21421431.949  
                
  24245687.023   127411936.774    24245696.055    99282035.5314   24245696.359  
                
  20965344.664   110173622.421    20965353.605    85849630.9824   20965353.641  
                
  21311683.289   111993648.257    21311693.016    87267834.6364   21311693.422  
                
  23493223.031   123457735.844    23493229.660    96200866.3254                 
                
  23247446.844   124489011.828                    96824790.721    23247451.664  
  23247445.664  
  20771969.180   109157472.567    20771978.160    85057829.2454   20771977.672  
                
  22633831.961   118941615.132    22633839.477    92681811.0654   22633839.391  
                
  19699297.430   105451921.530                    82018159.055    19699302.223  
  19699295.883  
 21  8 16 10  5 40.0000000  0 12R 6R21R22G32G18G27G 8G21R 8G10G23R 7
  19734424.195   105306701.330                                                  
  19734421.805  
  19901582.688   106497397.644                    82831300.636    19901586.301  
  19901581.109  
  19649764.109   104891793.958                    81582531.280    19649766.508  
  19649762.238  
  21417360.164   112549013.670    21417369.703    87700584.4684   21417369.988  
                
  24251546.547   127442728.593    24251555.605    99306029.1274   24251555.848  
                
  20968250.719   110188893.805    20968259.641    85861530.7534   20968259.684  
                
  21310335.875   111986567.578    21310345.570    87262317.2154   21310345.996  
                
  23488498.180   123432906.624    23488504.816    96181518.8794                 
                
  23239767.039   124447886.149                    96792804.113    23239771.777  
  23239765.715  
  20774292.039   109169679.318    20774301.027    85067340.9964   20774300.547  
                
  22639209.250   118969872.904    22639216.801    92703830.0934   22639216.688  
                
  19695718.289   105432762.233                    82003257.402    19695723.094  
  19695716.715  
 21  8 16 10  5 50.0000000  0 12R 6R21R22G32G18G27G 8G21R 8G10G23R 7
  19738337.594   105327583.980                                                  
  19738335.199  
  19905125.781   106516357.327                    82846047.052    19905129.387  
  19905124.223  
  19646408.328   104873880.608                    81568598.678    19646410.738  
  19646406.461  
  21413307.977   112527719.302    21413317.547    87683991.4644   21413317.812  
                
  24257408.812   127473534.787    24257417.871    99330033.9034   24257418.070  
                
  20971168.477   110204226.687    20971177.387    85873478.4544   20971177.445  
                
  21309000.633   111979550.837    21309010.293    87256849.6334   21309010.754  
                
  23483774.938   123408085.874    23483781.582    96162178.0354                 
                
  23232091.469   124406783.897                    96760835.728    23232096.242  
  23232090.148  
  20776621.555   109181920.951    20776630.562    85076879.9324   20776630.078  
                
  22644589.375   118998145.553    22644596.914    92725860.7244   22644596.793  
                
  19692152.500   105413674.316                    81988411.253    19692157.305  
  19692150.902  
 21  8 16 10  6  0.0000000  0 12R 6R21R22G32G18G27G 8G21R 8G10G23R 7
  19742262.633   105348528.713                                                  
  19742260.246  
  19908681.078   106535382.383                    82860844.312    19908684.676  
  19908679.543  
  19643063.359   104856025.005                    81554710.984    19643065.777  
  19643061.492  
  21409265.547   112506476.273    21409275.133    87667438.4604   21409275.395  
                
  24263273.781   127504355.192    24263282.805    99354049.7544   24263283.043  
                
  20974097.891   110219620.883    20974106.789    85885473.9214   20974106.855  
                
  21307677.594   111972598.208    21307687.207    87251431.9964   21307687.688  
                
  23479053.273   123383273.404    23479059.910    96142843.6904                 
                
  23224420.273   124365705.116                    96728885.578    23224425.043  
  23224418.977  
  20778957.688   109194197.420    20778966.707    85086446.0124   20778966.215  
                
  22649972.297   119026432.868    22649979.797    92747902.7904   22649979.680  
                
  19688600.008   105394657.650                    81973620.510    19688604.816  
  19688598.379  
 21  8 16 10  6 10.0000000  0 12R 6R21R22G32G18G27G 8G21R 8G10G23R 7
  19746199.195   105369535.001                                                  
  19746196.797  
  19912248.547   106554472.519                    82875692.180    19912252.129  
  19912247.027  
  19639729.125   104838226.662                    81540867.825    19639731.531  
  19639727.227  
  21405232.852   112485284.324    21405242.438    87650925.2624   21405242.695  
                
  24269141.406   127535189.443    24269150.391    99378076.4144   24269150.660  
                
  20977038.906   110235076.009    20977047.801    85897516.8724   20977047.871  
                
  21306366.688   111965709.343    21306376.262    87246064.0444   21306376.766  
                
  23474333.172   123358469.071    23474339.754    96123515.6274                 
                
  23216753.344   124324649.693                    96696953.623    23216758.215  
  23216752.133  
  20781300.328   109206508.041    20781309.359    85096038.6984   20781308.859  
                
  22655357.938   119054734.479    22655365.398    92769955.9914   22655365.305  
                
  19685060.773   105375711.948                    81958884.968    19685065.594  
  19685059.125  
 21  8 16 10  6 20.0000000  0 12R 6R21R22G32G18G27G 8G21R 8G10G23R 7
  19750147.359   105390603.225                                                  
  19750144.941  
  19915828.250   106573628.133                    82890591.001    19915831.820  
  19915826.742  
  19636405.797   104820486.511                    81527069.937    19636408.215  
  19636403.898  
  21401209.969   112464143.955    21401219.547    87634452.2534   21401219.805  
                
  24275011.734   127566037.977    24275020.688    99402114.2034   24275020.977  
                
  20979991.594   110250592.448    20980000.480    85909607.5994   20980000.562  
                
  21305067.969   111958884.548    21305077.512    87240746.0174   21305078.035  
                
  23469614.695   123333673.295    23469621.234    96104194.2444                 
                
  23209090.844   124283617.941                    96665040.070    23209095.844  
  23209089.668  
  20783649.562   109218853.358    20783658.605    85105658.4244   20783658.105  
                
  22660746.367   119083050.789    22660753.801    92792020.6404   22660753.723  
                
  19681534.953   105356838.007                    81944205.244    19681539.762  
  19681533.293  
 21  8 16 10  6 30.0000000  0 12R 6R21R22G32G18G27G 8G21R 8G10G23R 7
  19754107.078   105411733.069                                                  
  19754104.660  
  19919420.133   106592848.928                    82905540.498    19919423.703  
  19919418.621  
  19633093.297   104802804.140                    81513316.969    19633095.668  
  19633091.402  
  21397196.859   112443054.944    21397206.422    87618019.2694   21397206.691  
                
  24280884.664   127596900.449    24280893.637    99426162.8354   24280893.965  
                
  20982955.891   110266169.848    20982964.773    85921745.8294   20982964.859  
                
  21303781.430   111952123.711    21303790.934    87235477.8324   21303791.480  
                
  23464897.773   123308885.733    23464904.344    96084879.2714                 
                
  23201432.859   124242610.020                    96633145.065    23201437.906  
  23201431.656  
  20786005.336   109231233.028    20786014.395    85115304.9144   20786013.887  
                
  22666137.523   119111381.436    22666144.941    92814096.4544   22666144.879  
                
  19678022.406   105338035.102                    81929580.767    19678027.211  
  19678020.730  
 21  8 16 10  6 40.0000000  0 12R 6R21R22G32G18G27G 8G21R 8G10G23R 7
  19758078.289   105432924.153                                                  
  19758075.859  
  19923024.172   106612134.812                    82920540.618    19923027.754  
  19923022.656  
  19629791.641   104785179.669                    81499609.055    19629794.035  
  19629789.730  
  21393193.547   112422017.380    21393203.082    87601626.3724   21393203.352  
                
  24286760.312   127627776.855    24286769.273    99450222.3304   24286769.590  
                
  20985931.773   110281808.177    20985940.648    85933931.5404   20985940.738  
                
  21302507.047   111945426.779    21302516.512    87230259.4554   21302517.082  
                
  23460182.406   123284106.441    23460189.051    96065570.7814                 
                
  23193779.172   124201625.662                    96601268.374    23193784.375  
  23193778.086  
  20788367.641   109243647.015    20788376.711    85124978.1564   20788376.191  
                
  22671531.391   119139726.374    22671538.840    92836183.4014   22671538.766  
                
  19674523.156   105319303.404                    81915011.687    19674527.961  
  19674521.469  
 21  8 16 10  6 50.0000000  0 12R 6R21R22G32G18G27G 8G21R 8G10G23R 7
  19762061.016   105454176.686                                                  
  19762058.582  
  19926640.398   106631485.940                    82935591.487    19926643.984  
  19926638.883  
  19626500.883   104767613.459                    81485946.440    19626503.285  
  19626498.992  
  21389200.055   112401031.500    21389209.570    87585273.7394   21389209.848  
                
  24292638.633   127658667.335    24292647.609    99474292.8104   24292647.840  
                
  20988919.266   110297507.554    20988928.129    85946164.8054   20988928.215  
                
  21301244.875   111938794.026    21301254.293    87225091.0644   21301254.879  
                
  23455468.664   123259335.623    23455475.297    96046268.8594                 
                
  23186130.086   124160665.155                    96569410.228    23186135.305  
  23186128.984  
  20790736.492   109256095.430    20790745.582    85134678.2164   20790745.047  
                
  22676927.992   119168085.714    22676935.473    92858281.5664   22676935.383  
                
  19671037.273   105300643.306                    81900498.284    19671042.078  
  19671035.590  
 21  8 16 10  7  0.0000000  0 12R 6R21R22G32G18G27G 8G21R 8G10G23R 7
  19766055.180   105475490.254                                                  
  19766052.750  
  19930268.828   106650902.297                    82950693.097    19930272.418  
  19930267.305  
  19623221.070   104750105.614                    81472329.231    19623223.469  
  19623219.180  
  21385216.422   112380097.357    21385225.938    87568961.4354   21385226.207  
                
  24298519.586   127689571.868    24298528.559    99498374.2584   24298528.773  
                
  20991918.367   110313267.883    20991927.227    85958445.5764   20991927.324  
                
  21299994.914   111932225.438    21300004.289    87219972.6794   21300004.895  
                
  23450756.586   123234573.412    23450763.211    96026973.6244                 
                
  23178485.305   124119728.748                    96537570.843    23178490.730  
  23178484.344  
  20793111.891   109268578.228    20793121.000    85144405.0704   20793120.461  
                
  22682327.336   119196459.389    22682334.816    92880390.9134   22682334.742  
                
  19667564.750   105282054.632                    81886040.428    19667569.547  
  19667563.074  
 21  8 16 10  7 10.0000000  0 12R 6R21R22G32G18G27G 8G21R 8G10G23R 7
  19770060.883   105496865.432                                                  
  19770058.477  
  19933909.438   106670383.820                    82965845.385    19933913.031  
  19933907.879  
  19619952.211   104732656.223                    81458757.483    19619954.605  
  19619950.336  
  21381242.656   112359215.091    21381252.160    87552689.5494   21381252.430  
                
  24304403.180   127720490.470    24304412.219    99522466.6554   24304412.426  
                
  20994929.070   110329089.191    20994937.930    85970773.8714   20994938.027  
                
  21298757.180   111925721.085    21298766.527    87214904.3594   21298767.145  
                
  23446046.141   123209819.803    23446052.797    96007685.1014                 
                
  23170845.133   124078816.637                    96505750.337    23170850.629  
  23170844.242  
  20795493.836   109281095.433    20795502.969    85154158.7324   20795502.422  
                
  22687729.398   119224847.419    22687736.902    92902511.4404   22687736.844  
                
  19664105.641   105263537.719                    81871638.392    19664110.434  
  19664103.961  
 21  8 16 10  7 20.0000000  0 12R 6R21R22G32G18G27G 8G21R 8G10G23R 7
  19774077.984   105518301.441                                                  
  19774075.598  
  19937562.203   106689930.515                    82981048.370    19937565.828  
  19937560.625  
  19616694.305   104715265.337                    81445231.239    19616696.703  
  19616692.438  
  21377278.750   112338384.597    21377288.234    87536457.9984   21377288.508  
                
  24310289.492   127751422.953    24310298.523    99546569.8634   24310298.723  
                
  20997951.328   110344971.268    20997960.188    85983149.5054   20997960.289  
                
  21297531.672   111919281.039    21297541.000    87209886.1384   21297541.629  
                
  23441337.289   123185074.658    23441343.977    95988403.1884                 
                
  23163209.398   124037928.584                    96473948.550    23163215.035  
  23163208.594  
  20797882.281   109293646.783    20797891.441    85163939.0014   20797890.883  
                
  22693134.156   119253249.560    22693141.703    92924642.9714   22693141.633  
                
  19660659.875   105245092.278                    81857291.949    19660664.672  
  19660658.191  
 21  8 16 10  7 30.0000000  0 12R 6R21R22G32G18G27G 8G21R 8G10G23R 7
  19778106.477   105539798.251                                                  
  19778104.105  
  19941227.086   106709542.003                    82996301.728    19941230.727  
  19941225.496  
  19613447.336   104697932.754                    81431750.338    19613449.750  
  19613445.453  
  21373324.672   112317605.758    21373334.148    87520266.7024   21373334.418  
                
  24316178.328   127782369.111    24316187.418    99570683.7124   24316187.617  
                
  21000985.109   110360913.858    21000993.973    85995572.2924   21000994.078  
                
  21296318.383   111912905.156    21296327.699    87204917.9174   21296328.324  
                
  23436630.039   123160337.889    23436636.711    95969127.7834                 
                
  23155578.273   123997064.522                    96442165.426    23155583.926  
  23155577.445  
  20800277.180   109306232.083    20800286.371    85173745.7264   20800285.805  
                
  22698541.555   119281665.603    22698549.145    92946785.3224   22698549.074  
                
  19657227.398   105226717.997                    81843000.840    19657232.191  
  19657225.738  
 21  8 16 10  7 40.0000000  0 12R 6R21R22G32G18G27G 8G21R 8G10G23R 7
  19782146.297   105561355.537                                                  
  19782143.914  
  19944904.094   106729218.454                    83011605.621    19944907.746  
  19944902.477  
  19610211.320   104680658.782                    81418315.026    19610213.758  
  19610209.441  
  21369380.453   112296878.774    21369389.949    87504115.8014   21369390.203  
                
  24322069.812   127813329.044    24322078.938    99594808.2954   24322079.117  
                
  21004030.406   110376917.012    21004039.285    86008042.2734   21004039.391  
                
  21295117.250   111906593.196    21295126.555    87199999.5044   21295127.176  
                
  23431924.383   123135609.593    23431931.055    95949859.0014                 
                
  23147951.672   123956224.640                    96410401.128    23147957.324  
  23147950.820  
  20802678.555   109318851.392    20802687.770    85183578.9564   20802687.188  
                
  22703951.602   119310095.600    22703959.215    92968938.5434   22703959.141  
                
  19653808.289   105208415.323                    81828765.437    19653813.086  
  19653806.656  
