     2.11           OBSERVATION DATA    M (MIXED)           RINEX VERSION / TYPE
EFT-CORS.RU                             20210817 150538 UTC PGM / RUN BY / DATE 
MDNG                                                        MARKER NAME         
                                                            MARKER NUMBER       
MDNG                EFT-CORS.RU                             OBSERVER / AGENCY   
0                   TRIMBLE BD970       2.0                 REC # / TYPE / VERS 
0                   UNKNOWN EXT NONE                        ANT # / TYPE        
  3463911.2830  3030468.2400  4402179.3760                  APPROX POSITION XYZ 
        0.0000        0.0000        0.0000                  ANTENNA: DELTA H/E/N
     1     1                                                WAVELENGTH FACT L1/2
     6    C1    L1    P2    L2    C2    P1                  # / TYPES OF OBSERV 
    10.000                                                  INTERVAL            
  2021     8    14     2    30    0.0000000     GPS         TIME OF FIRST OBS   
  2021     8    14     3    30    0.0000000     GPS         TIME OF LAST OBS    
     0                                                      RCV CLOCK OFFS APPL 
                                                            END OF HEADER       
 21  8 14  2 30  0.0000000  0 14G 6R23G20G29R13R15G12R14G19G 2R24G24
                                R17G25
  22013985.555   115684276.858    22013994.695    90143628.9174   22013995.133  
                
  19935354.695   106640723.755                                                  
  19935352.910  
  24568201.828   129106772.127    24568209.086   100602707.1654                 
                
  23370810.898   122814443.406    23370817.609    95699596.0814   23370817.707  
                
  20436187.961   109128112.156                    84877442.590    20436190.609  
  20436186.312  
  22847369.648   122089411.949                    94958429.337    22847373.535  
  22847369.711  
  20132011.320   105794445.278    20132017.102    82437265.9294   20132017.258  
                
  19401104.867   103418810.988                    80436851.066    19401108.430  
  19401104.648  
  24324283.195   127824967.912    24324288.453    99603890.7004                 
                
  21234260.188   111586790.278    21234264.266    86950768.3494                 
                
  19277663.438   103086338.430                    80178266.782    19277667.180  
  19277662.781  
  22452243.320   117987345.719    22452251.875    91938231.2404   22452252.125  
                
  22355206.602   119627221.063                    93043390.592    22355210.043  
  22355204.637  
  21106753.438   110916739.063    21106762.273    86428671.4234   21106762.828  
                
 21  8 14  2 30 10.0000000  0 14G 6R23G20G29R13R15G12R14G19G 2R24G24
                                R17G25
  22017669.352   115703635.316    22017678.469    90158713.4294   22017678.906  
                
  19939757.188   106664274.144                                                  
  19939755.387  
  24562680.117   129077755.283    24562687.383   100580096.6624                 
                
  23365268.547   122785317.930    23365275.176    95676900.8944   23365275.270  
                
  20441304.141   109155432.316                    84898691.584    20441306.770  
  20441302.465  
  22839973.258   122049887.904                    94927688.425    22839977.125  
  22839973.312  
  20131621.289   105792395.621    20131627.094    82435668.7924   20131627.230  
                
  19398443.117   103404622.322                    80425815.433    19398446.688  
  19398442.895  
  24330800.773   127859218.015    24330806.078    99630579.0724                 
                
  21234330.141   111587157.843    21234334.230    86951054.7634                 
                
  19275818.031   103076470.224                    80170591.498    19275821.746  
  19275817.375  
  22458363.430   118019507.141    22458372.020    91963292.0864   22458372.266  
                
  22347970.289   119588497.938                    93013272.606    22347973.688  
  22347968.293  
  21102666.367   110895261.383    21102675.219    86411935.5714   21102675.758  
                
 21  8 14  2 30 20.0000000  0 14G 6R23G20G29R13R15G12R14G19G 2R24G24
                                R17G25
  22021363.805   115723049.778    22021372.898    90173841.5694   22021373.332  
                
  19944170.539   106687882.580                                                  
  19944168.754  
  24557159.594   129048744.760    24557166.871   100557491.0364                 
                
  23359730.422   122756214.793    23359737.016    95654223.1124   23359737.109  
                
  20446431.211   109182810.604                    84919985.800    20446433.848  
  20446429.496  
  22832578.914   122010374.921                    94896956.123    22832582.828  
  22832578.973  
  20131239.633   105790390.033    20131245.465    82434105.9944   20131245.582  
                
  19395793.672   103390499.275                    80414830.836    19395797.230  
  19395793.434  
  24337318.930   127893471.075    24337324.281    99657269.7344                 
                
  21234411.367   111587584.684    21234415.461    86951387.3664                 
                
  19273986.898   103066678.304                    80162975.558    19273990.590  
  19273986.230  
  22464489.078   118051697.662    22464497.688    91988375.6054   22464497.938  
                
  22340740.148   119549807.766                    92983180.231    22340743.496  
  22340738.133  
  21098585.297   110873815.233    21098594.172    86395224.2824   21098594.691  
                
 21  8 14  2 30 30.0000000  0 14G 6R23G20G29R13R15G12R14G19G 2R24G24
                                R17G25
  22025068.828   115742519.806    22025077.898    90189013.0134   22025078.320  
                
  19948594.648   106711548.581                                                  
  19948592.867  
  24551640.250   129019740.259    24551647.496   100534890.1304                 
                
  23354196.484   122727133.615    23354203.086    95631562.4464   23354203.160  
                
  20451569.047   109210246.484                    84941324.802    20451571.688  
  20451567.293  
  22825186.609   121970872.714                    94866232.183    22825190.555  
  22825186.664  
  20130866.297   105788428.092    20130872.152    82432577.2044   20130872.242  
                
  19393156.531   103376441.855                    80403897.277    19393160.105  
  19393156.289  
  24343837.578   127927726.685    24343842.992    99683962.4034                 
                
  21234503.797   111588070.394    21234507.895    86951765.8334                 
                
  19272169.953   103056962.241                    80155418.628    19272173.621  
  19272169.266  
  22470620.188   118083916.823    22470628.816    92013481.4374   22470629.066  
                
  22333515.953   119511150.052                    92953113.125    22333519.355  
  22333514.039  
  21094510.172   110852400.307    21094519.047    86378537.3214   21094519.562  
                
 21  8 14  2 30 40.0000000  0 14G 6R23G20G29R13R15G12R14G19G 2R24G24
                                R17G25
  22028784.453   115762045.509    22028793.488    90204227.8424   22028793.934  
                
  19953029.523   106735272.186                                                  
  19953027.738  
  24546122.039   128990742.088    24546129.316   100512294.1164                 
                
  23348666.734   122698074.514    23348673.387    95608918.9964   23348673.430  
                
  20456717.680   109237739.949                    84962708.611    20456720.316  
  20456715.902  
  22817796.406   121931381.558                    94835516.831    22817800.340  
  22817796.422  
  20130501.328   105786510.125    20130507.203    82431082.6844   20130507.281  
                
  19390531.734   103362450.186                    80393014.880    19390535.316  
  19390531.477  
  24350356.750   127961985.026    24350362.195    99710657.2084                 
                
  21234607.477   111588615.166    21234611.578    86952190.3324                 
                
  19270367.234   103047322.328                    80147920.910    19270370.883  
  19270366.539  
  22476756.773   118116164.717    22476765.441    92038609.6564   22476765.664  
                
  22326298.086   119472525.344                    92923071.685    22326301.395  
  22326296.113  
  21090441.047   110831016.867    21090449.926    86361874.8984   21090450.434  
                
 21  8 14  2 30 50.0000000  0 14G 6R23G20G29R13R15G12R14G19G 2R24G24
                                R17G25
  22032510.641   115781626.740    22032519.652    90219485.9354   22032520.109  
                
  19957475.141   106759053.257                                                  
  19957473.359  
  24540605.094   128961750.264    24540612.344   100489703.0864                 
                
  23343141.203   122669037.638    23343147.902    95586292.8584   23343147.906  
                
  20461877.125   109265291.153                    84984137.308    20461879.766  
  20461875.344  
  22810408.266   121891901.545                    94804810.139    22810412.195  
  22810408.277  
  20130144.711   105784636.077    20130150.590    82429622.3814   20130150.668  
                
  19387919.297   103348524.412                    80382183.716    19387922.887  
  19387919.039  
  24356876.422   127996245.905    24356881.848    99737353.9804                 
                
  21234722.367   111589218.919    21234726.480    86952660.7884                 
                
  19268578.719   103037758.321                    80140482.238    19268582.379  
  19268578.000  
  22482898.789   118148441.179    22482907.504    92063760.1434   22482907.703  
                
  22319086.414   119433933.568                    92893055.866    22319089.602  
  22319084.340  
  21086377.891   110809664.881    21086386.777    86345236.9864   21086387.277  
                
 21  8 14  2 31  0.0000000  0 14G 6R23G20G29R13R15G12R14G19G 2R24G24
                                R17G25
  22036247.383   115801263.436    22036256.375    90234787.2474   22036256.832  
                
  19961931.492   106782891.725                                                  
  19961929.711  
  24535089.328   128932764.865    24535096.605   100467117.0694                 
                
  23337619.906   122640023.061    23337626.656    95563684.0894   23337626.645  
                
  20467047.367   109292899.948                    85005610.811    20467050.016  
  20467045.590  
  22803022.219   121852432.670                    94774112.120    22803026.133  
  22803022.242  
  20129796.461   105782806.005    20129802.340    82428196.3454   20129802.422  
                
  19385319.234   103334664.616                    80371403.868    19385322.832  
  19385318.977  
  24363396.547   128030509.313    24363402.000    99764052.7234                 
                
  21234848.469   111589881.580    21234852.594    86953177.1474                 
                
  19266804.438   103028270.482                    80133102.801    19266808.094  
  19266803.695  
  22489046.227   118180746.136    22489054.980    92088932.8294   22489055.164  
                
  22311880.742   119395374.736                    92863065.658    22311883.930  
  22311878.684  
  21082320.758   110788344.485    21082329.648    86328623.6874   21082330.145  
                
 21  8 14  2 31 10.0000000  0 14G 6R23G20G29R13R15G12R14G19G 2R24G24
                                R17G25
  22039994.672   115820955.586    22040003.656    90250131.7794   22040004.109  
                
  19966398.531   106806787.386                                                  
  19966396.766  
  24529574.883   128903786.123    24529582.098   100444536.1774                 
                
  23332102.820   122611030.711    23332109.621    95541092.6564   23332109.617  
                
  20472228.328   109320566.022                    85027128.865    20472230.965  
  20472226.566  
  22795638.305   121812975.278                    94743423.034    22795642.199  
  22795638.359  
  20129456.570   105781019.898    20129462.449    82426804.5684   20129462.523  
                
  19382731.570   103320870.931                    80360675.446    19382735.180  
  19382731.316  
  24369917.117   128064775.170    24369922.648    99790753.3694                 
                
  21234985.781   111590603.183    21234989.914    86953739.4324                 
                
  19265044.414   103018858.875                    80125782.653    19265048.082  
  19265043.648  
  22495199.078   118213079.571    22495207.863    92114127.7014   22495208.039  
                
  22304681.273   119356849.034                    92833101.216    22304684.449  
  22304679.254  
  21078269.648   110767055.775    21078278.539    86312035.0704   21078279.023  
                
 21  8 14  2 31 20.0000000  0 14G 6R23G20G29R13R15G12R14G19G 2R24G24
                                R17G25
  22043752.531   115840703.193    22043761.512    90265519.5234   22043761.965  
                
  19970876.305   106830740.327                                                  
  19970874.551  
  24524061.664   128874814.236    24524068.867   100421960.6724                 
                
  23326589.977   122582060.709    23326596.852    95518518.6274   23326596.855  
                
  20477420.055   109348289.487                    85048691.551    20477422.695  
  20477418.324  
  22788256.602   121773529.494                    94712742.981    22788260.473  
  22788256.637  
  20129125.094   105779277.918    20129130.977    82425447.1754   20129131.043  
                
  19380156.367   103307143.586                    80349998.616    19380159.988  
  19380156.121  
  24376438.188   128099043.527    24376443.758    99817455.9674                 
                
  21235134.359   111591383.903    21235138.496    86954347.7864                 
                
  19263298.602   103009523.254                    80118521.629    19263302.285  
  19263297.809  
  22501357.352   118245441.451    22501366.176    92139344.7484   22501366.340  
                
  22297488.031   119318356.742                    92803162.769    22297491.246  
  22297486.062  
  21074224.609   110745798.903    21074233.488    86295471.2714   21074233.980  
                
 21  8 14  2 31 30.0000000  0 14G 6R23G20G29R13R15G12R14G19G 2R24G24
                                R17G25
  22047520.883   115860505.946    22047529.852    90280950.2304   22047530.297  
                
  19975364.680   106854750.063                                                  
  19975362.914  
  24518549.742   128845849.008    24518556.945   100399390.4394                 
                
  23321081.391   122553113.016    23321088.336    95495962.0014   23321088.336  
                
  20482622.500   109376070.237                    85070298.792    20482625.160  
  20482620.797  
  22780877.000   121734095.121                    94682071.807    22780880.859  
  22780877.004  
  20128801.969   105777579.861    20128807.863    82424124.0124   20128807.906  
                
  19377593.555   103293482.344                    80339373.204    19377597.180  
  19377593.309  
  24382959.648   128133314.170    24382965.238    99844160.3554                 
                
  21235294.133   111592223.480    21235298.273    86955001.9994                 
                
  19261566.992   103000263.607                    80111319.670    19261570.688  
  19261566.164  
  22507520.961   118277831.467    22507529.828    92164583.7044   22507529.980  
                
  22290301.000   119279897.624                    92773250.121    22290304.207  
  22290299.039  
  21070185.578   110724573.667    21070194.453    86278932.1204   21070194.945  
                
 21  8 14  2 31 40.0000000  0 14G 6R23G20G29R13R15G12R14G19G 2R24G24
                                R17G25
  22051299.742   115880363.972    22051308.711    90296424.0154   22051309.141  
                
  19979863.688   106878816.720                                                  
  19979861.938  
  24513039.133   128816890.789    24513046.359   100376825.5794                 
                
  23315577.102   122524187.862    23315584.121    95473422.9304   23315584.094  
                
  20487835.734   109403908.543                    85091950.795    20487838.398  
  20487834.051  
  22773499.617   121694672.589                    94651409.828    22773503.461  
  22773499.586  
  20128487.258   105775926.007    20128493.168    82422835.2914   20128493.195  
                
  19375043.242   103279887.735                    80328799.613    19375046.875  
  19375043.012  
  24389481.617   128167587.410    24389487.195    99870866.7174                 
                
  21235465.133   111593122.091    21235469.281    86955702.2124                 
                
  19259849.609   102991080.061                    80104176.915    19259853.324  
  19259848.770  
  22513689.953   118310249.696    22513698.840    92189844.6524   22513698.996  
                
  22283120.227   119241472.018                    92743363.531    22283123.445  
  22283118.277  
  21066152.625   110703380.385    21066161.512    86262417.8744   21066161.988  
                
 21  8 14  2 31 50.0000000  0 14G 6R23G20G29R13R15G12R14G19G 2R24G24
                                R17G25
  22055089.031   115900276.788    22055098.016    90311940.4954   22055098.422  
                
  19984373.242   106902939.820                                                  
  19984371.496  
  24507529.867   128787939.377    24507537.109   100354266.0644                 
                
  23310077.023   122495284.867    23310084.094    95450901.1164   23310084.074  
                
  20493059.609   109431803.695                    85113647.021    20493062.289  
  20493057.949  
  22766124.375   121655261.562                    94620756.808    22766128.250  
  22766124.328  
  20128180.898   105774316.075    20128186.816    82421580.7934   20128186.844  
                
  19372505.320   103266359.202                    80318277.414    19372508.941  
  19372505.098  
  24396004.016   128201862.830    24396009.555    99897574.8004                 
                
  21235647.297   111594079.343    21235651.453    86956448.1244                 
                
  19258146.422   102981972.362                    80097093.152    19258150.156  
  19258145.559  
  22519864.227   118342695.696    22519873.105    92215127.2414   22519873.270  
                
  22275945.695   119203079.739                    92713502.856    22275948.930  
  22275943.789  
  21062125.688   110682218.690    21062134.582    86245928.2464   21062135.047  
                
 21  8 14  2 32  0.0000000  0 14G 6R23G20G29R13R15G12R14G19G 2R24G24
                                R17G25
  22058888.969   115920245.501    22058897.973    90327500.5324   22058898.371  
                
  19988893.578   106927120.504                                                  
  19988891.828  
  24502022.266   128758996.034    24502029.402   100331712.8124                 
                
  23304581.414   122466405.222    23304588.496    95428397.4954   23304588.500  
                
  20498294.414   109459757.137                    85135388.571    20498297.094  
  20498292.781  
  22758751.555   121615863.449                    94590113.838    22758755.445  
  22758751.512  
  20127883.125   105772751.233    20127889.043    82420361.4264   20127889.066  
                
  19369980.086   103252898.215                    80307807.764    19369983.707  
  19369979.867  
  24402527.031   128236141.437    24402532.586    99924285.3804                 
                
  21235840.844   111595096.401    21235845.016    86957240.6274                 
                
  19256457.641   102972941.726                    80090069.310    19256461.383  
  19256456.762  
  22526043.984   118375170.498    22526052.844    92240432.2724   22526053.023  
                
  22268777.648   119164721.832                    92683668.931    22268780.848  
  22268775.727  
  21058105.008   110661089.849    21058113.914    86229464.2074   21058114.367  
                
 21  8 14  2 32 10.0000000  0 14G 6R23G20G29R13R15G12R14G19G 2R24G24
                                R17G25
  22062699.117   115940267.898    22062708.133    90343102.3924   22062708.531  
                
  19993424.203   106951356.293                                                  
  19993422.457  
  24496515.602   128730058.766    24496522.805   100309164.2864                 
                
  23299089.844   122437546.761    23299096.914    95405910.3864   23299096.934  
                
  20503539.648   109487766.375                    85157173.524    20503542.340  
  20503538.043  
  22751380.719   121576476.027                    94559479.192    22751384.641  
  22751380.676  
  20127593.500   105771229.256    20127599.410    82419175.4694   20127599.438  
                
  19367467.125   103239502.735                    80297389.044    19367470.727  
  19367466.918  
  24409050.203   128270420.992    24409055.762    99950996.6894                 
                
  21236045.328   111596170.989    21236049.516    86958077.9684                 
                
  19254782.805   102963985.665                    80083103.491    19254786.570  
  19254781.910  
  22532228.797   118407671.904    22532237.621    92265758.0384   22532237.789  
                
  22261615.688   119126396.273                    92653860.168    22261618.789  
  22261613.703  
  21054090.164   110639991.766    21054099.062    86213024.1374   21054099.508  
                
 21  8 14  2 32 20.0000000  0 14G 6R23G20G29R13R15G12R14G19G 2R24G24
                                R17G25
  22066519.773   115960345.553    22066528.812    90358747.3144   22066529.211  
                
  19997965.430   106975648.775                                                  
  19997963.691  
  24491010.547   128701129.272    24491017.664   100286621.8504                 
                
  23293602.648   122408711.225    23293609.707    95383441.1394   23293609.730  
                
  20508795.648   109515833.011                    85179003.112    20508798.352  
  20508794.070  
  22744012.219   121537101.106                    94528854.237    22744016.125  
  22744012.164  
  20127312.375   105769751.902    20127318.273    82418024.2754   20127318.309  
                
  19364966.758   103226174.354                    80287022.524    19364970.363  
  19364966.547  
  24415573.898   128304703.189    24415579.469    99977710.0474                 
                
  21236261.102   111597304.855    21236265.312    86958961.5014                 
                
  19253122.312   102955106.260                    80076197.284    19253126.109  
  19253121.387  
  22538418.984   118440201.471    22538427.789    92291105.7464   22538427.953  
                
  22254460.000   119088104.915                    92624077.996    22254463.117  
  22254458.062  
  21050081.516   110618926.170    21050090.406    86196609.3904   21050090.848  
                
 21  8 14  2 32 30.0000000  0 14G 6R23G20G29R13R15G12R14G19G 2R24G24
                                R17G25
  22070350.836   115980477.873    22070359.895    90374434.8324   22070360.277  
                
  20002517.133   106999997.361                                                  
  20002515.395  
  24485506.891   128672207.115    24485513.945   100264085.0934                 
                
  23288119.703   122379898.015    23288126.711    95360989.2834   23288126.766  
                
  20514062.312   109543956.653                    85200877.059    20514065.004  
  20514060.758  
  22736646.086   121497738.505                    94498238.881    22736649.949  
  22736645.992  
  20127039.641   105768318.659    20127045.535    82416907.4584   20127045.586  
                
  19362478.922   103212912.755                    80276707.940    19362482.523  
  19362478.699  
  24422097.992   128338987.384    24422103.590   100004424.9844                 
                
  21236488.062   111598497.509    21236492.293    86959890.8324                 
                
  19251476.016   102946302.807                    80069350.155    19251479.824  
  19251475.074  
  22544614.406   118472758.607    22544623.180    92316474.9284   22544623.348  
                
  22247310.602   119049847.335                    92594322.099    22247313.770  
  22247308.754  
  21046078.961   110597892.604    21046087.852    86180219.5914   21046088.289  
                
 21  8 14  2 32 40.0000000  0 14G 6R23G20G29R13R15G12R14G19G 2R24G24
                                R17G25
  22074192.312   116000664.931    22074201.379    90390164.9974   22074201.746  
                
  20007079.344   107024402.104                                                  
  20007077.602  
  24480004.609   128643292.613    24480011.695   100241554.2814                 
                
  23282641.047   122351107.319    23282647.980    95338554.9704   23282648.062  
                
  20519339.688   109572137.414                    85222795.403    20519342.395  
  20519338.117  
  22729282.195   121458388.144                    94467633.054    22729286.047  
  22729282.156  
  20126775.352   105766929.769    20126781.238    82415825.2024   20126781.289  
                
  19360003.672   103199718.279                    80266445.564    19360007.285  
  19360003.453  
  24428622.523   128373273.732    24428628.152   100031141.5954                 
                
  21236726.219   111599749.011    21236730.461    86960866.0254                 
                
  19249843.930   102937575.326                    80062562.114    19249847.766  
  19249842.969  
  22550815.078   118505343.334    22550823.762    92341865.6214   22550823.957  
                
  22240167.688   119011623.662                    92564592.574    22240170.754  
  22240165.781  
  21042082.547   110576891.304    21042091.434    86163854.9474   21042091.875  
                
 21  8 14  2 32 50.0000000  0 14G 6R23G20G29R13R15G12R14G19G 2R24G24
                                R17G25
  22078044.188   116020906.618    22078053.242    90405937.7414   22078053.609  
                
  20011652.016   107048862.830                                                  
  20011650.305  
  24474503.750   128614385.916    24474510.926   100219029.6004                 
                
  23277166.688   122322339.237    23277173.551    95316138.2734   23277173.660  
                
  20524627.672   109600374.834                    85244757.825    20524630.395  
  20524626.074  
  22721920.688   121419050.392                    94437037.023    22721924.559  
  22721920.680  
  20126519.461   105765585.057    20126525.348    82414777.3754   20126525.402  
                
  19357540.992   103186590.814                    80256235.309    19357544.602  
  19357540.773  
  24435147.422   128407562.113    24435153.082   100057859.7974                 
                
  21236975.570   111601059.359    21236979.816    86961887.0754                 
                
  19248226.102   102928924.077                    80055833.370    19248229.957  
  19248225.141  
  22557021.000   118537955.572    22557029.574    92367277.7614   22557029.820  
                
  22233031.125   118973434.003                    92534889.505    22233034.109  
  22233029.184  
  21038092.281   110555922.303    21038101.156    86147515.4624   21038101.602  
                
 21  8 14  2 33  0.0000000  0 14G 6R23G20G29R13R15G12R14G19G 2R24G24
                                R17G25
  22081906.430   116041202.847    22081915.477    90421752.9774   22081915.852  
                
  20016235.109   107073379.224                                                  
  20016233.402  
  24469004.438   128585486.963    24469011.605   100196510.9154                 
                
  23271696.633   122293593.736    23271703.414    95293739.1834   23271703.555  
                
  20529926.305   109628669.146                    85266764.513    20529929.020  
  20529924.703  
  22714561.508   121379725.219                    94406450.785    22714565.418  
  22714561.512  
  20126272.023   105764284.709    20126277.918    82413764.1094   20126277.961  
                
  19355090.922   103173530.567                    80246077.344    19355094.539  
  19355090.695  
  24441672.719   128441852.478    24441678.367   100084579.5544                 
                
  21237236.117   111602428.542    21237240.359    86962953.9704                 
                
  19246622.430   102920348.519                    80049163.496    19246626.305  
  19246621.469  
  22563232.133   118570595.167    22563240.645    92392711.2124   22563240.918  
                
  22225900.891   118935278.582                    92505213.060    22225903.859  
  22225898.953  
  21034108.172   110534985.646    21034117.043    86131201.1804   21034117.500  
                
 21  8 14  2 33 10.0000000  0 14G 6R23G20G29R13R15G12R14G19G 2R24G24
                                R17G25
  22085779.031   116061553.527    22085788.074    90437610.6384   22085788.461  
                
  20020828.609   107097951.392                                                  
  20020826.895  
  24463506.672   128556595.973    24463513.828   100173998.4484                 
                
  23266230.891   122264870.877    23266237.566    95271357.7154   23266237.746  
                
  20535235.609   109657020.483                    85288815.538    20535238.336  
  20535234.023  
  22707204.695   121340412.787                    94375874.460    22707208.621  
  22707204.730  
  20126033.023   105763028.777    20126038.922    82412785.4564   20126038.965  
                
  19352653.484   103160537.651                    80235971.724    19352657.102  
  19352653.258  
  24448198.359   128476144.759    24448204.004   100111300.7904                 
                
  21237507.836   111603856.436    21237512.074    86964066.6134                 
                
  19245032.992   102911849.111                    80042552.838    19245036.887  
  19245032.020  
  22569448.445   118603262.057    22569456.941    92418165.9254   22569457.238  
                
  22218777.078   118897157.386                    92475563.223    22218780.008  
  22218775.121  
  21030130.227   110514081.396    21030139.094    86114912.1504   21030139.559  
                
 21  8 14  2 33 20.0000000  0 14G 6R23G20G29R13R15G12R14G19G 2R24G24
                                R17G25
  22089661.992   116081958.630    22089671.039    90453510.7164   22089671.418  
                
  20025432.523   107122579.200                                                  
  20025430.816  
  24458010.508   128527713.092    24458017.613   100151492.3034                 
                
  23260769.422   122236170.654    23260776.027    95248993.8854   23260776.223  
                
  20540555.531   109685428.552                    85310910.700    20540558.277  
  20540553.938  
  22699850.281   121301113.127                    94345308.032    22699854.215  
  22699850.367  
  20125802.500   105761817.363    20125808.398    82411841.4924   20125808.441  
                
  19350228.711   103147612.234                    80225918.636    19350232.328  
  19350228.484  
  24454724.367   128510439.031    24454730.039   100138023.5744                 
                
  21237790.734   111605343.073    21237794.977    86965225.0264                 
                
  19243457.781   102903425.750                    80036001.324    19243461.695  
  19243456.824  
  22575669.953   118635956.178    22575678.473    92443641.8534   22575678.766  
                
  22211659.680   118859070.438                    92445940.040    22211662.566  
  22211657.668  
  21026158.469   110493209.670    21026167.348    86098648.4644   21026167.805  
                
 21  8 14  2 33 30.0000000  0 14G 6R23G20G29R13R15G12R14G19G 2R24G24
                                R17G25
  22093555.273   116102417.928    22093564.320    90469453.0114   22093564.715  
                
  20030046.766   107147262.289                                                  
  20030045.059  
  24452515.891   128498838.251    24452522.855   100128992.4564                 
                
  23255312.203   122207492.911    23255318.758    95226647.5984   23255318.996  
                
  20545886.039   109713893.055                    85333049.755    20545888.746  
  20545884.453  
  22692498.297   121261826.402                    94314751.690    22692502.223  
  22692498.434  
  20125580.422   105760650.271    20125586.316    82410932.0674   20125586.367  
                
  19347816.578   103134754.182                    80215917.910    19347820.180  
  19347816.355  
  24461250.711   128544735.036    24461256.434   100164747.7224                 
                
  21238084.789   111606888.313    21238089.039    86966429.1174                 
                
  19241896.789   102895078.432                    80029508.970    19241900.723  
  19241895.848  
  22581896.586   118668677.287    22581905.152    92469138.8144   22581905.426  
                
  22204548.516   118821017.853                    92416343.590    22204551.535  
  22204546.574  
  21022192.891   110472370.364    21022201.781    86082410.0464   21022202.242  
                
 21  8 14  2 33 40.0000000  0 14G 6R23G20G29R13R15G12R14G19G 2R24G24
                                R17G25
  22097458.852   116122931.409    22097467.898    90485437.5414   22097468.305  
                
  20034671.359   107172000.742                                                  
  20034669.652  
  24447022.859   128469971.719    24447029.641   100106498.9944                 
                
  23249859.336   122178837.953    23249865.863    95204319.0724   23249866.141  
                
  20551227.156   109742414.328                    85355232.965    20551229.875  
  20551225.555  
  22685148.781   121222552.828                    94284205.592    22685152.688  
  22685148.941  
  20125366.805   105759527.669    20125372.688    82410057.3044   20125372.750  
                
  19345417.125   103121963.762                    80205969.808    19345420.727  
  19345416.902  
  24467777.414   128579032.963    24467783.203   100191473.3504                 
                
  21238390.023   111608492.316    21238394.273    86967678.9834                 
                
  19240349.992   102886807.012                    80023075.646    19240353.953  
  19240349.055  
  22588128.359   118701425.435    22588136.957    92494656.8424   22588137.219  
                
  22197444.055   118782999.775                    92386773.962    22197446.945  
  22197441.977  
  21018233.516   110451563.673    21018242.418    86066197.0434   21018242.875  
                
 21  8 14  2 33 50.0000000  0 13G 6R23G20G29R13R15G12R14G 2R24G24R17
                                G25
  22101372.906   116143499.878    22101381.938    90501464.9144   22101382.383  
                
  20039306.406   107196795.132                                                  
  20039304.684  
  24441531.594   128441114.380    24441538.242   100084012.7594                 
                
  23244410.953   122150206.570    23244417.504    95182008.9104   23244417.789  
                
  20556578.953   109770992.548                    85377460.459    20556581.680  
  20556577.340  
  22677801.883   121183293.173                    94253670.307    22677805.758  
  22677802.031  
  20125161.797   105758450.326    20125167.664    82409217.8164   20125167.738  
                
  19343030.516   103109241.783                    80196074.931    19343034.121  
  19343030.293  
  21238706.570   111610155.819    21238710.828    86968975.2234                 
                
  19238817.586   102878612.546                    80016702.171    19238821.570  
  19238816.652  
  22594365.398   118734201.284    22594374.008    92520196.4534   22594374.273  
                
  22190346.055   118745016.994                    92357231.805    22190348.949  
  22190344.031  
  21014280.500   110430790.463    21014289.414    86050010.1194   21014289.859  
                
 21  8 14  2 34  0.0000000  0 13G 6R23G20G29R13R15G12R14G 2R24G24R17
                                G25
  22105297.164   116164121.953    22105306.188    90517534.0584   22105306.648  
                
  20043951.672   107221644.159                                                  
  20043949.969  
  24436041.805   128412265.126    24436048.363   100061532.7894                 
                
  23238966.820   122121597.584    23238973.441    95159716.1944   23238973.711  
                
  20561941.242   109799626.856                    85399731.574    20561943.949  
  20561939.605  
  22670457.391   121144046.407                    94223145.050    22670461.250  
  22670457.531  
  20124965.188   105757417.113    20124971.043    82408412.7114   20124971.133  
                
  19340656.555   103096587.199                    80186232.476    19340660.164  
  19340656.328  
  21239034.211   111611877.558    21239038.461    86970316.8354                 
                
  19237299.312   102870493.641                    80010387.466    19237303.316  
  19237298.391  
  22600607.461   118767003.493    22600616.070    92545756.6094   22600616.352  
                
  22183254.484   118707068.544                    92327716.337    22183257.352  
  22183252.473  
  21010333.633   110410049.503    21010342.555    86033848.3354   21010343.000  
                
 21  8 14  2 34 10.0000000  0 13G 6R23G20G29R13R15G12R14G 2R24G24R17
                                G25
  22109231.617   116184797.675    22109240.656    90533645.0094   22109241.113  
                
  20048607.164   107246547.859                                                  
  20048605.473  
  24430553.578   128383424.139    24430560.004   100039059.2944                 
                
  23233526.984   122093011.092    23233533.652    95137441.0124   23233533.902  
                
  20567314.078   109828317.502                    85422046.516    20567316.750  
  20567312.418  
  22663115.359   121104812.725                    94192629.948    22663119.168  
  22663115.512  
  20124777.008   105756428.194    20124782.855    82407642.1204   20124782.953  
                
  19338295.266   103084000.167                    80176442.549    19338298.883  
  19338295.039  
  21239372.938   111613657.585    21239377.164    86971703.8654                 
                
  19235795.172   102862450.303                    80004131.530    19235799.188  
  19235794.281  
  22606854.547   118799832.124    22606863.219    92571337.3524   22606863.492  
                
  22176169.375   118669154.490                    92298227.627    22176172.215  
  22176167.344  
  21006392.953   110389341.049    21006401.859    86017711.8694   21006402.320  
                
 21  8 14  2 34 20.0000000  0 13G 6R23G20G29R13R15G12R14G 2R24G24R17
                                G25
  22113176.297   116205527.086    22113185.363    90549797.7854   22113185.816  
                
  20053272.852   107271506.096                                                  
  20053271.172  
  24425067.000   128354591.680    24425073.297   100016592.4274                 
                
  23228091.453   122064447.246    23228098.152    95115183.4684   23228098.402  
                
  20572697.422   109857064.186                    85444405.040    20572700.094  
  20572695.750  
  22655775.797   121065592.367                    94162125.215    22655779.609  
  22655776.000  
  20124597.258   105755483.611    20124603.094    82406906.0814   20124603.203  
                
  19335946.703   103071480.968                    80166705.404    19335950.324  
  19335946.496  
  21239722.789   111615496.057    21239726.992    86973136.4364                 
                
  19234305.219   102854482.806                    79997934.588    19234309.246  
  19234304.344  
  22613106.664   118832687.157    22613115.426    92596938.6624   22613115.652  
                
  22169090.633   118631274.958                    92268765.769    22169093.539  
  22169088.617  
  21002458.477   110368665.220    21002467.371    86001600.8324   21002467.844  
                
 21  8 14  2 34 30.0000000  0 13G 6R23G20G29R13R15G12R14G 2R24G24R17
                                G25
  22117131.164   116226310.076    22117140.246    90565992.3114   22117140.699  
                
  20057948.719   107296518.842                                                  
  20057947.043  
  24419581.984   128325767.799    24419588.285    99994132.2744                 
                
  23222660.219   122035906.048    23222666.957    95092943.5764   23222667.207  
                
  20578091.227   109885866.848                    85466807.103    20578093.914  
  20578089.559  
  22648438.750   121026385.420                    94131630.946    22648442.586  
  22648438.992  
  20124425.953   105754583.370    20124431.777    82406204.5914   20124431.902  
                
  19333610.852   103059029.547                    80157020.953    19333614.473  
  19333610.648  
  21240083.750   111617392.950    21240087.922    86974614.5314                 
                
  19232829.414   102846591.011                    79991796.527    19232833.449  
  19232828.562  
  22619363.797   118865568.494    22619372.621    92622560.4684   22619372.801  
                
  22162018.375   118593430.072                    92239330.865    22162021.320  
  22162016.363  
  20998530.211   110348022.078    20998539.102    85985515.2664   20998539.578  
                
 21  8 14  2 34 40.0000000  0 13G 6R23G20G29R13R15G12R14G 2R24G24R17
                                G25
  22121096.289   116247146.953    22121105.383    90582228.8284   22121105.855  
                
  20062634.836   107321586.370                                                  
  20062633.156  
  24414098.719   128296952.997    24414105.031    99971679.1614                 
                
  23217233.398   122007387.932    23217240.176    95070721.6664   23217240.395  
                
  20583495.602   109914725.974                    85489253.079    20583498.289  
  20583493.895  
  22641104.344   120987192.438                    94101147.516    22641108.195  
  22641104.594  
  20124263.172   105753727.918    20124268.992    82405538.0014   20124269.117  
                
  19331287.836   103046646.549                    80147389.729    19331291.473  
  19331287.652  
  21240455.898   111619348.578    21240460.039    86976138.3894                 
                
  19231367.852   102838775.325                    79985717.659    19231371.891  
  19231367.023  
  22625625.984   118898476.405    22625634.832    92648202.9904   22625635.004  
                
  22154952.750   118555620.467                    92209923.385    22154955.672  
  22154950.770  
  20994608.258   110327412.075    20994617.152    85969455.5194   20994617.633  
                
 21  8 14  2 34 50.0000000  0 13G 6R23G20G29R13R15G12R14G 2R24G24R17
                                G25
  22125071.648   116268037.633    22125080.777    90598507.2694   22125081.246  
                
  20067331.125   107346708.350                                                  
  20067329.445  
  24408617.188   128268147.377    24408623.539    99949233.2344                 
                
  23211810.969   121978892.832    23211817.777    95048517.6864   23211817.969  
                
  20588910.516   109943641.398                    85511742.843    20588913.215  
  20588908.805  
  22633772.617   120948013.588                    94070675.051    22633776.398  
  22633772.840  
  20124108.922   105752917.308    20124114.734    82404906.3504   20124114.875  
                
  19328977.672   103034332.027                    80137811.767    19328981.320  
  19328977.492  
  21240839.203   111621362.894    21240843.324    86977707.9864                 
                
  19229920.500   102831035.663                    79979697.915    19229924.535  
  19229919.699  
  22631893.227   118931410.830    22631902.059    92673866.1684   22631902.223  
                
  22147893.867   118517846.117                    92180543.318    22147896.637  
  22147891.770  
  20990692.633   110306835.301    20990701.531    85953421.6674   20990702.023  
                
 21  8 14  2 35  0.0000000  0 13G 6R23G20G29R13R15G12R14G 2R24G24R17
                                G25
  22129057.172   116288981.662    22129066.332    90614827.2944   22129066.789  
                
  20072037.539   107371884.447                                                  
  20072035.836  
  24403137.391   128239350.737    24403143.777    99926794.3024                 
                
  23206392.836   121950420.264    23206399.652    95026331.2794   23206399.816  
                
  20594335.844   109972612.357                    85534275.816    20594338.590  
  20594334.125  
  22626443.430   120908848.394                    94040213.228    22626447.133  
  22626443.625  
  20123963.156   105752151.272    20123968.965    82404309.4354   20123969.109  
                
  19326680.305   103022085.738                    80128286.870    19326683.957  
  19326680.125  
  21241233.617   111623435.540    21241237.711    86979323.0374                 
                
  19228487.344   102823371.865                    79973737.186    19228491.375  
  19228486.559  
  22638165.414   118964371.288    22638174.219    92699549.6464   22638174.398  
                
  22140841.344   118480106.733                    92151190.482    22140844.160  
  22140839.227  
  20986783.266   110286291.414    20986792.168    85937413.4484   20986792.656  
                
 21  8 14  2 35 10.0000000  0 13G 6R23G20G29R13R15G12R14G 2R24G24R17
                                G25
  22133052.875   116309979.189    22133062.051    90631188.9954   22133062.504  
                
  20076754.070   107397114.704                                                  
  20076752.336  
  24397659.281   128210563.295    24397665.754    99904362.5234                 
                
  23200979.109   121921970.706    23200985.891    95004162.7854   23200986.062  
                
  20599771.711   110001639.552                    85556852.498    20599774.480  
  20599769.969  
  22619116.859   120869697.354                    94009762.413    22619120.535  
  22619117.035  
  20123825.898   105751429.963    20123831.703    82403747.3724   20123831.844  
                
  19324395.758   103009907.776                    80118815.115    19324399.410  
  19324395.590  
  21241639.164   111625566.684    21241643.242    86980983.6594                 
                
  19227068.375   102815783.981                    79967835.497    19227072.402  
  19227067.609  
  22644442.578   118997357.907    22644451.379    92725253.4974   22644451.551  
                
  22133795.531   118442402.644                    92121865.080    22133798.285  
  22133793.312  
  20982880.203   110265780.704    20982889.109    85921431.0804   20982889.613  
                
 21  8 14  2 35 20.0000000  0 13G 6R23G20G29R13R15G12R14G 2R24G24R17
                                G25
  22137058.711   116331030.012    22137067.895    90647592.2224   22137068.344  
                
  20081480.680   107422398.915                                                  
  20081478.953  
  24392182.852   128181785.095    24392189.512    99881937.9994                 
                
  23195569.750   121893544.167    23195576.516    94982012.2214   23195576.680  
                
  20605218.031   110030722.604                    85579472.647    20605220.793  
  20605216.270  
  22611792.922   120830560.506                    93979322.625    22611796.602  
  22611793.055  
  20123697.125   105750753.283    20123702.922    82403220.0854   20123703.070  
                
  19322124.047   102997798.308                    80109396.645    19322127.695  
  19322123.875  
  21242055.805   111627756.178    21242059.863    86982689.7594                 
                
  19225663.594   102808271.970                    79961992.821    19225667.625  
  19225662.848  
  22650724.648   119030370.491    22650733.465    92750977.5704   22650733.625  
                
  22126756.258   118404733.786                    92092567.068    22126758.953  
  22126754.020  
  20978983.445   110245303.139    20978992.359    85905474.5334   20978992.867  
                
 21  8 14  2 35 30.0000000  0 13G 6R23G20G29R13R15G12R14G 2R24G24R17
                                G25
  22141074.672   116352134.003    22141083.871    90664036.8854   22141084.316  
                
  20086217.352   107447736.925                                                  
  20086215.613  
  24386708.375   128153016.285    24386715.047    99859520.7554                 
                
  23190164.727   121865140.555    23190171.508    94959879.5424   23190171.660  
                
  20610674.789   110059861.309                    85602136.081    20610677.559  
  20610673.016  
  22604471.656   120791437.857                    93948893.904    22604475.340  
  22604471.758  
  20123576.867   105750121.264    20123582.652    82402727.5964   20123582.812  
                
  19319865.211   102985757.423                    80100031.498    19319868.855  
  19319865.031  
  21242483.562   111630004.012    21242487.605    86984441.3144                 
                
  19224272.992   102800835.749                    79956209.087    19224277.016  
  19224272.254  
  22657011.656   119063408.854    22657020.516    92776721.7494   22657020.648  
                
  22119723.562   118367100.298                    92063296.570    22119726.242  
  22119721.352  
  20975093.016   110224858.744    20975101.918    85889543.8274   20975102.438  
                
 21  8 14  2 35 40.0000000  0 13G 6R23G20G29R13R15G12R14G 2R24G24R17
                                G25
  22145100.703   116373290.914    22145109.922    90680522.7794   22145110.371  
                
  20090964.016   107473128.408                                                  
  20090962.262  
  24381235.633   128124256.757    24381242.305    99837110.7154                 
                
  23184764.023   121836759.701    23184770.812    94937764.5974   23184770.953  
                
  20616141.984   110089055.855                    85624842.918    20616144.766  
  20616140.211  
  22597153.047   120752329.408                    93918476.218    22597156.746  
  22597153.152  
  20123465.062   105749533.736    20123470.832    82402269.7774   20123471.000  
                
  19317619.211   102973784.960                    80090719.579    19317622.848  
  19317619.020  
  21242922.383   111632310.057    21242926.406    86986238.2304                 
                
  19222896.477   102793474.888                    79950483.976    19222900.488  
  19222895.746  
  22663303.531   119096472.785    22663312.422    92802485.8364   22663312.523  
                
  22112697.414   118329501.967                    92034053.433    22112700.086  
  22112695.246  
  20971208.867   110204447.388    20971217.762    85873638.8714   20971218.281  
                
 21  8 14  2 35 50.0000000  0 13G 6R23G20G29R13R15G12R14G 2R24G24R17
                                G25
  22149136.859   116394501.066    22149146.109    90697050.1584   22149146.551  
                
  20095720.719   107498573.549                                                  
  20095718.969  
  24375764.789   128095507.016    24375771.434    99814708.2954                 
                
  23179367.750   121808401.948    23179374.500    94915667.6384   23179374.625  
                
  20621619.594   110118305.990                    85647593.018    20621622.359  
  20621617.859  
  22589837.133   120713235.530                    93888069.866    22589840.863  
  22589837.289  
  20123361.812   105748991.148    20123367.566    82401846.9824   20123367.746  
                
  19315386.133   102961881.402                    80081461.257    19315389.766  
  19315385.941  
  21243372.359   111634674.655    21243376.367    86988080.7784                 
                
  19221534.188   102786190.085                    79944818.023    19221538.195  
  19221533.465  
  22669600.328   119129562.551    22669609.250    92828270.0564   22669609.320  
                
  22105677.922   118291939.396                    92004838.093    22105680.613  
  22105675.812  
  20967331.094   110184069.535    20967339.980    85857760.0244   20967340.508  
                
 21  8 14  2 36  0.0000000  0 13G 6R23G20G29R13R15G12R14G 2R24G24R17
                                G25
  22153183.094   116415764.132    22153192.387    90713618.7744   22153192.809  
                
  20100487.414   107524072.150                                                  
  20100485.680  
  24370295.820   128066766.959    24370302.391    99792313.4714                 
                
  23173975.836   121780067.232    23173982.555    94893588.6254   23173982.648  
                
  20627107.625   110147611.769                    85670386.403    20627110.387  
  20627105.898  
  22582523.984   120674156.253                    93857674.876    22582527.719  
  22582524.168  
  20123267.094   105748493.354    20123272.836    82401459.0834   20123273.016  
                
  19313165.969   102950046.692                    80072256.473    19313169.590  
  19313165.777  
  21243833.414   111637097.534    21243837.402    86989968.7284                 
                
  19220186.078   102778981.130                    79939211.052    19220190.074  
  19220185.344  
  22675901.984   119162677.858    22675910.887    92854074.1904   22675910.949  
                
  22098665.156   118254412.370                    91975650.399    22098667.777  
  22098663.039  
  20963459.672   110163725.052    20963468.535    85841907.1774   20963469.070  
                
 21  8 14  2 36 10.0000000  0 13G 6R23G20G29R13R15G12R14G 2R24G24R17
                                G25
  22157239.406   116437080.160    22157248.723    90730228.6504   22157249.137  
                
  20105264.086   107549624.027                                                  
  20105262.379  
  24364828.750   128038036.875    24364835.258    99769926.3744                 
                
  23168588.328   121751755.727    23168595.047    94871527.7144   23168595.141  
                
  20632606.078   110176973.100                    85693222.969    20632608.840  
  20632604.363  
  22575213.633   120635091.710                    93827291.325    22575217.320  
  22575213.781  
  20123180.914   105748040.459    20123186.641    82401106.1734   20123186.844  
                
  19310958.781   102938281.098                    80063105.448    19310962.402  
  19310958.602  
  21244305.570   111639578.747    21244309.543    86991902.1424                 
                
  19218852.117   102771847.796                    79933662.887    19218856.098  
  19218851.375  
  22682208.508   119195818.719    22682217.359    92879898.2344   22682217.457  
                
  22091658.977   118216921.076                    91946490.497    22091661.613  
  22091656.883  
  20959594.633   110143414.101    20959603.477    85826080.4544   20959604.027  
                
 21  8 14  2 36 20.0000000  0 13G 6R23G20G29R13R15G12R14G 2R24G24R17
                                G25
  22161305.734   116458448.859    22161315.059    90746879.5744   22161315.473  
                
  20110050.664   107575228.975                                                  
  20110048.957  
  24359363.633   128009316.613    24359369.996    99747546.9324                 
                
  23163205.172   121723467.155    23163211.910    94849484.6724   23163212.008  
                
  20638114.867   110206389.640                    85716102.494    20638117.625  
  20638113.141  
  22567905.977   120596041.907                    93796919.249    22567909.676  
  22567906.105  
  20123103.242   105747632.272    20123108.953    82400788.1024   20123109.160  
                
  19308764.492   102926584.296                    80054007.938    19308768.121  
  19308764.309  
  21244788.797   111642118.078    21244792.758    86993880.8444                 
                
  19217532.312   102764790.194                    79928173.655    19217536.285  
  19217531.566  
  22688519.836   119228984.822    22688528.660    92905741.9484   22688528.770  
                
  22084659.391   118179465.480                    91917358.370    22084662.148  
  22084657.391  
  20955735.945   110123136.552    20955744.777    85810279.7674   20955745.324  
                
 21  8 14  2 36 30.0000000  0 13G 6R23G20G29R13R15G12R14G 2R24G24R17
                                G25
  22165382.117   116479870.377    22165391.434    90763571.6614   22165391.852  
                
  20114847.180   107600887.048                                                  
  20114845.461  
  24353900.383   127980606.562    24353906.656    99725175.4504                 
                
  23157826.438   121695201.787    23157833.195    94827459.7184   23157833.293  
                
  20643633.992   110235861.463                    85739025.022    20643636.762  
  20643632.297  
  22560601.133   120557007.190                    93766558.926    22560604.883  
  22560601.227  
  20123034.125   105747269.080    20123039.809    82400505.0924   20123040.031  
                
  19306583.227   102914956.873                    80044964.376    19306586.855  
  19306583.043  
  21245283.117   111644715.784    21245287.070    86995905.0324                 
                
  19216226.688   102757808.416                    79922743.377    19216230.637  
  19216225.941  
  22694835.992   119262176.310    22694844.840    92931605.4434   22694844.945  
                
  22077666.656   118142045.846                    91888254.216    22077669.406  
  22077664.625  
  20951883.672   110102892.692    20951892.488    85794505.3284   20951893.031  
                
 21  8 14  2 36 40.0000000  0 13G 6R23G20G29R13R15G12R14G 2R24G24R17
                                G25
  22169468.523   116501344.578    22169477.824    90780304.8034   22169478.238  
                
  20119653.586   107626598.058                                                  
  20119651.871  
  24348439.000   127951906.719    24348445.203    99702811.9534                 
                
  23152452.109   121666959.601    23152458.883    94805452.8194   23152458.980  
                
  20649163.508   110265388.786                    85761990.692    20649166.301  
  20649161.812  
  22553299.117   120517987.545                    93736210.306    22553302.910  
  22553299.195  
  20122973.570   105746950.866    20122979.230    82400257.1284   20122979.461  
                
  19304414.938   102903398.642                    80035974.637    19304418.574  
  19304414.750  
  21245788.531   111647371.759    21245792.480    86997974.6184                 
                
  19214935.227   102750902.394                    79917372.015    19214939.156  
  19214934.477  
  22701156.930   119295393.057    22701165.859    92957488.6074   22701165.930  
                
  22070680.570   118104662.277                    91859178.098    22070683.406  
  22070678.598  
  20948037.797   110082682.522    20948046.609    85778757.1434   20948047.156  
                
 21  8 14  2 36 50.0000000  0 13G 6R23G20G29R13R15G12R14G 2R24G24R17
                                G25
  22173564.930   116522871.292    22173574.211    90797078.8574   22173574.625  
                
  20124469.836   107652361.756                                                  
  20124468.129  
  24342979.609   127923217.108    24342985.707    99680456.4214                 
                
  23147082.188   121638740.547    23147088.969    94783463.9464   23147089.059  
                
  20654703.398   110294971.445                    85784999.423    20654706.191  
  20654701.727  
  22545999.945   120478983.061                    93705873.492    22546003.766  
  22546000.027  
  20122921.547   105746677.470    20122927.188    82400044.0894   20122927.430  
                
  19302259.648   102891909.719                    80027038.807    19302263.289  
  19302259.469  
  21246304.992   111650085.842    21246308.945    87000089.4844                 
                
  19213657.938   102744072.135                    79912059.595    19213661.859  
  19213657.195  
  22707482.625   119328634.837    22707491.637    92983391.2714   22707491.660  
                
  22063701.195   118067314.693                    91830129.964    22063704.121  
  22063699.293  
  20944198.344   110062506.040    20944207.152    85763035.2044   20944207.691  
                
 21  8 14  2 37  0.0000000  0 13G 6R23G20G29R13R15G12R14G 2R24G24R17
                                G25
  22177671.328   116544450.469    22177680.562    90813893.7864   22177680.984  
                
  20129295.938   107678178.138                                                  
  20129294.246  
  24337522.055   127894537.840    24337528.176    99658108.9124                 
                
  23141716.703   121610544.752    23141723.484    94761493.1904   23141723.574  
                
  20660253.680   110324609.478                    85808051.211    20660256.449  
  20660252.055  
  22538703.695   120439993.967                    93675548.642    22538707.488  
  22538703.770  
  20122878.086   105746449.034    20122883.711    82399866.0804   20122883.969  
                
  19300117.391   102880490.297                    80018157.025    19300121.035  
  19300117.211  
  21246832.547   111652858.137    21246836.492    87002249.7164                 
                
  19212394.789   102737317.501                    79906805.990    19212398.699  
  19212394.031  
  22713813.078   119361901.644    22713822.125    93009313.4434   22713822.129  
                
  22056728.609   118030003.127                    91801109.868    22056731.582  
  22056726.711  
  20940365.312   110042363.315    20940374.145    85747339.5744   20940374.668  
                
 21  8 14  2 37 10.0000000  0 13G 6R23G20G29R13R15G12R14G 2R24G24R17
                                G25
  22181787.656   116566081.911    22181796.832    90830749.4534   22181797.258  
                
  20134131.844   107704046.974                                                  
  20134130.156  
  24332066.578   127865868.966    24332072.656    99635769.5264                 
                
  23136355.617   121582372.039    23136362.414    94739540.4274   23136362.508  
                
  20665814.250   110354302.493                    85831145.761    20665817.000  
  20665812.652  
  22531410.250   120401020.039                    93645235.590    22531414.039  
  22531410.312  
  20122843.141   105746265.433    20122848.754    82399723.0104   20122849.020  
                
  19297988.156   102869140.247                    80009329.208    19297991.812  
  19297987.980  
  21247371.141   111655688.517    21247375.074    87004455.1994                 
                
  19211145.789   102730638.543                    79901611.239    19211149.691  
  19211145.035  
  22720148.234   119395193.214    22720157.281    93035254.9234   22720157.293  
                
  22049762.742   117992727.742                    91772117.907    22049765.816  
  22049760.891  
  20936538.703   110022254.331    20936547.559    85731670.2324   20936548.059  
                
 21  8 14  2 37 20.0000000  0 13G 6R23G20G29R13R15G12R14G 2R24G24R17
                                G25
  22185913.953   116587765.734    22185923.055    90847645.9384   22185923.516  
                
  20138977.578   107729968.361                                                  
  20138975.883  
  24326613.055   127837210.811    24326619.164    99613438.4994                 
                
  23130998.961   121554222.592    23131005.770    94717605.7974   23131005.855  
                
  20671385.109   110384050.505                    85854283.093    20671387.871  
  20671383.551  
  22524119.711   120362061.839                    93614934.758    22524123.512  
  22524119.746  
  20122816.797   105746126.992    20122822.402    82399615.1314   20122822.676  
                
  19295872.008   102857859.986                    80000555.674    19295875.680  
  19295871.836  
  21247920.812   111658577.116    21247924.742    87006706.0554                 
                
  19209910.945   102724035.296                    79896475.384    19209914.840  
  19209910.184  
  22726488.141   119428509.724    22726497.203    93061215.8264   22726497.219  
                
  22042803.727   117955488.819                    91743154.299    22042806.844  
  22042801.895  
  20932718.555   110002179.348    20932727.445    85716027.3934   20932727.906  
                
 21  8 14  2 37 30.0000000  0 13G 6R23G20G29R13R15G12R14G 2R24G24R17
                                G25
  22190050.227   116609501.927    22190059.262    90864583.2294   22190059.754  
                
  20143833.094   107755942.044                                                  
  20143831.391  
  24321161.711   127808563.567    24321167.789    99591115.9764                 
                
  23125646.766   121526096.569    23125653.566    94695689.4164   23125653.656  
                
  20676966.352   110413853.814                    85877463.428    20676969.090  
  20676964.820  
  22516832.141   120323119.409                    93584646.223    22516835.988  
  22516832.133  
  20122799.062   105746033.747    20122804.664    82399542.4704   20122804.938  
                
  19293768.953   102846649.495                    79991836.395    19293772.629  
  19293768.785  
  21248481.562   111661523.946    21248485.488    87009002.2834                 
                
  19208690.305   102717507.935                    79891398.537    19208694.184  
  19208689.531  
  22732832.781   119461851.053    22732841.887    93087196.0684   22732841.891  
                
  22035851.531   117918286.363                    91714219.058    22035854.699  
  22035849.703  
  20928904.914   109982138.488    20928913.844    85700411.1324   20928914.297  
                
 21  8 14  2 37 40.0000000  0 13G 6R23G20G29R13R15G12R14G 2R24G24R17
                                G25
  22194196.406   116631290.196    22194205.402    90881561.0964   22194205.895  
                
  20148698.344   107781967.837                                                  
  20148696.656  
  24315712.320   127779927.167    24315718.457    99568801.8954                 
                
  23120298.984   121497993.754    23120305.754    94673791.1154   23120305.863  
                
  20682557.859   110443712.065                    85900686.512    20682560.621  
  20682556.363  
  22509547.531   120284192.773                    93554369.970    22509551.422  
  22509547.500  
  20122789.875   105745985.490    20122795.469    82399504.8644   20122795.742  
                
  19291678.984   102835508.791                    79983171.401    19291682.664  
  19291678.812  
  21249053.344   111664528.710    21249057.254    87011343.6644                 
                
  19207483.789   102711056.193                    79886380.517    19207487.660  
  19207483.008  
  22739182.094   119495216.939    22739191.238    93113195.4514   22739191.227  
                
  22028906.133   117881120.362                    91685312.154    22028909.328  
  22028904.328  
  20925097.727   109962131.595    20925106.699    85684821.3494   20925107.125  
                
 21  8 14  2 37 50.0000000  0 13G 6R23G20G29R13R15G12R14G 2R24G24R17
                                G25
  22198352.531   116653130.685    22198361.508    90898579.6474   22198362.004  
                
  20153573.367   107808045.838                                                  
  20153571.691  
  24310265.000   127751301.900    24310271.254    99546496.4974                 
                
  23114955.672   121469914.373    23114962.398    94651911.0654   23114962.535  
                
  20688159.664   110473625.317                    85923952.358    20688162.438  
  20688158.172  
  22502265.922   120245282.186                    93524106.165    22502269.840  
  22502265.926  
  20122789.305   105745982.468    20122794.887    82399502.5064   20122795.164  
                
  19289602.148   102824438.074                    79974560.843    19289605.828  
  19289601.984  
  21249636.219   111667591.710    21249640.113    87013730.4114                 
                
  19206291.453   102704680.193                    79881421.400    19206295.305  
  19206290.664  
  22745536.133   119528607.515    22745545.273    93139214.0794   22745545.262  
                
  22021967.570   117843991.142                    91656433.854    22021970.852  
  22021965.816  
  20921297.070   109942158.990    20921306.086    85669258.2754   20921306.496  
                
 21  8 14  2 38  0.0000000  0 13G 6R23G20G29R13R15G12R14G 2R24G24R17
                                G25
  22202518.484   116675022.882    22202527.438    90915638.4984   22202527.953  
                
  20158458.023   107834175.428                                                  
  20158456.352  
  24304819.797   127722687.390    24304826.098    99524199.4604                 
                
  23109616.766   121441858.234    23109623.496    94630049.1404   23109623.645  
                
  20693771.688   110503593.118                    85947260.638    20693774.469  
  20693770.207  
  22494987.273   120206387.347                    93493854.602    22494991.195  
  22494987.312  
  20122797.273   105746024.360    20122802.840    82399535.1434   20122803.141  
                
  19287538.406   102813437.139                    79966004.561    19287542.094  
  19287538.230  
  21250230.086   111670712.465    21250233.957    87016162.1644                 
                
  19205113.195   102698379.538                    79876520.890    19205117.031  
  19205112.406  
  22751894.773   119562022.302    22751903.902    93165251.5704   22751903.879  
                
  22015035.797   117806898.302                    91627583.880    22015039.168  
  22015034.094  
  20917502.867   109922220.306    20917511.918    85653721.6344   20917512.297  
                
 21  8 14  2 38 10.0000000  0 13G 6R23G20G29R13R15G12R14G 2R24G24R17
                                G25
  22206694.320   116696966.955    22206703.246    90932737.7764   22206703.766  
                
  20163352.359   107860356.759                                                  
  20163350.684  
  24299376.570   127694084.022    24299383.066    99501911.1424                 
                
  23104282.273   121413825.358    23104289.039    94608205.3504   23104289.191  
                
  20699393.930   110533615.487                    85970611.364    20699396.691  
  20699392.441  
  22487711.664   120167508.697                    93463615.668    22487715.605  
  22487711.715  
  20122813.836   105746111.413    20122819.387    82399602.9764   20122819.695  
                
  19285487.812   102802506.324                    79957502.813    19285491.508  
  19285487.641  
  21250834.984   111673891.242    21250838.852    87018639.1344                 
                
  19203949.070   102692154.444                    79871679.149    19203952.898  
  19203948.266  
  22758258.039   119595461.391    22758267.168    93191308.0034   22758267.137  
                
  22008111.000   117769842.201                    91598762.468    22008114.363  
  22008109.234  
  20913715.172   109902315.859    20913724.246    85638211.6754   20913724.613  
                
 21  8 14  2 38 20.0000000  0 13G 6R23G20G29R13R15G12R14G 2R24G24R17
                                G25
  22210880.070   116718963.135    22210888.977    90949877.6544   22210889.480  
                
  20168256.430   107886590.181                                                  
  20168254.742  
  24293935.484   127665492.254    24293942.258    99479631.8494                 
                
  23098952.312   121385816.165    23098959.102    94586380.0044   23098959.230  
                
  20705026.461   110563692.841                    85994004.843    20705029.191  
  20705024.961  
  22480439.148   120128646.607                    93433389.606    22480443.109  
  22480439.188  
  20122839.070   105746243.966    20122844.598    82399706.2594   20122844.910  
                
  19283450.477   102791646.125                    79949055.988    19283454.180  
  19283450.297  
  21251450.969   111677128.300    21251454.844    87021161.5094                 
                
  19202799.141   102686005.277                    79866896.460    19202802.965  
  19202798.324  
  22764625.984   119628925.055    22764635.102    93217383.5734   22764635.066  
                
  22001193.125   117732823.258                    91569969.945    22001196.465  
  22001191.344  
  20909934.078   109882446.016    20909943.168    85622728.6764   20909943.527  
                
 21  8 14  2 38 30.0000000  0 13G 6R23G20G29R13R15G12R14G 2R24G24R17
                                G25
  22215075.688   116741011.216    22215084.574    90967057.9654   22215085.078  
                
  20173170.125   107912875.150                                                  
  20173168.418  
  24288496.758   127636911.990    24288503.625    99457361.5634                 
                
  23093626.852   121357830.677    23093633.629    94564573.1244   23093633.781  
                
  20710669.242   110593824.930                    86017440.905    20710671.957  
  20710667.719  
  22473169.703   120089801.031                    93403176.387    22473173.691  
  22473169.730  
  20122872.930   105746421.913    20122878.434    82399844.9134   20122878.758  
                
  19281426.328   102780856.250                    79940663.861    19281430.039  
  19281426.160  
  21252078.031   111680423.491    21252081.910    87023729.1884                 
                
  19201663.367   102679931.789                    79862172.633    19201667.184  
  19201662.527  
  22770998.555   119662413.038    22771007.637    93243478.0984   22771007.633  
                
  21994282.211   117695841.346                    91541206.229    21994285.523  
  21994280.395  
  20906159.547   109862610.729    20906168.656    85607272.6114   20906169.000  
                
 21  8 14  2 38 40.0000000  0 13G 6R23G20G29R13R15G12R14G 2R24G24R17
                                G25
  22219281.055   116763110.516    22219289.910    90984278.1994   22219290.438  
                
  20178093.367   107939211.157                                                  
  20178091.660  
  24283060.188   127608342.856    24283067.090    99435099.8824                 
                
  23088305.781   121329868.317    23088312.523    94542784.2724   23088312.703  
                
  20716322.133   110624011.047                    86040918.988    20716324.871  
  20716320.562  
  22465903.305   120050971.637                    93372975.717    22465907.262  
  22465903.344  
  20122915.328   105746644.716    20122920.812    82400018.5244   20122921.156  
                
  19279415.312   102770136.385                    79932326.188    19279419.027  
  19279415.160  
  21252716.023   111683776.171    21252719.918    87026341.6694                 
                
  19200541.633   102673933.400                    79857507.215    19200545.461  
  19200540.777  
  22777375.617   119695924.658    22777384.645    93269591.0474   22777384.664  
                
  21987378.070   117658896.027                    91512470.983    21987381.430  
  21987376.289  
  20902391.492   109842809.450    20902400.609    85591843.0384   20902400.941  
                
 21  8 14  2 38 50.0000000  0 13G 6R23G20G29R13R15G12R14G 2R24G24R17
                                G25
  22223496.203   116785261.240    22223505.023    91001538.5064   22223505.555  
                
  20183026.156   107965598.228                                                  
  20183024.445  
  24277625.812   127579785.282    24277632.738    99412847.2364                 
                
  23082989.195   121301929.444    23082995.898    94521013.7184   23082996.094  
                
  20721985.219   110654251.594                    86064439.400    20721987.977  
  20721983.621  
  22458640.039   120012158.813                    93342787.974    22458643.953  
  22458640.066  
  20122966.320   105746912.697    20122971.781    82400227.3334   20122972.133  
                
  19277417.492   102759486.834                    79924043.205    19277421.195  
  19277417.344  
  21253365.023   111687186.680    21253368.926    87028999.2084                 
                
  19199434.000   102668010.403                    79852900.437    19199437.836  
  19199433.129  
  22783757.211   119729460.131    22783766.215    93295722.5894   22783766.242  
                
  21980480.836   117621987.761                    91483764.551    21980484.258  
  21980479.090  
  20898629.977   109823042.573    20898639.098    85576440.2774   20898639.422  
                
 21  8 14  2 39  0.0000000  0 13G 6R23G20G29R13R15G12R14G 2R24G24R17
                                G25
  22227721.102   116807463.181    22227729.902    91018838.7144   22227730.445  
                
  20187968.453   107992036.164                                                  
  20187966.742  
  24272193.766   127551239.157    24272200.605    99390603.5364                 
                
  23077677.023   121274013.881    23077683.711    94499261.3264   23077683.902  
                
  20727658.453   110684546.340                    86088001.961    20727661.188  
  20727656.828  
  22451379.828   119973362.413                    93312612.985    22451383.727  
  22451379.859  
  20123025.891   105747225.712    20123031.320    82400471.2384   20123031.695  
                
  19275432.859   102748907.603                    79915814.901    19275436.562  
  19275432.707  
  21254024.984   111690654.796    21254028.887    87031701.6344                 
                
  19198340.469   102662162.809                    79848352.301    19198344.305  
  19198339.598  
  22790143.273   119763019.207    22790152.293    93321872.5034   22790152.316  
                
  21973590.445   117585116.341                    91455086.781    21973593.953  
  21973588.727  
  20894874.992   109803309.988    20894884.113    85561064.2354   20894884.441  
                
 21  8 14  2 39 10.0000000  0 13G 6R23G20G29R13R15G12R14G 2R24G24R17
                                G25
  22231955.742   116829716.285    22231964.523    91036178.7924   22231965.074  
                
  20192920.266   108018524.960                                                  
  20192918.535  
  24266763.930   127522704.764    24266770.734    99368368.9254                 
                
  23072369.297   121246121.604    23072375.969    94477527.0854   23072376.156  
                
  20733341.812   110714895.119                    86111606.561    20733344.559  
  20733340.152  
  22444122.734   119934582.656                    93282450.944    22444126.633  
  22444122.816  
  20123094.039   105747583.827    20123099.441    82400750.2904   20123099.832  
                
  19273461.445   102738398.829                    79907641.406    19273465.129  
  19273461.281  
  21254695.930   111694180.562    21254699.836    87034448.9824                 
                
  19197261.016   102656390.489                    79843862.733    19197264.848  
  19197260.125  
  22796533.820   119796601.848    22796542.859    93348040.7764   22796542.871  
                
  21966707.016   117548282.047                    91426437.899    21966710.594  
  21966705.309  
  20891126.562   109783611.832    20891135.688    85545715.0184   20891136.020  
                
 21  8 14  2 39 20.0000000  0 13G 6R23G20G29R13R15G12R14G 2R24G24R17
                                G25
  22236200.117   116852020.599    22236208.863    91053558.7754   22236209.434  
                
  20197881.547   108045064.546                                                  
  20197879.820  
  24261336.375   127494182.216    24261343.121    99346143.5734                 
                
  23067066.047   121218252.854    23067072.672    94455811.1674   23067072.883  
                
  20739035.297   110745298.043                    86135253.267    20739038.055  
  20739033.629  
  22436868.828   119895819.806                    93252302.051    22436872.719  
  22436868.961  
  20123170.812   105747987.246    20123176.191    82401064.6344   20123176.598  
                
  19271503.273   102727960.683                    79899522.853    19271506.949  
  19271503.105  
  21255377.844   111697764.044    21255381.754    87037241.2964                 
                
  19196195.648   102650693.499                    79839431.716    19196199.484  
  19196194.750  
  22802928.844   119830208.096    22802937.871    93374227.4564   22802937.898  
                
  21959830.617   117511484.979                    91397817.956    21959834.188  
  21959828.836  
  20887384.711   109763948.302    20887393.840    85530392.7854   20887394.160  
                
 21  8 14  2 39 30.0000000  0 13G 6R23G20G29R13R15G12R14G 2R24G24R17
                                G25
  22240454.281   116874376.295    22240462.984    91070978.7924   22240463.574  
                
  20202852.367   108071655.045                                                  
  20202850.633  
  24255911.164   127465671.919    24255917.832    99323927.7694                 
                
  23061767.328   121190407.885    23061773.922    94434113.7884   23061774.121  
                
  20744738.969   110775755.332                    86158942.258    20744741.711  
  20744737.273  
  22429618.156   119857074.285                    93222166.658    22429622.039  
  22429618.348  
  20123256.258   105748436.246    20123261.609    82401414.5064   20123262.031  
                
  19269558.445   102717593.596                    79891459.552    19269562.102  
  19269558.277  
  21256070.805   111701405.492    21256074.723    87040078.7924                 
                
  19195144.422   102645072.075                    79835059.499    19195148.254  
  19195143.527  
  22809328.406   119863838.067    22809337.406    93400432.6164   22809337.453  
                
  21952961.195   117474725.484                    91369227.245    21952964.836  
  21952959.426  
  20883649.508   109744319.635    20883658.648    85515097.7234   20883658.973  
                
 21  8 14  2 39 40.0000000  0 13G 6R23G20G29R13R15G12R14G 2R24G24R17
                                G25
  22244718.117   116896782.818    22244726.793    91088438.4204   22244727.402  
                
  20207832.555   108098295.726                                                  
  20207830.836  
  24250488.148   127437173.548    24250494.762    99301721.2334                 
                
  23056473.039   121162586.152    23056479.609    94412434.5144   23056479.805  
                
  20750452.727   110806266.406                    86182673.095    20750455.453  
  20750450.996  
  22422370.641   119818345.655                    93192044.390    22422374.500  
  22422370.863  
  20123350.305   105748930.456    20123355.633    82401799.5964   20123356.074  
                
  19267626.836   102707297.033                    79883451.115    19267630.492  
  19267626.664  
  21256774.695   111705104.448    21256778.621    87042961.0924                 
                
  19194107.227   102639525.753                    79830745.697    19194111.059  
  19194106.340  
  22815732.391   119897491.249    22815741.371    93426655.8664   22815741.434  
                
  21946098.750   117438003.244                    91340665.509    21946102.406  
  21946096.980  
  20879920.883   109724725.576    20879930.023    85499829.6274   20879930.352  
                
 21  8 14  2 39 50.0000000  0 13G 6R23G20G29R13R15G12R14G 2R24G24R17
                                G25
  22248991.695   116919240.576    22249000.340    91105937.9624   22249000.965  
                
  20212822.242   108124987.187                                                  
  20212820.516  
  24245067.484   127408687.711    24245074.094    99279524.4794                 
                
  23051183.305   121134788.270    23051189.867    94390773.8234   23051190.047  
                
  20756176.617   110836831.664                    86206446.076    20756179.371  
  20756174.871  
  22415126.414   119779634.636                    93161935.813    22415130.258  
  22415126.641  
  20123453.039   105749470.270    20123458.344    82402220.2264   20123458.793  
                
  19265708.609   102697071.791                    79875498.139    19265712.258  
  19265708.434  
  21257489.602   111708861.290    21257493.539    87045888.5014                 
                
  19193084.180   102634055.059                    79826490.710    19193088.012  
  19193083.289  
  22822140.883   119931167.975    22822149.863    93452897.4744   22822149.922  
                
  21939243.422   117401318.763                    91312133.110    21939247.020  
  21939241.621  
  20876198.930   109705166.572    20876208.059    85484588.8374   20876208.395  
                
 21  8 14  2 40  0.0000000  0 13G 6R23G20G29R13R15G12R14G 2R24G24R17
                                G25
  22253275.023   116941749.590    22253283.621    91123477.4484   22253284.277  
                
  20217821.391   108151729.262                                                  
  20217819.645  
  24239649.172   127380214.619    24239655.820    99257337.6624                 
                
  23045898.133   121107014.445    23045904.676    94369131.8674   23045904.848  
                
  20761910.695   110867451.442                    86230261.432    20761913.469  
  20761908.918  
  22407885.516   119740941.411                    93131841.076    22407889.324  
  22407885.730  
  20123564.484   105750055.905    20123569.770    82402676.5624   20123570.223  
                
  19263803.758   102686917.860                    79867600.634    19263807.418  
  19263803.582  
  21258215.555   111712676.150    21258219.477    87048861.1174                 
                
  19192075.312   102628660.199                    79822294.706    19192079.156  
  19192074.414  
  22828553.844   119964868.320    22828562.844    93479157.4684   22828562.895  
                
  21932395.305   117364672.286                    91283630.273    21932398.746  
  21932393.406  
  20872483.680   109685642.812    20872492.793    85469375.5144   20872493.145  
                
 21  8 14  2 40 10.0000000  0 13G 6R23G20G29R13R15G12R14G 2R24G24R17
                                G25
  22257568.055   116964309.588    22257576.602    91141056.6704   22257577.309  
                
  20222829.945   108178521.672                                                  
  20222828.180  
  24234233.289   127351754.207    24234239.938    99235160.7244                 
                
  23040617.484   121079264.468    23040624.027    94347508.5034   23040624.199  
                
  20767654.922   110898125.354                    86254118.913    20767657.727  
  20767653.102  
  22400647.938   119702265.985                    93101760.202    22400651.738  
  22400648.125  
  20123684.602   105750687.150    20123689.875    82403168.4354   20123690.340  
                
  19261912.305   102676835.322                    79859758.649    19261915.969  
  19261912.125  
  21258952.500   111716548.817    21258956.402    87051878.7804                 
                
  19191080.578   102623340.933                    79818157.498    19191084.422  
  19191079.676  
  22834971.250   119998592.003    22834980.262    93505435.6524   22834980.328  
                
  21925554.320   117328063.740                    91255156.951    21925557.551  
  21925552.258  
  20868775.117   109666154.211    20868784.207    85454189.5924   20868784.574  
                
 21  8 14  2 40 20.0000000  0 13G 6R23G20G29R13R15G12R14G 2R24G24R17
                                G25
  22261870.680   116986920.012    22261879.207    91158675.1784   22261879.930  
                
  20227847.797   108205363.797                                                  
  20227846.035  
  24228819.742   127323306.057    24228826.398    99212993.3574                 
                
  23035341.305   121051537.970    23035347.867    94325903.4444   23035348.035  
                
  20773409.109   110928852.529                    86278017.827    20773411.965  
  20773407.262  
  22393413.594   119663607.880                    93071692.783    22393417.391  
  22393413.781  
  20123813.328   105751363.575    20123818.594    82403695.5154   20123819.066  
                
  19260034.141   102666823.665                    79851971.804    19260037.809  
  19260033.969  
  21259700.352   111720478.773    21259704.238    87054941.0834                 
                
  19190099.852   102618096.512                    79814078.500    19190103.711  
  19190098.945  
  22841392.977   120032338.438    22841401.992    93531731.5594   22841402.070  
                
  21918720.133   117291492.629                    91226712.748    21918723.359  
  21918718.105  
  20865073.172   109646700.342    20865082.238    85439030.7294   20865082.625  
                
 21  8 14  2 40 30.0000000  0 13G 6R23G20G29R13R15G12R14G 2R24G24R17
                                G25
  22266182.898   117009580.872    22266191.438    91176332.9864   22266192.145  
                
  20232874.938   108232255.585                                                  
  20232873.172  
  24223408.648   127294870.488    24223415.266    99190835.7604                 
                
  23030069.609   121023834.951    23030076.176    94304316.6704   23030076.336  
                
  20779173.320   110959633.150                    86301958.309    20779176.180  
  20779171.461  
  22386182.539   119624967.252                    93041638.942    22386186.281  
  22386182.754  
  20123950.672   105752085.288    20123955.938    82404257.8844   20123956.406  
                
  19258169.320   102656883.072                    79844240.229    19258172.984  
  19258169.148  
  21260459.117   111724466.123    21260462.980    87058048.1034                 
                
  19189133.172   102612927.227                    79810057.941    19189137.035  
  19189132.277  
  22847819.047   120066107.612    22847828.039    93558045.1974   22847828.137  
                
  21911892.891   117254959.170                    91198297.864    21911896.246  
  21911890.973  
  20861377.867   109627281.368    20861386.922    85423899.0584   20861387.328  
                
 21  8 14  2 40 40.0000000  0 13G 6R23G20G29R13R15G12R14G 2R24G24R17
                                G25
  22270504.688   117032292.060    22270513.223    91194029.9944   22270513.934  
                
  20237911.344   108259197.023                                                  
  20237909.602  
  24217999.836   127266447.426    24218006.523    99168687.9284                 
                
  23024802.367   120996155.429    23024808.969    94282748.2094   23024809.133  
                
  20784947.531   110990467.162                    86325940.292    20784950.391  
  20784945.648  
  22378954.828   119586344.482                    93011598.993    22378958.520  
  22378955.055  
  20124096.625   105752852.249    20124101.898    82404855.5144   20124102.355  
                
  19256317.836   102647013.632                    79836564.000    19256321.492  
  19256317.668  
  21261228.781   111728510.766    21261232.625    87061199.7684                 
                
  19188180.484   102607832.800                    79806095.600    19188184.363  
  19188179.602  
  22854249.414   120099899.379    22854258.406    93584376.4384   22854258.512  
                
  21905072.758   117218463.431                    91169912.289    21905076.137  
  21905070.863  
  20857689.195   109607897.318    20857698.234    85408794.5994   20857698.648  
                
 21  8 14  2 40 50.0000000  0 13G 6R23G20G29R13R15G12R14G 2R24G24R17
                                G25
  22274836.125   117055053.900    22274844.641    91211766.4894   22274845.383  
                
  20242957.086   108286188.266                                                  
  20242955.359  
  24212593.414   127238037.439    24212600.270    99146550.3184                 
                
  23019539.703   120968499.916    23019546.375    94261198.4634   23019546.523  
                
  20790731.789   111021354.796                    86349964.010    20790734.672  
  20790729.906  
  22371730.516   119547739.879                    92981573.165    22371734.160  
  22371730.727  
  20124251.289   105753665.009    20124256.574    82405488.8324   20124257.016  
                
  19254479.836   102637216.025                    79828943.626    19254483.484  
  19254479.680  
  21262009.430   111732613.091    21262013.254    87064396.3854                 
                
  19187241.930   102602813.897                    79802192.019    19187245.824  
  19187241.043  
  22860684.156   120133714.133    22860693.164    93610725.5914   22860693.258  
                
  21898259.805   117182005.989                    91141556.489    21898263.180  
  21898257.926  
  20854007.273   109588548.680    20854016.309    85393717.7404   20854016.734  
                
 21  8 14  2 41  0.0000000  0 13G 6R23G20G29R13R15G12R14G 2R24G24R17
                                G25
  22279177.156   117077866.158    22279185.668    91229542.2714   22279186.422  
                
  20248012.086   108313229.061                                                  
  20248010.367  
  24207189.523   127209640.581    24207196.477    99124422.9094                 
                
  23014281.539   120940868.117    23014288.285    94239667.1904   23014288.430  
                
  20796526.062   111052295.894                    86374029.294    20796528.953  
  20796524.188  
  22364509.578   119509153.387                    92951561.455    22364513.258  
  22364509.742  
  20124414.641   105754523.422    20124419.930    82406157.7124   20124420.375  
                
  19252655.250   102627489.951                    79821378.904    19252658.902  
  19252655.105  
  21262801.031   111736772.945    21262804.832    87067637.8254                 
                
  19186317.469   102597870.369                    79798347.044    19186321.371  
  19186316.582  
  22867123.195   120167551.597    22867132.227    93637092.4254   22867132.309  
                
  21891453.945   117145586.709                    91113230.382    21891457.344  
  21891452.121  
  20850332.078   109569235.372    20850341.113    85378668.4084   20850341.562  
                
 21  8 14  2 41 10.0000000  0 13G 6R23G20G29R13R15G12R14G 2R24G24R17
                                G25
  22283527.734   117100728.606    22283536.277    91247357.1634   22283537.016  
                
  20253076.289   108340319.125                                                  
  20253074.602  
  24201788.297   127181256.836    24201795.180    99102305.6824                 
                
  23009027.898   120913260.081    23009034.699    94218154.4354   23009034.820  
                
  20802330.344   111083290.557                    86398136.230    20802333.262  
  20802328.426  
  22357292.016   119470585.152                    92921563.980    22357295.785  
  22357292.180  
  20124586.656   105755427.351    20124591.953    82406862.0694   20124592.387  
                
  19250844.094   102617835.427                    79813869.818    19250847.723  
  19250843.934  
  21263603.531   111740990.118    21263607.320    87070923.9334                 
                
  19185407.008   102593001.749                    79794560.345    19185410.922  
  19185406.129  
  22873566.523   120201411.532    22873575.516    93663476.7784   22873575.613  
                
  21884655.320   117109205.623                    91084933.974    21884658.672  
  21884653.477  
  20846663.586   109549957.319    20846672.617    85363646.5444   20846673.074  
                
 21  8 14  2 41 20.0000000  0 13G 6R23G20G29R13R15G12R14G 2R24G24R17
                                G25
  22287887.859   117123641.225    22287896.457    91265211.1474   22287897.168  
                
  20258149.703   108367458.398                                                  
  20258148.059  
  24196389.641   127152886.311    24196396.426    99080198.7894                 
                
  23003778.805   120885675.925    23003785.633    94196660.2914   23003785.754  
                
  20808144.633   111114338.604                    86422284.697    20808147.594  
  20808142.688  
  22350077.898   119432035.215                    92891580.711    22350081.715  
  22350078.066  
  20124767.344   105756376.856    20124772.652    82407601.9424   20124773.078  
                
  19249046.398   102608252.706                    79806416.592    19249050.031  
  19249046.242  
  21264416.953   111745264.657    21264420.727    87074254.7464                 
                
  19184510.617   102588208.326                    79790832.121    19184514.535  
  19184509.734  
  22880014.117   120235293.874    22880023.047    93689878.6094   22880023.184  
                
  21877863.797   117072862.765                    91056667.312    21877867.145  
  21877861.961  
  20843001.828   109530714.641    20843010.855    85348652.2494   20843011.328  
                
 21  8 14  2 41 30.0000000  0 13G 6R23G20G29R13R15G12R14G 2R24G24R17
                                G25
  22292257.484   117146603.763    22292266.133    91283104.0224   22292266.844  
                
  20263232.289   108394646.692                                                  
  20263230.652  
  24190993.492   127124528.912    24191000.176    99058102.1124                 
                
  22998534.219   120858115.423    22998541.031    94175184.5704   22998541.160  
                
  20813968.867   111145439.638                    86446474.391    20813971.840  
  20813966.984  
  22342867.219   119393503.586                    92861611.667    22342871.023  
  22342867.371  
  20124956.695   105757371.857    20124962.020    82408377.2624   20124962.434  
                
  19247262.156   102598741.613                    79799019.064    19247265.785  
  19247261.992  
  21265241.250   111749596.370    21265245.000    87077630.0994                 
                
  19183628.211   102583489.716                    79787162.092    19183632.133  
  19183627.324  
  22886465.953   120269198.409    22886474.828    93716297.7194   22886474.980  
                
  21871079.430   117036558.028                    91028430.293    21871082.781  
  21871077.574  
  20839346.797   109511507.257    20839355.824    85333685.4544   20839356.301  
                
 21  8 14  2 41 40.0000000  0 13G 6R23G20G29R13R15G12R14G 2R24G24R17
                                G25
  22296636.617   117169616.318    22296645.297    91301035.8674   22296646.008  
                
  20268324.000   108421883.891                                                  
  20268322.367  
  24185599.805   127096184.954    24185606.523    99036015.9194                 
                
  22993294.188   120830578.888    22993300.977    94153727.5334   22993301.121  
                
  20819803.055   111176593.890                    86470705.471    20819806.055  
  20819801.207  
  22335660.062   119354990.689                    92831657.180    22335663.801  
  22335660.191  
  20125154.727   105758412.520    20125160.066    82409188.1624   20125160.465  
                
  19245491.352   102589302.278                    79791677.360    19245494.988  
  19245491.168  
  21266076.453   111753985.425    21266080.180    87081050.1434                 
                
  19182759.891   102578846.431                    79783550.641    19182763.820  
  19182758.996  
  22892921.984   120303125.197    22892930.867    93742734.1744   22892931.023  
                
  21864302.266   117000291.721                    91000223.175    21864305.598  
  21864300.375  
  20835698.508   109492335.395    20835707.527    85318746.3394   20835708.008  
                
 21  8 14  2 41 50.0000000  0 13G 6R23G20G29R13R15G12R14G 2R24G24R17
                                G25
  22301025.266   117192678.805    22301033.965    91319006.6354   22301034.680  
                
  20273424.852   108449169.985                                                  
  20273423.215  
  24180208.734   127067854.635    24180215.527    99013940.3734                 
                
  22988058.727   120803066.287    22988065.488    94132289.1354   22988065.625  
                
  20825647.250   111207801.471                    86494978.024    20825650.246  
  20825645.461  
  22328456.406   119316496.555                    92801717.278    22328460.105  
  22328456.516  
  20125361.453   105759498.899    20125366.812    82410034.6854   20125367.195  
                
  19243734.070   102579934.986                    79784391.673    19243737.711  
  19243733.887  
  21266922.562   111758431.772    21266926.262    87084514.8274                 
                
  19181905.578   102574278.016                    79779997.426    19181909.527  
  19181904.664  
  22899382.266   120337074.197    22899391.168    93769187.9234   22899391.316  
                
  21857532.297   116964064.074                    90972046.100    21857535.621  
  21857530.414  
  20832057.000   109473199.144    20832066.020    85303834.9694   20832066.512  
                
 21  8 14  2 42  0.0000000  0 13G 6R23G20G29R13R15G12R14G 2R24G24R17
                                G25
  22305423.391   117215791.101    22305432.121    91337016.2214   22305432.848  
                
  20278534.812   108476504.843                                                  
  20278533.180  
  24174820.359   127039538.060    24174827.148    98991875.5064                 
                
  22982827.812   120775577.636    22982834.574    94110869.3994   22982834.707  
                
  20831501.312   111239061.895                    86519291.681    20831504.328  
  20831499.555  
  22321256.273   119278021.284                    92771792.071    22321259.980  
  22321256.348  
  20125576.883   105760630.982    20125582.266    82410916.8244   20125582.637  
                
  19241990.336   102570639.863                    79777162.137    19241993.977  
  19241990.141  
  21267779.586   111762935.447    21267783.254    87088024.1784                 
                
  19181065.289   102569784.655                    79776502.595    19181069.242  
  19181064.383  
  22905846.742   120371045.234    22905855.641    93795658.8374   22905855.770  
                
  21850769.531   116927874.950                    90943899.009    21850772.848  
  21850767.629  
  20828422.281   109454098.527    20828431.297    85288951.3694   20828431.797  
                
 21  8 14  2 42 10.0000000  0 13G 6R23G20G29R13R15G12R14G 2R24G24R17
                                G25
  22309830.953   117238952.980    22309839.727    91355064.4334   22309840.453  
                
  20283653.828   108503888.124                                                  
  20283652.180  
  24169434.570   127011235.110    24169441.395    98969821.2624                 
                
  22977601.438   120748112.852    22977608.227    94089468.2694   22977608.344  
                
  20837365.250   111270374.846                    86543646.178    20837368.250  
  20837363.504  
  22314059.664   119239564.842                    92741881.483    22314063.375  
  22314059.707  
  20125800.984   105761808.615    20125806.371    82411834.4594   20125806.742  
                
  19240260.094   102561416.691                    79769988.546    19240263.734  
  19240259.891  
  21268647.461   111767496.175    21268651.098    87091577.9924                 
                
  19180239.008   102565366.163                    79773065.984    19180242.973  
  19180238.105  
  22912315.383   120405038.050    22912324.227    93822146.7544   22912324.367  
                
  21844013.961   116891724.352                    90915781.873    21844017.277  
  21844012.055  
  20824794.320   109435033.455    20824803.332    85274095.4634   20824803.844  
                
 21  8 14  2 42 20.0000000  0 13G 6R23G20G29R13R15G12R14G 2R24G24R17
                                G25
  22314247.969   117262164.591    22314256.785    91373151.3904   22314257.508  
                
  20288781.906   108531319.921                                                  
  20288780.250  
  24164051.344   126982946.101    24164058.273    98947777.9154                 
                
  22972379.617   120720672.059    22972386.445    94068085.8414   22972386.566  
                
  20843239.094   111301740.753                    86568041.884    20843242.125  
  20843237.375  
  22306866.648   119201127.564                    92711985.802    22306870.359  
  22306866.688  
  20126033.812   105763032.139    20126039.199    82412787.8474   20126039.570  
                
  19238543.430   102552265.887                    79762871.252    19238547.074  
  19238543.223  
  21269526.242   111772114.198    21269529.863    87095176.4534                 
                
  19179426.789   102561022.885                    79769687.875    19179430.754  
  19179425.902  
  22918788.203   120439052.828    22918796.973    93848651.7834   22918797.129  
                
  21837265.711   116855612.650                    90887695.003    21837268.984  
  21837263.758  
  20821173.172   109416004.237    20821182.184    85259267.5044   20821182.691  
                
 21  8 14  2 42 30.0000000  0 13G 6R23G20G29R13R15G12R14G 2R24G24R17
                                G25
  22318674.422   117285425.734    22318683.270    91391276.9424   22318684.004  
                
  20293919.031   108558800.043                                                  
  20293917.363  
  24158670.867   126954671.108    24158677.812    98925745.4554                 
                
  22967162.367   120693255.277    22967169.215    94046722.1174   22967169.340  
                
  20849122.844   111333159.560                    86592478.717    20849125.891  
  20849121.148  
  22299677.219   119162709.436                    92682105.053    22299680.957  
  22299677.234  
  20126275.359   105764301.430    20126280.742    82413776.8984   20126281.125  
                
  19236840.328   102543187.390                    79755810.202    19236843.984  
  19236840.117  
  21270415.898   111776789.350    21270419.512    87098819.4264                 
                
  19178628.570   102556754.391                    79766367.934    19178632.539  
  19178627.691  
  22925265.141   120473089.337    22925273.883    93875173.7374   22925274.055  
                
  21830524.688   116819539.697                    90859638.248    21830527.926  
  21830522.684  
  20817558.852   109397010.811    20817567.863    85244467.4274   20817568.379  
                
 21  8 14  2 42 40.0000000  0 13G 6R23G20G29R13R15G12R14G 2R24G24R17
                                G25
  22323110.281   117308736.345    22323119.152    91409441.0424   22323119.895  
                
  20299065.156   108586328.273                                                  
  20299063.496  
  24153292.961   126926410.230    24153299.988    98903724.0264                 
                
  22961949.703   120665862.567    22961956.523    94025377.1494   22961956.672  
                
  20855016.445   111364630.989                    86616956.480    20855019.520  
  20855014.738  
  22292491.430   119124310.762                    92652239.422    22292495.223  
  22292491.453  
  20126525.602   105765616.490    20126530.980    82414801.6174   20126531.379  
                
  19235150.820   102534181.346                    79748805.491    19235154.484  
  19235150.605  
  21271316.422   111781521.652    21271320.035    87102506.9304                 
                
  19177844.383   102552560.949                    79763106.369    19177848.348  
  19177843.500  
  22931746.188   120507147.528    22931754.918    93901712.5724   22931755.113  
                
  21823790.820   116783505.714                    90831611.827    21823794.133  
  21823788.844  
  20813951.352   109378053.300    20813960.371    85229695.3394   20813960.887  
                
 21  8 14  2 42 50.0000000  0 13G 6R23G20G29R13R15G12R14G 2R24G24R17
                                G25
  22327555.500   117332096.127    22327564.410    91427643.4674   22327565.160  
                
  20304220.234   108613904.423                                                  
  20304218.566  
  24147917.719   126898163.329    24147924.836    98881713.4874                 
                
  22956741.578   120638493.629    22956748.363    94004050.6954   22956748.523  
                
  20860919.906   111396155.099                    86641475.218    20860923.020  
  20860918.188  
  22285309.258   119085931.333                    92622388.760    22285313.062  
  22285309.309  
  20126784.539   105766977.209    20126789.922    82415861.9144   20126790.328  
                
  19233474.859   102525247.533                    79741856.965    19233478.535  
  19233474.656  
  21272227.781   111786310.880    21272231.391    87106238.7884                 
                
  19177074.125   102548442.023                    79759902.760    19177078.102  
  19177073.238  
  22938231.320   120541227.098    22938240.062    93928268.0634   22938240.262  
                
  21817064.188   116747510.505                    90803615.547    21817067.570  
  21817062.238  
  20810350.664   109359131.558    20810359.695    85214951.1234   20810360.199  
                
 21  8 14  2 43  0.0000000  0 13G 6R23G20G29R13R15G12R14G 2R24G24R17
                                G25
  22332010.070   117355505.084    22332019.012    91445884.2064   22332019.766  
                
  20309384.258   108641528.456                                                  
  20309382.590  
  24142545.211   126869930.625    24142552.383    98859713.9834                 
                
  22951538.016   120611148.674    22951544.801    93982742.9304   22951544.965  
                
  20866833.156   111427731.472                    86666034.610    20866836.254  
  20866831.469  
  22278130.719   119047571.447                    92592553.304    22278134.551  
  22278130.812  
  20127052.172   105768383.622    20127057.566    82416957.8184   20127057.973  
                
  19231812.492   102516386.176                    79734964.798    19231816.160  
  19231812.293  
  21273149.961   111791157.014    21273153.570    87110014.9934                 
                
  19176317.836   102544397.846                    79756757.291    19176321.824  
  19176316.949  
  22944720.539   120575327.998    22944729.297    93954840.1824   22944729.488  
                
  21810344.875   116711554.289                    90775649.616    21810348.316  
  21810342.891  
  20806756.805   109340245.710    20806765.836    85200234.8844   20806766.340  
                
 21  8 14  2 43 10.0000000  0 13G 6R23G20G29R13R15G12R14G 2R24G24R17
                                G25
  22336474.031   117378963.267    22336482.996    91464163.3004   22336483.734  
                
  20314557.219   108669200.292                                                  
  20314555.551  
  24137175.383   126841712.410    24137182.672    98837725.7874                 
                
  22946339.047   120583827.920    22946345.879    93961454.0354   22946346.039  
                
  20872756.242   111459360.414                    86690634.878    20872759.352  
  20872754.609  
  22270955.906   119009231.274                    92562733.146    22270959.734  
  22270956.043  
  20127328.555   105769835.986    20127333.969    82418089.5264   20127334.359  
                
  19230163.758   102507597.490                    79728129.146    19230167.422  
  19230163.559  
  21274083.016   111796060.240    21274086.613    87113835.6874                 
                
  19175575.578   102540428.644                    79753670.122    19175579.582  
  19175574.688  
  22951213.828   120609450.313    22951222.570    93981428.9964   22951222.762  
                
  21803632.891   116675637.281                    90747714.181    21803636.359  
  21803630.902  
  20803169.828   109321396.005    20803178.836    85185546.7934   20803179.359  
                
 21  8 14  2 43 20.0000000  0 13G 6R23G20G29R13R15G12R14G 2R24G24R17
                                G25
  22340947.352   117402470.708    22340956.340    91482480.7774   22340957.051  
                
  20319739.125   108696919.946                                                  
  20319737.441  
  24131808.344   126813508.910    24131815.766    98815749.0284                 
                
  22941144.688   120556531.374    22941151.555    93940184.0064   22941151.691  
                
  20878689.203   111491042.053                    86715276.149    20878692.301  
  20878687.602  
  22263784.805   118970911.003                    92532928.487    22263788.617  
  22263784.992  
  20127613.711   105771334.476    20127619.145    82419257.1724   20127619.531  
                
  19228528.703   102498881.702                    79721350.198    19228532.367  
  19228528.488  
  21275026.938   111801020.584    21275030.512    87117700.8884                 
                
  19174847.344   102536534.485                    79750641.333    19174851.367  
  19174846.465  
  22957711.188   120643594.050    22957719.906    94008034.5044   22957720.094  
                
  21796928.320   116639759.601                    90719809.308    21796931.730  
  21796926.301  
  20799589.750   109302582.562    20799598.738    85170886.9654   20799599.281  
                
 21  8 14  2 43 30.0000000  0 13G 6R23G20G29R13R15G12R14G 2R24G24R17
                                G25
  22345429.969   117426026.959    22345438.961    91500836.2864   22345439.668  
                
  20324929.875   108724686.933                                                  
  20324928.180  
  24126444.117   126785319.871    24126451.609    98793783.5584                 
                
  22935954.891   120529258.810    22935961.777    93918932.6544   22935961.926  
                
  20884631.938   111522775.868                    86739957.996    20884635.039  
  20884630.332  
  22256617.414   118932610.638                    92503139.321    22256621.258  
  22256617.621  
  20127907.562   105772878.685    20127913.012    82420460.4524   20127913.391  
                
  19226907.281   102490238.556                    79714627.751    19226910.922  
  19226907.070  
  21275981.656   111806037.685    21275985.199    87121610.3134                 
                
  19174133.023   102532714.642                    79747670.343    19174137.043  
  19174132.152  
  22964212.531   120677758.776    22964221.270    94034656.3634   22964221.453  
                
  21790231.031   116603921.145                    90691934.922    21790234.391  
  21790229.051  
  20796016.531   109283805.150    20796025.504    85156255.2094   20796026.059  
                
 21  8 14  2 43 40.0000000  0 13G 6R23G20G29R13R15G12R14G 2R24G24R17
                                G25
  22349921.906   117449632.241    22349930.879    91519230.0084   22349931.598  
                
  20330129.484   108752501.389                                                  
  20330127.773  
  24121082.773   126757145.788    24121090.297    98771829.7414                 
                
  22930769.703   120502010.497    22930776.590    93897700.2044   22930776.746  
                
  20890584.469   111554561.982                    86764680.518    20890587.551  
  20890582.906  
  22249453.781   118894330.420                    92473365.812    22249457.648  
  22249454.020  
  20128210.180   105774468.985    20128215.641    82421699.6404   20128216.008  
                
  19225299.539   102481668.431                    79707962.085    19225303.188  
  19225299.336  
  21276947.219   111811111.815    21276950.734    87125564.1804                 
                
  19173432.703   102528969.718                    79744757.630    19173436.734  
  19173431.840  
  22970717.898   120711944.674    22970726.688    94061294.7094   22970726.824  
                
  21783541.133   116568122.114                    90664091.225    21783544.406  
  21783539.160  
  20792450.219   109265064.105    20792459.160    85141651.7954   20792459.734  
                
 21  8 14  2 43 50.0000000  0 13G 6R23G20G29R13R15G12R14G 2R24G24R17
                                G25
  22354423.125   117473286.260    22354432.078    91537661.7044   22354432.805  
                
  20335337.945   108780363.114                                                  
  20335336.223  
  24115724.281   126728986.571    24115731.805    98749887.5024                 
                
  22925589.117   120474786.336    22925596.000    93876486.5714   22925596.156  
                
  20896546.789   111586400.227                    86789443.585    20896549.859  
  20896545.254  
  22242293.938   118856070.398                    92443608.033    22242297.836  
  22242294.184  
  20128521.555   105776105.232    20128527.031    82422974.6294   20128527.395  
                
  19223705.492   102473171.194                    79701353.115    19223709.148  
  19223705.289  
  21277923.609   111816242.733    21277927.105    87129562.2904                 
                
  19172746.359   102525299.473                    79741902.988    19172750.387  
  19172745.508  
  22977227.242   120746151.471    22977236.082    94087949.3464   22977236.195  
                
  21776858.609   116532362.413                    90636278.113    21776861.797  
  21776856.637  
  20788890.820   109246359.314    20788899.738    85127076.6354   20788900.324  
                
 21  8 14  2 44  0.0000000  0 13G 6R23G20G29R13R15G12R14G 2R24G24R17
                                G25
  22358933.633   117496989.053    22358942.559    91556131.4004   22358943.289  
                
  20340555.219   108808271.995                                                  
  20340553.484  
  24110368.742   126700842.372    24110376.102    98727956.9454                 
                
  22920413.156   120447586.497    22920420.023    93855291.8834   22920420.180  
                
  20902518.805   111618290.417                    86814247.063    20902521.879  
  20902517.309  
  22235137.859   118817830.613                    92413865.984    22235141.781  
  22235138.121  
  20128841.703   105777787.626    20128847.199    82424285.5844   20128847.547  
                
  19222125.148   102464747.073                    79694801.014    19222128.801  
  19222124.957  
  21278910.812   111821430.540    21278914.309    87133604.7364                 
                
  19172073.969   102521703.914                    79739106.441    19172077.996  
  19172073.121  
  22983740.578   120780379.156    22983749.422    94114620.2684   22983749.535  
                
  21770183.547   116496642.392                    90608495.855    21770186.605  
  21770181.535  
  20785338.344   109227690.942    20785347.242    85112529.8434   20785347.840  
                
 21  8 14  2 44 10.0000000  0 13G 6R23G20G29R13R15G12R14G 2R24G24R17
                                G25
  22363453.352   117520740.274    22363462.266    91574638.8504   22363462.984  
                
  20345781.234   108836227.655                                                  
  20345779.496  
  24105015.969   126672713.105    24105023.234    98706038.0594                 
                
  22915241.773   120420410.679    22915248.637    93834115.9194   22915248.789  
                
  20908500.531   111650232.334                    86839090.774    20908503.605  
  20908499.059  
  22227985.617   118779611.165                    92384139.739    22227989.535  
  22227985.887  
  20129170.570   105779515.812    20129176.090    82425632.2164   20129176.426  
                
  19220558.477   102456395.832                    79688305.599    19220562.137  
  19220558.293  
  21279908.805   111826675.009    21279912.312    87137691.3374                 
                
  19171415.508   102518182.791                    79736367.783    19171419.547  
  19171414.668  
  22990257.844   120814627.433    22990266.711    94141307.2324   22990266.816  
                
  21763515.836   116460961.823                    90580744.293    21763518.840  
  21763513.828  
  20781792.766   109209058.822    20781801.664    85098011.3024   20781802.250  
                
 21  8 14  2 44 20.0000000  0 13G 6R23G20G29R13R15G12R14G 2R24G24R17
                                G25
  22367982.320   117544540.151    22367991.234    91593184.2014   22367991.941  
                
  20351016.031   108864230.242                                                  
  20351014.297  
  24099666.062   126644599.146    24099673.266    98684131.0644                 
                
  22910075.008   120393259.167    22910081.855    93812958.9004   22910081.992  
                
  20914491.992   111682226.322                    86863974.969    20914495.055  
  20914490.531  
  22220837.250   118741412.388                    92354429.574    22220841.164  
  22220837.508  
  20129508.195   105781290.056    20129513.746    82427014.7384   20129514.062  
                
  19219005.578   102448117.962                    79681867.255    19219009.242  
  19219005.387  
  21280917.609   111831976.337    21280921.141    87141822.2354                 
                
  19170771.016   102514736.381                    79733687.242    19170775.055  
  19170770.176  
  22996779.031   120848896.475    22996787.984    94168010.3614   22996788.051  
                
  21756855.477   116425320.974                    90553023.634    21756858.512  
  21756853.527  
  20778254.156   109190463.307    20778263.055    85083521.2894   20778263.633  
                
 21  8 14  2 44 30.0000000  0 13G 6R23G20G29R13R15G12R14G 2R24G24R17
                                G25
  22372520.500   117568388.379    22372529.398    91611767.2304   22372530.102  
                
  20356259.539   108892279.445                                                  
  20356257.820  
  24094319.047   126616500.420    24094326.195    98662235.9744                 
                
  22904912.859   120366131.873    22904919.711    93791820.7404   22904919.820  
                
  20920493.141   111714272.026                    86888899.399    20920496.219  
  20920491.715  
  22213692.711   118703234.112                    92324735.391    22213696.641  
  22213692.938  
  20129854.570   105783110.252    20129860.137    82428433.0624   20129860.441  
                
  19217466.406   102439913.318                    79675485.861    19217470.062  
  19217466.219  
  21281937.188   111837334.257    21281940.738    87145997.2374                 
                
  19170140.453   102511364.481                    79731064.654    19170144.484  
  19170139.625  
  23003304.109   120883186.007    23003313.148    94194729.4584   23003313.172  
                
  21750202.555   116389719.843                    90525333.863    21750205.641  
  21750200.641  
  20774722.484   109171904.251    20774731.383    85069059.6884   20774731.961  
                
 21  8 14  2 44 40.0000000  0 13G 6R23G20G29R13R15G12R14G 2R24G24R17
                                G25
  22377067.859   117592284.897    22377076.746    91630387.8974   22377077.445  
                
  20361511.766   108920375.269                                                  
  20361510.059  
  24088975.031   126588417.077    24088982.062    98640352.8784                 
                
  22899755.297   120339028.683    22899762.168    93770701.3784   22899762.254  
                
  20926504.008   111746369.592                    86913864.154    20926507.047  
  20926502.582  
  22206552.055   118665076.546                    92295057.285    22206555.984  
  22206552.270  
  20130209.695   105784976.437    20130215.285    82429887.2284   20130215.566  
                
  19215940.984   102431781.943                    79669161.449    19215944.637  
  19215940.785  
  21282967.531   111842748.731    21282971.094    87150216.3054                 
                
  19169523.805   102508066.982                    79728499.937    19169527.852  
  19169522.977  
  23009833.086   120917495.924    23009842.160    94221464.4524   23009842.172  
                
  21743557.062   116354158.532                    90497675.072    21743560.188  
  21743555.180  
  20771197.781   109153381.785    20771206.680    85054626.5924   20771207.254  
                
 21  8 14  2 44 50.0000000  0 13G 6R23G20G29R13R15G12R14G 2R24G24R17
                                G25
  22381624.414   117616229.648    22381633.309    91649046.1404   22381634.004  
                
  20366772.664   108948517.470                                                  
  20366770.941  
  24083634.023   126560349.270    24083640.902    98618481.8294                 
                
  22894602.383   120311949.880    22894609.270    93749601.0134   22894609.340  
                
  20932524.523   111778518.598                    86938868.913    20932527.562  
  20932523.094  
  22199415.297   118626939.901                    92265395.430    22199419.207  
  22199415.520  
  20130573.594   105786888.702    20130579.195    82431377.3004   20130579.477  
                
  19214429.359   102423724.059                    79662894.196    19214433.004  
  19214429.160  
  21284008.656   111848219.805    21284012.230    87154479.4784                 
                
  19168921.102   102504844.012                    79725993.172    19168925.148  
  19168920.266  
  23016365.961   120951826.183    23016375.023    94248215.2974   23016375.023  
                
  21736918.984   116318637.035                    90470047.251    21736922.195  
  21736917.125  
  20767680.047   109134895.954    20767688.957    85040222.0444   20767689.512  
                
 21  8 14  2 45  0.0000000  0 13G 6R23G20G29R13R15G12R14G 2R24G24R17
                                G25
  22386190.094   117640222.410    22386199.000    91667741.7904   22386199.676  
                
  20372042.195   108976705.916                                                  
  20372040.445  
  24078295.859   126532296.954    24078302.711    98596622.8904                 
                
  22889454.055   120284895.246    22889460.938    93728519.4684   22889461.023  
                
  20938554.688   111810719.198                    86963913.799    20938557.723  
  20938553.266  
  22192282.453   118588824.133                    92235749.821    22192286.363  
  22192282.660  
  20130946.219   105788846.881    20130951.832    82432903.1484   20130952.113  
                
  19212931.461   102415739.440                    79656683.939    19212935.117  
  19212931.258  
  21285060.516   111853747.372    21285064.102    87158786.6714                 
                
  19168332.273   102501695.261                    79723544.136    19168336.320  
  19168331.441  
  23022902.633   120986176.529    23022911.699    94274981.7814   23022911.703  
                
  21730288.375   116283155.348                    90442450.380    21730291.625  
  21730286.488  
  20764169.273   109116446.701    20764178.195    85025845.9994   20764178.734  
                
 21  8 14  2 45 10.0000000  0 13G 6R23G20G29R13R15G12R14G 2R24G24R17
                                G25
  22390764.938   117664263.356    22390773.844    91686474.9854   22390774.504  
                
  20377320.359   109004940.531                                                  
  20377318.590  
  24072960.641   126504260.507    24072967.531    98574776.3304                 
                
  22884310.367   120257865.028    22884317.230    93707456.9674   22884317.316  
                
  20944594.477   111842971.298                    86988998.766    20944597.527  
  20944593.062  
  22185153.617   118550729.681                    92206120.811    22185157.539  
  22185153.820  
  20131327.648   105790851.329    20131333.270    82434465.0514   20131333.555  
                
  19211447.406   102407828.568                    79650531.020    19211451.062  
  19211447.191  
  21286123.156   111859331.574    21286126.754    87163137.9944                 
                
  19167757.352   102498620.966                    79721153.026    19167761.402  
  19167756.527  
  23029443.148   121020547.192    23029452.223    94301764.0844   23029452.207  
                
  21723665.234   116247713.898                    90414884.802    21723668.566  
  21723663.340  
  20760665.516   109098034.381    20760674.449    85011498.7314   20760674.973  
                
 21  8 14  2 45 20.0000000  0 13G 6R23G20G29R13R15G12R14G 2R24G24R17
                                G25
  22395348.930   117688352.326    22395357.836    91705245.6014   22395358.496  
                
  20382607.141   109033221.239                                                  
  20382605.371  
  24067628.469   126476239.991    24067635.410    98552942.1534                 
                
  22879171.320   120230859.143    22879178.148    93686413.4204   22879178.242  
                
  20950643.906   111875274.877                    87014123.776    20950646.953  
  20950642.488  
  22178028.773   118512656.556                    92176508.370    22178032.668  
  22178028.996  
  20131717.875   105792901.952    20131723.504    82436062.9314   20131723.789  
                
  19209977.164   102399991.348                    79644435.411    19209980.840  
  19209976.945  
  21287196.562   111864972.368    21287200.180    87167533.4164                 
                
  19167196.383   102495621.158                    79718819.840    19167200.426  
  19167195.555  
  23035987.500   121054937.935    23035996.523    94328562.0594   23035996.500  
                
  21717049.578   116212312.565                    90387350.442    21717053.004  
  21717047.730  
  20757168.789   109079658.941    20757177.727    84997180.2064   20757178.242  
                
 21  8 14  2 45 30.0000000  0 13G 6R23G20G29R13R15G12R14G 2R24G24R17
                                G25
  22399942.008   117712489.113    22399950.910    91724053.4884   22399951.574  
                
  20387902.516   109061547.912                                                  
  20387900.766  
  24062299.211   126448235.386    24062306.316    98531120.3764                 
                
  22874036.914   120203877.634    22874043.691    93665388.8594   22874043.812  
                
  20956702.992   111907629.965                    87039288.827    20956706.023  
  20956701.555  
  22170907.930   118474604.773                    92146912.529    22170911.797  
  22170908.152  
  20132116.859   105794998.655    20132122.508    82437696.7204   20132122.797  
                
  19208520.750   102392227.872                    79638397.153    19208524.422  
  19208520.520  
  21288280.719   111870669.610    21288284.355    87171972.8214                 
                
  19166649.305   102492695.674                    79716544.458    19166653.336  
  19166648.469  
  23042535.648   121089348.590    23042544.562    94355375.5514   23042544.578  
                
  21710441.469   116176951.456                    90359847.357    21710444.941  
  21710439.617  
  20753679.078   109061320.390    20753688.020    84982890.4264   20753688.539  
                
 21  8 14  2 45 40.0000000  0 13G 6R23G20G29R13R15G12R14G 2R24G24R17
                                G25
  22404544.180   117736673.650    22404553.074    91742898.5804   22404553.738  
                
  20393206.461   109089920.370                                                  
  20393204.738  
  24056973.125   126420246.845    24056980.312    98509311.1794                 
                
  22868907.164   120176920.576    22868913.906    93644383.3534   22868914.031  
                
  20962771.609   111940035.970                    87064493.478    20962774.629  
  20962770.164  
  22163791.078   118436574.433                    92117333.366    22163794.961  
  22163791.297  
  20132524.641   105797141.546    20132530.305    82439366.4974   20132530.586  
                
  19207078.180   102384538.140                    79632416.238    19207081.863  
  19207077.945  
  21289375.609   111876423.248    21289379.270    87176456.1764                 
                
  19166116.102   102489844.362                    79714326.769    19166120.141  
  19166115.266  
  23049087.586   121123779.064    23049096.367    94382204.5044   23049096.426  
                
  21703840.906   116141630.579                    90332375.579    21703844.398  
  21703839.016  
  20750196.406   109043018.802    20750205.340    84968629.4414   20750205.875  
                
 21  8 14  2 45 50.0000000  0 13G 6R23G20G29R13R15G12R14G 2R24G24R17
                                G25
  22409155.414   117760905.805    22409164.297    91761780.7674   22409164.965  
                
  20398518.906   109118338.320                                                  
  20398517.188  
  24051650.172   126392274.397    24051657.348    98487514.4954                 
                
  22863782.070   120149987.955    22863788.805    93623396.8964   22863788.941  
                
  20968849.820   111972493.198                    87089737.976    20968852.812  
  20968848.336  
  22156678.250   118398565.630                    92087770.983    22156682.121  
  22156678.465  
  20132941.188   105799330.527    20132946.871    82441072.1924   20132947.141  
                
  19205649.445   102376922.183                    79626492.723    19205653.145  
  19205649.195  
  21290481.219   111882233.237    21290484.898    87180983.4384                 
                
  19165596.789   102487067.373                    79712166.888    19165600.828  
  19165595.949  
  23055643.266   121158229.201    23055651.910    94409048.7804   23055652.008  
                
  21697247.906   116106350.041                    90304935.154    21697251.371  
  21697245.996  
  20746720.758   109024754.142    20746729.684    84954397.2344   20746730.223  
                
 21  8 14  2 46  0.0000000  0 13G 6R23G20G29R13R15G12R14G 2R24G24R17
                                G25
  22413775.703   117785185.563    22413784.562    91780700.0574   22413785.246  
                
  20403839.883   109146801.901                                                  
  20403838.152  
  24046330.328   126364318.305    24046337.516    98465730.5504                 
                
  22858661.633   120123079.838    22858668.359    93602429.5294   22858668.496  
                
  20974937.570   112005001.430                    87115022.155    20974940.562  
  20974936.086  
  22149569.547   118360578.814                    92058225.680    22149573.410  
  22149569.781  
  20133366.555   105801565.824    20133372.250    82442813.9744   20133372.512  
                
  19204234.617   102369380.310                    79620626.804    19204238.309  
  19204234.371  
  21291597.555   111888099.575    21291601.254    87185554.6124                 
                
  19165091.367   102484364.659                    79710064.779    19165095.402  
  19165090.520  
  23062202.672   121192699.033    23062211.254    94435908.3814   23062211.375  
                
  21690662.508   116071110.002                    90277526.219    21690665.895  
  21690660.629  
  20743252.180   109006526.632    20743261.113    84940193.9754   20743261.645  
                
 21  8 14  2 46 10.0000000  0 13G 6R23G20G29R13R15G12R14G 2R24G24R17
                                G25
  22418405.031   117809512.847    22418413.879    91799656.3924   22418414.566  
                
  20409169.320   109175310.805                                                  
  20409167.598  
  24041013.617   126336378.597    24041020.793    98443959.3424                 
                
  22853545.852   120096196.239    22853552.551    93581481.2794   22853552.688  
                
  20981034.906   112037560.839                    87140346.126    20981037.891  
  20981033.438  
  22142464.914   118322613.784                    92028697.330    22142468.785  
  22142465.129  
  20133800.703   105803847.317    20133806.418    82444591.7624   20133806.672  
                
  19202833.688   102361912.550                    79614818.544    19202837.375  
  19202833.453  
  21292724.602   111894022.248    21292728.316    87190169.6814                 
                
  19164599.797   102481736.018                    79708020.269    19164603.828  
  19164598.949  
  23068765.805   121227188.453    23068774.355    94462783.2414   23068774.496  
                
  21684084.688   116035910.519                    90250148.822    21684087.977  
  21684082.824  
  20739790.672   108988336.286    20739799.602    84926019.6724   20739800.133  
                
 21  8 14  2 46 20.0000000  0 13G 6R23G20G29R13R15G12R14G 2R24G24R17
                                G25
  22423043.414   117833887.616    22423052.246    91818649.7074   22423052.918  
                
  20414507.250   109203865.079                                                  
  20414505.516  
  24035700.078   126308455.361    24035707.176    98422200.9814                 
                
  22848434.742   120069337.183    22848441.402    93560552.1354   22848441.559  
                
  20987141.820   112070171.319                    87165709.818    20987144.785  
  20987140.328  
  22135364.391   118284670.824                    91999186.136    22135368.254  
  22135364.570  
  20134243.680   105806175.161    20134249.410    82446405.6584   20134249.652  
                
  19201446.672   102354518.956                    79609067.967    19201450.375  
  19201446.445  
  21293862.383   111900001.284    21293866.117    87194828.6684                 
                
  19164122.141   102479181.801                    79706033.653    19164126.168  
  19164121.277  
  23075332.641   121261697.375    23075341.195    94489673.2984   23075341.344  
                
  21677514.422   116000751.549                    90222802.940    21677517.633  
  21677512.578  
  20736336.258   108970183.237    20736345.188    84911874.4404   20736345.727  
                
 21  8 14  2 46 30.0000000  0 13G 6R23G20G29R13R15G12R14G 2R24G24R17
                                G25
  22427690.781   117858309.623    22427699.605    91837679.8364   22427700.273  
                
  20419853.609   109232464.443                                                  
  20419851.879  
  24030389.688   126280548.663    24030396.676    98400455.5224                 
                
  22843328.289   120042502.605    22843334.918    93539642.0694   22843335.102  
                
  20993258.227   112102832.408                    87191112.878    20993261.145  
  20993256.738  
  22128268.031   118246750.034                    91969692.176    22128271.887  
  22128268.215  
  20134695.469   105808549.313    20134701.215    82448255.6404   20134701.457  
                
  19200073.547   102347199.404                    79603374.979    19200077.242  
  19200073.340  
  21295010.852   111906036.483    21295014.598    87199531.4174                 
                
  19163658.312   102476701.498                    79704104.535    19163662.340  
  19163657.438  
  23081903.125   121296225.581    23081911.723    94516578.3914   23081911.883  
                
  21670951.750   115965633.278                    90195488.720    21670954.891  
  21670949.902  
  20732888.930   108952067.402    20732897.855    84897758.1974   20732898.406  
                
 21  8 14  2 46 40.0000000  0 13G 6R23G20G29R13R15G12R14G 2R24G24R17
                                G25
  22432347.148   117882778.970    22432355.969    91856746.8594   22432356.633  
                
  20425208.383   109261108.831                                                  
  20425206.664  
  24025082.477   126252658.815    24025089.328    98378723.1604                 
                
  22838226.516   120015692.642    22838233.117    93518751.1834   22838233.305  
                
  20999384.180   112135544.422                    87216555.559    20999387.035  
  20999382.668  
  22121175.859   118208851.631                    91940215.632    22121179.703  
  22121176.066  
  20135156.086   105810969.891    20135161.848    82450141.7994   20135162.078  
                
  19198714.383   102339954.235                    79597739.847    19198718.086  
  19198714.172  
  21296170.039   111912128.030    21296173.797    87204278.0744                 
                
  19163208.344   102474295.311                    79702233.053    19163212.375  
  19163207.453  
  23088477.281   121330773.182    23088485.965    94543498.5854   23088486.145  
                
  21664396.695   115930555.879                    90168206.297    21664399.797  
  21664394.832  
  20729448.727   108933989.024    20729457.656    84883671.1504   20729458.203  
                
 21  8 14  2 46 50.0000000  0 13G 6R23G20G29R13R15G12R14G 2R24G24R17
                                G25
  22437012.477   117907295.441    22437021.309    91875850.5994   22437021.953  
                
  20430571.570   109289798.176                                                  
  20430569.863  
  24019778.406   126224785.883    24019785.219    98357004.0064                 
                
  22833129.414   119988907.247    22833136.016    93497879.4594   22833136.227  
                
  21005519.617   112168307.236                    87242037.748    21005522.441  
  21005518.094  
  22114087.875   118170975.566                    91910756.471    22114091.727  
  22114088.098  
  20135625.531   105813436.782    20135631.305    82452064.0524   20135631.535  
                
  19197369.164   102332783.440                    79592162.551    19197372.867  
  19197368.965  
  21297339.914   111918275.692    21297343.688    87209068.4574                 
                
  19162772.258   102471963.357                    79700419.314    19162776.289  
  19162771.359  
  23095055.078   121365339.967    23095063.871    94570433.7134   23095064.043  
                
  21657849.234   115895519.333                    90140955.648    21657852.375  
  21657847.375  
  20726015.656   108915948.063    20726024.578    84869613.2514   20726025.129  
                
 21  8 14  2 47  0.0000000  0 13G 6R23G20G29R13R15G12R14G 2R24G24R17
                                G25
  22441686.758   117931858.884    22441695.582    91894990.9364   22441696.223  
                
  20435943.102   109318532.216                                                  
  20435941.406  
  24014477.648   126196929.823    24014484.316    98335297.9574                 
                
  22828036.977   119962146.396    22828043.602    93477026.8514   22828043.824  
                
  21011664.516   112201120.628                    87267559.262    21011667.332  
  21011662.945  
  22107004.102   118133121.983                    91881314.784    22107007.930  
  22107004.332  
  20136103.773   105815949.952    20136109.555    82454022.3564   20136109.781  
                
  19196037.891   102325686.943                    79586643.047    19196041.594  
  19196037.699  
  21298520.438   111924479.390    21298524.219    87213902.5004                 
                
  19162349.992   102469705.310                    79698663.040    19162354.012  
  19162349.082  
  23101636.484   121399925.709    23101645.391    94597383.6184   23101645.574  
                
  21651309.391   115860523.524                    90113736.680    21651312.566  
  21651307.551  
  20722589.688   108897944.489    20722598.609    84855584.4884   20722599.156  
                
 21  8 14  2 47 10.0000000  0 13G 6R23G20G29R13R15G12R14G 2R24G24R17
                                G25
  22446369.945   117956469.194    22446378.762    91914167.7944   22446379.398  
                
  20441322.961   109347310.798                                                  
  20441321.266  
  24009180.039   126169090.685    24009186.621    98313605.1104                 
                
  22822949.211   119935410.056    22822955.883    93456193.3434   22822956.102  
                
  21017818.844   112233984.361                    87293119.911    21017821.641  
  21017817.227  
  22099924.531   118095290.918                    91851890.612    22099928.367  
  22099924.758  
  20136590.820   105818509.426    20136596.605    82456016.7484   20136596.828  
                
  19194720.578   102318664.948                    79581181.495    19194724.281  
  19194720.395  
  21299711.633   111930739.141    21299715.426    87218780.2244                 
                
  19161941.508   102467521.016                    79696964.151    19161945.527  
  19161940.594  
  23108221.477   121434530.330    23108230.492    94624348.2454   23108230.680  
                
  21644777.172   115825568.647                    90086549.556    21644780.395  
  21644775.344  
  20719170.852   108879978.386    20719179.766    84841584.9254   20719180.309  
                
 21  8 14  2 47 20.0000000  0 13G 6R23G20G29R13R15G12R14G 2R24G24R17
                                G25
  22451062.070   117981126.435    22451070.902    91933381.2144   22451071.512  
                
  20446711.141   109376133.845                                                  
  20446709.438  
  24003885.688   126141268.845    24003892.246    98291925.7684                 
                
  22817866.117   119908698.250    22817872.801    93435378.9594   22817873.012  
                
  21023982.625   112266898.447                    87318719.762    21023985.398  
  21023981.004  
  22092849.227   118057482.723                    91822484.245    22092853.082  
  22092849.445  
  20137086.727   105821115.385    20137092.512    82458047.3584   20137092.738  
                
  19193417.266   102311717.520                    79575777.930    19193420.965  
  19193417.070  
  21300913.500   111937054.957    21300917.316    87223701.6404                 
                
  19161546.891   102465410.828                    79695322.894    19161550.914  
  19161545.961  
  23114810.109   121469153.903    23114819.211    94651327.6374   23114819.398  
                
  21638252.625   115790654.863                    90059394.385    21638255.926  
  21638250.770  
  20715759.188   108862049.944    20715768.098    84827614.7074   20715768.633  
                
 21  8 14  2 47 30.0000000  0 13G 6R23G20G29R13R15G12R14G 2R24G24R17
                                G25
  22455763.047   118005830.281    22455771.902    91952630.9614   22455772.492  
                
  20452107.562   109405001.129                                                  
  20452105.844  
  23998594.656   126113464.175    23998601.152    98270259.8074                 
                
  22812787.711   119882011.076    22812794.375    93414583.7554   22812794.609  
                
  21030155.828   112299862.986                    87344358.853    21030158.590  
  21030154.180  
  22085778.188   118019697.249                    91793095.552    22085782.066  
  22085778.430  
  20137591.422   105823767.601    20137597.203    82460114.0164   20137597.434  
                
  19192127.945   102304844.717                    79570432.416    19192131.656  
  19192127.746  
  21302125.984   111943426.628    21302129.820    87228666.5764                 
                
  19161166.039   102463374.265                    79693738.902    19161170.051  
  19161165.102  
  23121402.305   121503796.095    23121411.465    94678321.5314   23121411.652  
                
  21631735.758   115755782.015                    90032271.060    21631739.113  
  21631733.875  
  20712354.656   108844159.013    20712363.562    84813673.7184   20712364.102  
                
 21  8 14  2 47 40.0000000  0 13G 6R23G20G29R13R15G12R14G 2R24G24R17
                                G25
  22460473.102   118030581.752    22460481.984    91971917.8054   22460482.551  
                
  20457512.445   109433913.569                                                  
  20457510.738  
  23993307.094   126085677.863    23993313.566    98248608.1324                 
                
  22807714.180   119855349.445    22807720.824    93393808.4494   22807721.062  
                
  21036338.656   112332878.878                    87370037.859    21036341.352  
  21036336.949  
  22078711.641   117981935.699                    91763725.447    22078715.500  
  22078711.895  
  20138105.148   105826467.224    20138110.930    82462217.6144   20138111.160  
                
  19190852.812   102298047.542                    79565145.721    19190856.512  
  19190852.609  
  21303349.289   111949855.121    21303353.152    87233675.7864                 
                
  19160799.203   102461412.604                    79692213.157    19160803.199  
  19160798.270  
  23127998.219   121538457.921    23128007.461    94705330.7274   23128007.629  
                
  21625226.789   115720951.373                    90005180.561    21625230.199  
  21625224.918  
  20708957.500   108826306.757    20708966.410    84799762.8674   20708966.941  
                
 21  8 14  2 47 50.0000000  0 13G 6R23G20G29R13R15G12R14G 2R24G24R17
                                G25
  22465191.703   118055378.189    22465200.594    91991239.6964   22465201.156  
                
  20462925.281   109462868.522                                                  
  20462923.602  
  23988022.461   126057907.435    23988028.996    98226968.8264                 
                
  22802645.047   119828710.926    22802651.695    93373051.1574   22802651.941  
                
  21042530.531   112365943.191                    87395754.524    21042533.203  
  21042528.836  
  22071649.148   117944195.842                    91734372.216    22071653.004  
  22071649.379  
  20138627.414   105829211.722    20138633.191    82464356.1764   20138633.422  
                
  19189591.422   102291323.585                    79559915.976    19189595.113  
  19189591.211  
  21304582.945   111956337.967    21304586.828    87238727.3534                 
                
  19160445.828   102459522.939                    79690743.415    19160449.816  
  19160444.895  
  23134597.414   121573136.699    23134606.668    94732353.1334   23134606.820  
                
  21618725.250   115686160.352                    89978120.897    21618728.688  
  21618723.352  
  20705567.227   108808490.701    20705576.137    84785880.2204   20705576.668  
                
 21  8 14  2 48  0.0000000  0 13G 6R23G20G29R13R15G12R14G 2R24G24R17
                                G25
  22469919.273   118080221.755    22469928.160    92010598.3174   22469928.715  
                
  20468346.461   109491868.099                                                  
  20468344.820  
  23982741.359   126030155.252    23982747.895    98205343.7754                 
                
  22797580.742   119802097.804    22797587.402    93352313.6544   22797587.637  
                
  21048731.945   112399058.274                    87421510.711    21048734.559  
  21048730.270  
  22064591.133   117906479.824                    91705037.548    22064595.000  
  22064591.332  
  20139158.641   105832003.312    20139164.410    82466531.4354   20139164.645  
                
  19188344.203   102284675.165                    79554744.986    19188347.898  
  19188343.996  
  21305827.336   111962877.282    21305831.238    87243822.9234                 
                
  19160106.430   102457708.056                    79689331.837    19160110.410  
  19160105.500  
  23141200.219   121607834.606    23141209.484    94759390.4524   23141209.609  
                
  21612231.586   115651411.299                    89951093.865    21612235.020  
  21612229.680  
  20702184.273   108790713.145    20702193.195    84772027.5744   20702193.719  
                
 21  8 14  2 48 10.0000000  0 13G 6R23G20G29R13R15G12R14G 2R24G24R17
                                G25
  22474655.680   118105111.732    22474664.570    92029993.1024   22474665.113  
                
  20473775.836   109520911.514                                                  
  20473774.230  
  23977463.711   126002420.855    23977470.207    98183732.5324                 
                
  22792521.148   119775509.487    22792527.824    93331595.4804   22792528.043  
                
  21054942.695   112432223.332                    87447305.738    21054945.328  
  21054941.000  
  22057537.461   117868787.144                    91675721.019    22057541.328  
  22057537.672  
  20139698.727   105834841.450    20139704.492    82468742.9664   20139704.734  
                
  19187111.039   102278101.701                    79549632.289    19187114.730  
  19187110.840  
  21307082.367   111969472.520    21307086.293    87248962.0654                 
                
  19159780.773   102455966.608                    79687977.378    19159784.754  
  19159779.855  
  23147806.555   121642550.929    23147815.781    94786442.1234   23147815.887  
                
  21605745.695   115616703.750                    89924099.091    21605749.125  
  21605743.836  
  20698808.531   108772973.513    20698817.453    84758204.4864   20698817.977  
                
 21  8 14  2 48 20.0000000  0 13G 6R23G20G29R13R15G12R14G 2R24G24R17
                                G25
  22479400.914   118130048.111    22479409.805    92049424.0354   22479410.348  
                
  20479213.398   109549998.698                                                  
  20479211.809  
  23972189.375   125974704.329    23972195.922    98162135.2504                 
                
  22787466.305   119748946.059    22787473.000    93310896.7034   22787473.207  
                
  21061162.812   112465438.418                    87473139.679    21061165.441  
  21061161.094  
  22050488.250   117831118.238                    91646422.969    22050492.102  
  22050488.484  
  20140247.688   105837726.206    20140253.453    82470990.8224   20140253.703  
                
  19185891.977   102271603.370                    79544578.020    19185895.660  
  19185891.785  
  21308348.047   111976123.671    21308352.004    87254144.7774                 
                
  19159468.930   102454299.017                    79686680.352    19159472.918  
  19159468.031  
  23154416.352   121677285.633    23154425.512    94813508.1194   23154425.613  
                
  21599267.609   115582037.840                    89897136.700    21599270.988  
  21599265.770  
  20695440.039   108755271.949    20695448.965    84744411.0544   20695449.504  
                
 21  8 14  2 48 30.0000000  0 13G 6R23G20G29R13R15G12R14G 2R24G24R17
                                G25
  22484154.945   118155030.776    22484163.844    92068891.0304   22484164.387  
                
  20484659.102   109579129.489                                                  
  20484657.520  
  23966918.445   125947005.760    23966925.082    98140551.9474                 
                
  22782416.180   119722407.563    22782422.922    93290217.3584   22782423.105  
                
  21067392.289   112498703.510                    87499012.527    21067394.938  
  21067390.570  
  22043443.453   117793472.986                    91617143.332    22043447.316  
  22043443.703  
  20140805.500   105840657.541    20140811.262    82473274.9704   20140811.508  
                
  19184687.008   102265180.217                    79539582.229    19184690.684  
  19184686.820  
  21309624.352   111982830.675    21309628.344    87259371.0174                 
                
  19159170.898   102452705.303                    79685440.803    19159174.887  
  19159170.012  
  23161029.648   121712038.589    23161038.684    94840588.3484   23161038.801  
                
  21592797.297   115547413.642                    89870206.774    21592800.617  
  21592795.469  
  20692078.805   108737608.530    20692087.734    84730647.3484   20692088.285  
                
 21  8 14  2 48 40.0000000  0 13G 6R23G20G29R13R15G12R14G 2R24G24R17
                                G25
  22488917.766   118180059.570    22488926.680    92088393.9774   22488927.203  
                
  20490112.938   109608303.770                                                  
  20490111.336  
  23961650.969   125919325.276    23961657.688    98118982.7374                 
                
  22777370.781   119695893.872    22777377.551    93269557.3494   22777377.711  
                
  21073631.094   112532018.330                    87524924.052    21073633.723  
  21073629.363  
  22036403.117   117755851.618                    91587882.266    22036406.988  
  22036403.375  
  20141372.188   105843635.455    20141377.953    82475595.4174   20141378.195  
                
  19183496.172   102258832.316                    79534644.966    19183499.840  
  19183496.000  
  21310911.273   111989593.445    21310915.301    87264640.7024                 
                
  19158886.648   102451185.258                    79684258.546    19158890.637  
  19158885.777  
  23167646.398   121746809.659    23167655.340    94867682.6894   23167655.473  
                
  21586334.758   115512831.054                    89843309.188    21586338.000  
  21586332.930  
  20688724.820   108719983.201    20688733.758    84716913.3224   20688734.305  
                
 21  8 14  2 48 50.0000000  0 13G 6R23G20G29R13R15G12R14G 2R24G24R17
                                G25
  22493689.312   118205134.253    22493698.211    92107932.6844   22493698.734  
                
  20495574.852   109637521.285                                                  
  20495573.242  
  23956387.016   125891662.911    23956393.789    98097427.6874                 
                
  22772330.102   119669404.974    22772336.863    93248916.6474   22772337.027  
                
  21079879.180   112565382.749                    87550874.126    21079881.824  
  21079877.441  
  22029367.242   117718254.044                    91558639.709    22029371.121  
  22029367.496  
  20141947.719   105846659.887    20141953.488    82477952.1104   20141953.730  
                
  19182319.406   102252559.501                    79529766.099    19182323.059  
  19182319.230  
  21312208.758   111996411.757    21312212.836    87269953.6744                 
                
  19158616.109   102449738.577                    79683133.347    19158620.090  
  19158615.234  
  23174266.438   121781598.602    23174275.398    94894790.9454   23174275.555  
                
  21579879.945   115478290.028                    89816443.940    21579883.133  
  21579878.117  
  20685378.078   108702395.961    20685387.027    84703208.9794   20685387.562  
                
 21  8 14  2 49  0.0000000  0 13G 6R23G20G29R13R15G12R14G 2R24G24R17
                                G25
  22498469.594   118230254.804    22498478.457    92127507.1394   22498479.016  
                
  20501044.844   109666782.028                                                  
  20501043.227  
  23951126.625   125864018.708    23951133.355    98075886.7594                 
                
  22767294.148   119642940.872    22767300.898    93228295.2744   22767301.066  
                
  21086136.531   112598796.764                    87576862.792    21086139.188  
  21086134.750  
  22022335.844   117680680.350                    91529415.726    22022339.723  
  22022336.066  
  20142532.117   105849730.853    20142537.887    82480345.0724   20142538.129  
                
  19181156.750   102246361.872                    79524945.722    19181160.406  
  19181156.570  
  21313516.828   112003285.672    21313520.957    87275309.9754                 
                
  19158359.305   102448365.342                    79682065.275    19158363.281  
  19158358.430  
  23180889.898   121816405.386    23180898.883    94921913.0914   23180899.062  
                
  21573432.945   115443790.872                    89789611.260    21573436.105  
  21573431.117  
  20682038.602   108684846.855    20682047.559    84689534.3484   20682048.098  
                
 21  8 14  2 49 10.0000000  0 13G 6R23G20G29R13R15G12R14G 2R24G24R17
                                G25
  22503258.594   118255421.177    22503267.430    92147117.3004   22503268.016  
                
  20506522.852   109696085.636                                                  
  20506521.230  
  23945869.688   125836392.963    23945876.430    98054360.1904                 
                
  22762262.938   119616501.714    22762269.652    93207693.3314   22762269.824  
                
  21092403.195   112632260.379                    87602890.046    21092405.895  
  21092401.430  
  22015308.977   117643130.843                    91500210.553    22015312.867  
  22015309.168  
  20143125.391   105852848.477    20143131.156    82482774.3864   20143131.398  
                
  19180008.234   102240239.585                    79520183.940    19180011.898  
  19180008.051  
  21314835.469   112010215.151    21314839.645    87280709.5654                 
                
  19158116.258   102447065.643                    79681054.404    19158120.238  
  19158115.379  
  23187516.773   121851229.948    23187525.785    94949049.0984   23187525.984  
                
  21566993.742   115409333.492                    89762811.068    21566996.891  
  21566991.910  
  20678706.414   108667336.052    20678715.379    84675889.5654   20678715.902  
                
 21  8 14  2 49 20.0000000  0 13G 6R23G20G29R13R15G12R14G 2R24G24R17
                                G25
  22508056.258   118280633.081    22508065.062    92166762.9234   22508065.684  
                
  20512008.867   109725432.087                                                  
  20512007.238  
  23940616.164   125808785.537    23940622.961    98032847.9144                 
                
  22757236.430   119590087.188    22757243.094    93187110.5774   22757243.277  
                
  21098679.047   112665773.041                    87628955.433    21098681.789  
  21098677.293  
  22008286.594   117605605.436                    91471024.136    22008290.520  
  22008286.777  
  20143727.492   105856012.551    20143733.254    82485239.8914   20143733.508  
                
  19178873.812   102234192.501                    79515480.643    19178877.469  
  19178873.613  
  21316164.641   112017199.940    21316168.867    87286152.2564                 
                
  19157886.867   102445838.998                    79680100.334    19157890.840  
  19157885.988  
  23194146.984   121886071.983    23194156.070    94976198.7254   23194156.254  
                
  21560562.336   115374917.860                    89736043.346    21560565.469  
  21560560.520  
  20675381.477   108649863.379    20675390.449    84662274.4924   20675390.977  
                
 21  8 14  2 49 30.0000000  0 13G 6R23G20G29R13R15G12R14G 2R24G24R17
                                G25
  22512862.602   118305890.614    22512871.387    92186444.1054   22512872.020  
                
  20517502.859   109754821.230                                                  
  20517501.234  
  23935366.227   125781196.729    23935373.039    98011350.1404                 
                
  22752214.656   119563697.593    22752221.305    93166547.2504   22752221.488  
                
  21104964.195   112699335.344                    87655059.446    21104966.914  
  21104962.426  
  22001268.805   117568104.513                    91441856.731    22001272.723  
  22001269.004  
  20144338.484   105859223.299    20144344.242    82487741.7714   20144344.504  
                
  19177753.562   102228220.994                    79510836.146    19177757.230  
  19177753.363  
  21317504.352   112024240.190    21317508.633    87291638.1634                 
                
  19157671.195   102444685.688                    79679203.314    19157675.164  
  19157670.328  
  23200780.547   121920931.599    23200789.715    95003362.0384   23200789.891  
                
  21554138.789   115340544.247                    89709308.318    21554141.898  
  21554136.969  
  20672063.844   108632429.094    20672072.820    84648689.3374   20672073.344  
                
 21  8 14  2 49 40.0000000  0 13G 6R23G20G29R13R15G12R14G 2R24G24R17
                                G25
  22517677.641   118331193.812    22517686.418    92206160.8884   22517687.059  
                
  20523004.867   109784253.163                                                  
  20523003.234  
  23930119.883   125753626.834    23930126.742    97989867.1284                 
                
  22747197.641   119537333.063    22747204.312    93146003.4644   22747204.496  
                
  21111258.508   112732946.716                    87681201.605    21111261.242  
  21111256.727  
  21994255.664   117530628.288                    91412708.552    21994259.559  
  21994255.840  
  20144958.406   105862480.969    20144964.152    82490280.2064   20144964.422  
                
  19176647.539   102222325.199                    79506250.522    19176651.223  
  19176647.324  
  21318854.664   112031336.055    21318858.988    87297167.4074                 
                
  19157469.312   102443606.114                    79678363.645    19157473.273  
  19157468.441  
  23207417.484   121955808.865    23207426.727    95030539.1014   23207426.883  
                
  21547723.133   115306212.859                    89682606.117    21547726.250  
  21547721.305  
  20668753.562   108615033.437    20668762.547    84635134.2754   20668763.066  
                
 21  8 14  2 49 50.0000000  0 13G 6R23G20G29R13R15G12R14G 2R24G24R17
                                G25
  22522501.297   118356542.285    22522510.078    92225912.9344   22522510.723  
                
  20528514.789   109813727.459                                                  
  20528513.168  
  23924877.039   125726075.587    23924883.898    97968398.6054                 
                
  22742185.359   119510993.319    22742192.043    93125478.9814   22742192.199  
                
  21117562.078   112766607.401                    87707382.124    21117564.836  
  21117560.270  
  21987247.102   117493176.567                    91383579.429    21987250.969  
  21987247.238  
  20145587.172   105865785.133    20145592.918    82492854.8774   20145593.195  
                
  19175555.664   102216504.907                    79501723.623    19175559.363  
  19175555.441  
  21320215.469   112038487.145    21320219.828    87302739.6804                 
                
  19157281.094   102442599.640                    79677580.821    19157285.043  
  19157280.234  
  23214057.750   121990703.304    23214066.988    95057729.5644   23214067.141  
                
  21541315.344   115271923.438                    89655936.560    21541318.465  
  21541313.539  
  20665450.578   108597676.122    20665459.566    84621609.0924   20665460.082  
                
 21  8 14  2 50  0.0000000  0 13G 6R23G20G29R13R15G12R14G 2R24G24R17
                                G25
  22527333.609   118381936.209    22527342.395    92245700.4064   22527343.027  
                
  20534032.656   109843244.229                                                  
  20534031.035  
  23919637.742   125698543.385    23919644.637    97946944.9324                 
                
  22737177.852   119484678.696    22737184.551    93104974.0694   22737184.711  
                
  21123874.844   112800317.250                    87733600.914    21123877.625  
  21123873.047  
  21980243.172   117455749.717                    91354469.676    21980247.039  
  21980243.262  
  20146224.859   105869136.166    20146230.613    82495466.0664   20146230.891  
                
  19174478.039   102210760.576                    79497255.813    19174481.750  
  19174477.809  
  21321586.836   112045693.681    21321591.223    87308355.1584                 
                
  19157106.578   102441666.404                    79676854.973    19157110.520  
  19157105.727  
  23220701.312   122025615.177    23220710.547    95084933.6094   23220710.684  
                
  21534915.484   115237676.363                    89629299.935    21534918.594  
  21534913.699  
  20662154.961   108580357.507    20662163.949    84608114.0624   20662164.469  
                
 21  8 14  2 50 10.0000000  0 13G 6R23G20G29R13R15G12R14G 2R24G24R17
                                G25
  22532174.539   118407375.401    22532183.328    92265523.1494   22532183.965  
                
  20539558.414   109872803.262                                                  
  20539556.781  
  23914401.945   125671030.237    23914408.957    97925506.1244                 
                
  22732175.086   119458389.047    22732181.812    93084488.6364   22732181.949  
                
  21130196.773   112834075.862                    87759857.603    21130199.543  
  21130194.965  
  21973243.898   117418347.757                    91325379.273    21973247.754  
  21973243.984  
  20146871.422   105872533.883    20146877.184    82498113.6354   20146877.453  
                
  19173414.594   102205091.807                    79492846.770    19173418.301  
  19173414.367  
  21322968.727   112052955.552    21322973.137    87314013.7554                 
                
  19156945.773   102440806.484                    79676186.148    19156949.711  
  19156944.922  
  23227348.180   122060544.208    23227357.375    95112151.0284   23227357.500  
                
  21528523.523   115203471.509                    89602696.161    21528526.633  
  21528521.727  
  20658866.703   108563077.560    20658875.684    84594649.1744   20658876.207  
                
 21  8 14  2 50 20.0000000  0 13G 6R23G20G29R13R15G12R14G 2R24G24R17
                                G25
  22537024.062   118432859.765    22537032.852    92285381.0864   22537033.500  
                
  20545092.062   109902404.482                                                  
  20545090.414  
  23909169.984   125643536.285    23909176.930    97904082.2794                 
                
  22727177.047   119432124.256    22727183.816    93064022.5694   22727183.949  
                
  21136527.867   112867883.621                    87786152.504    21136530.664  
  21136526.039  
  21966249.320   117380970.880                    91296308.346    21966253.125  
  21966249.422  
  20147526.875   105875978.270    20147532.645    82500797.5704   20147532.910  
                
  19172365.422   102199499.103                    79488496.879    19172369.113  
  19172365.195  
  21324361.133   112060272.700    21324365.562    87319715.4274                 
                
  19156798.664   102440019.859                    79675574.328    19156802.613  
  19156797.820  
  23233998.297   122095490.349    23234007.469    95139381.7794   23234007.559  
                
  21522139.453   115169309.032                    89576125.353    21522142.602  
  21522137.660  
  20655585.805   108545836.336    20655594.781    84581214.4484   20655595.316  
                
 21  8 14  2 50 30.0000000  0 13G 6R23G20G29R13R15G12R14G 2R24G24R17
                                G25
  22541882.133   118458389.012    22541890.922    92305274.0084   22541891.586  
                
  20550633.516   109932047.479                                                  
  20550631.863  
  23903941.727   125616061.445    23903948.551    97882673.3154                 
                
  22722183.750   119405884.407    22722190.562    93043575.9364   22722190.668  
                
  21142868.078   112901739.910                    87812485.158    21142870.902  
  21142866.230  
  21959259.430   117343618.924                    91267256.815    21959263.203  
  21959259.535  
  20148191.211   105879469.344    20148196.996    82503517.8834   20148197.258  
                
  19171330.445   102193982.049                    79484205.838    19171334.137  
  19171330.219  
  21325764.023   112067644.902    21325768.473    87325459.9924                 
                
  19156665.180   102439306.039                    79675019.132    19156669.129  
  19156664.324  
  23240651.594   122130453.315    23240660.758    95166625.6344   23240660.844  
                
  21515763.297   115135188.861                    89549587.432    21515766.480  
  21515761.508  
  20652312.258   108528633.705    20652321.230    84567809.8014   20652321.766  
                
 21  8 14  2 50 40.0000000  0 13G 6R23G20G29R13R15G12R14G 2R24G24R17
                                G25
  22546748.742   118483963.125    22546757.562    92325201.8824   22546758.219  
                
  20556182.766   109961732.204                                                  
  20556181.125  
  23898717.219   125588605.839    23898723.867    97861279.3484                 
                
  22717195.227   119379669.561    22717202.074    93023148.7924   22717202.172  
                
  21149217.414   112935644.940                    87838855.717    21149220.262  
  21149215.574  
  21952274.234   117306292.204                    91238224.931    21952278.020  
  21952274.332  
  20148864.438   105883007.116    20148870.238    82506274.5824   20148870.484  
                
  19170309.711   102188540.960                    79479973.870    19170313.395  
  19170309.496  
  21327177.391   112075072.175    21327181.871    87331247.4814                 
                
  19156545.344   102438665.250                    79674520.738    19156549.293  
  19156544.473  
  23247308.039   122165433.076    23247317.207    95193882.5834   23247317.297  
                
  21509395.070   115101111.136                    89523082.533    21509398.270  
  21509393.262  
  20649046.078   108511469.805    20649055.051    84554435.3344   20649055.598  
                
 21  8 14  2 50 50.0000000  0 13G 6R23G20G29R13R15G12R14G 2R24G24R17
                                G25
  22551623.898   118509582.166    22551632.785    92345164.7624   22551633.402  
                
  20561739.844   109991458.779                                                  
  20561738.207  
  23893496.359   125561169.791    23893502.883    97839900.5924                 
                
  22712211.484   119353479.783    22712218.352    93002741.1774   22712218.441  
                
  21155575.867   112969598.734                    87865264.223    21155578.746  
  21155574.020  
  21945293.820   117268991.023                    91209212.867    21945297.582  
  21945293.941  
  20149546.578   105886591.784    20149552.398    82509067.8284   20149552.625  
                
  19169303.250   102183175.941                    79475801.073    19169306.922  
  19169303.047  
  21328601.266   112082554.685    21328605.770    87337078.0034                 
                
  19156439.180   102438097.554                    79674079.194    19156443.133  
  19156438.316  
  23253967.609   122200429.686    23253976.836    95221152.6474   23253976.930  
                
  21503034.805   115067076.060                    89496610.809    21503038.020  
  21503032.996  
  20645787.312   108494344.880    20645796.285    84541091.2324   20645796.836  
                
 21  8 14  2 51  0.0000000  0 13G 6R23G20G29R13R15G12R14G 2R24G24R17
                                G25
  22556507.562   118535245.911    22556516.516    92365162.4714   22556517.086  
                
  20567304.672   110021226.819                                                  
  20567303.055  
  23888279.180   125533753.240    23888285.551    97818537.0284                 
                
  22707232.508   119327315.081    22707239.363    92982353.0864   22707239.469  
                
  21161943.398   113003600.972                    87891710.406    21161946.281  
  21161941.570  
  21938318.195   117231715.425                    91180220.719    21938321.938  
  21938318.355  
  20150237.617   105890223.203    20150243.457    82511897.5024   20150243.664  
                
  19168311.047   102177886.925                    79471687.389    19168314.699  
  19168310.848  
  21330035.617   112090092.238    21330040.145    87342951.4154                 
                
  19156346.664   102437602.801                    79673694.379    19156350.629  
  19156345.820  
  23260630.320   122235442.933    23260639.617    95248435.6804   23260639.703  
                
  21496682.484   115033083.601                    89470172.235    21496685.742  
  21496680.688  
  20642535.945   108477258.824    20642544.922    84527777.4204   20642545.484  
                
 21  8 14  2 51 10.0000000  0 13G 6R23G20G29R13R15G12R14G 2R24G24R17
                                G25
  22561399.742   118560954.429    22561408.727    92385195.0764   22561409.277  
                
  20572877.273   110051036.412                                                  
  20572875.664  
  23883065.758   125506356.492    23883071.977    97797188.9134                 
                
  22702258.328   119301175.625    22702265.148    92961984.6824   22702265.289  
                
  21168320.047   113037651.848                    87918194.415    21168322.934  
  21168318.227  
  21931347.383   117194465.498                    91151248.580    21931351.117  
  21931347.543  
  20150937.586   105893901.553    20150943.453    82514763.7414   20150943.645  
                
  19167333.188   102172674.324                    79467633.136    19167336.836  
  19167332.988  
  21331480.477   112097684.986    21331485.020    87348867.8394                 
                
  19156267.766   102437180.893                    79673366.229    19156271.750  
  19156266.926  
  23267296.188   122270472.860    23267305.543    95275731.7144   23267305.633  
                
  21490338.164   114999133.971                    89443766.975    21490341.488  
  21490336.375  
  20639292.016   108460211.863    20639300.996    84514494.0714   20639301.574  
                
 21  8 14  2 51 20.0000000  0 13G 6R23G20G29R13R15G12R14G 2R24G24R17
                                G25
  22566300.414   118586707.574    22566309.410    92405262.4544   22566309.977  
                
  20578457.602   110080887.366                                                  
  20578455.980  
  23877856.102   125478979.549    23877862.254    97775856.2204                 
                
  22697288.961   119275061.394    22697295.754    92941635.9284   22697295.895  
                
  21174705.734   113071751.180                    87944716.100    21174708.621  
  21174703.879  
  21924381.414   117157241.461                    91122296.559    21924385.160  
  21924381.559  
  20151646.492   105897626.819    20151652.367    82517666.5434   20151652.562  
                
  19166369.625   102167537.988                    79463638.204    19166373.277  
  19166369.430  
  21332935.805   112105332.780    21332940.367    87354827.1574                 
                
  19156202.531   102436832.037                    79673094.899    19156206.531  
  19156201.688  
  23273965.211   122305519.331    23273974.586    95303040.6384   23273974.695  
                
  21484001.883   114965227.167                    89417395.017    21484005.199  
  21484000.051  
  20636055.539   108443204.066    20636064.508    84501241.2404   20636065.094  
                
 21  8 14  2 51 30.0000000  0 13G 6R23G20G29R13R15G12R14G 2R24G24R17
                                G25
  22571209.562   118612505.234    22571218.551    92425364.5254   22571219.129  
                
  20584045.672   110110779.686                                                  
  20584044.062  
  23872650.234   125451622.491    23872656.363    97754539.0484                 
                
  22692324.406   119248972.390    22692331.184    92921306.8184   22692331.305  
                
  21181100.508   113105899.030                    87971275.520    21181103.414  
  21181098.645  
  21917420.320   117120043.412                    91093364.721    21917424.062  
  21917420.477  
  20152364.320   105901398.965    20152370.207    82520605.8734   20152370.398  
                
  19165420.391   102162478.011                    79459702.672    19165424.062  
  19165420.188  
  21334401.594   112113035.485    21334406.176    87360829.2654                 
                
  19156150.945   102436556.110                    79672880.287    19156154.945  
  19156150.109  
  23280637.391   122340582.222    23280646.781    95330362.3584   23280646.914  
                
  21477673.617   114931363.325                    89391056.452    21477676.910  
  21477671.762  
  20632826.523   108426235.411    20632835.480    84488018.9114   20632836.082  
                
 21  8 14  2 51 40.0000000  0 13G 6R23G20G29R13R15G12R14G 2R24G24R17
                                G25
  22576127.148   118638347.258    22576136.148    92445501.1644   22576136.742  
                
  20589641.391   110140712.968                                                  
  20589639.770  
  23867448.227   125424285.545    23867454.301    97733237.5404                 
                
  22687364.602   119222908.419    22687371.383    92900997.2344   22687371.484  
                
  21187504.344   113140095.227                    87997872.538    21187507.320  
  21187502.465  
  21910464.062   117082871.378                    91064453.146    21910467.820  
  21910464.223  
  20153091.055   105905217.980    20153096.945    82523581.7254   20153097.133  
                
  19164485.492   102157494.463                    79455826.572    19164489.164  
  19164485.285  
  21335877.820   112120793.085    21335882.422    87366874.1484                 
                
  19156112.953   102436352.945                    79672722.264    19156116.945  
  19156112.121  
  23287312.734   122375661.406    23287322.109    95357696.7784   23287322.246  
                
  21471353.344   114897542.311                    89364751.211    21471356.648  
  21471351.496  
  20629604.945   108409305.946    20629613.895    84474827.1244   20629614.492  
                
 21  8 14  2 51 50.0000000  0 13G 6R23G20G29R13R15G12R14G 2R24G24R17
                                G25
  22581053.125   118664233.372    22581062.152    92465672.1494   22581062.738  
                
  20595244.719   110170686.986                                                  
  20595243.078  
  23862250.062   125396968.566    23862256.016    97711951.5694                 
                
  22682409.547   119196869.423    22682416.309    92880707.1054   22682416.438  
                
  21193917.109   113174339.023                    88024506.604    21193920.137  
  21193915.246  
  21903512.656   117045725.271                    91035561.733    21903516.434  
  21903512.820  
  20153826.688   105909083.717    20153832.578    82526593.9874   20153832.762  
                
  19163564.891   102152587.117                    79452009.744    19163568.559  
  19163564.680  
  21337364.453   112128605.347    21337369.086    87372961.6224                 
                
  19156088.516   102436222.300                    79672620.659    19156092.508  
  19156087.680  
  23293991.156   122410756.552    23294000.488    95385043.6314   23294000.621  
                
  21465041.062   114863764.108                    89338479.287    21465044.383  
  21465039.223  
  20626390.812   108392415.536    20626399.742    84461665.7544   20626400.359  
                
 21  8 14  2 52  0.0000000  0 13G 6R23G20G29R13R15G12R14G 2R24G24R17
                                G25
  22585987.469   118690163.513    22585996.512    92485877.4444   22585997.098  
                
  20600855.648   110200701.636                                                  
  20600853.996  
  23857055.680   125369671.667    23857061.543    97690681.2544                 
                
  22677459.273   119170855.575    22677466.012    92860436.5714   22677466.148  
                
  21200338.820   113208630.774                    88051177.942    21200341.918  
  21200336.945  
  21896566.180   117008605.408                    91006690.713    21896569.988  
  21896566.309  
  20154571.227   105912996.260    20154577.113    82529642.7144   20154577.293  
                
  19162658.586   102147756.009                    79448252.219    19162662.262  
  19162658.367  
  21338861.477   112136472.238    21338866.145    87379091.6634                 
                
  19156077.633   102436164.110                    79672575.398    19156081.629  
  19156076.766  
  23300672.617   122445867.630    23300681.918    95412402.8924   23300682.059  
                
  21458736.812   114830028.885                    89312240.771    21458740.152  
  21458734.996  
  20623184.117   108375564.256    20623193.031    84448534.8924   20623193.656  
                
 21  8 14  2 52 10.0000000  0 13G 6R23G20G29R13R15G12R14G 2R24G24R17
                                G25
  22590930.242   118716137.872    22590939.289    92506117.1944   22590939.879  
                
  20606474.211   110230757.137                                                  
  20606472.574  
  23851865.148   125342395.220    23851870.973    97669426.8644                 
                
  22672513.836   119144867.128    22672520.523    92840185.8284   22672520.711  
                
  21206769.555   113242970.515                    88077886.611    21206772.672  
  21206767.672  
  21889624.664   116971512.074                    90977840.355    21889628.492  
  21889624.738  
  20155324.719   105916955.855    20155330.605    82532728.1164   20155330.793  
                
  19161766.688   102143001.641                    79444554.367    19161770.355  
  19161766.473  
  21340368.930   112144393.929    21340373.629    87385264.3984                 
                
  19156080.375   102436178.730                    79672586.758    19156084.387  
  19156079.480  
  23307357.195   122480994.816    23307366.426    95439774.7144   23307366.570  
                
  21452440.656   114796336.862                    89286035.853    21452444.000  
  21452438.867  
  20619984.953   108358752.506    20619993.863    84435434.8234   20619994.496  
                
 21  8 14  2 52 20.0000000  0 13G 6R23G20G29R13R15G12R14G 2R24G24R17
                                G25
  22595881.367   118742156.201    22595890.434    92526391.2064   22595891.020  
                
  20612100.344   110260853.131                                                  
  20612098.703  
  23846678.406   125315139.247    23846684.293    97648188.4434                 
                
  22667573.180   119118903.828    22667579.832    92819954.6914   22667580.023  
                
  21213209.305   113277358.284                    88104632.659    21213212.418  
  21213207.445  
  21882688.109   116934445.268                    90949010.614    21882691.957  
  21882688.145  
  20156087.133   105920962.305    20156093.016    82535850.0174   20156093.199  
                
  19160889.156   102138323.921                    79440916.146    19160892.828  
  19160888.938  
  21341886.789   112152370.306    21341891.516    87391479.7564                 
                
  19156096.672   102436265.910                    79672654.560    19156100.695  
  19156095.789  
  23314044.836   122516137.839    23314053.949    95467158.8804   23314054.082  
                
  21446152.555   114762688.006                    89259864.514    21446155.918  
  21446150.770  
  20616793.289   108341980.160    20616802.191    84422365.4614   20616802.816  
                
 21  8 14  2 52 30.0000000  0 13G 6R23G20G29R13R15G12R14G 2R24G24R17
                                G25
  22600840.875   118768218.571    22600849.980    92546699.5414   22600850.543  
                
  20617734.047   110290989.603                                                  
  20617732.398  
  23841495.516   125287904.008    23841501.590    97626966.1804                 
                
  22662637.344   119092965.935    22662643.988    92799743.3454   22662644.191  
                
  21219657.961   113311793.737                    88131415.756    21219661.094  
  21219656.102  
  21875756.578   116897405.275                    90920201.728    21875760.449  
  21875756.621  
  20156858.516   105925015.930    20156864.395    82539008.6814   20156864.570  
                
  19160026.062   102133723.078                    79437337.704    19160029.730  
  19160025.863  
  21343415.086   112160401.513    21343419.820    87397737.8344                 
                
  19156126.578   102436425.769                    79672778.895    19156130.609  
  19156125.703  
  23320735.516   122551296.821    23320744.531    95494555.4804   23320744.672  
                
  21439872.578   114729082.635                    89233727.002    21439875.961  
  21439870.816  
  20613609.156   108325247.429    20613618.062    84409326.9624   20613618.680  
                
 21  8 14  2 52 40.0000000  0 13G 6R23G20G29R13R15G12R14G 2R24G24R17
                                G25
  22605808.719   118794324.721    22605817.855    92567041.9814   22605818.391  
                
  20623375.281   110321166.364                                                  
  20623373.625  
  23836316.641   125260689.350    23836322.797    97605759.9644                 
                
  22657706.344   119067053.331    22657712.996    92779551.7134   22657713.188  
                
  21226115.570   113346276.963                    88158236.024    21226118.695  
  21226113.699  
  21868830.078   116860392.252                    90891413.839    21868833.977  
  21868830.148  
  20157638.844   105929116.553    20157644.719    82542203.9724   20157644.898  
                
  19159177.344   102129198.928                    79433818.923    19159181.008  
  19159177.148  
  21344953.750   112168487.265    21344958.484    87404038.4174                 
                
  19156170.047   102436658.191                    79672959.676    19156174.070  
  19156169.168  
  23327429.047   122586471.464    23327438.102    95521964.2744   23327438.242  
                
  21433600.695   114695520.558                    89207623.157    21433604.070  
  21433598.977  
  20610432.555   108308554.242    20610441.461    84396319.2794   20610442.070  
                
 21  8 14  2 52 50.0000000  0 13G 6R23G20G29R13R15G12R14G 2R24G24R17
                                G25
  22610784.883   118820474.595    22610794.039    92587418.5024   22610794.555  
                
  20629024.016   110351383.244                                                  
  20629022.340  
  23831141.812   125233495.563    23831147.980    97584570.0014                 
                
  22652780.172   119041166.128    22652786.809    92759379.8644   22652787.004  
                
  21232582.102   113380807.845                    88185093.364    21232585.246  
  21232580.254  
  21861908.633   116823406.196                    90862646.896    21861912.562  
  21861908.719  
  20158428.133   105933264.252    20158434.000    82545435.9424   20158434.188  
                
  19158343.070   102124751.737                    79430359.984    19158346.727  
  19158342.875  
  21346502.820   112176627.631    21346507.543    87410381.5494                 
                
  19156227.031   102436962.931                    79673196.684    19156231.043  
  19156226.156  
  23334125.523   122621661.739    23334134.621    95549385.2514   23334134.781  
                
  21427336.969   114662002.087                    89181553.230    21427340.336  
  21427335.277  
  20607263.492   108291900.702    20607272.398    84383342.4924   20607273.008  
                
 21  8 14  2 53  0.0000000  0 13G 6R23G20G29R13R15G12R14G 2R24G24R17
                                G25
  22615769.328   118846668.012    22615778.480    92607828.9554   22615778.992  
                
  20634680.234   110381640.189                                                  
  20634678.547  
  23825971.016   125206322.625    23825977.094    97563396.2494                 
                
  22647858.828   119015304.214    22647865.430    92739227.7224   22647865.648  
                
  21239057.461   113415385.912                    88211987.417    21239060.652  
  21239055.648  
  21854992.250   116786447.153                    90833900.968    21854996.184  
  21854992.344  
  20159226.344   105937458.854    20159232.215    82548704.4584   20159232.391  
                
  19157523.164   102120381.143                    79426960.633    19157526.801  
  19157522.965  
  21348062.250   112184822.485    21348066.977    87416767.1494                 
                
  19156297.570   102437340.090                    79673490.037    19156301.582  
  19156296.699  
  23340824.961   122656867.422    23340834.086    95576818.2284   23340834.246  
                
  21421081.328   114628526.853                    89155516.934    21421084.703  
  21421079.656  
  20604101.961   108275286.768    20604110.867    84370396.5654   20604111.477  
                
 21  8 14  2 53 10.0000000  0 13G 6R23G20G29R13R15G12R14G 2R24G24R17
                                G25
  22620762.078   118872905.056    22620771.207    92628273.3884   22620771.730  
                
  20640343.930   110411937.159                                                  
  20640342.211  
  23820804.164   125179170.757    23820810.188    97542238.9734                 
                
  22642942.328   118989467.789    22642948.934    92719095.4444   22642949.164  
                
  21245541.766   113450011.724                    88238918.587    21245544.984  
  21245539.926  
  21848080.984   116749515.358                    90805176.235    21848084.906  
  21848081.113  
  20160033.523   105941700.605    20160039.398    82552009.7144   20160039.578  
                
  19156717.758   102116087.901                    79423621.438    19156721.387  
  19156717.559  
  21349632.055   112193071.865    21349636.793    87423195.2304                 
                
  19156381.641   102437789.701                    79673839.728    19156385.652  
  19156380.762  
  23347527.305   122692088.621    23347536.477    95604263.2934   23347536.621  
                
  21414833.836   114595095.337                    89129514.637    21414837.234  
  21414832.184  
  20600948.016   108258712.671    20600956.922    84357481.6834   20600957.535  
                
 21  8 14  2 53 20.0000000  0 13G 6R23G20G29R13R15G12R14G 2R24G24R17
                                G25
  22625763.086   118899185.509    22625772.195    92648751.6564   22625772.727  
                
  20646015.070   110442273.922                                                  
  20646013.312  
  23815641.367   125152040.090    23815647.305    97521098.1754                 
                
  22638030.648   118963656.673    22638037.266    92698982.8844   22638037.480  
                
  21252034.914   113484684.836                    88265886.540    21252038.133  
  21252033.082  
  21841174.844   116712610.938                    90776472.790    21841178.734  
  21841174.992  
  20160849.664   105945989.428    20160855.551    82555351.6534   20160855.719  
                
  19155926.773   102111871.476                    79420341.992    19155930.406  
  19155926.574  
  21351212.227   112201375.720    21351216.973    87429665.7674                 
                
  19156479.211   102438311.434                    79674245.524    19156483.223  
  19156478.328  
  23354232.531   122727325.088    23354241.785    95631720.2704   23354241.891  
                
  21408594.508   114561707.436                    89103546.289    21408597.930  
  21408592.867  
  20597801.641   108242178.374    20597810.539    84344597.8094   20597811.160  
                
 21  8 14  2 53 30.0000000  0 13G 6R23G20G29R13R15G12R14G 2R24G24R17
                                G25
  22630772.320   118925509.192    22630781.426    92669263.6114   22630781.973  
                
  20651693.578   110472650.126                                                  
  20651691.805  
  23810482.586   125124930.602    23810488.484    97499973.8764                 
                
  22633123.734   118937870.665    22633130.355    92678889.8844   22633130.574  
                
  21258536.891   113519405.043                    88292891.127    21258540.121  
  21258535.078  
  21834273.812   116675733.918                    90747790.654    21834277.695  
  21834273.938  
  20161674.750   105950325.245    20161680.648    82558730.2054   20161680.805  
                
  19155150.227   102107732.063                    79417122.439    19155153.867  
  19155150.027  
  21352802.727   112209733.857    21352807.484    87436178.5934                 
                
  19156590.305   102438905.523                    79674707.582    19156594.316  
  19156589.402  
  23360940.641   122762576.674    23360949.902    95659189.0224   23360950.020  
                
  21402363.352   114528363.193                    89077611.875    21402366.766  
  21402361.699  
  20594662.836   108225683.853    20594671.738    84331744.9394   20594672.355  
                
 21  8 14  2 53 40.0000000  0 13G 6R23G20G29R13R15G12R14G 2R24G24R17
                                G25
  22635789.805   118951876.219    22635798.918    92689809.3354   22635799.457  
                
  20657379.492   110503065.997                                                  
  20657377.703  
  23805327.859   125097842.518    23805333.840    97478866.2834                 
                
  22628221.688   118912110.218    22628228.305    92658816.8154   22628228.531  
                
  21265047.742   113554172.550                    88319932.518    21265050.965  
  21265045.969  
  21827377.953   116638884.563                    90719130.058    21827381.844  
  21827378.070  
  20162508.820   105954708.292    20162514.742    82562145.5594   20162514.879  
                
  19154388.180   102103669.917                    79413963.001    19154391.844  
  19154387.969  
  21354403.586   112218146.417    21354408.344    87442733.8344                 
                
  19156714.914   102439571.886                    79675225.863    19156718.934  
  19156714.004  
  23367651.672   122797843.475    23367660.914    95686669.6384   23367661.047  
                
  21396140.367   114495062.725                    89051711.490    21396143.758  
  21396138.719  
  20591531.648   108209229.374    20591540.543    84318923.2654   20591541.160  
                
 21  8 14  2 53 50.0000000  0 13G 6R23G20G29R13R15G12R14G 2R24G24R17
                                G25
  22640815.477   118978286.276    22640824.570    92710388.5984   22640825.125  
                
  20663072.758   110533521.152                                                  
  20663070.961  
  23800177.117   125070775.753    23800183.254    97457775.3204                 
                
  22623324.469   118886375.159    22623331.090    92638763.5284   22623331.297  
                
  21271567.406   113588987.166                    88347010.544    21271570.648  
  21271565.688  
  21820487.273   116602062.839                    90690490.947    21820491.180  
  21820487.375  
  20163351.836   105959138.321    20163357.766    82565597.5254   20163357.895  
                
  19153640.609   102099684.947                    79410863.564    19153644.277  
  19153640.395  
  21356014.750   112226613.170    21356019.500    87449331.2984                 
                
  19156852.977   102440310.131                    79675800.046    19156856.988  
  19156852.078  
  23374365.594   122833125.169    23374374.785    95714161.8574   23374374.922  
                
  21389925.562   114461806.000                    89025845.156    21389928.945  
  21389923.922  
  20588408.070   108192814.812    20588416.953    84306132.6904   20588417.562  
                
 21  8 14  2 54  0.0000000  0 13G 6R23G20G29R13R15G12R14G 2R24G24R17
                                G25
  22645849.328   119004739.301    22645858.402    92731001.3404   22645858.969  
                
  20668773.344   110564015.441                                                  
  20668771.535  
  23795030.531   125043730.463    23795036.758    97436701.0604                 
                
  22618432.062   118860665.418    22618438.680    92618729.9614   22618438.875  
                
  21278095.836   113623848.606                    88374124.973    21278099.082  
  21278094.117  
  21813601.812   116565268.994                    90661873.512    21813605.699  
  21813601.898  
  20164203.812   105963615.468    20164209.754    82569086.2064   20164209.879  
                
  19152907.516   102095777.120                    79407824.144    19152911.195  
  19152907.305  
  21357636.250   112235134.170    21357640.996    87455971.0304                 
                
  19157004.531   102441120.534                    79676430.364    19157008.531  
  19157003.648  
  23381082.406   122868421.698    23381091.480    95741665.6354   23381091.602  
                
  21383718.953   114428593.102                    89000012.898    21383722.305  
  21383717.312  
  20585292.094   108176440.216    20585300.965    84293373.2604   20585301.570  
                
 21  8 14  2 54 10.0000000  0 13G 6R23G20G29R13R15G12R14G 2R24G24R17
                                G25
  22650891.352   119031235.262    22650900.391    92751647.5314   22650900.980  
                
  20674481.258   110594548.888                                                  
  20674479.438  
  23789888.062   125016706.833    23789894.348    97415643.6774                 
                
  22613544.508   118834981.127    22613551.082    92598716.2304   22613551.289  
                
  21284633.055   113658756.982                    88401275.919    21284636.312  
  21284631.297  
  21806721.578   116528503.113                    90633277.822    21806725.465  
  21806721.656  
  20165064.758   105968139.738    20165070.707    82572611.6084   20165070.824  
                
  19152188.922   102091946.558                    79404844.820    19152192.605  
  19152188.727  
  21359268.055   112243709.356    21359272.809    87462652.9894                 
                
  19157169.555   102442002.961                    79677116.697    19157173.547  
  19157168.688  
  23387801.984   122903733.030    23387811.004    95769180.9544   23387811.105  
                
  21377520.562   114395424.212                    88974214.864    21377523.910  
  21377518.938  
  20582183.742   108160105.714    20582192.605    84280645.0704   20582193.203  
                
 21  8 14  2 54 20.0000000  0 13G 6R23G20G29R13R15G12R14G 2R24G24R17
                                G25
  22655941.477   119057773.857    22655950.488    92772326.9484   22655951.090  
                
  20680196.414   110625121.061                                                  
  20680194.582  
  23784749.734   124989704.788    23784756.027    97394603.1074                 
                
  22608661.758   118809322.175    22608668.281    92578722.2334   22608668.531  
                
  21291179.016   113693712.062                    88428463.186    21291182.297  
  21291177.285  
  21799846.555   116491765.152                    90604703.835    21799850.441  
  21799846.648  
  20165934.617   105972710.910    20165940.570    82576173.5534   20165940.676  
                
  19151484.781   102088193.110                    79401925.466    19151488.473  
  19151484.586  
  21360910.086   112252338.354    21360914.855    87469376.8764                 
                
  19157347.984   102442957.094                    79677858.795    19157351.973  
  19157347.105  
  23394524.320   122939058.994    23394533.316    95796707.6584   23394533.402  
                
  21371330.344   114362299.111                    88948450.889    21371333.707  
  21371328.703  
  20579082.992   108143811.181    20579091.855    84267948.0314   20579092.445  
                
 21  8 14  2 54 30.0000000  0 13G 6R23G20G29R13R15G12R14G 2R24G24R17
                                G25
  22660999.766   119084355.334    22661008.746    92793039.7834   22661009.352  
                
  20685918.859   110655732.283                                                  
  20685917.051  
  23779615.547   124962724.703    23779621.887    97373579.6824                 
                
  22603783.922   118783688.984    22603790.445    92558748.3214   22603790.695  
                
  21297733.781   113728713.923                    88455686.842    21297737.078  
  21297732.086  
  21792976.867   116455055.612                    90576151.966    21792980.762  
  21792976.961  
  20166813.484   105977329.353    20166819.434    82579772.3374   20166819.531  
                
  19150795.258   102084517.532                    79399066.680    19150798.941  
  19150795.070  
  21362562.453   112261021.600    21362567.254    87476143.0414                 
                
  19157539.906   102443983.393                    79678657.028    19157543.898  
  19157539.008  
  23401249.430   122974399.580    23401258.422    95824245.7634   23401258.488  
                
  21365148.406   114329218.330                    88922721.400    21365151.785  
  21365146.742  
  20575989.938   108127557.029    20575998.793    84255282.4514   20575999.379  
                
 21  8 14  2 54 40.0000000  0 13G 6R23G20G29R13R15G12R14G 2R24G24R17
                                G25
  22666066.164   119110979.436    22666075.121    92813785.8354   22666075.746  
                
  20691648.555   110686382.220                                                  
  20691646.773  
  23774485.492   124935766.580    23774491.945    97352573.3654                 
                
  22598910.945   118758081.315    22598917.508    92538794.3034   22598917.758  
                
  21304297.211   113763762.091                    88482946.526    21304300.508  
  21304295.551  
  21786112.492   116418374.442                    90547622.171    21786116.367  
  21786112.602  
  20167701.328   105981994.937    20167707.273    82583407.8554   20167707.375  
                
  19150120.258   102080919.323                    79396268.067    19150123.953  
  19150120.074  
  21364225.102   112269758.864    21364229.938    87482951.2964                 
                
  19157745.258   102445081.505                    79679511.117    19157749.262  
  19157744.336  
  23407977.320   123009754.637    23407986.273    95851795.1584   23407986.324  
                
  21358974.734   114296181.776                    88897026.310    21358978.145  
  21358973.055  
  20572904.547   108111343.147    20572913.402    84242648.2564   20572913.984  
                
 21  8 14  2 54 50.0000000  0 13G 6R23G20G29R13R15G12R14G 2R24G24R17
                                G25
  22671140.664   119137646.158    22671149.613    92834565.0804   22671150.266  
                
  20697385.477   110717070.794                                                  
  20697383.703  
  23769359.680   124908830.635    23769366.180    97331584.2934                 
                
  22594042.820   118732499.270    22594049.414    92518860.2444   22594049.668  
                
  21310869.383   113798856.985                    88510242.539    21310872.637  
  21310867.734  
  21779253.469   116381721.884                    90519114.630    21779257.328  
  21779253.566  
  20168598.164   105986707.836    20168604.105    82587080.2404   20168604.207  
                
  19149459.789   102077398.691                    79393529.790    19149463.488  
  19149459.613  
  21365898.023   112278550.185    21365902.883    87489801.6704                 
                
  19157964.055   102446251.578                    79680421.164    19157968.062  
  19157963.105  
  23414707.922   123045124.177    23414716.883    95879355.8254   23414716.922  
                
  21352809.297   114263189.385                    88871365.557    21352812.730  
  21352807.613  
  20569826.828   108095169.668    20569835.684    84230045.5384   20569836.254  
                
 21  8 14  2 55  0.0000000  0 13G 6R23G20G29R13R15G12R14G 2R24G24R17
                                G25
  22676223.203   119164355.150    22676232.207    92855377.2684   22676232.855  
                
  20703129.539   110747797.664                                                  
  20703127.773  
  23764238.070   124881916.803    23764244.648    97310612.4954                 
                
  22589179.547   118706942.629    22589186.164    92498945.9914   22589186.426  
                
  21317450.227   113833998.258                    88537574.600    21317453.500  
  21317448.605  
  21772399.750   116345097.757                    90490629.196    21772403.629  
  21772399.836  
  20169503.961   105991467.823    20169509.902    82590789.3144   20169510.000  
                
  19148813.859   102073955.504                    79390851.741    19148817.570  
  19148813.684  
  21367581.188   112287395.278    21367586.070    87496693.9404                 
                
  19158196.234   102447493.141                    79681386.821    19158200.246  
  19158195.273  
  23421441.227   123080507.810    23421450.184    95906927.4864   23421450.227  
                
  21346652.125   114230241.182                    88845739.197    21346655.602  
  21346650.418  
  20566756.773   108079036.402    20566765.641    84217474.1664   20566766.191  
                
 21  8 14  2 55 10.0000000  0 13G 6R23G20G29R13R15G12R14G 2R24G24R17
                                G25
  22681313.812   119191106.555    22681322.883    92876222.5044   22681323.512  
                
  20708880.797   110778562.972                                                  
  20708879.055  
  23759120.820   124855025.384    23759127.398    97289658.1294                 
                
  22584321.172   118681411.628    22584327.809    92479051.7144   22584328.062  
                
  21324039.773   113869185.970                    88564942.816    21324043.121  
  21324038.141  
  21765551.438   116308502.525                    90462166.229    21765555.312  
  21765551.535  
  20170418.781   105996275.187    20170424.723    82594535.3054   20170424.824  
                
  19148182.516   102070590.090                    79388234.196    19148186.238  
  19148182.324  
  21369274.609   112296294.274    21369279.492    87503628.2224                 
                
  19158441.836   102448806.489                    79682408.307    19158445.848  
  19158440.891  
  23428177.227   123115905.743    23428186.242    95934510.2804   23428186.285  
                
  21340503.289   114197337.471                    88820147.413    21340506.777  
  21340501.578  
  20563694.438   108062943.707    20563703.324    84204934.3994   20563703.852  
                
 21  8 14  2 55 20.0000000  0 13G 6R23G20G29R13R15G12R14G 2R24G24R17
                                G25
  22686412.461   119217900.190    22686421.590    92897100.6464   22686422.203  
                
  20714639.195   110809366.499                                                  
  20714637.484  
  23754007.867   124828156.347    23754014.414    97268721.2384                 
                
  22579467.648   118655906.160    22579474.281    92459177.3094   22579474.535  
                
  21330637.969   113904419.826                    88592346.913    21330641.328  
  21330636.324  
  21758708.531   116271936.161                    90433725.710    21758712.418  
  21758708.625  
  20171342.586   106001129.834    20171348.539    82598318.1444   20171348.641  
                
  19147565.758   102067302.442                    79385677.135    19147569.488  
  19147565.547  
  21370978.266   112305247.073    21370983.137    87510604.4234                 
                
  19158700.844   102450191.494                    79683485.538    19158704.852  
  19158699.918  
  23434915.930   123151317.745    23434924.992    95962104.0234   23434925.031  
                
  21334362.727   114164478.061                    88794590.083    21334366.215  
  21334361.012  
  20560639.812   108046891.498    20560648.723    84192426.1784   20560649.234  
                
 21  8 14  2 55 30.0000000  0 13G 6R23G20G29R13R15G12R14G 2R24G24R17
                                G25
  22691519.164   119244736.078    22691528.336    92918011.7234   22691528.934  
                
  20720404.742   110840208.210                                                  
  20720403.035  
  23748899.281   124801310.041    23748905.762    97247802.0224                 
                
  22574619.016   118630426.420    22574625.652    92439322.9754   22574625.898  
                
  21337244.812   113939699.745                    88619786.836    21337248.129  
  21337243.156  
  21751871.078   116235398.884                    90405307.827    21751874.984  
  21751871.156  
  20172275.414   106006031.858    20172281.387    82602137.8994   20172281.469  
                
  19146963.602   102064092.603                    79383180.594    19146967.332  
  19146963.375  
  21372692.180   112314253.779    21372697.039    87517622.6314                 
                
  19158973.242   102451648.126                    79684618.470    19158977.250  
  19158972.332  
  23441657.281   123186743.882    23441666.445    95989708.7784   23441666.457  
                
  21328230.484   114131663.301                    88769067.508    21328233.988  
  21328228.746  
  20557592.930   108030879.992    20557601.863    84179949.6764   20557602.355  
                
 21  8 14  2 55 40.0000000  0 13G 6R23G20G29R13R15G12R14G 2R24G24R17
                                G25
  22696633.859   119271613.980    22696643.047    92938955.5344   22696643.629  
                
  20726177.352   110871087.796                                                  
  20726175.637  
  23743794.930   124774486.326    23743801.355    97226900.3884                 
                
  22569775.242   118604972.265    22569781.875    92419488.5814   22569782.129  
                
  21343860.219   113975025.589                    88647262.488    21343863.543  
  21343858.590  
  21745039.062   116198890.695                    90376912.580    21745042.992  
  21745039.141  
  20173217.234   106010981.111    20173223.234    82605994.4584   20173223.312  
                
  19146376.047   102060960.605                    79380744.595    19146379.773  
  19146375.797  
  21374416.312   112323314.128    21374421.164    87524682.6364                 
                
  19159259.031   102453176.342                    79685807.087    19159263.039  
  19159258.133  
  23448401.242   123222183.873    23448410.465    96017324.3274   23448410.480  
                
  21322106.570   114098893.023                    88743579.509    21322110.098  
  21322104.828  
  20554553.773   108014909.106    20554562.723    84167504.8284   20554563.188  
                
 21  8 14  2 55 50.0000000  0 13G 6R23G20G29R13R15G12R14G 2R24G24R17
                                G25
  22701756.547   119298533.895    22701765.750    92959932.0804   22701766.312  
                
  20731957.031   110902005.217                                                  
  20731955.285  
  23738694.883   124747685.376    23738701.277    97206016.5514                 
                
  22564936.344   118579543.712    22564942.953    92399674.1144   22564943.215  
                
  21350484.273   114010397.562                    88674774.000    21350487.531  
  21350482.637  
  21738212.531   116162411.841                    90348540.138    21738216.457  
  21738212.609  
  20174168.086   106015977.890    20174174.117    82609888.0454   20174174.176  
                
  19145803.125   102057906.612                    79378369.253    19145806.859  
  19145802.863  
  21376150.656   112332428.208    21376155.500    87531784.5144                 
                
  19159558.180   102454776.033                    79687051.281    19159562.172  
  19159557.273  
  23455147.844   123257637.718    23455157.094    96044950.6894   23455157.121  
                
  21315991.016   114066167.489                    88718126.307    21315994.551  
  21315989.297  
  20551522.367   107998978.954    20551531.328    84155091.7184   20551531.785  
                
 21  8 14  2 56  0.0000000  0 13G 6R23G20G29R13R15G12R14G 2R24G24R17
                                G25
  22706887.211   119325495.676    22706896.430    92980941.2594   22706896.977  
                
  20737743.773   110932960.383                                                  
  20737742.012  
  23733599.172   124720907.312    23733605.562    97185150.5344                 
                
  22560102.336   118554140.867    22560108.914    92379879.6894   22560109.180  
                
  21357116.969   114045815.582                    88702321.326    21357120.184  
  21357115.320  
  21731391.508   116125962.436                    90320190.601    21731395.430  
  21731391.602  
  20175127.938   106021021.912    20175133.996    82613818.4484   20175134.047  
                
  19145244.828   102054930.580                    79376054.567    19145248.582  
  19145244.555  
  21377895.203   112341595.856    21377900.023    87538928.1324                 
                
  19159870.680   102456447.135                    79688351.031    19159874.664  
  19159869.750  
  23461897.102   123293105.280    23461906.332    96072587.7474   23461906.375  
                
  21309883.820   114033486.683                    88692707.887    21309887.371  
  21309882.109  
  20548498.734   107983089.618    20548507.711    84142710.4094   20548508.148  
                
 21  8 14  2 56 10.0000000  0 13G 6R23G20G29R13R15G12R14G 2R24G24R17
                                G25
  22712025.805   119352499.119    22712035.043    93001982.9004   22712035.574  
                
  20743537.531   110963953.072                                                  
  20743535.785  
  23728507.914   124694152.127    23728514.230    97164302.3394                 
                
  22555273.195   118528763.632    22555279.746    92360105.2304   22555280.031  
                
  21363758.203   114081279.300                    88729904.200    21363761.402  
  21363756.559  
  21724576.062   116089542.739                    90291864.156    21724579.984  
  21724576.180  
  20176096.758   106026113.091    20176102.848    82617785.5984   20176102.891  
                
  19144701.148   102052032.429                    79373800.432    19144704.898  
  19144700.863  
  21379649.922   112350816.996    21379654.719    87546113.4364                 
                
  19160196.523   102458189.610                    79689706.283    19160200.520  
  19160195.562  
  23468648.906   123328586.386    23468658.145    96100235.3544   23468658.199  
                
  21303785.000   114000850.651                    88667324.305    21303788.559  
  21303783.316  
  20545482.836   107967240.997    20545491.824    84130360.8324   20545492.242  
                
 21  8 14  2 56 20.0000000  0 13G 6R23G20G29R13R15G12R14G 2R24G24R17
                                G25
  22717172.344   119379544.287    22717181.605    93023057.0444   22717182.129  
                
  20749338.289   110994983.194                                                  
  20749336.551  
  23723421.094   124667420.096    23723427.324    97143472.1854                 
                
  22550448.984   118503412.181    22550455.500    92340350.8524   22550455.785  
                
  21370408.016   114116788.759                    88757522.650    21370411.246  
  21370406.402  
  21717766.148   116053152.640                    90263560.737    21717770.051  
  21717766.273  
  20177074.594   106031251.620    20177080.707    82621789.6474   20177080.742  
                
  19144172.109   102049212.375                    79371607.056    19144175.867  
  19144171.824  
  21381414.852   112360091.723    21381419.617    87553340.4954                 
                
  19160535.727   102460003.495                    79691117.082    19160539.723  
  19160534.762  
  23475403.289   123364081.039    23475412.555    96127893.5064   23475412.613  
                
  21297694.547   113968259.370                    88641975.526    21297698.086  
  21297692.871  
  20542474.750   107951433.349    20542483.754    84118043.1774   20542484.156  
                
 21  8 14  2 56 30.0000000  0 13G 6R23G20G29R13R15G12R14G 2R24G24R17
                                G25
  22722326.766   119406630.901    22722336.023    93044163.4904   22722336.555  
                
  20755146.008   111026050.492                                                  
  20755144.266  
  23718338.578   124640711.148    23718344.789    97122660.0054                 
                
  22545629.648   118478086.326    22545636.094    92320616.4164   22545636.383  
                
  21377066.328   114152343.697                    88785176.480    21377069.559  
  21377064.738  
  21710961.797   116016792.274                    90235280.440    21710965.711  
  21710961.941  
  20178061.398   106036437.289    20178067.531    82625830.4244   20178067.559  
                
  19143657.711   102046470.290                    79369474.318    19143661.484  
  19143657.426  
  21383189.922   112369419.778    21383194.656    87560609.1004                 
                
  19160888.203   102461888.367                    79692583.085    19160892.203  
  19160887.246  
  23482160.195   123399589.003    23482169.500    96155562.0244   23482169.574  
                
  21291612.445   113935712.833                    88616661.551    21291616.016  
  21291610.754  
  20539474.422   107935666.504    20539483.445    84105757.3224   20539483.840  
                
 21  8 14  2 56 40.0000000  0 13G 6R23G20G29R13R15G12R14G 2R24G24R17
                                G25
  22727489.109   119433759.162    22727498.336    93065302.3874   22727498.867  
                
  20760960.695   111057155.115                                                  
  20760958.953  
  23713260.484   124614025.654    23713266.730    97101866.1044                 
                
  22540815.211   118452786.297    22540821.586    92300902.0954   22540821.918  
                
  21383733.195   114187944.270                    88812865.816    21383736.363  
  21383731.586  
  21704163.078   115980461.964                    90207023.544    21704167.012  
  21704163.238  
  20179057.242   106041670.462    20179063.391    82629908.2154   20179063.406  
                
  19143157.992   102043806.497                    79367402.471    19143161.777  
  19143157.715  
  21384975.195   112378801.453    21384979.898    87567919.4934                 
                
  19161254.039   102463844.624                    79694104.613    19161258.035  
  19161253.086  
  23488919.672   123435110.414    23488928.996    96183241.0274   23488929.094  
                
  21285538.781   113903211.377                    88591382.653    21285542.398  
  21285537.078  
  20536481.930   107919940.846    20536490.977    84093503.5574   20536491.367  
                
 21  8 14  2 56 50.0000000  0 13G 6R23G20G29R13R15G12R14G 2R24G24R17
                                G25
  22732659.281   119460928.591    22732668.465    93086473.3604   22732669.020  
                
  20766782.273   111088296.626                                                  
  20766780.555  
  23708186.773   124587363.367    23708193.113    97081090.3094                 
                
  22536005.680   118427511.959    22536012.027    92281207.8114   22536012.355  
                
  21390408.531   114223590.127                    88840590.358    21390411.672  
  21390406.922  
  21697369.977   115944161.633                    90178789.965    21697373.898  
  21697370.125  
  20180062.078   106046950.893    20180068.246    82634022.8324   20180068.250  
                
  19142672.922   102041220.798                    79365391.362    19142676.719  
  19142672.664  
  21386770.570   112388236.229    21386775.242    87575271.2584                 
                
  19161633.148   102465871.864                    79695681.354    19161637.145  
  19161632.215  
  23495681.727   123470644.854    23495690.941    96210930.1954   23495691.066  
                
  21279473.500   113870754.854                    88566138.692    21279477.137  
  21279471.785  
  20533497.211   107904256.072    20533506.281    84081281.6544   20533506.660  
                
 21  8 14  2 57  0.0000000  0 13G 6R23G20G29R13R15G12R14G 2R24G24R17
                                G25
  22737837.336   119488139.425    22737846.496    93107676.5994   22737847.059  
                
  20772610.781   111119475.177                                                  
  20772609.055  
  23703117.578   124560724.842    23703124.043    97060333.0324                 
                
  22531201.078   118402263.526    22531207.430    92261533.7084   22531207.730  
                
  21397092.383   114259281.456                    88868350.257    21397095.484  
  21397090.742  
  21690582.547   115907891.638                    90150579.956    21690586.461  
  21690582.707  
  20181075.961   106052278.872    20181082.148    82638174.4994   20181082.137  
                
  19142202.547   102038713.440                    79363441.195    19142206.355  
  19142202.293  
  21388576.125   112397724.466    21388580.770    87582664.6854                 
                
  19162025.586   102467970.417                    79697313.558    19162029.570  
  19162024.684  
  23502446.297   123506192.542    23502455.449    96238629.6754   23502455.574  
                
  21273416.680   113838343.573                    88540929.911    21273420.348  
  21273414.953  
  20530520.344   107888612.550    20530529.445    84069091.8954   20530529.812  
                
 21  8 14  2 57 10.0000000  0 13G 6R23G20G29R13R15G12R14G 2R24G24R17
                                G25
  22743023.234   119515391.511    22743032.371    93128911.9844   22743032.938  
                
  20778446.195   111150690.648                                                  
  20778444.473  
  23698052.914   124534110.012    23698059.496    97039594.2314                 
                
  22526401.391   118377040.934    22526407.758    92241879.7404   22526408.035  
                
  21403784.695   114295017.839                    88896145.218    21403787.762  
  21403783.051  
  21683800.797   115871652.005                    90122393.575    21683804.742  
  21683800.965  
  20182098.891   106057654.396    20182105.102    82642363.2204   20182105.082  
                
  19141746.883   102036284.483                    79361551.999    19141750.691  
  19141746.637  
  21390391.844   112407266.114    21390396.461    87590099.7344                 
                
  19162431.312   102470139.948                    79699000.977    19162435.289  
  19162430.410  
  23509213.375   123541753.314    23509222.449    96266339.3554   23509222.582  
                
  21267368.305   113805977.494                    88515756.307    21267372.004  
  21267366.574  
  20527551.344   107873010.311    20527560.473    84056934.3084   20527560.832  
                
 21  8 14  2 57 20.0000000  0 14G 6R23G20G29R13R15G12R14G31G 2R24G24
                                R17G25
  22748216.938   119542684.556    22748226.043    93150179.2904   22748226.625  
                
  20784288.445   111181942.692                                                  
  20784286.727  
  23692992.680   124507518.781    23692999.465    97018873.7934                 
                
  22521606.586   118351844.075    22521612.969    92222245.8254   22521613.238  
                
  21410485.438   114330799.284                    88923975.213    21410488.473  
  21410483.812  
  21677024.742   115835442.830                    90094230.876    21677028.688  
  21677024.938  
  20183130.828   106063077.253    20183137.055    82646588.8164   20183137.020  
                
  19141305.914   102033933.828                    79359723.705    19141309.742  
  19141305.664  
  24607614.719   129313886.149    24607620.113   100764088.5384   24607620.836  
                
  21392217.664   112416860.850    21392222.262    87597576.1444                 
                
  19162850.281   102472380.378                    79700743.536    19162854.254  
  19162849.375  
  23515982.914   123577326.875    23515991.887    96294059.0014   23515992.004  
                
  21261328.383   113773656.606                    88490617.839    21261332.098  
  21261326.652  
  20524590.164   107857449.202    20524599.312    84044808.7644   20524599.672  
                
 21  8 14  2 57 30.0000000  0 14G 6R23G20G29R13R15G12R14G31G 2R24G24
                                R17G25
  22753418.625   119570019.544    22753427.680    93171479.2714   22753428.301  
                
  20790137.695   111213232.203                                                  
  20790135.980  
  23687937.227   124480952.325    23687944.117    96998172.6694                 
                
  22516816.898   118326674.078    22516823.281    92202632.8464   22516823.555  
                
  21417194.805   114366626.851                    88951841.085    21417197.805  
  21417193.227  
  21670254.602   115799265.174                    90066092.696    21670258.547  
  21670254.797  
  20184171.984   106068548.509    20184178.230    82650852.1334   20184178.191  
                
  19140879.867   102031662.766                    79357957.320    19140883.699  
  19140879.605  
  24602027.914   129284527.292    24602033.391   100741211.5154   24602034.066  
                
  21394053.773   112426509.681    21394058.355    87605094.7154                 
                
  19163282.695   102474692.689                    79702541.992    19163286.656  
  19163281.777  
  23522754.977   123612914.233    23522763.926    96321789.3994   23522764.039  
                
  21255297.094   113741381.920                    88465515.305    21255300.809  
  21255295.363  
  20521637.023   107841930.359    20521646.188    84032716.1604   20521646.555  
                
 21  8 14  2 57 40.0000000  0 14G 6R23G20G29R13R15G12R14G31G 2R24G24
                                R17G25
  22758627.961   119597394.708    22758636.977    93192810.5654   22758637.617  
                
  20795993.625   111244557.408                                                  
  20795991.922  
  23682886.250   124454409.127    23682893.164    96977489.6534                 
                
  22512031.984   118301529.209    22512038.363    92183039.4414   22512038.652  
                
  21423912.445   114402498.750                    88979741.423    21423915.496  
  21423910.867  
  21663490.078   115763117.620                    90037977.955    21663494.035  
  21663490.254  
  20185222.023   106074066.469    20185228.281    82655151.8414   20185228.234  
                
  19140468.391   102029469.352                    79356251.328    19140472.238  
  19140468.133  
  24596447.586   129255202.483    24596453.090   100718361.0214   24596453.766  
                
  21395899.867   112436210.910    21395904.430    87612654.1094                 
                
  19163728.203   102477075.038                    79704394.922    19163732.156  
  19163727.289  
  23529529.328   123648513.607    23529538.250    96349529.1554   23529538.363  
                
  21249274.117   113709151.852                    88440447.476    21249277.859  
  21249272.387  
  20518691.633   107826452.196    20518700.801    84020655.2514   20518701.180  
                
 21  8 14  2 57 50.0000000  0 14G 6R23G20G29R13R15G12R14G31G 2R24G24
                                R17G25
  22763845.047   119624810.592    22763854.078    93214173.5914   22763854.703  
                
  20801856.328   111275918.818                                                  
  20801854.633  
  23677839.820   124427889.937    23677846.797    96956825.3614                 
                
  22507251.992   118276410.192    22507258.387    92163466.1884   22507258.660  
                
  21430638.492   114438415.342                    89007676.548    21430641.539  
  21430636.898  
  21656731.328   115727000.966                    90009887.220    21656735.285  
  21656731.492  
  20186281.078   106079631.806    20186287.348    82659488.4594   20186287.297  
                
  19140071.625   102027354.398                    79354606.355    19140075.477  
  19140071.363  
  24590873.883   129225912.439    24590879.426   100695537.5944   24590880.078  
                
  21397756.047   112445965.173    21397760.586    87620254.8324                 
                
  19164186.938   102479528.102                    79706302.859    19164190.887  
  19164186.039  
  23536306.062   123684125.546    23536314.957    96377278.7114   23536315.078  
                
  21243259.633   113676967.149                    88415414.924    21243263.383  
  21243257.910  
  20515754.109   107811015.413    20515763.277    84008626.5864   20515763.664  
                
 21  8 14  2 58  0.0000000  0 14G 6R23G20G29R13R15G12R14G31G 2R24G24
                                R17G25
  22769069.859   119652267.138    22769078.941    93235568.2874   22769079.535  
                
  20807725.773   111307316.258                                                  
  20807724.098  
  23672797.930   124401394.876    23672805.020    96936179.8434                 
                
  22502476.891   118251316.868    22502483.305    92143912.9524   22502483.562  
                
  21437372.922   114474376.699                    89035646.481    21437375.926  
  21437371.312  
  21649978.359   115690915.184                    89981820.480    21649982.328  
  21649978.555  
  20187349.156   106085244.561    20187355.445    82663862.0344   20187355.395  
                
  19139689.633   102025318.143                    79353022.599    19139693.477  
  19139689.371  
  24585306.844   129196657.227    24585312.430   100672741.3144   24585313.035  
                
  21399622.297   112455772.354    21399626.812    87627896.7924                 
                
  19164658.898   102482051.840                    79708265.757    19164662.832  
  19164658.035  
  23543085.148   123719749.948    23543094.043    96405037.9764   23543094.176  
                
  21237253.648   113644827.847                    88390417.696    21237257.363  
  21237251.902  
  20512824.477   107795620.070    20512833.645    83996630.2104   20512834.047  
                
 21  8 14  2 58 10.0000000  0 14G 6R23G20G29R13R15G12R14G31G 2R24G24
                                R17G25
  22774302.305   119679763.826    22774311.438    93256994.2634   22774312.023  
                
  20813601.875   111338749.340                                                  
  20813600.223  
  23667760.656   124374923.676    23667767.801    96915552.9414                 
                
  22497706.648   118226249.074    22497713.102    92124379.5994   22497713.355  
                
  21444115.555   114510381.919                    89063650.514    21444118.559  
  21444113.891  
  21643231.164   115654860.179                    89953777.703    21643235.137  
  21643231.348  
  20188426.195   106090904.433    20188432.492    82668272.3154   20188432.430  
                
  19139322.289   102023360.020                    79351499.607    19139326.129  
  19139322.035  
  24579746.352   129167436.479    24579751.965   100649971.9264   24579752.539  
                
  21401498.523   112465631.978    21401503.012    87635579.6164                 
                
  19165143.977   102484645.782                    79710283.267    19165147.906  
  19165143.148  
  23549866.516   123755386.338    23549875.426    96432806.5814   23549875.551  
                
  21231256.094   113612733.674                    88365455.558    21231259.789  
  21231254.352  
  20509902.664   107780265.849    20509911.828    83984665.8774   20509912.238  
                
 21  8 14  2 58 20.0000000  0 14G 6R23G20G29R13R15G12R14G31G 2R24G24
                                R17G25
  22779542.461   119707301.039    22779551.629    93278451.8284   22779552.199  
                
  20819484.703   111370218.407                                                  
  20819483.066  
  23662728.000   124348476.961    23662735.219    96894945.1154                 
                
  22492941.367   118201207.309    22492947.859    92104866.5444   22492948.090  
                
  21450866.594   114546432.140                    89091689.551    21450869.645  
  21450864.887  
  21636489.812   115618836.502                    89925759.282    21636493.777  
  21636490.023  
  20189512.297   106096611.884    20189518.602    82672719.6714   20189518.523  
                
  19138969.719   102021480.595                    79350037.831    19138973.547  
  19138969.469  
  24574192.562   129138250.859    24574198.156   100627229.8674   24574198.703  
                
  21403384.836   112475544.583    21403389.305    87643303.7194                 
                
  19165642.312   102487310.492                    79712355.822    19165646.223  
  19165641.496  
  23556650.312   123791035.071    23556659.172    96460584.8074   23556659.297  
                
  21225267.047   113580685.103                    88340528.894    21225270.734  
  21225265.328  
  20506988.781   107764953.279    20506997.941    83972734.0044   20506998.371  
                
 21  8 14  2 58 30.0000000  0 14G 6R23G20G29R13R15G12R14G31G 2R24G24
                                R17G25
  22784790.375   119734878.995    22784799.578    93299941.1314   22784800.133  
                
  20825374.266   111401723.506                                                  
  20825372.648  
  23657700.062   124322055.105    23657707.320    96874356.6574                 
                
  22488181.070   118176191.787    22488187.598    92085373.9404   22488187.801  
                
  21457626.062   114582527.154                    89119763.436    21457629.129  
  21457624.367  
  21629754.406   115582844.544                    89897765.533    21629758.383  
  21629754.648  
  20190607.508   106102367.207    20190613.820    82677204.3384   20190613.734  
                
  19138631.992   102019680.294                    79348637.592    19138635.805  
  19138631.758  
  24568645.523   129109100.828    24568651.109   100604515.5634   24568651.621  
                
  21405281.273   112485510.395    21405285.723    87651069.2834                 
                
  19166153.883   102490046.061                    79714483.476    19166157.793  
  19166153.078  
  23563436.430   123826696.394    23563445.320    96488372.8414   23563445.453  
                
  21219286.633   113548682.652                    88315638.094    21219290.270  
  21219284.906  
  20504082.898   107749682.736    20504092.059    83960834.8784   20504092.496  
                
 21  8 14  2 58 40.0000000  0 14G 6R23G20G29R13R15G12R14G31G 2R24G24
                                R17G25
  22790045.953   119762497.191    22790055.164    93321461.7974   22790055.703  
                
  20831270.492   111433264.274                                                  
  20831268.863  
  23652676.781   124295657.789    23652684.047    96853787.3504                 
                
  22483425.711   118151202.228    22483432.242    92065901.5574   22483432.441  
                
  21464393.797   114618666.371                    89147871.715    21464396.910  
  21464392.129  
  21623024.875   115546883.982                    89869796.200    21623028.848  
  21623025.133  
  20191711.742   106108170.031    20191718.051    82681726.0154   20191717.973  
                
  19138309.047   102017958.799                    79347298.642    19138312.863  
  19138308.828  
  24563105.172   129079986.091    24563110.719   100581828.7444   24563111.258  
                
  21407187.734   112495528.927    21407192.168    87658875.9284                 
                
  19166678.617   102492852.062                    79716665.927    19166682.520  
  19166677.809  
  23570224.797   123862369.815    23570233.781    96516170.3074   23570233.902  
                
  21213314.734   113516725.859                    88290782.824    21213318.344  
  21213312.992  
  20501184.938   107734453.860    20501194.098    83948968.2174   20501194.539  
                
 21  8 14  2 58 50.0000000  0 14G 6R23G20G29R13R15G12R14G31G 2R24G24
                                R17G25
  22795309.180   119790155.590    22795318.383    93343013.7904   22795318.945  
                
  20837173.336   111464840.497                                                  
  20837171.695  
  23647658.281   124269285.186    23647665.516    96833237.2834                 
                
  22478675.305   118126238.665    22478681.824    92046449.4234   22478682.008  
                
  21471169.781   114654849.630                    89176014.233    21471172.938  
  21471168.117  
  21616301.312   115510955.238                    89841851.617    21616305.277  
  21616301.555  
  20192825.031   106114020.372    20192831.332    82686284.7134   20192831.258  
                
  19138000.891   102016316.143                    79346021.019    19138004.699  
  19138000.680  
  24557571.594   129050906.752    24557577.113   100559169.5144   24557577.664  
                
  21409104.227   112505600.126    21409108.645    87666723.6154                 
                
  19167216.508   102495728.380                    79718903.064    19167220.406  
  19167215.676  
  23577015.391   123898055.286    23577024.543    96543977.1324   23577024.664  
                
  21207351.422   113484814.938                    88265963.199    21207355.000  
  21207349.672  
  20498294.938   107719266.809    20498304.090    83937134.1484   20498304.539  
                
 21  8 14  2 59  0.0000000  0 14G 6R23G20G29R13R15G12R14G31G 2R24G24
                                R17G25
  22800580.031   119817854.041    22800589.246    93364596.9874   22800589.805  
                
  20843082.789   111496452.097                                                  
  20843081.156  
  23642644.586   124242937.439    23642651.730    96812706.5704                 
                
  22473929.836   118101301.042    22473936.336    92027017.5074   22473936.520  
                
  21477954.117   114691077.440                    89204191.403    21477957.270  
  21477952.445  
  21609583.711   115475058.347                    89813931.799    21609587.676  
  21609583.930  
  20193947.367   106119918.218    20193953.656    82690880.4354   20193953.578  
                
  19137707.539   102014752.354                    79344804.731    19137711.332  
  19137707.336  
  24552044.734   129021862.810    24552050.273   100536537.8874   24552050.828  
                
  21411030.734   112515723.933    21411035.145    87674612.2904                 
                
  19167767.586   102498675.239                    79721195.064    19167771.492  
  19167766.750  
  23583808.305   123933752.648    23583817.578    96571793.2334   23583817.715  
                
  21201396.656   113452949.676                    88241179.105    21201400.207  
  21201394.887  
  20495412.898   107704121.569    20495422.035    83925332.6564   20495422.500  
                
 21  8 14  2 59 10.0000000  0 14G 6R23G20G29R13R15G12R14G31G 2R24G24
                                R17G25
  22805858.477   119845592.423    22805867.711    93386211.2994   22805868.250  
                
  20848998.812   111528098.865                                                  
  20848997.164  
  23637635.617   124216614.533    23637642.637    96792195.2054                 
                
  22469189.297   118076389.386    22469195.766    92007605.8334   22469195.980  
                
  21484746.656   114727349.200                    89232402.769    21484749.770  
  21484744.973  
  21602872.031   115439193.169                    89786036.677    21602876.020  
  21602872.234  
  20195078.719   106125863.487    20195084.992    82695513.1084   20195084.910  
                
  19137428.977   102013267.421                    79343649.782    19137432.754  
  19137428.777  
  24546524.617   128992854.299    24546530.125   100513933.8334   24546530.664  
                
  21412967.219   112525900.225    21412971.621    87682541.8634                 
                
  19168331.773   102501692.199                    79723541.580    19168335.680  
  19168330.945  
  23590603.484   123969461.746    23590612.848    96599618.4824   23590612.984  
                
  21195450.445   113421130.320                    88216430.720    21195453.992  
  21195448.707  
  20492538.812   107689018.146    20492547.938    83913563.7564   20492548.422  
                
 21  8 14  2 59 20.0000000  0 14G 6R23G20G29R13R15G12R14G31G 2R24G24
                                R17G25
  22811144.484   119873370.517    22811153.711    93407856.5694   22811154.250  
                
  20854921.367   111559780.557                                                  
  20854919.688  
  23632631.305   124190316.493    23632638.266    96771703.2334                 
                
  22464453.688   118051503.615    22464460.137    91988214.3214   22464460.367  
                
  21491547.406   114763664.759                    89260648.194    21491550.473  
  21491545.703  
  21596166.328   115403359.991                    89758166.436    21596170.355  
  21596166.527  
  20196219.094   106131856.161    20196225.352    82700182.7184   20196225.273  
                
  19137165.188   102011861.259                    79342556.089    19137168.941  
  19137164.996  
  24541011.258   128963881.276    24541016.703   100491357.4654   24541017.227  
                
  21414913.672   112536128.869    21414918.070    87690512.2324                 
                
  19168909.062   102504779.246                    79725942.609    19168912.973  
  19168908.258  
  23597400.938   124005182.419    23597410.324    96627452.7544   23597410.461  
                
  21189512.805   113389356.771                    88191717.957    21189516.328  
  21189511.098  
  20489672.695   107673956.543    20489681.809    83901827.4364   20489682.301  
                
 21  8 14  2 59 30.0000000  0 14G 6R23G20G29R13R15G12R14G31G 2R24G24
                                R17G25
  22816438.086   119901188.530    22816447.309    93429532.9364   22816447.844  
                
  20860850.500   111591497.377                                                  
  20860848.789  
  23627631.742   124164043.674    23627638.707    96751230.9104                 
                
  22459723.055   118026643.964    22459729.500    91968843.1654   22459729.742  
                
  21498356.312   114800024.060                    89288927.641    21498359.395  
  21498354.668  
  21589466.680   115367559.121                    89730321.321    21589470.719  
  21589466.859  
  20197368.539   106137896.497    20197374.773    82704889.4704   20197374.707  
                
  19136916.266   102010534.336                    79341524.036    19136920.027  
  19136916.070  
  24535504.727   128934944.133    24535510.137   100468809.0354   24535510.664  
                
  21416870.141   112546410.170    21416874.520    87698523.6304                 
                
  19169499.508   102507936.522                    79728398.264    19169503.406  
  19169498.730  
  23604200.672   124040914.819    23604210.035    96655296.1654   23604210.156  
                
  21183583.805   113357629.425                    88167041.126    21183587.328  
  21183582.090  
  20486814.586   107658937.062    20486823.688    83890123.9494   20486824.191  
                
 21  8 14  2 59 40.0000000  0 14G 6R23G20G29R13R15G12R14G31G 2R24G24
                                R17G25
  22821739.242   119929046.255    22821748.453    93451240.2384   22821748.996  
                
  20866786.148   111623249.098                                                  
  20866784.414  
  23622637.016   124137796.156    23622643.996    96730778.3204                 
                
  22454997.375   118001810.343    22455003.840    91949492.2914   22455004.082  
                
  21505173.523   114836427.362                    89317241.314    21505176.543  
  21505171.902  
  21582773.070   115331790.603                    89702501.365    21582777.141  
  21582773.219  
  20198527.047   106143984.485    20198533.258    82709633.3504   20198533.203  
                
  19136682.156   102009286.416                    79340553.428    19136685.910  
  19136681.957  
  24530004.992   128906042.814    24530010.445   100446288.5214   24530010.969  
                
  21418836.594   112556743.927    21418840.949    87706575.9024                 
                
  19170103.039   102511163.842                    79730908.391    19170106.938  
  19170102.281  
  23611002.609   124076658.760    23611011.934    96683148.5714   23611012.043  
                
  21177663.398   113325948.125                    88142400.121    21177666.922  
  21177661.664  
  20483964.484   107643959.685    20483973.574    83878453.2594   20483974.082  
                
 21  8 14  2 59 50.0000000  0 14G 6R23G20G29R13R15G12R14G31G 2R24G24
                                R17G25
  22827047.922   119956943.584    22827057.152    93472978.3964   22827057.688  
                
  20872728.305   111655035.607                                                  
  20872726.574  
  23617647.195   124111574.023    23617654.137    96710345.4874                 
                
  22450276.672   117977002.881    22450283.160    91930161.7924   22450283.371  
                
  21511998.938   114872874.644                    89345589.176    21512001.965  
  21511997.309  
  21576085.555   115296054.577                    89674706.676    21576089.637  
  21576085.668  
  20199694.617   106150120.089    20199700.801    82714414.3374   20199700.758  
                
  19136462.906   102008117.678                    79339644.401    19136466.668  
  19136462.711  
  24524512.102   128877177.474    24524517.613   100423796.0654   24524518.121  
                
  21420813.023   112567130.122    21420817.352    87714669.0424                 
                
  19170719.703   102514461.401                    79733473.162    19170723.586  
  19170718.957  
  23617806.734   124112414.153    23617815.996    96711009.9064   23617816.102  
                
  21171751.617   113294313.011                    88117795.042    21171755.156  
  21171749.871  
  20481122.414   107629024.481    20481131.500    83866815.4344   20481132.020  
                
 21  8 14  3  0  0.0000000  0 14G 6R23G20G29R13R15G12R14G31G 2R24G24
                                R17G25
  22832364.117   119984880.342    22832373.371    93494747.2884   22832373.910  
                
  20878676.906   111686856.605                                                  
  20878675.184  
  23612662.141   124085377.273    23612669.094    96689932.4344                 
                
  22445560.922   117952221.443    22445567.453    91910851.5824   22445567.645  
                
  21518832.461   114909365.271                    89373970.765    21518835.484  
  21518830.820  
  21569404.125   115260351.068                    89646937.276    21569408.215  
  21569404.223  
  20200871.242   106156303.303    20200877.398    82719232.4234   20200877.375  
                
  19136258.523   102007028.171                    79338796.995    19136262.277  
  19136258.328  
  24519026.047   128848348.117    24519031.641   100401331.6264   24519032.113  
                
  21422799.422   112577568.669    21422803.730    87722802.9684                 
                
  19171349.406   102517828.709                    79736092.178    19171353.277  
  19171348.648  
  23624613.000   124148180.803    23624622.207    96738880.0054   23624622.289  
                
  21165848.477   113262724.094                    88093225.875    21165852.023  
  21165846.707  
  20478288.367   107614131.392    20478297.449    83855210.4274   20478297.969  
                
 21  8 14  3  0 10.0000000  0 14G 6R23G20G29R13R15G12R14G31G 2R24G24
                                R17G25
  22837687.844   120012856.693    22837697.098    93516547.0364   22837697.641  
                
  20884631.992   111718712.308                                                  
  20884630.285  
  23607682.016   124059206.289    23607688.957    96669539.4764                 
                
  22440850.172   117927466.335    22440856.770    91891561.8984   22440856.949  
                
  21525674.180   114945899.601                    89402386.327    21525677.219  
  21525672.543  
  21562728.852   115224680.466                    89619193.479    21562732.941  
  21562728.945  
  20202056.977   106162534.367    20202063.113    82724087.7944   20202063.102  
                
  19136069.039   102006018.103                    79338011.388    19136072.789  
  19136068.855  
  24513546.898   128819555.016    24513552.543   100378895.4544   24513552.977  
                
  21424795.797   112588059.698    21424800.086    87730977.7994                 
                
  19171992.242   102521266.253                    79738765.827    19171996.113  
  19171991.469  
  23631421.344   124183958.874    23631430.562    96766759.0104   23631430.645  
                
  21159954.016   113231181.575                    88068692.810    21159957.562  
  21159952.254  
  20475462.391   107599280.778    20475471.484    83843638.5134   20475471.992  
                
 21  8 14  3  0 20.0000000  0 14G 6R23G20G29R13R15G12R14G31G 2R24G24
                                R17G25
  22843019.039   120040872.236    22843028.266    93538377.3304   22843028.820  
                
  20890593.500   111750602.289                                                  
  20890591.777  
  23602706.750   124033060.928    23602713.719    96649166.4854                 
                
  22436144.367   117902737.199    22436151.023    91872292.4424   22436151.184  
                
  21532524.016   114982477.353                    89430835.673    21532527.023  
  21532522.387  
  21556059.734   115189042.744                    89591475.242    21556063.816  
  21556059.848  
  20203251.773   106168813.021    20203257.902    82728980.2484   20203257.902  
                
  19135894.398   102005087.135                    79337287.296    19135898.137  
  19135894.219  
  24508074.633   128790798.063    24508080.320   100356487.4364   24508080.727  
                
  21426802.094   112598602.826    21426806.367    87739193.2224                 
                
  19172648.125   102524773.576                    79741493.747    19172651.992  
  19172647.340  
  23638231.773   124219748.013    23638241.016    96794646.6364   23638241.098  
                
  21154068.219   113199685.385                    88044195.771    21154071.750  
  21154066.453  
  20472644.453   107584472.392    20472653.570    83832099.5124   20472654.070  
                
 21  8 14  3  0 30.0000000  0 14G 6R23G20G29R13R15G12R14G31G 2R24G24
                                R17G25
  22848357.711   120068927.038    22848366.910    93560238.2074   22848367.480  
                
  20896561.414   111782526.487                                                  
  20896559.699  
  23597736.391   124006941.451    23597743.344    96628813.6584                 
                
  22431443.508   117878034.051    22431450.207    91853043.2364   22431450.355  
                
  21539381.945   115019098.267                    89459318.605    21539384.969  
  21539380.312  
  21549396.812   115153438.082                    89563782.730    21549400.863  
  21549396.945  
  20204455.633   106175139.343    20204461.754    82733909.8454   20204461.762  
                
  19135734.641   102004235.459                    79336624.880    19135738.375  
  19135734.469  
  24502609.305   128762077.480    24502614.980   100334107.7424   24502615.367  
                
  21428818.312   112609198.104    21428822.574    87747449.2784                 
                
  19173317.055   102528350.621                    79744275.882    19173320.914  
  19173316.254  
  23645044.281   124255548.220    23645053.535    96822542.8854   23645053.648  
                
  21148191.094   113168235.677                    88019734.894    21148194.629  
  21148189.340  
  20469834.594   107569706.439    20469843.734    83820593.5674   20469844.211  
                
 21  8 14  3  0 40.0000000  0 14G 6R23G20G29R13R15G12R14G31G 2R24G24
                                R17G25
  22853703.758   120097020.654    22853712.961    93582129.3264   22853713.520  
                
  20902535.656   111814484.589                                                  
  20902533.961  
  23592770.922   123980847.688    23592777.828    96608480.8554                 
                
  22426747.539   117853356.617    22426754.258    91833814.0614   22426754.406  
                
  21546247.914   115055762.109                    89487834.914    21546250.898  
  21546246.285  
  21542740.039   115117866.318                    89536115.799    21542744.078  
  21542740.176  
  20205668.508   106181513.024    20205674.629    82738876.3514   20205674.645  
                
  19135589.719   102003462.961                    79336024.043    19135593.453  
  19135589.555  
  24497150.828   128733392.994    24497156.543   100311756.2114   24497156.934  
                
  21430844.391   112619845.206    21430848.637    87755745.7174                 
                
  19173998.977   102531997.154                    79747112.075    19174002.836  
  19173998.195  
  23651858.836   124291359.102    23651868.094    96850447.4514   23651868.219  
                
  21142322.586   113136832.081                    87995309.869    21142326.109  
  21142320.820  
  20467032.742   107554982.650    20467041.906    83809120.4814   20467042.383  
                
 21  8 14  3  0 50.0000000  0 14G 6R23G20G29R13R15G12R14G31G 2R24G24
                                R17G25
  22859057.297   120125153.632    22859066.500    93604051.1164   22859067.078  
                
  20908516.336   111846477.106                                                  
  20908514.645  
  23587810.453   123954780.264    23587817.344    96588168.5924                 
                
  22422056.672   117828705.978    22422063.387    91814605.7634   22422063.535  
                
  21553122.039   115092469.500                    89516385.107    21553125.020  
  21553120.398  
  21536089.562   115082328.134                    89508474.979    21536093.578  
  21536089.691  
  20206890.508   106187934.718    20206896.629    82743880.2574   20206896.656  
                
  19135459.773   102002770.206                    79335485.216    19135463.500  
  19135459.617  
  24491699.375   128704745.429    24491705.121   100289433.4094   24491705.496  
                
  21432880.438   112630544.685    21432884.680    87764082.9744                 
                
  19174694.008   102535713.719                    79750002.722    19174697.863  
  19174693.246  
  23658675.492   124327181.168    23658684.820    96878360.7314   23658684.938  
                
  21136462.836   113105475.361                    87970921.309    21136466.344  
  21136461.082  
  20464239.062   107540301.703    20464248.242    83797680.7774   20464248.711  
                
 21  8 14  3  1  0.0000000  0 14G 6R23G20G29R13R15G12R14G31G 2R24G24
                                R17G25
  22864418.227   120153325.539    22864427.430    93626003.2294   22864428.012  
                
  20914503.320   111878503.369                                                  
  20914501.633  
  23582854.961   123928738.948    23582861.836    96567876.6364                 
                
  22417370.820   117804081.691    22417377.535    91795418.0134   22417377.695  
                
  21560004.195   115129219.906                    89544968.739    21560007.180  
  21560002.520  
  21529445.352   115046823.485                    89480860.263    21529449.359  
  21529445.480  
  20208121.602   106194404.158    20208127.719    82748921.3724   20208127.758  
                
  19135344.719   102002156.896                    79335008.200    19135348.457  
  19135344.570  
  24486254.859   128676134.418    24486260.656   100267139.1154   24486261.023  
                
  21434926.359   112641296.119    21434930.598    87772460.7084                 
                
  19175402.039   102539499.849                    79752947.488    19175405.887  
  19175401.289  
  23665494.227   124363013.974    23665503.598    96906282.3854   23665503.707  
                
  21130611.812   113074165.277                    87946569.007    21130615.289  
  21130610.055  
  20461453.469   107525663.347    20461462.672    83786274.2554   20461463.137  
                
 21  8 14  3  1 10.0000000  0 14G 6R23G20G29R13R15G12R14G31G 2R24G24
                                R17G25
  22869786.570   120181536.435    22869795.797    93647985.7244   22869796.391  
                
  20920496.641   111910563.573                                                  
  20920494.957  
  23577904.484   123902723.988    23577911.352    96547605.2614                 
                
  22412690.000   117779483.860    22412696.715    91776250.8744   22412696.867  
                
  21566894.445   115166013.442                    89573585.906    21566897.402  
  21566892.746  
  21522807.438   115011352.508                    89453271.717    21522811.438  
  21522807.570  
  20209361.812   106200921.484    20209367.926    82753999.8044   20209367.977  
                
  19135244.641   102001623.351                    79334593.218    19135248.383  
  19135244.492  
  24480817.367   128647560.226    24480823.227   100244873.5384   24480823.602  
                
  21436982.219   112652099.698    21436986.453    87780879.0804                 
                
  19176123.109   102543355.694                    79755946.478    19176126.961  
  19176122.352  
  23672315.016   124398857.622    23672324.449    96934212.4854   23672324.551  
                
  21124769.516   113042901.950                    87922253.089    21124772.965  
  21124767.754  
  20458676.023   107511067.752    20458685.258    83774901.0764   20458685.703  
                
 21  8 14  3  1 20.0000000  0 14G 6R23G20G29R13R15G12R14G31G 2R24G24
                                R17G25
  22875162.258   120209785.970    22875171.523    93669998.3404   22875172.109  
                
  20926496.250   111942657.347                                                  
  20926494.586  
  23572959.031   123876735.346    23572965.898    96527354.3714                 
                
  22408014.172   117754912.203    22408020.883    91757104.1274   22408021.035  
                
  21573792.703   115202849.751                    89602236.384    21573795.648  
  21573791.008  
  21516175.828   114975915.122                    89425709.286    21516179.816  
  21516175.980  
  20210611.094   106207486.488    20210617.211    82759115.3854   20210617.262  
                
  19135159.445   102001169.201                    79334239.988    19135163.199  
  19135159.289  
  24475386.891   128619022.776    24475392.785   100222636.5574   24475393.152  
                
  21439047.945   112662955.117    21439052.180    87789337.8504                 
                
  19176857.164   102547280.996                    79758999.488    19176861.023  
  19176856.395  
  23679137.766   124434711.768    23679147.305    96962150.7514   23679147.398  
                
  21118935.930   113011685.299                    87897973.476    21118939.391  
  21118934.152  
  20455906.695   107496514.819    20455915.961    83763561.1184   20455916.383  
                
 21  8 14  3  1 30.0000000  0 14G 6R23G20G29R13R15G12R14G31G 2R24G24
                                R17G25
  22880545.289   120238073.998    22880554.578    93692040.9384   22880555.164  
                
  20932502.078   111974784.433                                                  
  20932500.422  
  23568018.609   123850773.073    23568025.496    96507124.0254                 
                
  22403343.312   117730366.661    22403350.023    91737977.7264   22403350.184  
                
  21580698.992   115239728.654                    89630919.956    21580701.887  
  21580697.270  
  21509550.523   114940511.470                    89398173.116    21509554.508  
  21509550.684  
  20211869.438   106214099.141    20211875.559    82764268.0954   20211875.609  
                
  19135089.172   102000794.576                    79333948.607    19135092.914  
  19135089.016  
  24469963.391   128590522.115    24469969.344   100200428.2714   24469969.688  
                
  21441123.508   112673862.263    21441127.746    87797836.9154                 
                
  19177604.180   102551275.584                    79762106.388    19177608.039  
  19177603.395  
  23685962.562   124470576.228    23685972.098    96990097.0714   23685972.160  
                
  21113111.047   112980515.303                    87873730.151    21113114.539  
  21113109.258  
  20453145.469   107482004.501    20453154.766    83752254.3784   20453155.168  
                
 21  8 14  3  1 40.0000000  0 14G 6R23G20G29R13R15G12R14G31G 2R24G24
                                R17G25
  22885935.633   120266400.503    22885944.914    93714113.5194   22885945.508  
                
  20938514.125   112006944.833                                                  
  20938512.453  
  23563083.219   123824837.311    23563090.152    96486914.3704                 
                
  22398677.445   117705847.343    22398684.156    91718871.7534   22398684.312  
                
  21587613.250   115276650.249                    89659636.747    21587616.121  
  21587611.531  
  21502931.555   114905141.648                    89370663.248    21502935.520  
  21502931.746  
  20213136.859   106220759.492    20213142.984    82769457.9724   20213143.035  
                
  19135033.836   102000499.568                    79333719.145    19135037.578  
  19135033.684  
  24464546.914   128562058.331    24464552.898   100178248.6784   24464553.207  
                
  21443208.914   112684821.134    21443213.168    87806376.2914                 
                
  19178364.133   102555339.425                    79765267.152    19178368.000  
  19178363.344  
  23692789.391   124506451.007    23692798.871    97018051.4374   23692798.914  
                
  21107294.914   112949392.137                    87849523.252    21107298.406  
  21107293.121  
  20450392.391   107467536.938    20450401.711    83740980.9524   20450402.109  
                
 21  8 14  3  1 50.0000000  0 14G 6R23G20G29R13R15G12R14G31G 2R24G24
                                R17G25
  22891333.273   120294765.234    22891342.512    93736215.9064   22891343.141  
                
  20944532.391   112039138.403                                                  
  20944530.707  
  23558152.875   123798928.080    23558159.859    96466725.3684                 
                
  22394016.523   117681354.053    22394023.270    91699786.0774   22394023.426  
                
  21594535.383   115313613.928                    89688386.283    21594538.242  
  21594533.656  
  21496318.938   114869805.733                    89343179.766    21496322.891  
  21496319.137  
  20214413.312   106227467.292    20214419.453    82774684.8254   20214419.496  
                
  19134993.414   102000284.092                    79333551.550    19134997.152  
  19134993.262  
  24459137.453   128533631.375    24459143.469   100156097.8054   24459143.773  
                
  21445304.117   112695831.509    21445308.391    87814955.8084                 
                
  19179137.000   102559472.263                    79768481.579    19179140.867  
  19179136.223  
  23699618.203   124542335.866    23699627.547    97046013.6524   23699627.590  
                
  21101487.500   112918315.618                    87825352.629    21101491.000  
  21101485.711  
  20447647.430   107453112.071    20447656.770    83729740.7974   20447657.180  
                
 21  8 14  3  2  0.0000000  0 14G 6R23G20G29R13R15G12R14G31G 2R24G24
                                R17G25
  22896738.234   120323168.449    22896747.414    93758348.2714   22896748.047  
                
  20950556.836   112071365.128                                                  
  20950555.156  
  23553227.672   123773045.800    23553234.621    96446557.3334                 
                
  22389360.656   117656887.288    22389367.453    91680721.0694   22389367.602  
                
  21601465.586   115350620.537                    89717169.177    21601468.398  
  21601463.801  
  21489712.758   114834504.253                    89315723.057    21489716.723  
  21489712.949  
  20215698.875   106234222.994    20215705.020    82779948.9994   20215705.066  
                
  19134967.984   102000148.507                    79333446.089    19134971.730  
  19134967.836  
  24453735.086   128505241.741    24453741.133   100133976.0034   24453741.410  
                
  21447409.195   112706893.716    21447413.484    87823575.7074                 
                
  19179922.875   102563674.658                    79771750.105    19179926.734  
  19179922.133  
  23706448.891   124578231.045    23706458.195    97073983.9124   23706458.246  
                
  21095688.922   112887286.233                    87801218.663    21095692.402  
  21095687.152  
  20444910.672   107438730.280    20444920.020    83718534.1974   20444920.438  
                
 21  8 14  3  2 10.0000000  0 14G 6R23G20G29R13R15G12R14G31G 2R24G24
                                R17G25
  22902150.469   120351609.833    22902159.613    93780510.3824   22902160.246  
                
  20956587.477   112103624.888                                                  
  20956585.797  
  23548307.508   123747190.280    23548314.438    96426410.1894                 
                
  22384709.789   117632446.819    22384716.605    91661676.5464   22384716.750  
                
  21608403.656   115387669.416                    89745984.954    21608406.496  
  21608401.848  
  21483112.992   114799237.054                    89288293.004    21483116.957  
  21483113.195  
  20216993.539   106241026.491    20216999.688    82785250.4194   20216999.730  
                
  19134957.500   102000092.567                    79333402.576    19134961.254  
  19134957.352  
  24448339.781   128476889.331    24448345.891   100111883.2204   24448346.152  
                
  21449524.078   112718007.480    21449528.387    87832235.7794                 
                
  19180721.656   102567946.008                    79775072.264    19180725.531  
  19180720.926  
  23713281.461   124614136.213    23713290.766    97101961.9524   23713290.805  
                
  21089899.117   112856303.765                    87777121.182    21089902.598  
  21089897.367  
  20442182.086   107424391.424    20442191.430    83707361.0624   20442191.855  
                
 21  8 14  3  2 20.0000000  0 14G 6R23G20G29R13R15G12R14G31G 2R24G24
                                R17G25
  22907569.984   120380089.502    22907579.121    93802702.3264   22907579.742  
                
  20962624.258   112135917.514                                                  
  20962622.574  
  23543392.508   123721361.945    23543399.434    96406284.2334                 
                
  22380063.977   117608032.920    22380070.793    91642652.7284   22380070.965  
                
  21615349.695   115424760.658                    89774833.680    21615352.559  
  21615347.863  
  21476519.711   114764004.525                    89260889.915    21476523.680  
  21476519.941  
  20218297.336   106247877.976    20218303.484    82790589.2364   20218303.527  
                
  19134962.008   102000116.581                    79333421.253    19134965.766  
  19134961.859  
  24442951.625   128448574.349    24442957.758   100089819.5884   24442958.016  
                
  21451648.797   112729172.938    21451653.125    87840936.1334                 
                
  19181533.375   102572286.634                    79778448.305    19181537.254  
  19181532.652  
  23720115.953   124650051.515    23720125.270    97129947.8924   23720125.309  
                
  21084118.164   112825368.612                    87753060.508    21084121.633  
  21084116.426  
  20439461.719   107410095.779    20439471.051    83696221.5984   20439471.477  
                
 21  8 14  3  2 30.0000000  0 14G 6R23G20G29R13R15G12R14G31G 2R24G24
                                R17G25
  22912996.711   120408607.127    22913005.855    93824923.8404   22913006.480  
                
  20968667.148   112168242.875                                                  
  20968665.461  
  23538482.672   123695560.670    23538489.586    96386179.3484                 
                
  22375423.148   117583645.274    22375429.977    91623649.3604   22375430.152  
                
  21622303.586   115461893.943                    89803715.099    21622306.496  
  21622301.738  
  21469932.906   114728806.651                    89233513.798    21469936.863  
  21469933.141  
  20219610.211   106254777.212    20219616.359    82795965.2544   20219616.402  
                
  19134981.469   102000220.305                    79333501.917    19134985.227  
  19134981.316  
  24437570.562   128420296.702    24437576.746   100067785.0404   24437576.973  
                
  21453783.289   112740389.795    21453787.633    87849676.5324                 
                
  19182358.000   102576696.251                    79781878.003    19182361.887  
  19182357.281  
  23726952.320   124685976.625    23726961.672    97157941.4664   23726961.688  
                
  21078346.016   112794480.616                    87729036.500    21078349.469  
  21078344.324  
  20436749.539   107395843.171    20436758.848    83685115.6604   20436759.293  
                
 21  8 14  3  2 40.0000000  0 14G 6R23G20G29R13R15G12R14G31G 2R24G24
                                R17G25
  22918430.680   120437162.754    22918439.832    93847174.9714   22918440.441  
                
  20974716.141   112200600.888                                                  
  20974714.453  
  23533578.031   123669786.671    23533584.941    96366095.7144                 
                
  22370787.344   117559283.999    22370794.172    91604666.5564   22370794.348  
                
  21629265.383   115499069.490                    89832629.380    21629268.309  
  21629263.508  
  21463352.625   114693643.596                    89206164.743    21463356.562  
  21463352.863  
  20220932.203   106261724.314    20220938.359    82801378.5764   20220938.395  
                
  19135015.938   102000404.066                    79333644.839    19135019.707  
  19135015.785  
  24432196.633   128392056.590    24432202.898   100045779.7734   24432203.105  
                
  21455927.578   112751658.101    21455931.938    87858457.0334                 
                
  19183195.523   102581174.867                    79785361.372    19183199.422  
  19183194.793  
  23733790.547   124721911.602    23733799.945    97185942.7264   23733799.949  
                
  21072582.695   112763639.878                    87705049.264    21072586.152  
  21072581.047  
  20434045.586   107381633.798    20434054.875    83674043.4184   20434055.332  
                
 21  8 14  3  2 50.0000000  0 14G 6R23G20G29R13R15G12R14G31G 2R24G24
                                R17G25
  22923871.859   120465756.320    22923881.020    93869455.6674   22923881.633  
                
  20980771.258   112232991.569                                                  
  20980769.570  
  23528678.641   123644040.127    23528685.516    96346033.4704                 
                
  22366156.547   117534949.061    22366163.375    91585704.2654   22366163.555  
                
  21636235.086   115536286.891                    89861576.261    21636237.949  
  21636233.168  
  21456778.891   114658515.598                    89178842.986    21456782.844  
  21456779.121  
  20222263.336   106268719.475    20222269.508    82806829.3424   20222269.543  
                
  19135065.430   102000667.867                    79333850.016    19135069.223  
  19135065.270  
  24426829.891   128363854.217    24426836.242   100023803.8874   24426836.426  
                
  21458081.656   112762977.845    21458086.016    87867277.6134                 
                
  19184045.961   102585722.517                    79788898.425    19184049.867  
  19184045.215  
  23740630.617   124757856.360    23740640.062    97213951.6044   23740640.047  
                
  21066828.211   112732846.426                    87681098.804    21066831.672  
  21066826.562  
  20431349.883   107367467.766    20431359.156    83663004.9434   20431359.621  
                
 21  8 14  3  3  0.0000000  0 14G 6R23G20G29R13R15G12R14G31G 2R24G24
                                R17G25
  22929320.242   120494387.725    22929329.391    93891765.8404   22929330.020  
                
  20986832.430   112265414.663                                                  
  20986830.746  
  23523784.508   123618321.116    23523791.344    96325992.6884                 
                
  22361530.820   117510640.720    22361537.668    91566762.7024   22361537.852  
                
  21643212.539   115573546.175                    89890555.702    21643215.445  
  21643210.641  
  21450211.734   114623422.677                    89151548.471    21450215.699  
  21450211.961  
  20223603.594   106275762.573    20223609.781    82812317.4704   20223609.805  
                
  19135129.953   102001011.804                    79334117.518    19135133.754  
  19135129.781  
  24421470.336   128335689.719    24421476.781   100001857.5524   24421476.957  
                
  21460245.531   112774349.035    21460249.891    87876138.2804                 
                
  19184909.289   102590339.085                    79792489.087    19184913.191  
  19184908.535  
  23747472.438   124793810.809    23747482.004    97241968.0394   23747481.965  
                
  21061082.594   112702100.397                    87657185.216    21061086.035  
  21061080.922  
  20428662.438   107353345.113    20428671.707    83652000.2814   20428672.176  
                
 21  8 14  3  3 10.0000000  0 14G 6R23G20G29R13R15G12R14G31G 2R24G24
                                R17G25
  22934775.789   120523056.714    22934784.945    93914105.3064   22934785.582  
                
  20992899.609   112297869.963                                                  
  20992897.918  
  23518895.586   123592629.647    23518902.410    96305973.3724                 
                
  22356910.141   117486358.860    22356917.012    91547841.7704   22356917.199  
                
  21650197.883   115610847.369                    89919567.736    21650200.754  
  21650195.980  
  21443651.156   114588364.989                    89124281.386    21443655.129  
  21443651.355  
  20224952.930   106282853.387    20224959.129    82817842.7674   20224959.156  
                
  19135209.484   102001435.734                    79334447.233    19135213.289  
  19135209.293  
  24416117.969   128307562.996    24416124.434    99979940.6004   24416124.609  
                
  21462419.156   112785771.514    21462423.508    87885038.9104                 
                
  19185785.477   102595024.468                    79796133.270    19185789.391  
  19185784.734  
  23754316.008   124829774.695    23754325.691    97269991.8194   23754325.676  
                
  21055345.820   112671401.693                    87633308.439    21055349.258  
  21055344.168  
  20425983.227   107339265.773    20425992.484    83641029.3634   20425992.949  
                
 21  8 14  3  3 20.0000000  0 14G 6R23G20G29R13R15G12R14G31G 2R24G24
                                R17G25
  22940238.633   120551764.084    22940247.816    93936474.6724   22940248.438  
                
  20998972.961   112330358.263                                                  
  20998971.270  
  23514012.094   123566966.646    23514018.906    96285976.2374                 
                
  22352294.656   117462104.333    22352301.508    91528942.1364   22352301.672  
                
  21657191.227   115648191.215                    89948612.923    21657194.066  
  21657189.281  
  21437097.352   114553343.431                    89097042.406    21437101.352  
  21437097.500  
  20226311.523   106289992.877    20226317.730    82823406.0004   20226317.746  
                
  19135304.188   102001940.519                    79334839.842    19135308.004  
  19135303.992  
  24410772.992   128279475.050    24410779.492    99958053.8734   24410779.676  
                
  21464602.688   112797246.062    21464607.031    87893980.1174                 
                
  19186674.656   102599779.243                    79799831.431    19186678.559  
  19186673.922  
  23761161.516   124865748.818    23761171.352    97298023.5684   23761171.352  
                
  21049618.062   112640751.301                    87609469.261    21049621.520  
  21049616.426  
  20423312.438   107325230.650    20423321.680    83630092.9004   20423322.148  
                
 21  8 14  3  3 30.0000000  0 14G 6R23G20G29R13R15G12R14G31G 2R24G24
                                R17G25
  22945708.273   120580507.212    22945717.480    93958871.9054   22945718.086  
                
  21005051.953   112362876.762                                                  
  21005050.230  
  23509133.562   123541329.703    23509140.398    96265999.4044                 
                
  22347683.891   117437874.610    22347690.699    91510061.8304   22347690.867  
                
  21664191.984   115685574.782                    89977689.025    21664194.797  
  21664190.055  
  21430549.836   114518355.573                    89069829.623    21430553.840  
  21430549.957  
  20227678.922   106297178.632    20227685.121    82829005.2834   20227685.152  
                
  19135413.602   102002523.785                    79335293.489    19135417.410  
  19135413.406  
  24405434.891   128251423.353    24405441.461    99936195.4354   24405441.629  
                
  21466795.633   112808770.073    21466799.969    87902959.8604                 
                
  19187576.336   102604600.916                    79803581.612    19187580.238  
  19187575.613  
  23768008.547   124901730.544    23768018.453    97326061.2524   23768018.457  
                
  21043898.828   112610146.650                    87585665.643    21043902.301  
  21043897.184  
  20420649.602   107311237.345    20420658.820    83619189.0184   20420659.293  
                
 21  8 14  3  3 40.0000000  0 14G 6R23G20G29R13R15G12R14G31G 2R24G24
                                R17G25
  22951185.117   120609288.135    22951194.348    93981298.5824   22951194.930  
                
  21011137.016   112395427.658                                                  
  21011135.254  
  23504260.430   123515721.125    23504267.312    96246044.6724                 
                
  22343078.250   117413671.780    22343085.027    91491202.4744   22343085.211  
                
  21671200.570   115723000.175                    90006797.649    21671203.379  
  21671198.680  
  21424009.078   114483403.840                    89042644.944    21424013.090  
  21424009.211  
  20229055.531   106304412.720    20229061.723    82834642.2304   20229061.758  
                
  19135538.133   102003187.554                    79335809.754    19135541.938  
  19135537.934  
  24400104.141   128223410.196    24400110.777    99914367.0074   24400110.926  
                
  21468998.383   112820345.618    21469002.715    87911979.7654                 
                
  19188490.898   102609491.468                    79807385.373    19188494.801  
  19188490.176  
  23774857.547   124937721.910    23774867.387    97354106.4644   23774867.375  
                
  21038188.594   112579590.083                    87561899.433    21038192.113  
  21038186.922  
  20417995.133   107297288.007    20418004.336    83608319.4044   20418004.805  
                
 21  8 14  3  3 50.0000000  0 14G 6R23G20G29R13R15G12R14G31G 2R24G24
                                R17G25
  22956669.055   120638106.389    22956678.281    94003754.3524   22956678.848  
                
  21017228.023   112428010.442                                                  
  21017226.227  
  23499392.656   123490140.685    23499399.559    96226111.8614                 
                
  22338477.664   117389495.531    22338484.414    91472363.8304   22338484.605  
                
  21678216.914   115760467.225                    90035938.677    21678219.793  
  21678215.062  
  21417475.047   114448487.942                    89015488.126    21417479.047  
  21417475.199  
  20230441.258   106311694.766    20230447.445    82840316.5504   20230447.488  
                
  19135677.711   102003931.577                    79336388.426    19135681.512  
  19135677.512  
  24394780.695   128195435.311    24394787.332    99892568.3904   24394787.484  
                
  21471210.859   112831972.257    21471215.180    87921039.4854                 
                
  19189418.328   102614450.786                    79811242.617    19189422.234  
  19189417.602  
  23781708.391   124973722.444    23781718.031    97382158.8234   23781718.004  
                
  21032487.273   112549081.176                    87538170.281    21032490.820  
  21032485.594  
  20415348.984   107283382.357    20415358.156    83597483.8214   20415358.637  
                
 21  8 14  3  4  0.0000000  0 14G 6R23G20G29R13R15G12R14G31G 2R24G24
                                R17G25
  22962160.078   120666961.812    22962169.297    94026239.1014   22962169.859  
                
  21023324.961   112460624.873                                                  
  21023323.148  
  23494530.234   123464588.423    23494537.172    96206201.0164                 
                
  22333882.125   117365345.840    22333888.883    91453545.8954   22333889.082  
                
  21685241.039   115797975.561                    90065111.806    21685243.930  
  21685239.195  
  21410947.711   114413607.895                    88988359.192    21410951.699  
  21410947.871  
  20231836.109   106319024.767    20231842.281    82846028.2284   20231842.320  
                
  19135832.367   102004755.951                    79337029.601    19135836.168  
  19135832.152  
  24389464.523   128167498.744    24389471.152    99870799.6374   24389471.293  
                
  21473433.055   112843649.925    21473437.367    87930138.9654                 
                
  19190358.555   102619478.621                    79815153.155    19190362.469  
  19190357.809  
  23788560.898   125009732.017    23788570.383    97410218.2404   23788570.359  
                
  21026794.891   112518620.047                    87514478.287    21026798.441  
  21026793.223  
  20412711.133   107269520.368    20412720.277    83586682.2734   20412720.766  
                
 21  8 14  3  4 10.0000000  0 14G 6R23G20G29R13R15G12R14G31G 2R24G24
                                R17G25
  22967658.148   120695854.288    22967667.355    94048752.7154   22967667.906  
                
  21029427.773   112493270.762                                                  
  21029425.969  
  23489673.172   123439064.352    23489680.133    96186312.1344                 
                
  22329291.609   117341222.530    22329298.398    91434748.5184   22329298.605  
                
  21692272.883   115835525.006                    90094316.920    21692275.766  
  21692271.039  
  21404427.125   114378763.865                    88961258.280    21404431.109  
  21404427.285  
  20233240.086   106326402.691    20233246.250    82851777.2584   20233246.301  
                
  19136002.062   102005660.530                    79337733.153    19136005.871  
  19136001.848  
  24384155.680   128139600.556    24384162.277    99849060.7674   24384162.422  
                
  21475664.930   112855378.507    21475669.238    87939278.1184                 
                
  19191311.539   102624574.636                    79819116.724    19191315.445  
  19191310.766  
  23795415.086   125045750.514    23795424.469    97438284.6054   23795424.445  
                
  21021111.422   112488206.576                    87490823.375    21021114.973  
  21021109.742  
  20410081.609   107255702.103    20410090.727    83575914.7894   20410091.223  
                
 21  8 14  3  4 20.0000000  0 14G 6R23G20G29R13R15G12R14G31G 2R24G24
                                R17G25
  22973163.266   120724783.740    22973172.438    94071295.1434   22973172.996  
                
  21035536.453   112525948.036                                                  
  21035534.664  
  23484821.469   123413568.578    23484828.461    96166445.2974                 
                
  22324706.172   117317125.935    22324712.988    91415971.9524   22324713.180  
                
  21699312.516   115873115.816                    90123554.193    21699315.336  
  21699310.609  
  21397913.336   114343956.119                    88934185.599    21397917.320  
  21397913.469  
  20234653.188   106333828.554    20234659.336    82857563.6324   20234659.395  
                
  19136186.836   102006645.429                    79338499.187    19136190.645  
  19136186.613  
  24378854.148   128111740.799    24378860.703    99827351.8594   24378860.859  
                
  21477906.492   112867157.961    21477910.793    87948456.9094                 
                
  19192277.328   102629739.122                    79823133.541    19192281.238  
  19192276.543  
  23802270.906   125081777.845    23802280.277    97466357.8344   23802280.258  
                
  21015436.891   112457840.960                    87467205.668    21015440.465  
  21015435.238  
  20407460.414   107241927.617    20407469.508    83565181.4154   20407470.016  
                
 21  8 14  3  4 30.0000000  0 14G 6R23G20G29R13R15G12R14G31G 2R24G24
                                R17G25
  22978675.391   120753750.079    22978684.547    94093866.3094   22978685.105  
                
  21041650.984   112558656.619                                                  
  21041649.211  
  23479975.211   123388101.278    23479982.168    96146600.6584                 
                
  22320125.820   117293056.043    22320132.648    91397216.1894   22320132.832  
                
  21706359.758   115910747.435                    90152823.228    21706362.578  
  21706357.855  
  21391406.297   114309184.558                    88907141.057    21391410.285  
  21391406.418  
  20236075.406   106341302.386    20236081.535    82863387.3914   20236081.613  
                
  19136386.695   102007710.754                    79339327.760    19136390.500  
  19136386.477  
  24373559.977   128083919.678    24373566.504    99805673.0444   24373566.668  
                
  21480157.719   112878988.249    21480162.020    87957675.3154                 
                
  19193255.859   102634971.774                    79827203.384    19193259.770  
  19193255.078  
  23809128.359   125117813.928    23809137.754    97494437.8744   23809137.723  
                
  21009771.312   112427523.257                    87443625.228    21009774.875  
  21009769.684  
  20404847.562   107228196.994    20404856.641    83554482.2254   20404857.152  
                
 21  8 14  3  4 40.0000000  0 14G 6R23G20G29R13R15G12R14G31G 2R24G24
                                R17G25
  22984194.492   120782753.134    22984203.621    94116466.0744   22984204.172  
                
  21047771.312   112591396.279                                                  
  21047769.539  
  23475134.367   123362662.426    23475141.270    96126778.1734                 
                
  22315550.523   117269012.713    22315557.367    91378481.1384   22315557.543  
                
  21713414.688   115948420.137                    90182124.199    21713417.465  
  21713412.789  
  21384906.078   114274449.406                    88880124.824    21384910.066  
  21384906.219  
  20237506.734   106348824.053    20237512.844    82869248.4304   20237512.949  
                
  19136601.609   102008856.377                    79340218.806    19136605.418  
  19136601.395  
  24368273.148   128056137.184    24368279.680    99784024.3614   24368279.844  
                
  21482418.594   112890869.204    21482422.902    87966933.2054                 
                
  19194247.125   102640272.503                    79831326.167    19194251.027  
  19194246.363  
  23815987.406   125153858.558    23815996.840    97522524.5754   23815996.832  
                
  21004114.672   112397253.330                    87420081.945    21004118.230  
  21004113.051  
  20402243.055   107214510.208    20402252.125    83543817.1944   20402252.645  
                
 21  8 14  3  4 50.0000000  0 14G 6R23G20G29R13R15G12R14G31G 2R24G24
                                R17G25
  22989720.578   120811792.864    22989729.648    94139094.4354   22989730.219  
                
  21053897.461   112624166.989                                                  
  21053895.660  
  23470298.984   123337252.298    23470305.875    96106978.0764                 
                
  22310980.312   117244996.050    22310987.152    91359766.8504   22310987.316  
                
  21720477.172   115986133.538                    90211456.841    21720479.961  
  21720475.301  
  21378412.734   114239750.894                    88853137.083    21378416.711  
  21378412.891  
  20238947.188   106356393.671    20238953.273    82875146.8264   20238953.391  
                
  19136831.609   102010082.365                    79341172.344    19136835.418  
  19136831.398  
  24362993.703   128028393.453    24363000.219    99762405.8554   24363000.414  
                
  21484689.117   112902800.826    21484693.434    87976230.5674                 
                
  19195251.141   102645641.366                    79835501.944    19195255.039  
  19195250.391  
  23822848.117   125189911.754    23822857.547    97550617.9594   23822857.570  
                
  20998466.977   112367031.416                    87396576.013    20998470.543  
  20998465.355  
  20399646.922   107200867.389    20399655.988    83533186.4224   20399656.504  
                
 21  8 14  3  5  0.0000000  0 14G 6R23G20G29R13R15G12R14G31G 2R24G24
                                R17G25
  22995253.602   120840869.054    22995262.633    94161751.2044   22995263.234  
                
  21060029.375   112656968.553                                                  
  21060027.574  
  23465469.039   123311870.792    23465475.945    96087200.2914                 
                
  22306415.148   117221005.909    22306421.949    91341073.2244   22306422.137  
                
  21727547.234   116023887.296                    90240820.860    21727550.043  
  21727545.371  
  21371926.219   114205088.895                    88826177.731    21371930.199  
  21371926.387  
  20240396.750   106364011.149    20240402.824    82881082.5174   20240402.949  
                
  19137076.688   102011388.753                    79342188.422    19137080.504  
  19137076.469  
  24357721.617   128000688.468    24357728.148    99740817.5614   24357728.348  
                
  21486969.258   112914783.018    21486973.578    87985567.3324                 
                
  19196267.836   102651078.039                    79839730.472    19196271.734  
  19196267.094  
  23829710.453   125225973.270    23829719.859    97578717.8214   23829719.898  
                
  20992828.242   112336857.462                    87373107.376    20992831.812  
  20992826.594  
  20397059.133   107187268.461    20397068.199    83522589.8504   20397068.719  
                
