     2.11           OBSERVATION DATA    M (MIXED)           RINEX VERSION / TYPE
EFT-CORS.RU                             20210817 144756 UTC PGM / RUN BY / DATE 
MDNG                                                        MARKER NAME         
                                                            MARKER NUMBER       
MDNG                EFT-CORS.RU                             OBSERVER / AGENCY   
0                   TRIMBLE BD970       2.0                 REC # / TYPE / VERS 
0                   UNKNOWN EXT NONE                        ANT # / TYPE        
  3463911.2830  3030468.2400  4402179.3760                  APPROX POSITION XYZ 
        0.0000        0.0000        0.0000                  ANTENNA: DELTA H/E/N
     1     1                                                WAVELENGTH FACT L1/2
     6    C1    L1    P2    L2    C2    P1                  # / TYPES OF OBSERV 
    10.000                                                  INTERVAL            
  2021     8    16     1    30    0.0000000     GPS         TIME OF FIRST OBS   
  2021     8    16     2    30    0.0000000     GPS         TIME OF LAST OBS    
     0                                                      RCV CLOCK OFFS APPL 
                                                            END OF HEADER       
 21  8 16  1 30  0.0000000  0 13G 6R14R16G12R15R18G24R24R17G19G32G 2
                                G25
  21447487.227   112707317.620    21447495.871    87823925.3994   21447496.148  
                
  22438909.234   119612038.701                    93031578.974    22438913.285  
  22438908.938  
  20934993.797   111830992.669                    86979649.189    20934995.094  
  20934993.434  
  20628591.281   108403995.429    20628596.707    84470676.2684   20628596.785  
                
  19361090.750   103459829.649                    80468736.405    19361094.430  
  19361090.492  
  20256060.789   108128237.123                    84099737.598    20256064.043  
  20256059.312  
  20903015.906   109846108.681    20903024.723    85594399.6194   20903024.645  
                
  22689279.336   121329793.306                    94367617.768    22689282.871  
  22689278.090  
  19265848.914   103095458.674                    80185358.312    19265851.258  
  19265847.027  
  22381606.312   117616141.886    22381610.328    91648981.5664                 
                
  24340090.789   127908041.330    24340099.391    99668626.0994   24340099.473  
                
  21757149.227   114334602.702    21757152.996    89091919.1564                 
                
  22605118.352   118790720.732    22605127.230    92564227.5644   22605127.582  
                
 21  8 16  1 30 10.0000000  0 13G 6R14R16G12R15R18G24R24R17G19G32G 2
                                G25
  21447349.727   112706595.083    21447358.371    87823362.3844   21447358.656  
                
  22445344.906   119646344.192                    93058261.003    22445348.957  
  22445344.590  
  20929296.500   111800558.791                    86955978.383    20929297.789  
  20929296.160  
  20625905.820   108389883.248    20625911.254    84459679.7674   20625911.324  
                
  19362299.727   103466290.068                    80473761.171    19362303.387  
  19362299.469  
  20250493.117   108098516.536                    84076621.583    20250496.355  
  20250491.641  
  20906598.031   109864932.877    20906606.812    85609067.8234   20906606.762  
                
  22696756.883   121369779.133                    94398717.849    22696760.402  
  22696755.660  
  19267702.820   103105379.238                    80193074.315    19267705.152  
  19267700.977  
  22387392.031   117646546.010    22387396.102    91672673.0894                 
                
  24339603.781   127905482.077    24339612.320    99666631.8654   24339612.426  
                
  21753797.492   114316989.260    21753801.277    89078194.4024                 
                
  22599688.695   118762187.695    22599697.574    92541994.0294   22599697.910  
                
 21  8 16  1 30 20.0000000  0 13G 6R14R16G12R15R18G24R24R17G19G32G 2
                                G25
  21447225.398   112705941.734    21447234.031    87822853.2794   21447234.320  
                
  22451786.430   119680681.333                    93084967.661    22451790.590  
  22451786.145  
  20923604.750   111770154.437                    86932330.562    20923606.023  
  20923604.422  
  20623226.680   108375804.292    20623232.125    84448709.1554   20623232.199  
                
  19363520.391   103472812.962                    80478834.537    19363524.043  
  19363520.152  
  20244937.609   108068860.864                    84053556.050    20244940.859  
  20244936.137  
  20910190.547   109883811.657    20910199.305    85623778.5624   20910199.273  
                
  22704239.156   121409790.131                    94429837.497    22704242.660  
  22704237.945  
  19269571.953   103115381.352                    80200853.735    19269574.262  
  19269570.129  
  22393182.211   117676973.640    22393186.309    91696382.9264                 
                
  24339128.180   127902982.752    24339136.688    99664684.3524   24339136.785  
                
  21750455.672   114299427.905    21750459.508    89064510.2354                 
                
  22594261.945   118733669.822    22594270.801    92519772.3004   22594271.129  
                
 21  8 16  1 30 30.0000000  0 13G 6R14R16G12R15R18G24R24R17G19G32G 2
                                G25
  21447114.273   112705357.795    21447122.879    87822398.2524   21447123.172  
                
  22458234.023   119715050.228                    93111699.014    22458238.195  
  22458233.703  
  20917918.578   111739779.935                    86908705.952    20917919.805  
  20917918.266  
  20620553.906   108361758.794    20620559.363    84437764.6134   20620559.422  
                
  19364752.820   103479398.714                    80483956.776    19364756.453  
  19364752.605  
  20239394.266   108039270.157                    84030541.067    20239397.516  
  20239392.805  
  20913793.484   109902745.215    20913802.227    85638531.9764   20913802.203  
                
  22711726.109   121449826.042                    94460976.525    22711729.605  
  22711724.902  
  19271456.344   103125465.077                    80208696.642    19271458.645  
  19271454.520  
  22398976.883   117707424.825    22398981.000    91720111.1144                 
                
  24338664.008   127900543.503    24338672.480    99662783.6294   24338672.609  
                
  21747123.805   114281918.824    21747127.691    89050866.7974                 
                
  22588838.086   118705167.335    22588846.996    92497562.5844   22588847.316  
                
 21  8 16  1 30 40.0000000  0 13G 6R14R16G12R15R18G24R24R17G19G32G 2
                                G25
  21447016.375   112704843.340    21447024.949    87821997.3984   21447025.254  
                
  22464687.492   119749450.981                    93138455.143    22464691.766  
  22464687.207  
  20912238.039   111709435.484                    86885104.715    20912239.242  
  20912237.730  
  20617887.531   108347746.904    20617893.000    84426846.2564   20617893.062  
                
  19365997.031   103486047.441                    80489128.013    19366000.645  
  19365996.848  
  20233863.180   108009744.878                    84007576.968    20233866.438  
  20233861.715  
  20917406.844   109921733.536    20917415.566    85653328.0694   20917415.555  
                
  22719217.750   121489887.016                    94492135.052    22719221.203  
  22719216.496  
  19273356.016   103135630.601                    80216603.164    19273358.301  
  19273354.168  
  22404776.039   117737899.572    22404780.230    91743857.6724                 
                
  24338211.289   127898164.451    24338219.773    99660929.8304   24338219.898  
                
  21743801.930   114264462.240    21743805.844    89037264.2694                 
                
  22583417.180   118676680.348    22583426.137    92475364.9574   22583426.453  
                
 21  8 16  1 30 50.0000000  0 13G 6R14R16G12R15R18G24R24R17G19G32G 2
                                G25
  21446931.641   112704398.057    21446940.164    87821650.4204   21446940.492  
                
  22471146.883   119783883.234                    93165235.795    22471151.184  
  22471146.633  
  20906563.070   111679120.805                    86861526.639    20906564.250  
  20906562.766  
  20615227.469   108333768.231    20615232.949    84415953.7824   20615233.012  
                
  19367252.953   103492758.681                    80494347.858    19367256.562  
  19367252.809  
  20228344.273   107980284.600                    83984663.421    20228347.543  
  20228342.824  
  20921030.547   109940776.259    20921039.254    85668166.5514   20921039.246  
                
  22726713.906   121529972.343                    94523312.520    22726717.363  
  22726712.617  
  19275270.852   103145877.280                    80224572.811    19275273.129  
  19275269.004  
  22410579.578   117768397.385    22410583.805    91767622.2014                 
                
  24337769.961   127895845.238    24337778.445    99659122.6444   24337778.590  
                
  21740489.969   114247057.828    21740493.887    89023702.3884                 
                
  22577999.180   118648208.616    22578008.121    92453179.1894   22578008.453  
                
 21  8 16  1 31  0.0000000  0 13G 6R14R16G12R15R18G24R24R17G19G32G 2
                                G25
  21446860.109   112704022.162    21446868.582    87821357.5154   21446868.926  
                
  22477612.234   119818347.078                    93192041.007    22477616.535  
  22477611.984  
  20900893.750   111648836.311                    86837972.022    20900894.914  
  20900893.449  
  20612573.789   108319823.063    20612579.293    84405087.4244   20612579.344  
                
  19368520.633   103499532.791                    80499616.611    19368524.223  
  19368520.527  
  20222837.617   107950889.709                    83961800.729    20222840.910  
  20222836.172  
  20924664.648   109959873.528    20924673.348    85683047.5424   20924673.359  
                
  22734214.664   121570082.302                    94554509.138    22734218.121  
  22734213.379  
  19277200.922   103156205.486                    80232605.862    19277203.207  
  19277199.074  
  22416387.570   117798918.546    22416391.801    91791404.9164                 
                
  24337340.078   127893586.101    24337348.496    99657362.2624   24337348.648  
                
  21737188.000   114229705.861    21737191.941    89010181.3844                 
                
  22572584.117   118619752.365    22572593.078    92431005.5234   22572593.387  
                
 21  8 16  1 31 10.0000000  0 13G 6R14R16G12R15R18G24R24R17G19G32G 2
                                G25
  21446801.766   112703715.632    21446810.195    87821118.6604   21446810.562  
                
  22484083.562   119852842.548                    93218870.815    22484087.812  
  22484083.254  
  20895230.062   111618581.909                    86814440.817    20895231.211  
  20895229.773  
  20609926.492   108305911.451    20609932.023    84394247.2064   20609932.055  
                
  19369800.094   103506369.850                    80504934.328    19369803.656  
  19369800.020  
  20217343.219   107921560.238                    83938988.917    20217346.516  
  20217341.758  
  20928309.102   109979025.263    20928317.820    85697970.9674   20928317.816  
                
  22741720.016   121610216.758                    94585724.832    22741723.477  
  22741718.785  
  19279146.180   103166614.969                    80240702.123    19279148.461  
  19279144.336  
  22422199.984   117829462.915    22422204.219    91815205.7114                 
                
  24336921.609   127891386.953    24336929.938    99655648.6294   24336930.125  
                
  21733896.016   114212406.395    21733900.004    88996701.2894                 
                
  22567172.039   118591311.683    22567180.984    92408843.9294   22567181.301  
                
 21  8 16  1 31 20.0000000  0 13G 6R14R16G12R15R18G24R24R17G19G32G 2
                                G25
  21446756.609   112703478.304    21446765.012    87820933.7384   21446765.391  
                
  22490560.766   119887369.356                    93245724.983    22490564.980  
  22490560.434  
  20889572.055   111588357.819                    86790933.199    20889573.199  
  20889571.762  
  20607285.555   108292033.243    20607291.117    84383433.0204   20607291.137  
                
  19371091.281   103513269.538                    80510300.757    19371094.836  
  19371091.234  
  20211861.055   107892296.116                    83916227.954    20211864.352  
  20211859.582  
  20931963.883   109998231.255    20931972.625    85712936.6694   20931972.594  
                
  22749229.859   121650375.201                    94616959.184    22749233.328  
  22749228.699  
  19281106.594   103177105.488                    80248861.422    19281108.883  
  19281104.754  
  22428016.781   117860030.284    22428021.016    91839024.4434                 
                
  24336514.531   127889247.678    24336522.770    99653981.6594   24336522.934  
                
  21730614.016   114195159.352    21730618.047    88983262.0414                 
                
  22561762.883   118562886.365    22561771.781    92386694.3484   22561772.133  
                
 21  8 16  1 31 30.0000000  0 13G 6R14R16G12R15R18G24R24R17G19G32G 2
                                G25
  21446724.641   112703310.348    21446733.016    87820802.8684   21446733.398  
                
  22497043.953   119921927.553                    93272603.582    22497048.098  
  22497043.535  
  20883919.711   111558164.052                    86767449.160    20883920.875  
  20883919.402  
  20604651.000   108278188.597    20604656.602    84372644.9914   20604656.613  
                
  19372394.266   103520232.271                    80515716.211    19372397.801  
  19372394.242  
  20206391.203   107863097.651                    83893518.025    20206394.488  
  20206389.750  
  20935629.000   110017491.564    20935637.762    85727944.7064   20935637.719  
                
  22756744.234   121690557.833                    94648212.332    22756747.703  
  22756743.051  
  19283082.164   103187677.153                    80257083.821    19283084.461  
  19283080.340  
  22433837.945   117890620.655    22433842.188    91862861.0864                 
                
  24336118.875   127887168.405    24336127.004    99652361.4274   24336127.195  
                
  21727342.023   114177964.969    21727346.066    88969863.8224                 
                
  22556356.695   118534476.652    22556365.582    92364556.9254   22556365.941  
                
 21  8 16  1 31 40.0000000  0 13G 6R14R16G12R15R18G24R24R17G19G32G 2
                                G25
  21446705.883   112703211.796    21446714.230    87820726.0754   21446714.621  
                
  22503533.023   119956517.268                    93299506.671    22503537.094  
  22503532.535  
  20878273.078   111528000.805                    86743988.860    20878274.246  
  20878272.766  
  20602022.867   108264377.677    20602028.496    84361883.2344   20602028.492  
                
  19373709.016   103527257.876                    80521180.575    19373712.543  
  19373709.016  
  20200933.672   107833964.985                    83870859.277    20200936.945  
  20200932.234  
  20939304.461   110036806.200    20939313.219    85742995.0634   20939313.180  
                
  22764263.047   121730764.224                    94679483.938    22764266.547  
  22764261.840  
  19285072.875   103198329.836                    80265369.258    19285075.180  
  19285071.055  
  22439663.492   117921234.046    22439667.742    91886715.6714                 
                
  24335734.633   127885149.154    24335742.711    99650787.9954   24335742.895  
                
  21724080.078   114160823.350    21724084.145    88956506.7194                 
                
  22550953.492   118506082.620    22550962.395    92342431.7064   22550962.707  
                
 21  8 16  1 31 50.0000000  0 13G 6R14R16G12R15R18G24R24R17G19G32G 2
                                G25
  21446700.312   112703182.529    21446708.637    87820703.2704   21446709.031  
                
  22510027.828   119991138.192                    93326434.045    22510031.938  
  22510027.371  
  20872632.148   111497867.926                    86720552.179    20872633.305  
  20872631.820  
  20599401.117   108250600.289    20599406.766    84351147.6134   20599406.750  
                
  19375035.539   103534346.410                    80526693.889    19375039.059  
  19375035.555  
  20195488.469   107804898.133                    83848251.750    20195491.742  
  20195487.020  
  20942990.219   110056174.992    20942998.980    85758087.6264   20942998.941  
                
  22771786.352   121770994.686                    94710774.283    22771789.867  
  22771785.141  
  19287078.711   103209063.505                    80273717.665    19287081.031  
  19287076.887  
  22445493.375   117951870.259    22445497.598    91910588.0374                 
                
  24335361.797   127883189.826    24335369.859    99649261.2654   24335370.020  
                
  21720828.164   114143734.434    21720832.258    88943190.6864                 
                
  22545553.281   118477704.199    22545562.145    92320318.6574   22545562.445  
                
 21  8 16  1 32  0.0000000  0 13G 6R14R16G12R15R18G24R24R17G19G32G 2
                                G25
  21446707.930   112703222.584    21446716.230    87820734.4834   21446716.645  
                
  22516528.523   120025790.416                    93353385.782    22516532.598  
  22516528.074  
  20866996.984   111467765.882                    86697139.474    20866998.168  
  20866996.645  
  20596785.773   108236856.594    20596791.434    84340438.2414   20596791.422  
                
  19376373.852   103541497.911                    80532256.155    19376377.348  
  19376373.887  
  20190055.586   107775897.058                    83825695.353    20190058.848  
  20190054.125  
  20946686.273   110075597.885    20946695.023    85773222.3384   20946694.992  
                
  22779314.062   121811248.748                    94742082.991    22779317.578  
  22779312.820  
  19289099.641   103219877.909                    80282128.870    19289101.977  
  19289097.816  
  22451327.594   117982529.236    22451331.797    91934478.1424                 
                
  24335000.375   127881290.445    24335008.406    99647781.2404   24335008.570  
                
  21717586.297   114126698.338    21717590.398    88929915.8074                 
                
  22540156.039   118449341.481    22540164.883    92298217.8324   22540165.168  
                
 21  8 16  1 32 10.0000000  0 13G 6R14R16G12R15R18G24R24R17G19G32G 2
                                G25
  21446728.734   112703331.933    21446737.004    87820819.6934   21446737.430  
                
  22523035.125   120060473.689                    93380361.678    22523039.102  
  22523034.613  
  20861367.594   111437694.700                    86673750.784    20861368.793  
  20861367.234  
  20594176.844   108223146.573    20594182.504    84329755.1184   20594182.492  
                
  19377723.953   103548712.457                    80537867.479    19377727.445  
  19377724.012  
  20184635.062   107746961.994                    83803190.323    20184638.332  
  20184633.605  
  20950392.609   110095074.812    20950401.332    85788399.1644   20950401.320  
                
  22786846.133   121851526.317                    94773409.970    22786849.680  
  22786844.871  
  19291135.641   103230772.975                    80290602.816    19291137.977  
  19291133.820  
  22457166.117   118013210.812    22457170.297    91958385.8634                 
                
  24334650.352   127879450.942    24334658.344    99646347.8864   24334658.512  
                
  21714354.477   114109715.070    21714358.598    88916682.1084                 
                
  22534761.758   118420994.435    22534770.664    92276129.2564   22534770.914  
                
 21  8 16  1 32 20.0000000  0 13G 6R14R16G12R15R18G24R24R17G19G32G 2
                                G25
  21446762.734   112703510.638    21446770.965    87820958.9414   21446771.410  
                
  22529547.539   120095188.110                    93407361.777    22529551.492  
  22529546.988  
  20855743.984   111407654.416                    86650386.122    20855745.207  
  20855743.586  
  20591574.336   108209470.331    20591579.980    84319098.3074   20591579.980  
                
  19379085.844   103555989.923                    80543527.732    19379089.316  
  19379085.926  
  20179226.930   107718092.987                    83780736.641    20179230.172  
  20179225.484  
  20954109.227   110114605.739    20954117.922    85803618.0694   20954117.930  
                
  22794382.656   121891827.480                    94804755.299    22794386.199  
  22794381.418  
  19293186.734   103241748.738                    80299139.512    19293189.059  
  19293184.914  
  22463008.930   118043914.948    22463013.082    91982311.1694                 
                
  24334311.727   127877671.385    24334319.703    99644961.2134   24334319.910  
                
  21711132.727   114092784.684    21711136.859    88903489.6094                 
                
  22529370.500   118392663.177    22529379.426    92254052.9674   22529379.664  
                
 21  8 16  1 32 30.0000000  0 13G 6R14R16G12R15R18G24R24R17G19G32G 2
                                G25
  21446809.930   112703758.681    21446818.137    87821152.2324   21446818.598  
                
  22536065.781   120129933.685                    93434386.113    22536069.777  
  22536065.195  
  20850126.211   111377645.336                    86627045.731    20850127.461  
  20850125.812  
  20588978.258   108195827.853    20588983.879    84308467.8074   20588983.906  
                
  19380459.547   103563330.562                    80549237.124    19380463.012  
  19380459.652  
  20173831.195   107689290.202                    83758334.490    20173834.434  
  20173829.750  
  20957836.109   110134190.649    20957844.781    85818879.0374   20957844.797  
                
  22801923.492   121932151.713                    94836118.591    22801927.008  
  22801922.285  
  19295252.891   103252805.185                    80307738.974    19295255.211  
  19295251.074  
  22468856.031   118074641.681    22468860.168    92006254.0694                 
                
  24333984.516   127875951.774    24333992.496    99643621.2384   24333992.734  
                
  21707921.055   114075907.262    21707925.184    88890338.3724                 
                
  22523982.266   118364347.826    22523991.125    92231989.0404   22523991.375  
                
 21  8 16  1 32 40.0000000  0 13G 6R14R16G12R15R18G24R24R17G19G32G 2
                                G25
  21446870.320   112704076.056    21446878.508    87821399.5404   21446878.973  
                
  22542589.836   120164710.281                    93461434.555    22542593.859  
  22542589.191  
  20844514.234   111347667.161                    86603729.381    20844515.480  
  20844513.848  
  20586388.625   108182219.256    20586394.234    84297863.7094   20586394.281  
                
  19381845.047   103570734.205                    80554995.508    19381848.496  
  19381845.168  
  20168447.883   107660553.709                    83735983.882    20168451.121  
  20168446.441  
  20961573.250   110153829.420    20961581.887    85834181.9734   20961581.922  
                
  22809468.680   121972499.137                    94867499.935    22809472.176  
  22809467.465  
  19297334.094   103263942.101                    80316401.021    19297336.418  
  19297332.281  
  22474707.406   118105390.789    22474711.520    92030214.4114                 
                
  24333668.719   127874292.053    24333676.730    99642327.9454   24333676.953  
                
  21704719.477   114059082.852    21704723.574    88877228.4454                 
                
  22518597.039   118336048.300    22518605.848    92209937.4604   22518606.113  
                
 21  8 16  1 32 50.0000000  0 13G 6R14R16G12R15R18G24R24R17G19G32G 2
                                G25
  21446943.891   112704462.707    21446952.062    87821700.8314   21446952.520  
                
  22549119.594   120199517.699                    93488506.992    22549123.688  
  22549118.969  
  20838908.109   111317720.251                    86580437.342    20838909.363  
  20838907.742  
  20583805.438   108168644.532    20583811.035    84287285.9984   20583811.098  
                
  19383242.344   103578200.900                    80560802.932    19383245.777  
  19383242.484  
  20163076.969   107631883.422                    83713684.776    20163080.195  
  20163075.527  
  20965320.625   110173521.965    20965329.234    85849526.8074   20965329.266  
                
  22817018.156   122012869.605                    94898899.171    22817021.656  
  22817016.922  
  19299430.297   103275159.269                    80325125.481    19299432.602  
  19299428.512  
  22480563.008   118136162.172    22480567.098    92054192.1154                 
                
  24333364.352   127872692.184    24333372.348    99641081.2784   24333372.531  
                
  21701527.992   114042311.491    21701532.055    88864159.8524                 
                
  22513214.828   118307764.607    22513223.625    92187898.2404   22513223.895  
                
 21  8 16  1 33  0.0000000  0 13G 6R14R16G12R15R18G24R24R17G19G32G 2
                                G25
  21447030.641   112704918.563    21447038.801    87822056.0464   21447039.258  
                
  22555655.211   120234355.979                    93515603.434    22555659.266  
  22555654.578  
  20833307.844   111287804.631                    86557169.634    20833309.070  
  20833307.484  
  20581228.680   108155103.590    20581234.270    84276734.6144   20581234.336  
                
  19384651.453   103585730.687                    80566659.440    19384654.879  
  19384651.613  
  20157718.500   107603279.585                    83691437.359    20157721.719  
  20157717.066  
  20969078.203   110193268.111    20969086.801    85864913.4224   20969086.832  
                
  22824571.859   122053262.557                    94930315.915    22824575.355  
  22824570.590  
  19301541.500   103286456.698                    80333912.386    19301543.797  
  19301539.734  
  22486422.844   118166955.716    22486426.914    92078187.0824                 
                
  24333071.305   127871152.069    24333079.328    99639881.1834   24333079.512  
                
  21698346.594   114025593.151    21698350.613    88851132.5834                 
                
  22507835.641   118279496.779    22507844.438    92165871.3674   22507844.695  
                
 21  8 16  1 33 10.0000000  0 13G 6R14R16G12R15R18G24R24R17G19G32G 2
                                G25
  21447130.586   112705443.809    21447138.730    87822465.3334   21447139.191  
                
  22562196.609   120269225.143                    93542723.885    22562200.641  
  22562195.988  
  20827713.484   111257920.589                    86533926.494    20827714.711  
  20827713.113  
  20578658.383   108141596.597    20578663.969    84266209.6914   20578664.047  
                
  19386072.367   103593323.614                    80572565.032    19386075.797  
  19386072.539  
  20152372.500   107574742.304                    83669241.700    20152375.723  
  20152371.086  
  20972846.000   110213068.032    20972854.594    85880341.9314   20972854.625  
                
  22832129.867   122093678.578                    94961750.585    22832133.355  
  22832128.570  
  19303667.703   103297834.449                    80342761.747    19303670.008  
  19303665.934  
  22492286.898   118197771.528    22492290.961    92102199.3914                 
                
  24332789.602   127869671.901    24332797.727    99638727.7954   24332797.902  
                
  21695175.328   114008928.064    21695179.320    88838146.7994                 
                
  22502459.508   118251245.000    22502468.293    92143857.0084   22502468.547  
                
 21  8 16  1 33 20.0000000  0 13G 6R14R16G12R15R18G24R24R17G19G32G 2
                                G25
  21447243.711   112706038.271    21447251.836    87822928.5584   21447252.309  
                
  22568743.695   120304124.970                    93569868.176    22568747.773  
  22568743.133  
  20822125.039   111228068.092                    86510707.888    20822126.270  
  20822124.664  
  20576094.523   108128123.443    20576100.102    84255711.1304   20576100.184  
                
  19387505.102   103600979.660                    80578519.745    19387508.523  
  19387505.301  
  20147038.984   107546271.621                    83647097.850    20147042.207  
  20147037.559  
  20976623.992   110232921.493    20976632.566    85895812.1554   20976632.613  
                
  22839692.086   122134117.128                    94993202.771    22839695.562  
  22839690.793  
  19305808.875   103309292.282                    80351673.394    19305811.188  
  19305807.125  
  22498155.125   118228609.253    22498159.184    92126228.7914                 
                
  24332519.273   127868251.505    24332527.477    99637620.9904   24332527.633  
                
  21692014.180   113992316.145    21692018.168    88825202.4544                 
                
  22497086.422   118223009.196    22497095.223    92121855.0794   22497095.461  
                
 21  8 16  1 33 30.0000000  0 13G 6R14R16G12R15R18G24R24R17G19G32G 2
                                G25
  21447370.016   112706702.027    21447378.109    87823445.7714   21447378.594  
                
  22575296.594   120339055.520                    93597036.369    22575300.684  
  22575296.039  
  20816542.469   111198247.062                    86487513.769    20816543.691  
  20816542.086  
  20573537.109   108114684.194    20573542.684    84245238.9904   20573542.766  
                
  19388949.656   103608698.884                    80584523.576    19388953.086  
  19388949.867  
  20141717.922   107517867.491                    83625005.758    20141721.160  
  20141716.484  
  20980412.164   110252828.466    20980420.723    85911324.0764   20980420.781  
                
  22847258.453   122174578.042                    95024672.375    22847261.922  
  22847257.172  
  19307964.977   103320830.010                    80360647.178    19307967.297  
  19307963.234  
  22504027.555   118259469.057    22504031.621    92150275.3804                 
                
  24332260.328   127866890.904    24332268.562    99636560.7474   24332268.703  
                
  21688863.164   113975757.448    21688867.156    88812299.5784                 
                
  22491716.375   118194789.412    22491725.164    92099865.6464   22491725.391  
                
 21  8 16  1 33 40.0000000  0 13G 6R14R16G12R15R18G24R24R17G19G32G 2
                                G25
  21447509.641   112707435.757    21447517.703    87824017.5114   21447518.219  
                
  22581855.359   120374017.433                    93624228.953    22581859.453  
  22581854.844  
  20810965.984   111168458.505                    86464344.888    20810967.211  
  20810965.617  
  20570986.320   108101279.659    20570991.883    84234793.8984   20570991.977  
                
  19390406.164   103616481.939                    80590577.054    19390409.598  
  19390406.387  
  20136409.539   107489531.002                    83602966.258    20136412.781  
  20136408.117  
  20984210.648   110272789.583    20984219.199    85926878.1964   20984219.266  
                
  22854829.125   122215061.866                    95056159.806    22854832.598  
  22854827.855  
  19310136.156   103332448.394                    80369683.695    19310138.477  
  19310134.402  
  22509904.281   118290351.437    22509908.344    92174339.5614                 
                
  24332012.938   127865590.784    24332021.129    99635547.6714   24332021.301  
                
  21685722.430   113959252.754    21685726.410    88799438.7804                 
                
  22486349.531   118166586.405    22486358.309    92077889.2744   22486358.551  
                
 21  8 16  1 33 50.0000000  0 13G 6R14R16G12R15R18G24R24R17G19G32G 2
                                G25
  21447662.273   112708237.866    21447670.316    87824642.5314   21447670.848  
                
  22588419.719   120409009.057                    93651444.647    22588423.797  
  22588419.211  
  20805395.312   111138701.055                    86441200.209    20805396.570  
  20805394.957  
  20568441.820   108087908.259    20568447.363    84224374.6254   20568447.453  
                
  19391874.320   103624327.311                    80596679.004    19391877.754  
  19391874.562  
  20131113.523   107461260.521                    83580978.112    20131116.754  
  20131112.105  
  20988019.117   110292803.225    20988027.672    85942473.2384   20988027.734  
                
  22862403.766   122255566.940                    95087663.742    22862407.215  
  22862402.473  
  19312322.086   103344145.771                    80378781.668    19312324.422  
  19312320.320  
  22515784.977   118321254.734    22515789.012    92198420.0454                 
                
  24331776.719   127864349.582    24331784.910    99634580.4644   24331785.070  
                
  21682591.672   113942800.511    21682595.645    88786618.8544                 
                
  22480985.547   118138398.634    22480994.410    92055924.8124   22480994.625  
                
 21  8 16  1 34  0.0000000  0 13G 6R14R16G12R15R18G24R24R17G19G32G 2
                                G25
  21447828.148   112709109.536    21447836.176    87825321.7654   21447836.707  
                
  22594989.906   120444031.568                    93678684.405    22594993.926  
  22594989.363  
  20799830.711   111108975.974                    86418080.699    20799831.980  
  20799830.363  
  20565903.883   108074571.307    20565909.406    84213982.1994   20565909.512  
                
  19393354.391   103632236.300                    80602830.454    19393357.840  
  19393354.648  
  20125830.078   107433057.112                    83559042.131    20125833.309  
  20125828.629  
  20991837.797   110312870.501    20991846.352    85958110.0784   20991846.406  
                
  22869982.602   122296094.367                    95119185.071    22869986.035  
  22869981.297  
  19314522.953   103355923.040                    80387941.762    19314525.297  
  19314521.184  
  22521669.898   118352180.181    22521673.906    92222517.7824                 
                
  24331551.992   127863168.428    24331560.145    99633660.0944   24331560.312  
                
  21679471.148   113926402.072    21679475.145    88773840.8564                 
                
  22475624.734   118110227.341    22475633.617    92033973.1634   22475633.789  
                
 21  8 16  1 34 10.0000000  0 13G 6R14R16G12R15R18G24R24R17G19G32G 2
                                G25
  21448007.211   112710050.566    21448015.215    87826055.0394   21448015.758  
                
  22601565.773   120479084.612                    93705947.879    22601569.781  
  22601565.277  
  20794272.078   111079282.788                    86394986.011    20794273.355  
  20794271.727  
  20563372.453   108061268.564    20563377.973    84203616.4304   20563378.074  
                
  19394846.297   103640208.551                    80609031.088    19394849.754  
  19394846.566  
  20120559.203   107404920.892                    83537158.409    20120562.453  
  20120557.742  
  20995666.625   110332991.126    20995675.172    85973788.4864   20995675.227  
                
  22877565.547   122336643.820                    95150723.492    22877569.016  
  22877564.234  
  19316738.750   103367780.201                    80397164.001    19316741.102  
  19316736.980  
  22527558.969   118383127.445    22527562.973    92246632.5284                 
                
  24331338.625   127862047.106    24331346.820    99632786.3304   24331346.941  
                
  21676360.820   113910057.194    21676364.836    88761104.5934                 
                
  22470267.016   118082072.383    22470275.836    92012034.2304   22470276.059  
                
 21  8 16  1 34 20.0000000  0 13G 6R14R16G12R15R18G24R24R17G19G32G 2
                                G25
  21448199.484   112711060.934    21448207.461    87826842.3434   21448208.023  
                
  22608147.383   120514168.064                    93733235.011    22608151.363  
  22608146.883  
  20788719.531   111049622.101                    86371916.585    20788720.816  
  20788719.160  
  20560847.531   108048000.027    20560853.035    84193277.3104   20560853.141  
                
  19396350.055   103648244.165                    80615281.023    19396353.516  
  19396350.332  
  20115300.922   107376851.855                    83515326.953    20115304.188  
  20115299.457  
  20999505.594   110353165.033    20999514.137    85989508.4194   20999514.199  
                
  22885152.602   122377215.142                    95182278.973    22885156.082  
  22885151.301  
  19318969.414   103379716.923                    80406448.131    19318971.758  
  19318967.664  
  22533452.172   118414096.390    22533456.156    92270764.1804                 
                
  24331136.641   127860985.640    24331144.926    99631959.2054   24331144.953  
                
  21673260.695   113893765.942    21673264.723    88748410.1194                 
                
  22464912.398   118053933.733    22464921.238    91990108.0374   22464921.457  
                
 21  8 16  1 34 30.0000000  0 13G 6R14R16G12R15R18G24R24R17G19G32G 2
                                G25
  21448404.938   112712140.613    21448412.906    87827683.6464   21448413.477  
                
  22614734.734   120549281.964                    93760545.800    22614738.680  
  22614734.191  
  20783173.039   111019993.757                    86348872.310    20783174.336  
  20783172.676  
  20558329.117   108034765.683    20558334.617    84182964.8404   20558334.723  
                
  19397865.695   103656343.235                    80621580.285    19397869.168  
  19397865.969  
  20110055.242   107348850.052                    83493547.776    20110058.508  
  20110053.789  
  21003354.688   110373392.132    21003363.234    86005269.7924   21003363.297  
                
  22892743.648   122417807.951                    95213851.128    22892747.180  
  22892742.332  
  19321214.953   103391733.205                    80415794.116    19321217.293  
  19321213.223  
  22539349.484   118445086.898    22539353.422    92294912.6134                 
                
  24330946.047   127859983.950    24330954.352    99631178.6664   24330954.363  
                
  21670170.773   113877528.322    21670174.793    88735757.4294                 
                
  22459560.906   118025811.440    22459569.770    91968194.5654   22459569.969  
                
 21  8 16  1 34 40.0000000  0 13G 6R14R16G12R15R18G24R24R17G19G32G 2
                                G25
  21448623.562   112713289.538    21448631.535    87828578.9194   21448632.102  
                
  22621327.648   120584426.301                    93787880.265    22621331.695  
  22621327.188  
  20777632.602   110990397.776                    86325853.233    20777633.906  
  20777632.266  
  20555817.195   108021565.467    20555822.691    84172678.9684   20555822.801  
                
  19399393.164   103664505.584                    80627928.785    19399396.645  
  19399393.445  
  20104822.188   107320915.695                    83471821.059    20104825.438  
  20104820.738  
  21007213.883   110393672.341    21007222.445    86021072.5464   21007222.500  
                
  22900338.734   122458422.321                    95245440.074    22900342.312  
  22900337.434  
  19323475.305   103403828.810                    80425201.823    19323477.652  
  19323473.598  
  22545250.828   118476098.683    22545254.742    92319077.6384                 
                
  24330766.820   127859041.980    24330775.078    99630444.6744   24330775.070  
                
  21667091.062   113861344.366    21667095.086    88723146.5594                 
                
  22454212.539   117997705.560    22454221.406    91946293.8694   22454221.602  
                
 21  8 16  1 34 50.0000000  0 13G 6R14R16G12R15R18G24R24R17G19G32G 2
                                G25
  21448855.375   112714507.700    21448863.371    87829528.1384   21448863.930  
                
  22627926.406   120619600.923                    93815238.309    22627930.395  
  22627925.918  
  20772098.281   110960834.379                    86302859.471    20772099.559  
  20772097.934  
  20553311.797   108008399.516    20553317.289    84162419.7824   20553317.402  
                
  19400932.484   103672731.217                    80634326.500    19400935.988  
  19400932.762  
  20099601.742   107293048.575                    83450146.640    20099604.988  
  20099600.281  
  21011083.164   110414005.524    21011091.750    86036916.5874   21011091.805  
                
  22907937.828   122499058.177                    95277045.726    22907941.445  
  22907936.547  
  19325750.492   103416003.742                    80434671.215    19325752.832  
  19325748.766  
  22551156.250   118507131.814    22551160.168    92343259.2914                 
                
  24330598.969   127858159.700    24330607.098    99629757.1944   24330607.113  
                
  21664021.570   113845214.097    21664025.594    88710577.5234                 
                
  22448867.258   117969615.975    22448876.152    91924405.9154   22448876.332  
                
 21  8 16  1 35  0.0000000  0 13G 6R14R16G12R15R18G24R24R17G19G32G 2
                                G25
  21449100.398   112715795.308    21449108.418    87830531.4714   21449108.969  
                
  22634530.781   120654805.882                    93842619.941    22634534.777  
  22634530.289  
  20766570.102   110931303.874                    86279891.319    20766571.422  
  20766569.746  
  20550812.961   107995268.085    20550818.469    84152187.5044   20550818.578  
                
  19402483.719   103681020.541                    80640773.759    19402487.234  
  19402483.996  
  20094393.961   107265249.159                    83428524.876    20094397.188  
  20094392.500  
  21014962.547   110434391.860    21014971.160    86052802.0404   21014971.207  
                
  22915540.906   122539715.299                    95308667.917    22915544.523  
  22915539.629  
  19328040.500   103428258.035                    80444202.339    19328042.844  
  19328038.758  
  22557065.766   118538186.482    22557069.680    92367457.7424                 
                
  24330442.508   127857337.351    24330450.496    99629116.4194   24330450.559  
                
  21660962.352   113829137.824    21660966.375    88698050.5594                 
                
  22443525.180   117941543.089    22443534.074    91902530.9424   22443534.207  
                
 21  8 16  1 35 10.0000000  0 13G 6R14R16G12R15R18G24R24R17G19G32G 2
                                G25
  21449358.570   112717152.029    21449366.609    87831588.6594   21449367.148  
                
  22641140.641   120690040.691                    93870024.764    22641144.770  
  22641140.230  
  20761048.031   110901806.001                    86256948.530    20761049.363  
  20761047.691  
  20548320.641   107982170.860    20548326.164    84141981.8804   20548326.254  
                
  19404046.805   103689373.167                    80647270.244    19404050.332  
  19404047.059  
  20089198.844   107237517.289                    83406955.650    20089202.066  
  20089197.391  
  21018851.977   110454830.963    21018860.605    86068728.6074   21018860.633  
                
  22923147.906   122580393.373                    95340306.420    22923151.516  
  22923146.652  
  19330345.266   103440591.328                    80453794.909    19330347.621  
  19330343.504  
  22562979.305   118569262.349    22562983.188    92391672.6904                 
                
  24330297.383   127856574.556    24330305.254    99628522.0254   24330305.348  
                
  21657913.352   113813115.269    21657917.371    88685565.4574                 
                
  22438186.195   117913486.556    22438195.039    91880668.6954   22438195.188  
                
 21  8 16  1 35 20.0000000  0 13G 6R14R16G12R15R18G24R24R17G19G32G 2
                                G25
  21449629.906   112718577.905    21449637.961    87832699.7344   21449638.500  
                
  22647756.164   120725305.585                    93897453.018    22647760.383  
  22647755.812  
  20755532.094   110872340.875                    86234031.205    20755533.441  
  20755531.770  
  20545834.844   107969107.928    20545840.383    84131802.9694   20545840.465  
                
  19405621.734   103697789.113                    80653815.973    19405625.281  
  19405621.973  
  20084016.367   107209852.871                    83385438.886    20084019.582  
  20084014.934  
  21022751.445   110475322.815    21022760.090    86084696.2774   21022760.105  
                
  22930758.852   122621092.439                    95371961.238    22930762.461  
  22930757.598  
  19332664.812   103453003.665                    80463448.939    19332667.184  
  19332663.031  
  22568896.867   118600359.249    22568900.754    92415904.0374                 
                
  24330163.570   127855871.318    24330171.324    99627974.0654   24330171.508  
                
  21654874.594   113797146.514    21654878.605    88673122.2824                 
                
  22432850.359   117885446.482    22432859.109    91858819.2844   22432859.297  
                
 21  8 16  1 35 30.0000000  0 13G 6R14R16G12R15R18G24R24R17G19G32G 2
                                G25
  21449914.414   112720073.058    21449922.477    87833864.7894   21449923.012  
                
  22654377.445   120760600.518                    93924904.620    22654381.648  
  22654377.055  
  20750022.344   110842908.835                    86211139.632    20750023.688  
  20750021.988  
  20543355.602   107956079.430    20543361.148    84121650.8964   20543361.230  
                
  19407208.539   103706268.539                    80660411.074    19407212.102  
  19407208.766  
  20078846.609   107182256.400                    83363974.958    20078849.820  
  20078845.180  
  21026660.953   110495867.450    21026669.613    86100705.0794   21026669.625  
                
  22938373.695   122661812.238                    95403632.184    22938377.312  
  22938372.430  
  19334999.094   103465494.901                    80473164.353    19335001.465  
  19334997.297  
  22574818.438   118631477.281    22574822.344    92440151.8444                 
                
  24330041.141   127855227.781    24330048.824    99627472.6324   24330049.039  
                
  21651846.109   113781231.782    21651850.117    88660721.1934                 
                
  22427517.672   117857423.039    22427526.426    91836982.8474   22427526.617  
                
 21  8 16  1 35 40.0000000  0 13G 6R14R16G12R15R18G24R24R17G19G32G 2
                                G25
  21450212.094   112721637.377    21450220.152    87835083.7424   21450220.688  
                
  22661004.273   120795925.548                    93952379.654    22661008.551  
  22661003.902  
  20744518.742   110813509.627                    86188273.592    20744520.074  
  20744518.371  
  20540882.898   107943085.288    20540888.449    84111525.5974   20540888.547  
                
  19408807.219   103714811.401                    80667055.521    19408810.801  
  19408807.434  
  20073689.555   107154727.730                    83342563.779    20073692.766  
  20073688.121  
  21030580.492   110516464.754    21030589.160    86116754.9304   21030589.164  
                
  22945992.398   122702552.646                    95435319.142    22945995.988  
  22945991.109  
  19337348.078   103478064.787                    80482940.926    19337350.445  
  19337346.258  
  22580743.984   118662616.188    22580747.859    92464415.9334                 
                
  24329930.047   127854643.871    24329937.691    99627017.6344   24329937.941  
                
  21648827.891   113765370.977    21648831.910    88648362.1274                 
                
  22422188.125   117829416.149    22422196.914    91815159.3084   22422197.066  
                
 21  8 16  1 35 50.0000000  0 13G 6R14R16G12R15R18G24R24R17G19G32G 2
                                G25
  21450522.969   112723271.068    21450531.031    87836356.7484   21450531.570  
                
  22667636.664   120831280.484                    93979877.889    22667641.043  
  22667636.285  
  20739021.406   110784143.871                    86165433.560    20739022.719  
  20739021.023  
  20538416.789   107930125.800    20538422.340    84101427.2934   20538422.438  
                
  19410417.805   103723417.893                    80673749.452    19410421.414  
  19410418.012  
  20068545.219   107127266.949                    83321205.403    20068548.430  
  20068543.789  
  21034510.062   110537114.810    21034518.727    86132845.8754   21034518.738  
                
  22953615.000   122743313.932                    95467022.350    22953618.570  
  22953613.711  
  19339711.828   103490713.667                    80492778.942    19339714.188  
  19339710.020  
  22586673.555   118693776.219    22586677.418    92488696.4684                 
                
  24329830.320   127854119.709    24329837.980    99626609.2004   24329838.238  
                
  21645819.977   113749564.299    21645824.023    88636045.2504                 
                
  22416861.797   117801426.091    22416870.551    91793348.8774   22416870.727  
                
 21  8 16  1 36  0.0000000  0 13G 6R14R16G12R15R18G24R24R17G19G32G 2
                                G25
  21450847.031   112724974.009    21450855.094    87837683.7074   21450855.633  
                
  22674274.656   120866665.447                    94007399.510    22674279.168  
  22674274.344  
  20733530.336   110754811.595                    86142619.575    20733531.629  
  20733529.945  
  20535957.273   107917200.946    20535962.840    84091355.9834   20535962.930  
                
  19412040.305   103732088.035                    80680492.904    19412043.938  
  19412040.492  
  20063413.648   107099874.281                    83299899.993    20063416.863  
  20063412.219  
  21038449.656   110557817.493    21038458.320    86148977.8424   21038458.332  
                
  22961241.383   122784095.558                    95498741.373    22961244.965  
  22961240.117  
  19342090.273   103503441.214                    80502678.155    19342092.637  
  19342088.484  
  22592607.094   118724957.123    22592610.953    92512993.2714                 
                
  24329741.938   127853655.193    24329749.629    99626247.2364   24329749.875  
                
  21642822.359   113733811.776    21642826.418    88623770.5594                 
                
  22411538.648   117773452.777    22411547.398    91771551.5034   22411547.578  
                
 21  8 16  1 36 10.0000000  0 13G 6R14R16G12R15R18G24R24R17G19G32G 2
                                G25
  21451184.250   112726746.162    21451192.328    87839064.6194   21451192.867  
                
  22680918.375   120902080.171                    94034944.312    22680922.848  
  22680918.051  
  20728045.531   110725512.757                    86119831.590    20728046.801  
  20728045.145  
  20533504.320   107904310.628    20533509.902    84081311.5784   20533509.980  
                
  19413674.695   103740821.776                    80687285.813    19413678.352  
  19413674.852  
  20058294.867   107072549.894                    83278647.705    20058298.082  
  20058293.438  
  21042399.242   110578572.698    21042407.906    86165150.7284   21042407.918  
                
  22968871.617   122824897.740                    95530476.390    22968875.223  
  22968870.406  
  19344483.391   103516247.282                    80512638.427    19344485.758  
  19344481.602  
  22598544.562   118756158.736    22598548.406    92537306.2024                 
                
  24329664.898   127853250.297    24329672.641    99625931.7314   24329672.875  
                
  21639835.062   113718113.459    21639839.125    88611538.1134                 
                
  22406218.695   117745496.264    22406227.418    91749767.2304   22406227.609  
                
 21  8 16  1 36 20.0000000  0 13G 6R14R16G12R15R18G24R24R17G19G32G 2
                                G25
  21451534.664   112728587.576    21451542.750    87840499.4864   21451543.285  
                
  22687567.719   120937524.694                    94062512.278    22687572.129  
  22687567.355  
  20722567.031   110696247.620                    86097069.800    20722568.281  
  20722566.672  
  20531057.969   107891454.935    20531063.570    84071294.1584   20531063.641  
                
  19415321.000   103749619.127                    80694128.191    19415324.668  
  19415321.125  
  20053188.852   107045293.589                    83257448.356    20053192.070  
  20053187.414  
  21046358.812   110599380.407    21046367.480    86181364.5204   21046367.488  
                
  22976505.562   122865719.957                    95562227.007    22976509.215  
  22976504.391  
  19346891.180   103529131.815                    80522659.743    19346893.551  
  19346889.371  
  22604485.984   118787381.077    22604489.848    92561635.2924                 
                
  24329599.219   127852905.023    24329607.031    99625662.6694   24329607.246  
                
  21636858.094   113702469.382    21636862.160    88599347.9314                 
                
  22400901.969   117717556.639    22400910.645    91727996.0704   22400910.848  
                
 21  8 16  1 36 30.0000000  0 13G 6R14R16G12R15R18G24R24R17G19G32G 2
                                G25
  21451898.219   112730498.093    21451906.305    87841988.1974   21451906.828  
                
  22694222.594   120972998.813                    94090103.254    22694226.984  
  22694222.211  
  20717094.820   110667016.037                    86074334.140    20717096.043  
  20717094.449  
  20528618.188   107878633.766    20528623.812    84061303.6404   20528623.871  
                
  19416979.164   103758479.868                    80701019.867    19416982.840  
  19416979.254  
  20048095.617   107018105.582                    83236302.128    20048098.844  
  20048094.184  
  21050328.336   110620240.381    21050337.000    86197619.0414   21050337.004  
                
  22984143.250   122906562.142                    95593993.149    22984146.934  
  22984142.066  
  19349313.594   103542094.676                    80532741.969    19349315.977  
  19349311.766  
  22610431.312   118818623.953    22610435.191    92585980.3754                 
                
  24329544.836   127852619.242    24329552.727    99625439.9714   24329552.922  
                
  21633891.438   113686879.522    21633895.504    88587199.9934                 
                
  22395588.414   117689633.726    22395597.059    91706237.9864   22395597.305  
                
 21  8 16  1 36 40.0000000  0 13G 6R14R16G12R15R18G24R24R17G19G32G 2
                                G25
  21452274.906   112732477.663    21452282.996    87843530.7154   21452283.531  
                
  22700882.938   121008502.460                    94117717.189    22700887.395  
  22700882.578  
  20711628.898   110637818.141                    86051624.661    20711630.117  
  20711628.527  
  20526184.938   107865846.988    20526190.562    84051339.9244   20526190.629  
                
  19418649.219   103767404.173                    80707960.993    19418652.910  
  19418649.277  
  20043015.164   106990985.824                    83215208.997    20043018.402  
  20043013.746  
  21054307.781   110641152.561    21054316.449    86213914.2414   21054316.441  
                
  22991784.633   122947424.213                    95625774.763    22991788.367  
  22991783.422  
  19351750.609   103555135.717                    80542885.008    19351753.012  
  19351748.738  
  22616380.508   118849887.128    22616384.402    92610341.2944                 
                
  24329501.758   127852392.898    24329509.695    99625263.5974   24329509.875  
                
  21630935.094   113671343.907    21630939.160    88575094.3224                 
                
  22390278.062   117661727.647    22390286.617    91684492.9834   22390286.906  
                
 21  8 16  1 36 50.0000000  0 13G 6R14R16G12R15R18G24R24R17G19G32G 2
                                G25
  21452664.812   112734526.595    21452672.906    87845127.3014   21452673.438  
                
  22707548.938   121044035.815                    94145354.228    22707553.375  
  22707548.547  
  20706169.375   110608654.299                    86028941.681    20706170.578  
  20706169.012  
  20523758.359   107853095.210    20523763.980    84041403.4764   20523764.047  
                
  19420331.211   103776392.226                    80714951.700    19420334.922  
  19420331.262  
  20037947.570   106963934.628                    83194169.184    20037950.812  
  20037946.164  
  21058297.219   110662117.171    21058305.883    86230250.3004   21058305.879  
                
  22999429.773   122988306.280                    95657571.909    22999433.551  
  22999428.496  
  19354202.273   103568255.095                    80553088.960    19354204.688  
  19354200.363  
  22622333.633   118881170.945    22622337.570    92634718.2834                 
                
  24329470.055   127852226.266    24329478.039    99625133.7294   24329478.188  
                
  21627989.148   113655862.824    21627993.223    88563031.1474                 
                
  22384970.984   117633838.697    22384979.457    91662761.3294   22384979.797  
                
 21  8 16  1 37  0.0000000  0 13G 6R14R16G12R15R18G24R24R17G19G32G 2
                                G25
  21453067.867   112736644.700    21453075.969    87846777.7674   21453076.496  
                
  22714220.531   121079598.667                    94173014.228    22714224.871  
  22714220.074  
  20700716.188   110579524.392                    86006285.088    20700717.387  
  20700715.840  
  20521338.383   107840378.178    20521343.980    84031494.1074   20521344.055  
                
  19422025.117   103785443.998                    80721991.960    19422028.832  
  19422025.160  
  20032892.789   106936951.905                    83173182.622    20032896.027  
  20032891.395  
  21062296.570   110683133.932    21062305.238    86246627.0024   21062305.238  
                
  23007078.508   123029207.723                    95689384.120    23007082.324  
  23007077.172  
  19356668.508   103581452.518                    80563353.616    19356670.938  
  19356666.570  
  22628290.633   118912475.143    22628294.598    92659111.1564                 
                
  24329449.664   127852119.113    24329457.688    99625050.2344   24329457.812  
                
  21625053.539   113640436.150    21625057.605    88551010.3704                 
                
  22379667.102   117605966.694    22379675.586    91641042.9164   22379675.926  
                
 21  8 16  1 37 10.0000000  0 13G 6R14R16G12R15R18G24R24R17G19G32G 2
                                G25
  21453484.094   112738831.960    21453492.215    87848482.1264   21453492.730  
                
  22720897.609   121115191.123                    94200697.225    22720901.914  
  22720897.105  
  20695269.398   110550428.615                    85983655.036    20695270.609  
  20695269.094  
  20518925.031   107827695.916    20518930.590    84021611.8234   20518930.672  
                
  19423730.922   103794559.319                    80729081.656    19423734.641  
  19423730.961  
  20027850.891   106910037.893                    83152249.502    20027854.117  
  20027849.504  
  21066305.844   110704202.827    21066314.535    86263044.3164   21066314.520  
                
  23014730.906   123070128.777                    95721211.583    23014734.766  
  23014729.520  
  19359149.336   103594727.978                    80573678.984    19359151.785  
  19359147.379  
  22634251.500   118943799.622    22634255.461    92683519.8404                 
                
  24329440.602   127852071.524    24329448.633    99625013.1214   24329448.738  
                
  21622128.305   113625063.952    21622132.367    88539032.0394                 
                
  22374366.484   117578111.787    22374375.012    91619337.7964   22374375.301  
                
 21  8 16  1 37 20.0000000  0 13G 6R14R16G12R15R18G24R24R17G19G32G 2
                                G25
  21453913.469   112741088.386    21453921.605    87850240.3854   21453922.113  
                
  22727580.055   121150812.902                    94228403.057    22727584.449  
  22727579.617  
  20689829.023   110521367.150                    85961051.687    20689830.246  
  20689828.719  
  20516518.305   107815048.518    20516523.824    84011756.7054   20516523.910  
                
  19425448.664   103803738.447                    80736220.967    19425452.391  
  19425448.703  
  20022821.844   106883192.556                    83131369.804    20022825.062  
  20022820.465  
  21070325.023   110725323.784    21070333.734    86279502.2034   21070333.699  
                
  23022386.914   123111069.265                    95753054.161    23022390.789  
  23022385.516  
  19361644.711   103608081.264                    80584064.868    19361647.168  
  19361642.734  
  22640216.188   118975144.244    22640220.145    92707944.2084                 
                
  24329442.852   127852083.385    24329450.852    99625022.3644   24329450.922  
                
  21619213.438   113609746.277    21619217.512    88527096.1954                 
                
  22369069.117   117550273.935    22369077.590    91597645.9724   22369077.906  
                
 21  8 16  1 37 30.0000000  0 13G 6R14R16G12R15R18G24R24R17G19G32G 2
                                G25
  21454356.016   112743413.987    21454364.156    87852052.5444   21454364.648  
                
  22734267.945   121186464.096                    94256131.742    22734272.492  
  22734267.586  
  20684395.055   110492339.864                    85938474.911    20684396.281  
  20684394.738  
  20514118.234   107802436.044    20514123.715    84001928.8044   20514123.809  
                
  19427178.336   103812981.315                    80743409.871    19427182.066  
  19427178.387  
  20017805.703   106856416.086                    83110543.673    20017808.934  
  20017804.344  
  21074354.102   110746496.726    21074362.828    86296000.5984   21074362.797  
                
  23030046.578   123152028.974                    95784911.691    23030050.453  
  23030045.188  
  19364154.633   103621512.370                    80594511.288    19364157.109  
  19364152.656  
  22646184.703   119006508.992    22646188.684    92732384.2704                 
                
  24329456.445   127852154.735    24329464.355    99625077.9844   24329464.465  
                
  21616308.961   113594483.182    21616313.043    88515202.8864                 
                
  22363775.023   117522453.291    22363783.422    91575967.5444   22363783.816  
                
 21  8 16  1 37 40.0000000  0 13G 6R14R16G12R15R18G24R24R17G19G32G 2
                                G25
  21454811.711   112745808.667    21454819.840    87853918.5264   21454820.336  
                
  22740961.477   121222144.511                    94283883.195    22740966.035  
  22740961.109  
  20678967.562   110463347.179                    85915925.043    20678968.785  
  20678967.227  
  20511724.797   107789858.384    20511730.234    83992128.0324   20511730.344  
                
  19428919.938   103822287.910                    80750648.332    19428923.668  
  19428919.988  
  20012802.469   106829708.490                    83089771.105    20012805.703  
  20012801.098  
  21078393.062   110767721.566    21078401.801    86312539.4344   21078401.781  
                
  23037709.852   123193007.849                    95816784.130    23037713.703  
  23037708.453  
  19366679.062   103635021.065                    80605018.055    19366681.555  
  19366677.078  
  22652157.031   119037893.768    22652161.062    92756839.9394                 
                
  24329481.352   127852285.497    24329489.199    99625179.8904   24329489.336  
                
  21613414.883   113579274.705    21613418.961    88503352.1204                 
                
  22358484.203   117494649.782    22358492.637    91554302.4694   22358493.031  
                
 21  8 16  1 37 50.0000000  0 13G 6R14R16G12R15R18G24R24R17G19G32G 2
                                G25
  21455280.539   112748272.404    21455288.660    87855838.3244   21455289.176  
                
  22747660.461   121257854.169                    94311657.348    22747665.055  
  22747660.109  
  20673546.500   110434388.909                    85893401.944    20673547.723  
  20673546.172  
  20509337.969   107777315.552    20509343.367    83982354.3934   20509343.500  
                
  19430673.453   103831658.198                    80757936.329    19430677.180  
  19430673.520  
  20007812.133   106803069.740                    83069052.086    20007815.352  
  20007810.750  
  21082441.859   110788998.170    21082450.594    86329118.6084   21082450.578  
                
  23045376.602   123234005.494                    95848671.196    23045380.484  
  23045375.203  
  19369217.977   103648607.361                    80615585.174    19369220.465  
  19369215.988  
  22658133.125   119069298.432    22658137.211    92781311.0834                 
                
  24329517.539   127852475.658    24329525.355    99625328.0404   24329525.508  
                
  21610531.203   113564120.902    21610535.270    88491543.9684                 
                
  22353196.625   117466863.433    22353205.113    91532650.7904   22353205.469  
                
 21  8 16  1 38  0.0000000  0 13G 6R14R16G12R15R18G24R24R17G19G32G 2
                                G25
  21455762.500   112750805.180    21455770.629    87857811.9244   21455771.148  
                
  22754364.938   121293592.890                    94339454.099    22754369.590  
  22754364.582  
  20668131.953   110405465.364                    85870905.855    20668133.168  
  20668131.633  
  20506957.781   107764807.597    20506963.152    83972607.9394   20506963.293  
                
  19432438.898   103841092.204                    80765273.884    19432442.621  
  19432438.957  
  20002834.703   106776499.918                    83048386.675    20002837.914  
  20002833.328  
  21086500.508   110810326.530    21086509.242    86345738.0944   21086509.234  
                
  23053046.875   123275022.018                    95880572.924    23053050.801  
  23053045.453  
  19371771.367   103662271.105                    80626212.531    19371773.863  
  19371769.355  
  22664113.008   119100722.921    22664117.051    92805797.6884                 
                
  24329565.031   127852725.178    24329572.867    99625522.4654   24329573.004  
                
  21607657.945   113549021.830    21607661.996    88479778.4724                 
                
  22347912.320   117439094.296    22347920.750    91511012.4984   22347921.152  
                
 21  8 16  1 38 10.0000000  0 13G 6R14R16G12R15R18G24R24R17G19G32G 2
                                G25
  21456257.633   112753407.074    21456265.762    87859839.3724   21456266.273  
                
  22761074.859   121329360.782                    94367273.545    22761079.570  
  22761074.496  
  20662723.914   110376576.631                    85848436.854    20662725.109  
  20662723.629  
  20504584.234   107752334.504    20504589.578    83962888.6434   20504589.734  
                
  19434216.281   103850589.967                    80772661.030    19434219.992  
  19434216.340  
  19997870.258   106749999.363                    83027775.133    19997873.445  
  19997868.898  
  21090569.000   110831706.564    21090577.746    86362397.8654   21090577.734  
                
  23060720.656   123316057.295                    95912489.223    23060724.621  
  23060719.281  
  19374339.203   103676012.204                    80636900.050    19374341.719  
  19374337.164  
  22670096.664   119132167.242    22670100.707    92830299.7524                 
                
  24329623.828   127853034.090    24329631.641    99625763.1564   24329631.762  
                
  21604795.117   113533977.613    21604799.152    88468055.6984                 
                
  22342631.312   117411342.463    22342639.727    91489387.7144   22342640.160  
                
 21  8 16  1 38 20.0000000  0 13G 6R14R16G12R15R18G24R24R17G19G32G 2
                                G25
  21456765.898   112756078.077    21456774.035    87861920.6724   21456774.539  
                
  22767790.094   121365157.653                    94395115.561    22767794.984  
  22767789.871  
  20657322.430   110347722.866                    85825995.026    20657323.609  
  20657322.137  
  20502217.352   107739896.455    20502222.676    83953196.6624   20502222.844  
                
  19436005.602   103860151.559                    80780097.827    19436009.309  
  19436005.668  
  19992918.773   106723567.978                    83007217.373    19992921.941  
  19992917.422  
  21094647.320   110853138.292    21094656.098    86379097.9124   21094656.086  
                
  23068397.984   123357111.315                    95944420.120    23068401.938  
  23068396.664  
  19376921.523   103689830.770                    80647647.823    19376924.047  
  19376919.457  
  22676084.078   119163631.326    22676088.125    92854817.2194                 
                
  24329693.930   127853402.388    24329701.703    99626050.1444   24329701.848  
                
  21601942.734   113518988.224    21601946.789    88456375.6654                 
                
  22337353.633   117383608.063    22337362.086    91467776.4974   22337362.504  
                
 21  8 16  1 38 30.0000000  0 13G 6R14R16G12R15R18G24R24R17G19G32G 2
                                G25
  21457287.344   112758818.242    21457295.500    87864055.8724   21457295.984  
                
  22774510.883   121400983.750                    94422980.307    22774515.852  
  22774510.723  
  20651927.477   110318903.971                    85803580.333    20651928.641  
  20651927.172  
  20499857.180   107727493.659    20499862.480    83943532.1434   20499862.656  
                
  19437806.922   103869777.243                    80787584.471    19437810.621  
  19437806.996  
  19987980.312   106697206.117                    82986713.720    19987983.469  
  19987978.949  
  21098735.484   110874621.676    21098744.285    86395838.2074   21098744.262  
                
  23076078.742   123398183.697                    95976365.285    23076082.668  
  23076077.430  
  19379518.281   103703726.561                    80658455.661    19379520.801  
  19379516.207  
  22682075.258   119195115.204    22682079.301    92879350.0964                 
                
  24329775.336   127853830.120    24329783.074    99626383.4424   24329783.238  
                
  21599100.812   113504053.829    21599104.895    88444738.4814                 
                
  22332079.273   117355891.141    22332087.793    91446178.9174   22332088.195  
                
 21  8 16  1 38 40.0000000  0 13G 6R14R16G12R15R18G24R24R17G19G32G 2
                                G25
  21457821.922   112761627.490    21457830.098    87866244.8934   21457830.578  
                
  22781237.156   121436838.633                    94450867.439    22781242.117  
  22781236.980  
  20646539.156   110290120.524                    85781193.215    20646540.305  
  20646538.855  
  20497503.695   107715126.014    20497508.969    83933895.0184   20497509.152  
                
  19439620.156   103879466.611                    80795120.651    19439623.855  
  19439620.250  
  19983054.812   106670913.479                    82966263.903    19983057.949  
  19983053.457  
  21102833.445   110896156.593    21102842.258    86412618.6614   21102842.227  
                
  23083762.938   123439274.588                    96008324.852    23083766.883  
  23083761.664  
  19382129.438   103717699.444                    80669323.456    19382131.957  
  19382127.379  
  22688070.141   119226618.462    22688074.160    92903898.0904                 
                
  24329868.031   127854317.225    24329875.754    99626762.9924   24329875.934  
                
  21596269.352   113489174.399    21596273.441    88433144.1214                 
                
  22326808.250   117328191.722    22326816.793    91424594.9574   22326817.203  
                
 21  8 16  1 38 50.0000000  0 13G 6R14R16G12R15R18G24R24R17G19G32G 2
                                G25
  21458369.633   112764505.733    21458377.820    87868487.6834   21458378.297  
                
  22787968.891   121472722.421                    94478777.066    22787973.809  
  22787968.711  
  20641157.414   110261372.212                    85758833.413    20641158.566  
  20641157.160  
  20495156.898   107702793.484    20495162.152    83924285.2534   20495162.352  
                
  19441445.359   103889219.911                    80802706.543    19441449.059  
  19441445.469  
  19978142.320   106644690.242                    82945868.059    19978145.438  
  19978140.965  
  21106941.188   110917742.876    21106950.012    86429439.1424   21106949.980  
                
  23091450.523   123480383.616                    96040298.528    23091454.496  
  23091449.285  
  19384754.992   103731749.311                    80680251.144    19384757.496  
  19384752.961  
  22694068.703   119258141.163    22694072.672    92928461.2284                 
                
  24329972.000   127854863.573    24329979.715    99627188.7094   24329979.891  
                
  21593448.336   113474349.873    21593452.422    88421592.5464                 
                
  22321540.562   117300509.776    22321549.051    91403024.5964   22321549.500  
                
 21  8 16  1 39  0.0000000  0 13G 6R14R16G12R15R18G24R24R17G19G32G 2
                                G25
  21458930.453   112767452.837    21458938.656    87870784.1234   21458939.129  
                
  22794706.008   121508634.908                    94506708.959    22794710.871  
  22794705.816  
  20635782.219   110232658.886                    85736500.825    20635783.371  
  20635781.984  
  20492816.750   107690495.937    20492821.992    83914702.7514   20492822.207  
                
  19443282.461   103899036.782                    80810341.884    19443286.152  
  19443282.578  
  19973242.844   106618536.503                    82925526.271    19973245.965  
  19973241.496  
  21111058.664   110939380.360    21111067.484    86446299.5144   21111067.453  
                
  23099141.508   123521510.586                    96072286.178    23099145.484  
  23099140.379  
  19387394.875   103745875.832                    80691238.436    19387397.359  
  19387392.867  
  22700070.961   119289683.255    22700074.910    92953039.4754                 
                
  24330087.227   127855469.033    24330094.918    99627660.4644   24330095.117  
                
  21590637.766   113459580.234    21590641.852    88410083.7424                 
                
  22316276.148   117272845.151    22316284.633    91381467.7634   22316285.113  
                
 21  8 16  1 39 10.0000000  0 13G 6R14R16G12R15R18G24R24R17G19G32G 2
                                G25
  21459504.422   112770469.021    21459512.660    87873134.4014   21459513.125  
                
  22801448.516   121544576.182                    94534663.263    22801453.363  
  22801448.312  
  20630413.727   110203981.332                    85714196.069    20630414.898  
  20630413.477  
  20490483.328   107678233.691    20490488.578    83905147.7574   20490488.793  
                
  19445131.547   103908917.711                    80818027.055    19445135.234  
  19445131.668  
  19968356.398   106592452.314                    82905238.566    19968359.508  
  19968355.051  
  21115185.930   110961069.224    21115194.738    86463199.9284   21115194.711  
                
  23106835.859   123562655.538                    96104287.809    23106839.840  
  23106834.816  
  19390049.125   103760079.228                    80702285.530    19390051.609  
  19390047.137  
  22706076.922   119321244.792    22706080.879    92977632.8624                 
                
  24330213.742   127856133.833    24330221.363    99628178.4924   24330221.586  
                
  21587837.695   113444865.752    21587841.785    88398617.9144                 
                
  22311015.117   117245198.231    22311023.668    91359924.7244   22311024.094  
                
 21  8 16  1 39 20.0000000  0 13G 6R14R16G12R15R18G24R24R17G19G32G 2
                                G25
  21460091.516   112773554.217    21460099.797    87875538.4534   21460100.250  
                
  22808196.359   121580546.148                    94562639.912    22808201.234  
  22808196.191  
  20625051.883   110175339.310                    85691918.936    20625053.020  
  20625051.605  
  20488156.602   107666006.669    20488161.871    83895620.2074   20488162.066  
                
  19446992.562   103918862.437                    80825761.850    19446996.238  
  19446992.676  
  19963483.016   106566437.866                    82885005.111    19963486.109  
  19963481.668  
  21119322.930   110982809.306    21119331.719    86480140.2464   21119331.719  
                
  23114533.492   123603818.231                    96136303.222    23114537.504  
  23114532.516  
  19392717.711   103774359.381                    80713392.319    19392720.184  
  19392715.727  
  22712086.547   119352825.614    22712090.504    93002241.2914                 
                
  24330351.531   127856857.895    24330359.062    99628742.6944   24330359.301  
                
  21585048.109   113430206.375    21585052.211    88387195.0294                 
                
  22305757.438   117217568.945    22305766.062    91338395.4254   22305766.465  
                
 21  8 16  1 39 30.0000000  0 13G 6R14R16G12R15R18G24R24R17G19G32G 2
                                G25
  21460691.734   112776708.405    21460700.059    87877996.2624   21460700.484  
                
  22814949.641   121616544.795                    94590638.860    22814954.492  
  22814949.504  
  20619696.734   110146733.052                    85669669.640    20619697.883  
  20619696.438  
  20485836.594   107653814.935    20485841.883    83886120.1504   20485842.066  
                
  19448865.562   103928871.166                    80833546.412    19448869.238  
  19448865.684  
  19958622.711   106540493.237                    82864825.959    19958625.793  
  19958621.348  
  21123469.664   111004600.555    21123478.453    86497120.4304   21123478.465  
                
  23122234.406   123644998.525                    96168332.337    23122238.445  
  23122233.480  
  19395400.602   103788716.095                    80724558.642    19395403.070  
  19395398.617  
  22718099.828   119384425.682    22718103.742    93026864.7144                 
                
  24330500.602   127857641.185    24330508.051    99629353.0364   24330508.328  
                
  21582269.023   113415602.197    21582273.121    88375815.1524                 
                
  22300503.125   117189957.351    22300511.723    91316879.9014   22300512.145  
                
 21  8 16  1 39 40.0000000  0 13G 6R14R16G12R15R18G24R24R17G19G32G 2
                                G25
  21461305.102   112779931.639    21461313.480    87880507.8794   21461313.883  
                
  22821708.328   121652572.041                    94618660.042    22821713.043  
  22821708.133  
  20614348.266   110118162.513                    85647448.116    20614349.398  
  20614347.957  
  20483523.320   107641658.567    20483528.637    83876647.6614   20483528.809  
                
  19450750.555   103938943.994                    80841380.829    19450754.223  
  19450750.660  
  19953775.484   106514618.423                    82844701.116    19953778.555  
  19953774.105  
  21127626.141   111026442.964    21127634.934    86514140.4904   21127634.941  
                
  23129938.617   123686196.529                    96200375.203    23129942.734  
  23129937.668  
  19398097.805   103803149.395                    80735784.548    19398100.281  
  19398095.828  
  22724116.766   119416044.908    22724120.676    93051503.0704                 
                
  24330660.938   127858483.724    24330668.398    99630009.5684   24330668.656  
                
  21579500.469   113401053.303    21579504.551    88364478.3694                 
                
  22295252.211   117162363.579    22295260.754    91295378.2584   22295261.215  
                
 21  8 16  1 39 50.0000000  0 13G 6R14R16G12R15R18G24R24R17G19G32G 2
                                G25
  21461931.594   112783223.860    21461940.023    87883073.2524   21461940.406  
                
  22828472.359   121688627.776                    94646703.401    22828476.949  
  22828472.113  
  20609006.500   110089627.819                    85625254.456    20609007.637  
  20609006.199  
  20481216.781   107629537.647    20481222.125    83867202.7894   20481222.277  
                
  19452647.516   103949080.777                    80849264.987    19452651.188  
  19452647.621  
  19948941.375   106488813.604                    82824630.713    19948944.430  
  19948939.988  
  21131792.336   111048336.425    21131801.117    86531200.3294   21131801.121  
                
  23137646.070   123727412.047                    96232431.677    23137650.289  
  23137645.090  
  19400809.297   103817659.145                    80747069.899    19400811.773  
  19400807.312  
  22730137.328   119447683.265    22730141.234    93076156.3224                 
                
  24330832.547   127859385.494    24330840.074    99630712.2544   24330840.293  
                
  21576742.438   113386559.762    21576746.504    88353184.6984                 
                
  22290004.672   117134787.612    22290013.211    91273890.4984   22290013.688  
                
 21  8 16  1 40  0.0000000  0 13G 6R14R16G12R15R18G24R24R17G19G32G 2
                                G25
  21462571.164   112786584.849    21462579.648    87885692.2054   21462580.027  
                
  22835241.773   121724711.887                    94674768.856    22835246.211  
  22835241.461  
  20603671.492   110061129.075                    85603088.754    20603672.645  
  20603671.188  
  20478916.961   107617451.960    20478922.332    83857785.3694   20478922.477  
                
  19454556.398   103959281.282                    80857198.715    19454560.078  
  19454556.500  
  19944120.359   106463078.730                    82804614.702    19944123.406  
  19944118.977  
  21135968.188   111070280.661    21135976.945    86548299.7314   21135976.965  
                
  23145356.766   123768644.665                    96264501.453    23145361.000  
  23145355.777  
  19403535.008   103832244.959                    80758414.427    19403537.477  
  19403533.012  
  22736161.477   119479340.401    22736165.344    93100824.2294                 
                
  24331015.375   127860346.254    24331022.953    99631460.9004   24331023.109  
                
  21573994.914   113372121.384    21573998.984    88341934.0184                 
                
  22284760.500   117107229.289    22284769.055    91252416.4914   22284769.496  
                
 21  8 16  1 40 10.0000000  0 13G 6R14R16G12R15R18G24R24R17G19G32G 2
                                G25
  21463223.867   112790014.812    21463232.398    87888364.9004   21463232.750  
                
  22842016.523   121760824.441                    94702856.382    22842020.863  
  22842016.133  
  20598343.227   110032666.514                    85580951.220    20598344.387  
  20598342.898  
  20476623.883   107605401.770    20476629.285    83848395.6174   20476629.414  
                
  19456477.273   103969545.863                    80865182.270    19456480.953  
  19456477.383  
  19939312.477   106437413.880                    82784653.151    19939315.516  
  19939311.105  
  21140153.727   111092275.810    21140162.465    86565438.8014   21140162.492  
                
  23153070.703   123809894.559                    96296584.693    23153074.934  
  23153069.734  
  19406274.961   103846907.038                    80769818.259    19406277.422  
  19406272.953  
  22742189.234   119511016.529    22742193.109    93125506.9124                 
                
  24331209.461   127861366.184    24331217.004    99632255.6384   24331217.160  
                
  21571257.938   113357738.425    21571262.004    88330726.5164                 
                
  22279519.727   117079688.878    22279528.293    91230956.4404   22279528.734  
                
 21  8 16  1 40 20.0000000  0 13G 6R14R16G12R15R18G24R24R17G19G32G 2
                                G25
  21463889.672   112793513.664    21463898.238    87891091.2854   21463898.574  
                
  22848796.531   121796965.227                    94730965.854    22848800.789  
  22848796.113  
  20593021.781   110004240.391                    85558842.019    20593022.992  
  20593021.457  
  20474337.547   107593387.012    20474342.980    83839033.4714   20474343.094  
                
  19458410.117   103979874.410                    80873215.600    19458413.809  
  19458410.234  
  19934517.719   106411819.160                    82764746.149    19934520.738  
  19934516.352  
  21144348.930   111114321.746    21144357.648    86582617.4534   21144357.691  
                
  23160787.836   123851161.337                    96328681.076    23160792.008  
  23160786.902  
  19409029.133   103861645.231                    80781281.308    19409031.586  
  19409027.141  
  22748220.570   119542711.432    22748224.512    93150204.2334                 
                
  24331414.805   127862445.217    24331422.309    99633096.4374   24331422.461  
                
  21568531.484   113343410.849    21568535.547    88319562.1784                 
                
  22274282.352   117052166.362    22274290.953    91209510.3364   22274291.375  
                
 21  8 16  1 40 30.0000000  0 13G 6R14R16G12R15R18G24R24R17G19G32G 2
                                G25
  21464568.594   112797081.363    21464577.184    87893871.3104   21464577.516  
                
  22855581.742   121833134.258                    94759097.299    22855586.039  
  22855581.352  
  20587707.117   109975850.376                    85536760.901    20587708.332  
  20587706.781  
  20472057.961   107581407.690    20472063.434    83829698.9364   20472063.531  
                
  19460354.945   103990266.990                    80881298.714    19460358.629  
  19460355.074  
  19929736.164   106386294.888                    82744893.937    19929739.191  
  19929734.785  
  21148553.781   111136418.371    21148562.488    86599835.5984   21148562.543  
                
  23168508.133   123892445.004                    96360790.595    23168512.273  
  23168507.195  
  19411797.492   103876459.247                    80792803.319    19411799.945  
  19411795.504  
  22754255.461   119574425.019    22754259.438    93174916.1054                 
                
  24331631.375   127863583.247    24331638.863    99633983.2164   24331639.031  
                
  21565815.594   113329138.727    21565819.668    88308441.0504                 
                
  22269048.398   117024661.777    22269057.020    91188078.2124   22269057.422  
                
 21  8 16  1 40 40.0000000  0 13G 6R14R16G12R15R18G24R24R17G19G32G 2
                                G25
  21465260.633   112800718.021    21465269.246    87896705.0734   21465269.574  
                
  22862372.359   121869331.553                    94787250.727    22862376.633  
  22862371.895  
  20582399.320   109947497.109                    85514708.365    20582400.551  
  20582398.992  
  20469785.148   107569463.957    20469790.652    83820392.1294   20469790.738  
                
  19462311.750   104000723.529                    80889431.568    19462315.434  
  19462311.875  
  19924967.773   106360840.889                    82725096.400    19924970.809  
  19924966.395  
  21152768.289   111158565.743    21152777.008    86617093.2894   21152777.062  
                
  23176231.586   123933745.607                    96392913.259    23176235.723  
  23176230.574  
  19414580.055   103891349.314                    80804384.495    19414582.504  
  19414578.070  
  22760293.914   119606157.283    22760297.898    93199642.5454                 
                
  24331859.195   127864780.438    24331866.668    99634916.0954   24331866.859  
                
  21563110.289   113314922.218    21563114.363    88297363.2644                 
                
  22263817.883   116997175.268    22263826.500    91166660.1594   22263826.898  
                
 21  8 16  1 40 50.0000000  0 13G 6R14R16G12R15R18G24R24R17G19G32G 2
                                G25
  21465965.766   112804423.542    21465974.398    87899592.4944   21465974.711  
                
  22869168.133   121905557.052                    94815426.108    22869172.473  
  22869167.727  
  20577098.352   109919180.323                    85492684.215    20577099.574  
  20577098.023  
  20467519.102   107557555.816    20467524.637    83811113.0634   20467524.699  
                
  19464280.562   104011244.287                    80897614.398    19464284.238  
  19464280.668  
  19920212.555   106335457.258                    82705353.576    19920215.594  
  19920211.176  
  21156992.422   111180763.735    21157001.152    86634390.4204   21157001.188  
                
  23183958.094   123975062.825                    96425048.856    23183962.215  
  23183957.004  
  19417376.781   103906315.242                    80816024.662    19417379.242  
  19417374.785  
  22766335.875   119637908.121    22766339.898    93224383.4314                 
                
  24332098.242   127866036.681    24332105.715    99635894.9864   24332105.922  
                
  21560415.555   113300761.304    21560419.605    88286328.7834                 
                
  22258590.812   116969706.851    22258599.402    91145256.2034   22258599.812  
                
 21  8 16  1 41  0.0000000  0 13G 6R14R16G12R15R18G24R24R17G19G32G 2
                                G25
  21466684.008   112808197.917    21466692.652    87902533.5674   21466692.969  
                
  22875969.219   121941810.717                    94843623.385    22875973.562  
  22875968.828  
  20571804.273   109890900.314                    85470688.648    20571805.508  
  20571803.938  
  20465259.844   107545683.315    20465265.406    83801861.7674   20465265.461  
                
  19466261.344   104021829.001                    80905846.944    19466265.012  
  19466261.414  
  19915470.523   106310144.015                    82685665.505    19915473.570  
  19915469.145  
  21161226.172   111203012.228    21161234.898    86651726.9004   21161234.938  
                
  23191687.680   124016396.490                    96457197.235    23191691.793  
  23191686.523  
  19420187.633   103921356.730                    80827723.591    19420190.113  
  19420185.617  
  22772381.375   119669677.465    22772385.398    93249138.7624                 
                
  24332348.523   127867351.930    24332356.043    99636919.8584   24332356.238  
                
  21557731.406   113286655.988    21557735.426    88275337.6294                 
                
  22253367.188   116942256.540    22253375.762    91123866.3444   22253376.203  
                
 21  8 16  1 41 10.0000000  0 13G 6R14R16G12R15R18G24R24R17G19G32G 2
                                G25
  21467415.305   112812040.929    21467423.957    87905528.1224   21467424.266  
                
  22882775.508   121978092.181                    94871842.281    22882779.859  
  22882775.172  
  20566517.031   109862656.827                    85448721.491    20566518.273  
  20566516.719  
  20463007.320   107533846.232    20463012.898    83792638.0654   20463012.953  
                
  19468254.094   104032477.660                    80914129.236    19468257.762  
  19468254.160  
  19910741.711   106284901.266                    82666032.256    19910744.742  
  19910740.324  
  21165469.484   111225310.983    21165478.211    86669102.5504   21165478.254  
                
  23199420.344   124057746.591                    96489358.409    23199424.434  
  23199419.188  
  19423012.562   103936473.588                    80839481.144    19423015.066  
  19423010.527  
  22778430.344   119701465.125    22778434.402    93273908.3484                 
                
  24332609.992   127868725.963    24332617.539    99637990.5634   24332617.754  
                
  21555057.812   113272606.147    21555061.805    88264389.7064                 
                
  22248146.961   116914824.157    22248155.562    91102490.4934   22248156.004  
                
 21  8 16  1 41 20.0000000  0 14G 6R14R16G29G12R15R18G24R24R17G19G32
                                G 2G25
  21468159.727   112815952.850    21468168.375    87908576.3714   21468168.684  
                
  22889586.922   122014401.709                    94900083.037    22889591.410  
  22889586.742  
  20561236.750   109834450.513                    85426783.259    20561237.992  
  20561236.438  
  24821408.602   130437386.987    24821415.629   101639549.1664   24821415.594  
                
  20460761.609   107522044.919    20460767.191    83783442.2384   20460767.238  
                
  19470258.852   104043190.489                    80922461.429    19470262.520  
  19470258.918  
  19906026.133   106259729.226                    82646454.010    19906029.160  
  19906024.738  
  21169722.406   111247660.246    21169731.133    86686517.5574   21169731.176  
                
  23207156.055   124099112.882                    96521532.188    23207160.125  
  23207154.934  
  19425851.625   103951666.020                    80851297.492    19425854.152  
  19425849.574  
  22784482.859   119733271.267    22784486.922    93298692.3494                 
                
  24332882.711   127870159.078    24332890.305    99639107.2944   24332890.520  
                
  21552394.844   113258612.177    21552398.828    88253485.3164                 
                
  22242930.234   116887410.120    22242938.809    91081128.9054   22242939.234  
                
 21  8 16  1 41 30.0000000  0 14G 6R14R16G29G12R15R18G24R24R17G19G32
                                G 2G25
  21468917.234   112819933.598    21468925.883    87911678.2654   21468926.180  
                
  22896403.789   122050739.173                    94928345.513    22896408.203  
  22896403.566  
  20555963.391   109806281.245                    85404873.835    20555964.629  
  20555963.074  
  24815023.758   130403834.635    24815030.723   101613404.4864   24815030.715  
                
  20458522.711   107510279.403    20458528.293    83774274.3044   20458528.344  
                
  19472275.625   104053967.488                    80930843.541    19472279.293  
  19472275.703  
  19901323.805   106234627.863                    82626930.731    19901326.832  
  19901322.402  
  21173984.914   111270059.853    21173993.637    86703971.7954   21173993.684  
                
  23214894.820   124140495.333                    96553718.524    23214898.883  
  23214893.746  
  19428704.781   103966933.903                    80863172.493    19428707.316  
  19428702.742  
  22790538.859   119765095.758    22790542.934    93323490.6484                 
                
  24333166.648   127871651.198    24333174.332    99640269.9684   24333174.523  
                
  21549742.500   113244674.015    21549746.496    88242624.4184                 
                
  22237716.984   116860014.338    22237725.562    91059781.5704   22237725.996  
                
 21  8 16  1 41 40.0000000  0 14G 6R14R16G29G12R15R18G24R24R17G19G32
                                G 2G25
  21469687.828   112823983.084    21469696.469    87914833.7024   21469696.777  
                
  22903225.844   122087104.473                    94956629.643    22903230.230  
  22903225.605  
  20550697.008   109778149.217                    85382993.369    20550698.234  
  20550696.684  
  24808641.438   130370296.043    24808648.492   101587270.5454   24808648.520  
                
  20456290.594   107498549.571    20456296.180    83765134.1784   20456296.215  
                
  19474304.375   104064808.514                    80939275.450    19474308.047  
  19474304.461  
  19896634.734   106209597.337                    82607462.548    19896637.754  
  19896633.320  
  21178256.969   111292509.647    21178265.695    86721465.1414   21178265.734  
                
  23222636.578   124181893.870                    96585917.368    23222640.629  
  23222635.586  
  19431572.000   103982276.982                    80875106.005    19431574.547  
  19431569.996  
  22796598.305   119796938.362    22796602.414    93348303.0544                 
                
  24333461.797   127873202.175    24333469.574    99641478.5254   24333469.734  
                
  21547100.766   113230791.599    21547104.773    88231806.9604                 
                
  22232507.211   116832636.817    22232515.797    91038448.4344   22232516.223  
                
 21  8 16  1 41 50.0000000  0 14G 6R14R16G29G12R15R18G24R24R17G19G32
                                G 2G25
  21470471.500   112828101.265    21470480.133    87918042.6784   21470480.445  
                
  22910053.164   122123497.449                    94984935.302    22910057.414  
  22910052.879  
  20545437.578   109750054.263                    85361141.734    20545438.820  
  20545437.250  
  24802261.859   130336771.413    24802268.918   101561147.4624   24802268.988  
                
  20454065.281   107486855.455    20454070.875    83756021.8824   20454070.902  
                
  19476345.117   104075713.603                    80947757.179    19476348.789  
  19476345.211  
  19891958.945   106184637.630                    82588049.459    19891961.953  
  19891957.531  
  21182538.562   111315009.574    21182547.289    86738997.5494   21182547.332  
                
  23230381.312   124223308.048                    96618128.395    23230385.293  
  23230380.387  
  19434453.289   103997695.270                    80887097.999    19434455.820  
  19434451.309  
  22802661.195   119828799.068    22802665.332    93373129.5894                 
                
  24333768.141   127874811.994    24333775.934    99642732.9144   24333776.125  
                
  21544469.648   113216965.000    21544473.660    88221032.9904                 
                
  22227300.961   116805277.743    22227309.473    91017129.6704   22227309.934  
                
 21  8 16  1 42  0.0000000  0 15G 6R14R16R19G29G12R15R18G24R24R17G19
                                G32G 2G25
  21471268.203   112832287.999    21471276.816    87921305.0684   21471277.141  
                
  22916885.727   122159917.913                    95013262.300    22916889.793  
  22916885.316  
  20540185.133   109721996.679                    85339319.173    20540186.383  
  20540184.805  
  23582479.398   126150394.976                    98116958.925    23582482.277  
                
  24795884.891   130303260.534    24795891.926   101535035.0854   24795892.035  
                
  20451846.758   107475197.015    20451852.352    83746937.3874   20451852.375  
                
  19478397.836   104086682.694                    80956288.698    19478401.500  
  19478397.930  
  19887296.383   106159748.602                    82568691.326    19887299.375  
  19887294.961  
  21186829.641   111337559.390    21186838.367    86756568.8324   21186838.395  
                
  23238128.938   124264737.941                    96650351.644    23238132.895  
  23238128.035  
  19437348.539   104013188.307                    80899148.143    19437351.066  
  19437346.586  
  22808727.523   119860677.776    22808731.688    93397970.1074                 
                
  24334085.641   127876480.461    24334093.426    99644033.0234   24334093.645  
                
  21541849.125   113203194.075    21541853.141    88210302.4004                 
                
  22222098.117   116777936.707    22222106.578    90995824.9714   22222107.094  
                
 21  8 16  1 42 10.0000000  0 15G 6R14R16R19G29G12R15R18G24R24R17G19
                                G32G 2G25
  21472077.938   112836543.208    21472086.520    87924620.8144   21472086.859  
                
  22923723.391   122196365.876                    95041610.735    22923727.387  
  22923722.922  
  20534939.656   109693976.311                    85317525.557    20534940.910  
  20534939.320  
  23574277.305   126106518.508                    98082832.780    23574279.961  
                
  24789510.547   130269763.431    24789517.547   101508933.4474   24789517.707  
                
  20449635.000   107463574.218    20449640.590    83737880.6624   20449640.613  
                
  19480462.500   104097715.648                    80964869.881    19480466.152  
  19480462.609  
  19882647.094   106134930.416                    82549388.305    19882650.090  
  19882645.664  
  21191130.211   111360159.012    21191138.941    86774178.9294   21191138.961  
                
  23245879.414   124306183.136                    96682586.747    23245883.398  
  23245878.520  
  19440257.734   104028756.030                    80911256.378    19440260.258  
  19440255.805  
  22814797.219   119892574.206    22814801.430    93422824.4484                 
                
  24334414.289   127878207.543    24334422.133    99645378.7964   24334422.371  
                
  21539239.195   113189478.846    21539243.215    88199615.2114                 
                
  22216898.750   116750613.890    22216907.234    90974534.4804   22216907.727  
                
 21  8 16  1 42 20.0000000  0 15G 6R14R16R19G29G12R15R18G24R24R17G19
                                G32G 2G25
  21472900.766   112840867.201    21472909.316    87927990.1654   21472909.672  
                
  22930566.195   122232841.597                    95069980.703    22930570.172  
  22930565.738  
  20529701.258   109665993.708                    85295761.309    20529702.492  
  20529700.934  
  23566078.648   126062659.991                    98048720.595    23566080.891  
                
  24783138.898   130236280.529    24783145.875   101482842.8724   24783146.074  
                
  20447430.109   107451987.414    20447435.691    83728851.9844   20447435.723  
                
  19482539.188   104108812.795                    80973500.989    19482542.836  
  19482539.324  
  19878011.125   106110183.298                    82530140.544    19878014.105  
  19878009.711  
  21195440.281   111382808.637    21195449.012    86791827.9874   21195449.031  
                
  23253632.844   124347644.059                    96714834.110    23253636.855  
  23253631.965  
  19443180.953   104044398.718                    80923422.915    19443183.457  
  19443179.055  
  22820870.344   119924488.634    22820874.562    93447692.8194                 
                
  24334754.133   127879993.513    24334762.051    99646770.4434   24334762.289  
                
  21536639.930   113175819.657    21536643.953    88188971.6954                 
                
  22211702.906   116723309.634    22211711.449    90953258.4374   22211711.914  
                
 21  8 16  1 42 30.0000000  0 15G 6R14R16R19G29G12R15R18G24R24R17G19
                                G32G 2G25
  21473736.703   112845260.049    21473745.227    87931413.1614   21473745.582  
                
  22937414.148   122269344.955                    95098372.193    22937418.152  
  22937413.754  
  20524469.953   109638048.987                    85274026.537    20524471.160  
  20524469.621  
  23557883.070   126018819.845                    98014622.697    23557885.398  
                
  24776770.031   130202811.927    24776776.945   101456763.4334   24776777.176  
                
  20445232.078   107440436.718    20445237.656    83719851.4434   20445237.684  
                
  19484627.914   104119974.292                    80982182.153    19484631.559  
  19484628.055  
  19873388.523   106085507.488                    82510948.260    19873391.492  
  19873387.117  
  21199759.891   111405508.372    21199768.613    86809516.0764   21199768.637  
                
  23261389.156   124389120.464                    96747093.511    23261393.215  
  23261388.281  
  19446118.180   104060116.409                    80935647.780    19446120.668  
  19446116.285  
  22826946.883   119956421.063    22826951.074    93472575.2284                 
                
  24335105.219   127881838.457    24335113.184    99648208.0594   24335113.406  
                
  21534051.367   113162216.707    21534055.398    88178371.9964                 
                
  22206510.617   116696024.083    22206519.176    90931997.0024   22206519.656  
                
 21  8 16  1 42 40.0000000  0 15G 6R14R16R19G29G12R15R18G24R24R17G19
                                G32G 2G25
  21474585.719   112849721.673    21474594.219    87934889.7484   21474594.586  
                
  22944267.352   122305875.925                    95126785.168    22944271.324  
  22944266.930  
  20519245.758   109610142.204                    85252321.263    20519246.926  
  20519245.418  
  23549690.734   125974997.858                    97980538.949    23549693.402  
                
  24770403.781   130169357.553    24770410.777   101430695.1164   24770411.027  
                
  20443040.922   107428922.094    20443046.488    83710879.0114   20443046.523  
                
  19486728.695   104131200.201                    80990913.429    19486732.340  
  19486728.852  
  19868779.289   106060903.103                    82491811.499    19868782.242  
  19868777.871  
  21204089.008   111428257.997    21204097.711    86827243.0594   21204097.746  
                
  23269148.359   124430612.164                    96779364.806    23269152.441  
  23269147.488  
  19449069.367   104075908.772                    80947930.737    19449071.855  
  19449067.461  
  22833026.828   119988371.289    22833030.961    93497471.5154                 
                
  24335467.516   127883742.255    24335475.480    99649691.5394   24335475.691  
                
  21531473.500   113148669.945    21531477.543    88167816.0894                 
                
  22201321.898   116668757.247    22201330.422    90910750.1044   22201330.914  
                
 21  8 16  1 42 50.0000000  0 15G 6R14R16R19G29G12R15R18G24R24R17G19
                                G32G 2G25
  21475447.750   112854251.694    21475456.227    87938419.6414   21475456.594  
                
  22951125.469   122342434.040                    95155219.233    22951129.590  
  22951125.094  
  20514028.609   109582273.192                    85230645.349    20514029.746  
  20514028.305  
  23541502.078   125931193.951                    97946469.264    23541504.793  
                
  24764040.258   130135917.188    24764047.258   101404637.7044   24764047.516  
                
  20440856.562   107417443.213    20440862.125    83701934.4284   20440862.160  
                
  19488841.406   104142489.911                    80999694.303    19488845.055  
  19488841.570  
  19864183.375   106036369.812                    82472730.063    19864186.328  
  19864181.949  
  21208427.539   111451057.146    21208436.227    86845008.6294   21208436.273  
                
  23276910.336   124472118.813                    96811647.742    23276914.430  
  23276909.465  
  19452034.414   104091775.358                    80960271.417    19452036.914  
  19452032.520  
  22839110.094   120020339.008    22839114.172    93522381.4214                 
                
  24335840.930   127885704.573    24335848.863    99651220.6024   24335849.117  
                
  21528906.258   113135179.062    21528910.301    88157303.7164                 
                
  22196136.680   116641508.806    22196145.176    90889517.5674   22196145.684  
                
 21  8 16  1 43  0.0000000  0 15G 6R14R16R19G29G12R15R18G24R24R17G19
                                G32G 2G25
  21476322.828   112858850.261    21476331.293    87942002.9384   21476331.648  
                
  22957988.695   122379019.480                    95183674.546    22957992.945  
  22957988.344  
  20508818.562   109554442.054                    85208998.909    20508819.684  
  20508818.266  
  23533316.727   125887408.349                    97912413.805    23533319.523  
                
  24757679.414   130102490.983    24757686.426   101378591.2974   24757686.680  
                
  20438679.047   107406000.328    20438684.602    83693017.8984   20438684.633  
                
  19490966.133   104153843.845                    81008525.145    19490969.773  
  19490966.289  
  19859600.805   106011907.783                    82453704.049    19859603.750  
  19859599.363  
  21212775.500   111473905.869    21212784.180    86862812.8284   21212784.238  
                
  23284675.125   124513640.402                    96843942.314    23284679.203  
  23284674.270  
  19455013.359   104107716.300                    80972669.919    19455015.852  
  19455011.484  
  22845196.695   120052324.300    22845200.742    93547305.0234                 
                
  24336225.492   127887725.537    24336233.406    99652795.3624   24336233.688  
                
  21526349.688   113121744.220    21526353.746    88146835.0134                 
                
  22190955.008   116614278.980    22190963.484    90868299.5124   22190963.992  
                
 21  8 16  1 43 10.0000000  0 15G 6R14R16R19G29G12R15R18G24R24R17G19
                                G32G 2G25
  21477210.945   112863517.377    21477219.410    87945639.6504   21477219.766  
                
  22964857.078   122415632.039                    95212150.979    22964861.422  
  22964856.719  
  20503615.719   109526649.370                    85187382.383    20503616.816  
  20503615.406  
  23525134.992   125843641.150                    97878372.647    23525137.680  
                
  24751321.289   130069079.013    24751328.320   101352555.9974   24751328.547  
                
  20436508.391   107394593.464    20436513.930    83684129.4354   20436513.977  
                
  19493102.883   104165261.975                    81017405.908    19493106.527  
  19493103.035  
  19855031.609   105987517.159                    82434733.565    19855034.559  
  19855030.172  
  21217132.898   111496804.140    21217141.574    86880655.6414   21217141.625  
                
  23292442.664   124555176.783                    96876248.385    23292446.734  
  23292441.836  
  19458006.188   104123731.502                    80985126.194    19458008.676  
  19458004.352  
  22851286.617   120084327.102    22851290.637    93572242.2604                 
                
  24336621.219   127889805.109    24336629.148    99654415.7934   24336629.434  
                
  21523803.805   113108365.561    21523807.898    88136410.0924                 
                
  22185776.883   116587067.824    22185785.363    90847096.0264   22185785.867  
                
 21  8 16  1 43 20.0000000  0 15G 6R14R16R19G29G12R15R18G24R24R17G19
                                G32G 2G25
  21478112.125   112868253.122    21478120.590    87949329.8504   21478120.949  
                
  22971730.703   122452272.017                    95240648.724    22971735.031  
  22971730.270  
  20498420.055   109498895.069                    85165795.700    20498421.129  
  20498419.738  
  23516956.734   125799892.924                    97844346.268    23516959.371  
                
  24744965.852   130035681.379    24744972.934   101326531.8764   24744973.152  
                
  20434344.617   107383222.789    20434350.148    83675269.1714   20434350.199  
                
  19495251.656   104176744.349                    81026336.639    19495255.316  
  19495251.789  
  19850475.844   105963198.165                    82415818.809    19850478.812  
  19850474.410  
  21221499.727   111519751.993    21221508.418    86898537.0814   21221508.461  
                
  23300212.977   124596728.060                    96908566.038    23300217.008  
  23300212.156  
  19461012.898   104139820.960                    80997640.208    19461015.379  
  19461011.090  
  22857379.875   120116347.396    22857383.898    93597193.1304                 
                
  24337028.117   127891943.409    24337036.086    99656081.9904   24337036.363  
                
  21521268.641   113095043.192    21521272.754    88126029.0304                 
                
  22180602.344   116559875.516    22180610.883    90825907.2254   22180611.348  
                
 21  8 16  1 43 30.0000000  0 15G 6R14R16R19G29G12R15R18G24R24R17G19
                                G32G 2G25
  21479026.352   112873057.394    21479034.809    87953073.4374   21479035.172  
                
  22978609.383   122488939.057                    95269167.522    22978613.703  
  22978608.918  
  20493231.539   109471178.978                    85144238.744    20493232.598  
  20493231.207  
  23508782.156   125756163.307                    97810334.349    23508784.547  
                
  24738613.102   130002298.048    24738620.285   101300518.9224   24738620.508  
                
  20432187.719   107371888.216    20432193.250    83666437.0364   20432193.293  
                
  19497412.461   104188291.005                    81035317.379    19497416.133  
  19497412.598  
  19845933.469   105938950.654                    82396959.632    19845936.430  
  19845932.027  
  21225875.961   111542749.244    21225884.672    86916457.0184   21225884.688  
                
  23307986.016   124638293.860                    96940894.986    23307989.992  
  23307985.156  
  19464033.438   104155984.440                    81010211.819    19464035.895  
  19464031.652  
  22863476.438   120148385.051    22863480.477    93622157.5194                 
                
  24337446.172   127894140.265    24337454.148    99657793.8294   24337454.445  
                
  21518744.180   113081777.061    21518748.277    88115691.7924                 
                
  22175431.367   116532701.970    22175440.000    90804733.0614   22175440.414  
                
 21  8 16  1 43 40.0000000  0 15G 6R14R16R19G29G12R15R18G24R24R17G19
                                G32G 2G25
  21479953.617   112877930.216    21479962.070    87956870.4424   21479962.434  
                
  22985493.203   122525633.213                    95297707.426    22985497.434  
  22985492.699  
  20488050.281   109443501.566                    85122711.872    20488051.328  
  20488049.945  
  23500610.789   125712452.231                    97776336.850    23500613.160  
                
  24732263.234   129968929.205    24732270.402   101274517.2404   24732270.625  
                
  20430037.711   107360589.859    20430043.258    83657633.1274   20430043.289  
                
  19499585.289   104199901.927                    81044348.080    19499588.965  
  19499585.410  
  19841404.555   105914774.981                    82378156.331    19841407.531  
  19841403.109  
  21230261.609   111565795.925    21230270.332    86934415.4694   21230270.336  
                
  23315761.734   124679874.013                    96973235.088    23315765.676  
  23315760.840  
  19467067.820   104172221.949                    81022840.998    19467070.266  
  19467066.039  
  22869576.312   120180440.061    22869580.336    93647135.4394                 
                
  24337875.375   127896395.764    24337883.402    99659551.3604   24337883.711  
                
  21516230.461   113068567.379    21516234.535    88105398.5304                 
                
  22170264.016   116505547.331    22170272.664    90783573.6144   22170273.066  
                
 21  8 16  1 43 50.0000000  0 14G 6R14R16G29G12R15R18G24R24R17G19G32
                                G 2G25
  21480893.922   112882871.599    21480902.375    87960720.8694   21480902.734  
                
  22992382.180   122562354.614                    95326268.507    22992386.281  
  22992381.602  
  20482876.219   109415862.771                    85101215.022    20482877.285  
  20482875.902  
  24725916.164   129935574.924    24725923.293   101248526.9034   24725923.496  
                
  20427894.609   107349327.819    20427900.172    83648857.5114   20427900.191  
                
  19501770.148   104211577.167                    81053428.823    19501773.820  
  19501770.258  
  19836889.062   105890671.055                    82359408.840    19836892.070  
  19836887.617  
  21234656.625   111588891.951    21234665.371    86952412.3634   21234665.363  
                
  23323540.180   124721468.839                    97005586.606    23323544.117  
  23323539.250  
  19470116.008   104188533.441                    81035527.708    19470118.426  
  19470114.238  
  22875679.469   120212512.355    22875683.465    93672126.8364                 
                
  24338315.703   127898709.884    24338323.809    99661354.5384   24338324.098  
                
  21513727.461   113055414.082    21513731.516    88095149.2124                 
                
  22165100.266   116478411.714    22165108.867    90762428.9734   22165109.305  
                
 21  8 16  1 44  0.0000000  0 14G 6R14R16G29G12R15R18G24R24R17G19G32
                                G 2G25
  21481847.242   112887881.349    21481855.684    87964624.5694   21481856.059  
                
  22999276.047   122599102.701                    95354850.369    22999280.113  
  22999275.492  
  20477709.406   109388262.613                    85079748.256    20477710.484  
  20477709.098  
  24719571.828   129902234.997    24719578.941   101222547.7424   24719579.117  
                
  20425758.406   107338102.000    20425763.988    83640110.1264   20425764.004  
                
  19503967.008   104223316.544                    81062559.448    19503970.699  
  19503967.113  
  19832387.016   105866638.842                    82340717.125    19832390.035  
  19832385.578  
  21239060.992   111612037.065    21239069.773    86970447.5094   21239069.734  
                
  23331321.281   124763077.688                    97037949.008    23331325.266  
  23331320.309  
  19473177.961   104204918.546                    81048271.693    19473180.363  
  19473176.195  
  22881785.891   120244601.752    22881789.879    93697131.5554                 
                
  24338767.164   127901082.372    24338775.324    99663203.2364   24338775.559  
                
  21511235.180   113042317.105    21511239.211    88084943.7754                 
                
  22159940.094   116451294.882    22159948.734    90741298.9974   22159949.164  
                
 21  8 16  1 44 10.0000000  0 15G 6R14R16R19G29G12R15R18G24R24R17G19
                                G32G 2G25
  21482813.570   112892959.450    21482821.996    87968581.5294   21482822.363  
                
  23006175.016   122635877.676                    95383453.093    23006179.012  
  23006174.430  
  20472549.891   109360701.374                    85058311.736    20472550.973  
  20472549.586  
  23476118.391   125581433.861                    97674433.709    23476120.895  
                
  24713230.195   129868909.409    24713237.305   101196579.7784   24713237.445  
                
  20423629.094   107326912.377    20423634.688    83631390.9354   20423634.688  
                
  19506175.883   104235120.069                    81071739.957    19506179.582  
  19506175.977  
  19827898.414   105842678.389                    82322081.215    19827901.430  
  19827896.984  
  21243474.695   111635231.238    21243483.496    86988520.8844   21243483.461  
                
  23339105.000   124804700.663                    97070322.403    23339109.047  
  23339104.039  
  19476253.664   104221377.259                    81061072.914    19476256.066  
  19476251.871  
  22887895.531   120276708.155    22887899.508    93722149.5124                 
                
  24339229.742   127903513.286    24339237.910    99665097.4514   24339238.156  
                
  21508753.625   113029276.498    21508757.645    88074782.2724                 
                
  22154783.555   116424197.039    22154792.234    90720183.7844   22154792.621  
                
 21  8 16  1 44 20.0000000  0 15G 6R14R16R19G29G12R15R18G24R24R17G19
                                G32G 2G25
  21483792.898   112898105.883    21483801.293    87972591.7374   21483801.680  
                
  23013078.781   122672679.411                    95412076.655    23013082.953  
  23013078.348  
  20467397.633   109333178.974                    85036905.428    20467398.727  
  20467397.324  
  23467961.469   125537799.362                    97640495.776    23467963.938  
                
  24706891.297   129835598.290    24706898.379   101170623.0724   24706898.512  
                
  20421506.672   107315759.006    20421512.281    83622700.0014   20421512.281  
                
  19508396.758   104246987.735                    81080970.362    19508400.465  
  19508396.855  
  19823423.258   105818789.669                    82303501.116    19823426.242  
  19823421.820  
  21247897.719   111658474.373    21247906.543    87006632.4174   21247906.504  
                
  23346891.320   124846337.491                    97102706.581    23346895.414  
  23346890.406  
  19479343.078   104237909.325                    81073931.185    19479345.477  
  19479341.277  
  22894008.406   120308831.433    22894012.344    93747180.6394                 
                
  24339703.438   127906002.567    24339711.613    99667037.1474   24339711.855  
                
  21506282.820   113016292.280    21506286.836    88064664.7144                 
                
  22149630.594   116397118.113    22149639.262    90699083.3344   22149639.652  
                
 21  8 16  1 44 30.0000000  0 15G 6R14R16R19G29G12R15R18G24R24R17G19
                                G32G 2G25
  21484785.211   112903320.534    21484793.582    87976655.1054   21484793.973  
                
  23019987.602   122709507.776                    95440720.928    23019991.891  
  23019987.242  
  20462252.711   109305695.720                    85015529.563    20462253.789  
  20462252.434  
  23459807.906   125494184.169                    97606572.851    23459810.516  
                
  24700555.172   129802301.604    24700562.188   101144677.6004   24700562.336  
                
  20419391.141   107304641.806    20419396.770    83614037.2534   20419396.766  
                
  19510629.641   104258919.575                    81090250.677    19510633.352  
  19510629.730  
  19818961.570   105794972.828                    82284976.908    19818964.535  
  19818960.137  
  21252330.031   111681766.311    21252338.891    87024781.9814   21252338.836  
                
  23354680.227   124887988.052                    97135101.445    23354684.348  
  23354679.344  
  19482446.180   104254514.642                    81086846.438    19482448.566  
  19482444.352  
  22900124.461   120340971.421    22900128.406    93772224.7754                 
                
  24340188.188   127908550.098    24340196.391    99669022.2094   24340196.629  
                
  21503822.719   113003364.401    21503826.719    88054591.0364                 
                
  22144481.242   116370058.097    22144489.914    90677997.6064   22144490.305  
                
 21  8 16  1 44 40.0000000  0 15G 6R14R16R19G29G12R15R18G24R24R17G19
                                G32G 2G25
  21485790.594   112908603.923    21485798.953    87980772.0334   21485799.363  
                
  23026901.516   122746363.122                    95469386.199    23026905.875  
  23026901.199  
  20457115.188   109278251.956                    84994184.417    20457116.273  
  20457114.898  
  23451657.953   125450588.696                    97572665.289    23451660.812  
                
  24694221.836   129769019.915    24694228.840   101118743.8274   24694229.004  
                
  20417282.594   107293561.327    20417288.246    83605403.1214   20417288.223  
                
  19512874.602   104270915.989                    81099581.214    19512878.320  
  19512874.703  
  19814513.445   105771228.422                    82266509.032    19814516.391  
  19814512.027  
  21256771.719   111705107.511    21256780.594    87042969.9334   21256780.523  
                
  23362471.727   124929652.595                    97167507.194    23362475.867  
  23362470.883  
  19485563.070   104271193.723                    81099819.052    19485565.445  
  19485561.234  
  22906243.797   120373128.634    22906247.801    93797282.3324                 
                
  24340684.133   127911156.406    24340692.355    99671053.0924   24340692.621  
                
  21501373.461   112990493.465    21501377.453    88044561.7394                 
                
  22139335.602   116343017.606    22139344.316    90656927.1054   22139344.660  
                
 21  8 16  1 44 50.0000000  0 15G 6R14R16R19G29G12R15R18G24R24R17G19
                                G32G 2G25
  21486808.961   112913955.527    21486817.332    87984942.1204   21486817.730  
                
  23033820.438   122783245.111                    95498072.189    23033824.844  
  23033820.109  
  20451984.961   109250847.218                    84972869.623    20451986.027  
  20451984.672  
  23443511.805   125407012.815                    97538772.943    23443514.703  
                
  24687891.359   129735752.745    24687898.266   101092821.3574   24687898.449  
                
  20415180.938   107282517.088    20415186.613    83596797.2234   20415186.578  
                
  19515131.578   104282976.568                    81108961.673    19515135.305  
  19515131.684  
  19810078.805   105747556.026                    82248097.181    19810081.742  
  19810077.398  
  21261222.672   111728497.447    21261231.555    87061195.8484   21261231.480  
                
  23370265.719   124971330.606                    97199923.402    23370269.910  
  23370264.883  
  19488693.602   104287945.830                    81112848.471    19488695.965  
  19488691.766  
  22912366.297   120405302.526    22912370.332    93822352.8784                 
                
  24341191.172   127913820.930    24341199.402    99673129.3444   24341199.691  
                
  21498934.945   112977679.016    21498938.930    88034576.4634                 
                
  22134193.586   116315996.149    22134202.328    90635871.4354   22134202.656  
                
 21  8 16  1 45  0.0000000  0 15G 6R14R16R19G29G12R15R18G24R24R17G19
                                G32G 2G25
  21487840.352   112919375.538    21487848.734    87989165.5064   21487849.121  
                
  23040744.344   122820153.781                    95526778.896    23040748.836  
  23040744.000  
  20446862.172   109223482.198                    84951585.713    20446863.250  
  20446861.891  
  23435369.242   125363456.593                    97504895.884    23435372.254  
                
  24681563.688   129702500.367    24681570.559   101066910.4374   24681570.723  
                
  20413086.234   107271509.355    20413091.934    83588219.7724   20413091.898  
                
  19517400.594   104295101.487                    81118392.153    19517404.320  
  19517400.707  
  19805657.734   105723956.022                    82229741.619    19805660.668  
  19805656.336  
  21265682.930   111751936.221    21265691.820    87079459.8214   21265691.742  
                
  23378062.258   125013022.172                    97232350.142    23378066.484  
  23378061.395  
  19491837.805   104304771.082                    81125934.778    19491840.172  
  19491835.953  
  22918491.992   120437493.216    22918496.004    93847436.5254                 
                
  24341709.328   127916543.849    24341717.547    99675251.0984   24341717.852  
                
  21496507.234   112964921.317    21496511.188    88024635.4004                 
                
  22129055.258   116288994.076    22129064.016    90614830.8534   22129064.328  
                
 21  8 16  1 45 10.0000000  0 15G 6R14R16R19G29G12R15R18G24R24R17G19
                                G32G 2G25
  21488884.727   112924863.785    21488893.121    87993442.0614   21488893.492  
                
  23047673.219   122857088.816                    95555506.134    23047677.781  
  23047672.871  
  20441746.758   109196156.575                    84930332.450    20441747.852  
  20441746.492  
  23427230.594   125319920.160                    97471034.235    23427233.562  
                
  24675238.742   129669262.679    24675245.645   101041010.9554   24675245.777  
                
  20410998.469   107260538.105    20411004.188    83579670.7504   20411004.141  
                
  19519681.633   104307290.676                    81127872.639    19519685.352  
  19519681.754  
  19801250.180   105700428.184                    82211442.196    19801253.105  
  19801248.773  
  21270152.430   111775423.600    21270161.320    87097761.6794   21270161.238  
                
  23385861.297   125054727.150                    97264787.315    23385865.508  
  23385860.426  
  19494995.625   104321669.266                    81139077.817    19494997.996  
  19494993.762  
  22924620.844   120469700.471    22924624.816    93872533.0794                 
                
  24342238.547   127919325.022    24342246.777    99677418.2564   24342247.094  
                
  21494090.312   112952220.300    21494094.227    88014738.5104                 
                
  22123920.578   116262011.174    22123929.363    90593805.2354   22123929.664  
                
 21  8 16  1 45 20.0000000  0 15G 6R14R16R19G29G12R15R18G24R24R17G19
                                G32G 2G25
  21489942.070   112930420.175    21489950.457    87997771.7184   21489950.816  
                
  23054607.125   122894050.240                    95584253.878    23054611.707  
  23054606.750  
  20436638.758   109168870.516                    84909109.971    20436639.855  
  20436638.477  
  23419095.547   125276403.486                    97437187.935    23419098.539  
                
  24668916.539   129636039.726    24668923.477   101015122.9444   24668923.578  
                
  20408917.648   107249603.318    20408923.375    83571150.1424   20408923.328  
                
  19521974.680   104319543.994                    81137402.983    19521978.398  
  19521974.801  
  19796856.156   105676972.633                    82193198.989    19796859.078  
  19796854.758  
  21274631.156   111798959.449    21274640.051    87116101.2964   21274639.957  
                
  23393662.781   125096445.264                    97297234.724    23393667.035  
  23393661.926  
  19498167.023   104338640.041                    81152277.298    19498169.391  
  19498165.145  
  22930752.844   120501924.142    22930756.777    93897642.4284                 
                
  24342778.844   127922164.366    24342787.117    99679630.7154   24342787.391  
                
  21491684.148   112939575.844    21491688.051    88004885.6894                 
                
  22118789.555   116235047.498    22118798.352    90572794.5774   22118798.645  
                
 21  8 16  1 45 30.0000000  0 15G 6R14R16R19G29G12R15R18G24R24R17G19
                                G32G 2G25
  21491012.406   112936044.857    21491020.766    88002154.5864   21491021.137  
                
  23061546.133   122931038.090                    95613022.207    23061550.625  
  23061545.617  
  20431538.227   109141624.410                    84887918.561    20431539.320  
  20431537.938  
  23410964.148   125232907.035                    97403357.360    23410967.250  
                
  24662597.305   129602831.636    24662604.121   100989246.5094   24662604.230  
                
  20406843.789   107238705.120    20406849.523    83562658.0444   20406849.480  
                
  19524279.797   104331861.800                    81146983.490    19524283.508  
  19524279.934  
  19792475.688   105653589.406                    82175012.041    19792478.609  
  19792474.277  
  21279119.133   111822543.894    21279128.031    87134478.7814   21279127.930  
                
  23401466.703   125138176.344                    97329692.224    23401470.965  
  23401465.855  
  19501352.055   104355683.838                    81165533.589    19501354.441  
  19501350.137  
  22936888.000   120534164.357    22936891.938    93922764.6744                 
                
  24343330.219   127925061.967    24343338.539    99681888.5664   24343338.793  
                
  21489288.789   112926988.161    21489292.695    87995077.1114                 
                
  22113662.219   116208103.258    22113671.027    90551799.0764   22113671.348  
                
 21  8 16  1 45 40.0000000  0 15G 6R14R16R19G29G12R15R18G24R24R17G19
                                G32G 2G25
  21492095.719   112941737.661    21492104.043    88006590.5334   21492104.441  
                
  23068489.977   122968052.162                    95641810.914    23068494.410  
  23068489.395  
  20426445.156   109114418.162                    84866758.139    20426446.262  
  20426444.875  
  23402836.570   125189430.638                    97369542.398    23402839.777  
                
  24656280.883   129569638.361    24656287.605   100963381.6324   24656287.730  
                
  20404776.883   107227843.464    20404782.621    83554194.4154   20404782.566  
                
  19526596.914   104344243.771                    81156613.916    19526600.621  
  19526597.066  
  19788108.781   105630278.561                    82156881.389    19788111.699  
  19788107.379  
  21283616.312   111846176.692    21283625.203    87152893.9464   21283625.098  
                
  23409273.094   125179920.547                    97362159.939    23409277.328  
  23409272.250  
  19504550.633   104372800.092                    81178846.229    19504553.016  
  19504548.684  
  22943026.242   120566420.885    22943030.152    93947899.6284                 
                
  24343892.688   127928017.663    24343901.023    99684191.7074   24343901.270  
                
  21486904.234   112914457.208    21486908.133    87985312.7374                 
                
  22108538.570   116181178.349    22108547.395    90530818.6364   22108547.719  
                
 21  8 16  1 45 50.0000000  0 15G 6R14R16R19G29G12R15R18G24R24R17G19
                                G32G 2G25
  21493191.992   112947498.666    21493200.281    88011079.6354   21493200.680  
                
  23075438.727   123005092.481                    95670620.056    23075443.148  
  23075438.125  
  20421359.586   109087251.933                    84845628.860    20421360.703  
  20421359.289  
  23394712.844   125145974.462                    97335743.153    23394716.070  
                
  24649967.289   129536459.998    24649973.938   100937528.3674   24649974.070  
                
  20402716.961   107217018.502    20402722.691    83545759.3854   20402722.641  
                
  19528926.086   104356690.107                    81166294.402    19528929.781  
  19528926.250  
  19783755.469   105607040.292                    82138807.184    19783758.383  
  19783754.070  
  21288122.703   111869857.897    21288131.566    87171346.8344   21288131.469  
                
  23417081.875   125221677.463                    97394637.532    23417086.102  
  23417081.031  
  19507762.773   104389988.951                    81192215.334    19507765.164  
  19507760.812  
  22949167.594   120598693.807    22949171.504    93973047.3474                 
                
  24344466.219   127931031.571    24344474.531    99686540.1944   24344474.766  
                
  21484530.492   112901983.111    21484534.363    87975592.6584                 
                
  22103418.648   116154272.979    22103427.477    90509853.4094   22103427.793  
                
 21  8 16  1 46  0.0000000  0 15G 6R14R16R19G29G12R15R18G24R24R17G19
                                G32G 2G25
  21494301.234   112953327.763    21494309.496    88015621.7904   21494309.891  
                
  23082392.367   123042158.802                    95699449.410    23082396.703  
  23082391.742  
  20416281.492   109060125.668                    84824530.645    20416282.609  
  20416281.203  
  23386593.117   125102538.807                    97301959.875    23386596.250  
                
  24643656.516   129503296.478    24643663.113   100911686.6734   24643663.242  
                
  20400664.008   107206230.196    20400669.723    83537352.9094   20400669.680  
                
  19531267.250   104369200.602                    81176024.785    19531270.930  
  19531267.418  
  19779415.742   105583874.553                    82120789.402    19779418.652  
  19779414.332  
  21292638.266   111893587.315    21292647.102    87189837.2924   21292647.004  
                
  23424893.031   125263447.111                    97427125.012    23424897.281  
  23424892.188  
  19510988.430   104407250.102                    81205640.678    19510990.840  
  19510986.473  
  22955312.047   120630983.018    22955315.965    93998207.7694                 
                
  24345050.781   127934103.540    24345059.043    99688933.9144   24345059.301  
                
  21482167.562   112889565.816    21482171.438    87965916.8494                 
                
  22098302.398   116127387.007    22098311.234    90488903.3234   22098311.562  
                
 21  8 16  1 46 10.0000000  0 15G 6R14R16R19G29G12R15R18G24R24R17G19
                                G32G 2G25
  21495423.422   112959224.916    21495431.664    88020216.9664   21495432.059  
                
  23089350.766   123079251.375                    95728299.158    23089355.180  
  23089350.219  
  20411210.922   109033039.584                    84803463.700    20411212.059  
  20411210.645  
  23378476.773   125059123.371                    97268192.318    23378480.195  
                
  24637348.531   129470147.900    24637355.090   100885856.6084   24637355.238  
                
  20398618.023   107195478.505    20398623.723    83528974.9704   20398623.688  
                
  19533620.445   104381775.352                    81185805.145    19533624.109  
  19533620.598  
  19775089.625   105560781.501                    82102828.136    19775092.535  
  19775088.195  
  21297162.992   111917364.880    21297171.816    87208365.2604   21297171.715  
                
  23432706.539   125305229.284                    97459622.240    23432710.820  
  23432705.680  
  19514227.586   104424583.519                    81219122.223    19514230.004  
  19514225.613  
  22961459.555   120663288.371    22961463.477    94023380.7464                 
                
  24345646.375   127937233.554    24345654.602    99691372.8744   24345654.875  
                
  21479815.445   112877205.390    21479819.344    87956285.3534                 
                
  22093189.875   116100520.580    22093198.723    90467968.4484   22093199.055  
                
 21  8 16  1 46 20.0000000  0 15G 6R14R16R19G29G12R15R18G24R24R17G19
                                G32G 2G25
  21496558.586   112965190.258    21496566.824    88024865.2914   21496567.227  
                
  23096314.094   123116370.108                    95757169.259    23096318.555  
  23096313.609  
  20406147.922   109005993.953                    84782428.204    20406149.055  
  20406147.641  
  23370364.453   125015728.675                    97234440.904    23370367.961  
                
  24631043.406   129437014.484    24631049.949   100860038.3814   24631050.121  
                
  20396579.047   107184763.635    20396584.715    83520625.7254   20396584.691  
                
  19535985.742   104394414.724                    81195635.759    19535989.398  
  19535985.898  
  19770777.156   105537761.222                    82084923.489    19770780.066  
  19770775.727  
  21301696.914   111941190.696    21301705.734    87226930.8294   21301705.621  
                
  23440522.359   125347023.999                    97492129.220    23440526.676  
  23440521.477  
  19517480.258   104441989.224                    81232659.996    19517482.699  
  19517478.273  
  22967610.141   120695609.818    22967614.055    94048566.2824                 
                
  24346253.047   127940421.700    24346261.246    99693857.1374   24346261.551  
                
  21477474.195   112864902.030    21477478.094    87946698.3244                 
                
  22088081.117   116073673.869    22088089.961    90447048.9464   22088090.289  
                
 21  8 16  1 46 30.0000000  0 15G 6R14R16R19G29G12R15R18G24R24R17G19
                                G32G 2G25
  21497706.695   112971223.586    21497714.926    88029566.5854   21497715.324  
                
  23103282.195   123153514.730                    95786059.519    23103286.777  
  23103281.793  
  20401092.523   108978988.902                    84761424.292    20401093.652  
  20401092.262  
  23362256.125   124972354.600                    97200705.506    23362259.602  
                
  24624741.180   129403896.046    24624747.648   100834231.8144   24624747.875  
                
  20394547.062   107174085.493    20394552.703    83512305.0964   20394552.688  
                
  19538363.023   104407118.198                    81205516.235    19538366.680  
  19538363.180  
  19766478.312   105514813.725                    82067075.432    19766481.223  
  19766476.887  
  21306239.953   111965064.469    21306248.754    87245533.7694   21306248.641  
                
  23448340.477   125388830.975                    97524645.706    23448344.832  
  23448339.543  
  19520746.391   104459466.948                    81246253.776    19520748.855  
  19520744.402  
  22973763.766   120727947.215    22973767.656    94073764.2624                 
                
  24346870.758   127943667.777    24346878.977    99696386.5494   24346879.297  
                
  21475143.773   112852655.578    21475147.652    87937155.6284                 
                
  22082976.078   116046846.737    22082984.930    90426144.6894   22082985.250  
                
 21  8 16  1 46 40.0000000  0 15G 6R14R16R19G29G12R15R18G24R24R17G19
                                G32G 2G25
  21498867.719   112977324.848    21498875.938    88034320.8144   21498876.332  
                
  23110255.133   123190685.052                    95814969.795    23110259.781  
  23110254.816  
  20396044.695   108952024.272                    84740451.798    20396045.832  
  20396044.438  
  23354151.898   124929001.395                    97166986.337    23354155.102  
                
  24618441.875   129370792.601    24618448.188   100808436.9214   24618448.465  
                
  20392522.062   107163444.050    20392527.684    83504013.0694   20392527.676  
                
  19540752.328   104419885.910                    81215446.686    19540755.988  
  19540752.496  
  19762193.102   105491938.998                    82049283.985    19762196.016  
  19762191.684  
  21310792.094   111988986.146    21310800.871    87264174.0364   21310800.781  
                
  23456160.867   125430650.067                    97557171.630    23456165.246  
  23456159.871  
  19524025.938   104477016.485                    81259903.415    19524028.414  
  19524023.953  
  22979920.398   120760300.495    22979924.242    94098974.6014                 
                
  24347499.484   127946971.744    24347507.715    99698961.0764   24347508.031  
                
  21472824.172   112840466.033    21472828.051    87927657.2874                 
                
  22077874.773   116020039.240    22077883.637    90405255.7334   22077883.945  
                
 21  8 16  1 46 50.0000000  0 15G 6R14R16R19G29G12R15R18G24R24R17G19
                                G32G 2G25
  21500041.695   112983494.123    21500049.891    88039128.0404   21500050.309  
                
  23117233.047   123227881.269                    95843900.171    23117237.645  
  23117232.723  
  20391004.484   108925100.392                    84719511.006    20391005.637  
  20391004.219  
  23346051.586   124885669.083                    97133283.436    23346054.555  
                
  24612145.430   129337704.293    24612151.617   100782653.8234   24612151.910  
                
  20390504.086   107152839.534    20390509.691    83495749.8084   20390509.691  
                
  19543153.656   104432717.871                    81225427.090    19543157.309  
  19543153.824  
  19757921.516   105469137.012                    82031549.119    19757924.430  
  19757920.094  
  21315353.359   112012955.741    21315362.125    87282851.6274   21315362.055  
                
  23463983.531   125472481.354                    97589707.050    23463987.922  
  23463982.457  
  19527318.914   104494637.869                    81273608.938    19527321.414  
  19527316.945  
  22986080.055   120792669.676    22986083.887    94124197.3314                 
                
  24348139.242   127950333.690    24348147.488    99701580.7644   24348147.816  
                
  21470515.430   112828333.543    21470519.324    87918203.4034                 
                
  22072777.227   115993251.481    22072786.121    90384382.1764   22072786.418  
                
 21  8 16  1 47  0.0000000  0 15G 6R14R16R19G29G12R15R18G24R24R17G19
                                G32G 2G25
  21501228.617   112989731.458    21501236.770    88043988.3064   21501237.219  
                
  23124215.766   123265103.431                    95872850.738    23124220.418  
  23124215.492  
  20385971.961   108898217.559                    84698602.137    20385973.121  
  20385971.707  
  23337955.266   124842357.870                    97099596.948    23337958.000  
                
  24605851.836   129304631.273    24605857.969   100756882.6384   24605858.305  
                
  20388493.141   107142271.983    20388498.738    83487515.3524   20388498.738  
                
  19545567.062   104445614.343                    81235457.686    19545570.719  
  19545567.211  
  19753663.648   105446408.220                    82013871.169    19753666.551  
  19753662.207  
  21319923.734   112036973.237    21319932.492    87301566.5614   21319932.422  
                
  23471808.453   125514324.666                    97622251.849    23471812.828  
  23471807.363  
  19530625.328   104512331.140                    81287370.367    19530627.836  
  19530623.352  
  22992242.711   120825054.643    22992246.555    94149432.3604                 
                
  24348790.031   127953753.629    24348798.301    99704245.6304   24348798.641  
                
  21468217.570   112816258.249    21468221.488    87908794.0924                 
                
  22067683.469   115966483.640    22067692.406    90363524.1214   22067692.688  
                
 21  8 16  1 47 10.0000000  0 15G 6R14R16R19G29G12R15R18G24R24R17G19
                                G32G 2G25
  21502428.484   112996036.824    21502436.598    88048901.5734   21502437.074  
                
  23131203.336   123302351.314                    95901821.276    23131208.000  
  23131203.031  
  20380947.047   108871375.362                    84677724.873    20380948.223  
  20380946.797  
  23329862.750   124799067.748                    97065926.859    23329865.336  
                
  24599561.109   129271573.506    24599567.195   100731123.3434   24599567.590  
                
  20386489.242   107131741.392    20386494.836    83479309.6994   20386494.828  
                
  19547992.523   104458575.287                    81245538.421    19547996.172  
  19547992.652  
  19749419.477   105423752.552                    81996250.112    19749422.375  
  19749418.027  
  21324503.219   112061038.558    21324511.977    87320318.7494   21324511.895  
                
  23479635.617   125556179.859                    97654805.878    23479639.934  
  23479634.484  
  19533945.133   104530096.080                    81301187.549    19533947.660  
  19533943.184  
  22998408.391   120857455.459    22998412.273    94174679.7444                 
                
  24349451.852   127957231.490    24349460.152    99706955.6574   24349460.512  
                
  21465930.609   112804240.191    21465934.520    87899429.3754                 
                
  22062593.492   115939735.717    22062602.484    90342681.6054   22062602.746  
                
 21  8 16  1 47 20.0000000  0 15G 6R14R16R19G29G12R15R18G24R24R17G19
                                G32G 2G25
  21503641.250   113002409.982    21503649.340    88053867.6704   21503649.836  
                
  23138195.867   123339624.874                    95930811.804    23138200.441  
  23138195.441  
  20375929.812   108844574.252                    84656879.572    20375931.004  
  20375929.578  
  23321774.227   124755798.845                    97032273.270    23321776.672  
                
  24593273.273   129238530.889    24593279.324   100705375.8654   24593279.750  
                
  20384492.328   107121247.592    20384497.918    83471132.7144   20384497.902  
                
  19550429.984   104471600.403                    81255669.062    19550433.648  
  19550430.102  
  19745188.961   105401169.816                    81978685.756    19745191.867  
  19745187.508  
  21329091.734   112085151.422    21329100.504    87339107.9964   21329100.414  
                
  23487464.953   125598046.747                    97687369.007    23487469.242  
  23487463.781  
  19537278.258   104547932.321                    81315060.169    19537280.785  
  19537276.344  
  23004577.023   120889871.885    23004580.953    94199939.2914                 
                
  24350124.664   127960767.091    24350133.047    99709710.6624   24350133.387  
                
  21463654.500   112792279.231    21463658.387    87890109.1474                 
                
  22057507.281   115913007.572    22057516.281    90321854.4874   22057516.555  
                
 21  8 16  1 47 30.0000000  0 15G 6R14R16R19G29G12R15R18G24R24R17G19
                                G32G 2G25
  21504866.953   113008851.085    21504875.035    88058886.7134   21504875.535  
                
  23145193.148   123376924.072                    95959822.261    23145197.684  
  23145192.688  
  20370920.312   108817814.366                    84636066.334    20370921.516  
  20370920.070  
  23313689.703   124712551.161                    96998636.182    23313691.969  
                
  24586988.422   129205503.665    24586994.406   100679640.3714   24586994.852  
                
  20382502.438   107110790.687    20382508.023    83462984.4804   20382508.016  
                
  19552879.523   104484689.996                    81265849.858    19552883.191  
  19552879.617  
  19740972.195   105378660.484                    81961178.510    19740975.102  
  19740970.742  
  21333689.336   112109311.939    21333698.109    87357934.3634   21333698.020  
                
  23495296.445   125639925.220                    97719941.160    23495300.688  
  23495295.277  
  19540624.766   104565840.074                    81328988.431    19540627.277  
  19540622.887  
  23010748.648   120922303.979    23010752.605    94225211.0304                 
                
  24350808.477   127964360.592    24350816.980    99712510.7594   24350817.258  
                
  21461389.305   112780375.576    21461393.199    87880833.5724                 
                
  22052424.891   115886299.477    22052433.902    90301042.9904   22052434.188  
                
 21  8 16  1 47 40.0000000  0 15G 6R14R16R19G29G12R15R18G24R24R17G19
                                G32G 2G25
  21506105.555   113015359.982    21506113.652    88063958.5724   21506114.145  
                
  23152195.164   123414248.665                    95988852.516    23152199.699  
  23152194.715  
  20365918.477   108791095.456                    84615284.945    20365919.672  
  20365918.238  
  23305608.961   124669325.116                    96965015.938    23305611.301  
                
  24580706.508   129172491.727    24580712.410   100653916.7944   24580712.855  
                
  20380519.578   107100370.717    20380525.160    83454865.0264   20380525.148  
                
  19555341.070   104497843.764                    81276080.561    19555344.734  
  19555341.145  
  19736769.156   105356224.384                    81943728.212    19736772.062  
  19736767.699  
  21338295.961   112133519.905    21338304.715    87376797.7234   21338304.637  
                
  23503130.086   125681815.145                    97752522.206    23503134.301  
  23503128.918  
  19543984.570   104583819.009                    81342972.040    19543987.086  
  19543982.727  
  23016923.219   120954751.517    23016927.207    94250494.8174                 
                
  24351503.266   127968011.789    24351511.855    99715355.8394   24351512.113  
                
  21459134.969   112768529.007    21459138.898    87871602.4864                 
                
  22047346.289   115859611.283    22047355.320    90280247.0094   22047355.594  
                
 21  8 16  1 47 50.0000000  0 15G 6R14R16R19G29G12R15R18G24R24R17G19
                                G32G 2G25
  21507357.070   113021936.753    21507365.191    88069083.3334   21507365.668  
                
  23159201.977   123451598.759                    96017902.578    23159206.508  
  23159201.559  
  20360924.461   108764418.317                    84594536.062    20360925.629  
  20360924.230  
  23297532.109   124626120.683                    96931412.515    23297534.688  
                
  24574427.484   129139495.239    24574433.367   100628205.2374   24574433.812  
                
  20378543.820   107089988.037    20378549.391    83446774.6304   20378549.383  
                
  19557814.680   104511062.011                    81286361.420    19557818.344  
  19557814.742  
  19732579.844   105333861.552                    81926334.902    19732582.738  
  19732578.371  
  21342911.625   112157775.363    21342920.363    87395698.0704   21342920.297  
                
  23510965.852   125723716.434                    97785112.086    23510970.023  
  23510964.699  
  19547357.680   104601869.186                    81357011.071    19547360.195  
  19547355.859  
  23023100.719   120987214.564    23023104.730    94275790.6834                 
                
  24352209.047   127971720.763    24352217.672    99718245.9534   24352217.918  
                
  21456891.531   112756739.739    21456895.488    87862416.0484                 
                
  22042271.516   115832943.212    22042280.551    90259466.6974   22042280.820  
                
 21  8 16  1 48  0.0000000  0 15G 6R14R16R19G29G12R15R18G24R24R17G19
                                G32G 2G25
  21508621.484   113028581.291    21508629.621    88074260.8934   21508630.086  
                
  23166213.523   123488974.247                    96046972.396    23166218.102  
  23166213.148  
  20355938.227   108737782.694                    84573819.479    20355939.402  
  20355937.988  
  23289459.531   124582937.846                    96897825.896    23289462.125  
                
  24568151.328   129106514.079    24568157.254   100602505.6374   24568157.703  
                
  20376575.109   107079642.405    20376580.656    83438713.1004   20376580.656  
                
  19560300.328   104524344.549                    81296692.289    19560303.992  
  19560300.371  
  19728404.289   105311572.139                    81908998.693    19728407.172  
  19728402.812  
  21347536.297   112182078.159    21347545.023    87414635.3074   21347544.973  
                
  23518803.719   125765628.945                    97817710.686    23518807.871  
  23518802.559  
  19550744.070   104619990.368                    81371105.323    19550746.590  
  19550742.273  
  23029281.164   121019693.003    23029285.172    94301098.5584                 
                
  24352925.836   127975487.431    24352934.453    99721181.0034   24352934.711  
                
  21454659.008   112745007.795    21454662.984    87853274.2784                 
                
  22037200.562   115806295.223    22037209.605    90238702.0334   22037209.855  
                
 21  8 16  1 48 10.0000000  0 15G 6R14R16R19G29G12R15R18G24R24R17G19
                                G32G 2G25
  21509898.750   113035293.405    21509906.887    88079491.1114   21509907.355  
                
  23173229.875   123526374.780                    96076061.705    23173234.359  
  23173229.414  
  20350959.734   108711188.462                    84553135.075    20350960.922  
  20350959.500  
  23281391.242   124539776.590                    96864256.042    23281393.582  
                
  24561878.164   129073548.178    24561884.078   100576817.9344   24561884.488  
                
  20374613.438   107069333.790    20374618.961    83430680.4154   20374618.980  
                
  19562797.969   104537691.216                    81307073.023    19562801.625  
  19562798.000  
  19724242.430   105289355.866                    81891719.377    19724245.316  
  19724240.945  
  21352169.930   112206428.028    21352178.656    87433609.2324   21352178.602  
                
  23526643.641   125807552.479                    97850317.837    23526647.812  
  23526642.426  
  19554143.672   104638182.308                    81385254.611    19554146.176  
  19554141.887  
  23035464.500   121052186.622    23035468.523    94326418.2364                 
                
  24353653.555   127979311.561    24353662.215    99724160.8594   24353662.453  
                
  21452437.359   112733333.009    21452441.336    87844177.0504                 
                
  22032133.398   115779667.192    22032142.434    90217952.9194   22032142.688  
                
 21  8 16  1 48 20.0000000  0 15G 6R14R16R19G29G12R15R18G24R24R17G19
                                G32G 2G25
  21511188.945   113042073.442    21511197.070    88084774.2604   21511197.555  
                
  23180250.977   123563800.846                    96105170.870    23180255.422  
  23180250.488  
  20345989.055   108684636.011                    84532483.179    20345990.242  
  20345988.828  
  23273326.617   124496637.418                    96830703.338    23273329.164  
                
  24555608.039   129040597.994    24555613.902   100551142.4664   24555614.301  
                
  20372658.883   107059062.544    20372664.395    83422676.8474   20372664.418  
                
  19565307.695   104551102.454                    81317503.991    19565311.348  
  19565307.730  
  19720094.375   105267213.306                    81874497.385    19720097.266  
  19720092.895  
  21356812.586   112230825.309    21356821.320    87452620.0964   21356821.270  
                
  23534485.672   125849487.298                    97882933.754    23534489.875  
  23534484.410  
  19557556.531   104656445.176                    81399459.061    19557559.031  
  19557554.754  
  23041650.766   121084695.606    23041654.820    94351749.9014                 
                
  24354392.258   127983193.524    24354401.012    99727185.7514   24354401.223  
                
  21450226.680   112721715.831    21450230.652    87835124.7104                 
                
  22027070.117   115753059.546    22027079.141    90197219.7024   22027079.410  
                
 21  8 16  1 48 30.0000000  0 15G 6R14R16R19G29G12R15R18G24R24R17G19
                                G32G 2G25
  21512492.031   113048921.246    21512500.148    88090110.2174   21512500.641  
                
  23187276.727   123601252.252                    96134299.732    23187281.246  
  23187276.301  
  20341026.258   108658125.651                    84511864.015    20341027.445  
  20341026.031  
  23265266.453   124453520.451                    96797167.913    23265268.895  
                
  24549340.789   129007663.372    24549346.680   100525479.1314   24549347.051  
                
  20370711.430   107048828.628    20370716.938    83414702.3724   20370716.977  
                
  19567829.484   104564578.159                    81327985.083    19567833.129  
  19567829.504  
  19715960.109   105245144.364                    81857332.656    19715963.008  
  19715958.633  
  21361464.211   112255269.777    21361472.938    87471667.7274   21361472.883  
                
  23542329.727   125891432.955                    97915558.109    23542333.980  
  23542328.441  
  19560982.609   104674778.833                    81413718.577    19560985.105  
  19560980.832  
  23047839.945   121117219.860    23047844.023    94377093.4694                 
                
  24355141.930   127987133.180    24355150.750    99730255.6054   24355150.977  
                
  21448026.938   112710156.152    21448030.914    87826117.1714                 
                
  22022010.703   115726472.213    22022019.742    90176502.3114   22022020.004  
                
 21  8 16  1 48 40.0000000  0 15G 6R14R16R19G29G12R15R18G24R24R17G19
                                G32G 2G25
  21513807.984   113055836.615    21513816.102    88095498.8174   21513816.594  
                
  23194307.164   123638728.622                    96163447.964    23194311.770  
  23194306.801  
  20336071.312   108631657.188                    84491277.430    20336072.473  
  20336071.094  
  23257210.164   124410425.519                    96763649.643    23257212.719  
                
  24543076.430   128974744.224    24543082.391   100499827.8594   24543082.730  
                
  20368771.047   107038631.852    20368776.559    83406756.8374   20368776.590  
                
  19570363.312   104578118.192                    81338516.231    19570366.961  
  19570363.340  
  19711839.578   105223148.706                    81840224.935    19711842.473  
  19711838.086  
  21366124.781   112279761.189    21366133.508    87490751.9484   21366133.453  
                
  23550175.781   125933389.251                    97948190.753    23550180.039  
  23550174.488  
  19564421.859   104693182.964                    81428032.894    19564424.352  
  19564420.070  
  23054031.953   121149758.982    23054036.055    94402448.6264                 
                
  24355902.547   127991130.220    24355911.414    99733370.1824   24355911.613  
                
  21445838.125   112698653.844    21445842.113    87817154.3344                 
                
  22016955.133   115699905.086    22016964.207    90155800.6724   22016964.453  
                
 21  8 16  1 48 50.0000000  0 15G 6R14R16R19G29G12R15R18G24R24R17G19
                                G32G 2G25
  21515136.812   113062819.649    21515144.949    88100940.1354   21515145.434  
                
  23201342.320   123676230.106                    96192615.778    23201346.996  
  23201341.957  
  20331124.219   108605230.655                    84470723.469    20331125.348  
  20331123.988  
  23249158.031   124367352.858                    96730148.693    23249160.750  
                
  24536815.094   128941840.780    24536821.090   100474188.8234   24536821.398  
                
  20366837.758   107028472.355    20366843.277    83398840.3534   20366843.301  
                
  19572909.188   104591722.514                    81349097.359    19572912.836  
  19572909.207  
  19707732.867   105201226.814                    81823174.585    19707735.762  
  19707731.367  
  21370794.297   112304299.592    21370803.023    87509872.7834   21370802.984  
                
  23558023.828   125975356.219                    97980831.698    23558028.090  
  23558022.516  
  19567874.305   104711657.647                    81442402.088    19567876.793  
  19567872.512  
  23060226.828   121182313.219    23060230.949    94427815.5494                 
                
  24356674.125   127995184.836    24356682.988    99736529.6064   24356683.168  
                
  21443660.258   112687209.098    21443664.258    87808236.3534                 
                
  22011903.461   115673358.353    22011912.551    90135114.9084   22011912.766  
                
 21  8 16  1 49  0.0000000  0 15G 6R14R16R19G29G12R15R18G24R24R17G19
                                G32G 2G25
  21516478.453   113069870.042    21516486.625    88106433.9514   21516487.102  
                
  23208382.125   123713756.307                    96221802.783    23208386.797  
  23208381.777  
  20326185.023   108578846.404                    84450202.378    20326186.137  
  20326184.793  
  23241110.359   124324302.197                    96696664.854    23241112.902  
                
  24530556.727   128908952.752    24530562.711   100448561.7994   24530563.031  
                
  20364911.523   107018349.945    20364917.047    83390952.7524   20364917.074  
                
  19575467.031   104605390.909                    81359728.338    19575470.664  
  19575467.047  
  19703639.945   105179378.541                    81806181.475    19703642.832  
  19703638.457  
  21375472.672   112328884.658    21375481.391    87529029.9704   21375481.363  
                
  23565873.797   126017333.469                    98013480.642    23565878.027  
  23565872.480  
  19571339.836   104730202.434                    81456825.817    19571342.301  
  19571338.059  
  23066424.516   121214882.176    23066428.648    94453193.9354                 
                
  24357456.586   127999296.710    24357465.395    99739733.6604   24357465.594  
                
  21441493.281   112675821.592    21441497.289    87799362.9744                 
                
  22006855.617   115646831.785    22006864.699    90114444.8574   22006864.910  
                
 21  8 16  1 49 10.0000000  0 15G 6R14R16R19G29G12R15R18G24R24R17G19
                                G32G 2G25
  21517832.977   113076988.142    21517841.188    88111980.5214   21517841.641  
                
  23215426.648   123751307.616                    96251009.344    23215431.336  
  23215426.328  
  20321253.727   108552504.277                    84429714.058    20321254.832  
  20321253.492  
  23233066.898   124281274.171                    96663198.626    23233069.305  
                
  24524301.352   128876080.500    24524307.316   100422947.0794   24524307.668  
                
  20362992.406   107008264.936    20362997.938    83383094.3074   20362997.953  
                
  19578036.953   104619123.789                    81370409.462    19578040.594  
  19578036.961  
  19699560.875   105157604.237                    81789245.915    19699563.762  
  19699559.410  
  21380159.992   112353516.652    21380168.727    87548223.7354   21380168.715  
                
  23573725.750   126059321.289                    98046137.824    23573729.949  
  23573724.484  
  19574818.516   104748817.516                    81471304.212    19574820.957  
  19574816.754  
  23072625.039   121247466.070    23072629.230    94478583.9844                 
                
  24358250.000   128003466.140    24358258.809    99742982.5724   24358258.984  
                
  21439337.305   112664491.831    21439341.301    87790534.5924                 
                
  22001811.695   115620325.795    22001820.781    90093790.8514   22001820.996  
                
 21  8 16  1 49 20.0000000  0 15G 6R14R16R19G29G12R15R18G24R24R17G19
                                G32G 2G25
  21519200.461   113084174.304    21519208.711    88117580.1344   21519209.156  
                
  23222476.055   123788884.305                    96280235.653    23222480.602  
  23222475.645  
  20316330.516   108526205.370                    84409259.358    20316331.609  
  20316330.285  
  23225027.617   124238269.179                    96629750.311    23225030.023  
                
  24518049.078   128843224.477    24518054.980   100397344.9804   24518055.340  
                
  20361080.500   106998217.826    20361086.031    83375265.3944   20361086.043  
                
  19580619.039   104632921.672                    81381141.149    19580622.668  
  19580619.059  
  19695495.742   105135904.249                    81772368.147    19695498.629  
  19695494.270  
  21384856.297   112378195.916    21384865.070    87567454.3244   21384865.039  
                
  23581579.711   126101319.846                    98078803.377    23581583.848  
  23581578.520  
  19578310.391   104767503.249                    81485837.568    19578312.793  
  19578308.613  
  23078828.484   121280065.366    23078832.715    94503986.0084                 
                
  24359054.438   128007693.491    24359063.234    99746276.6064   24359063.426  
                
  21437192.383   112653220.170    21437196.355    87781751.4874                 
                
  21996771.766   115593840.862    21996780.871    90073153.2414   21996781.066  
                
 21  8 16  1 49 30.0000000  0 15G 6R14R16R19G29G12R15R18G24R24R17G19
                                G32G 2G25
  21520580.625   113091427.127    21520588.902    88123231.6794   21520589.332  
                
  23229529.805   123826484.891                    96309480.573    23229534.383  
  23229529.461  
  20311415.094   108499948.057                    84388836.997    20311416.184  
  20311414.855  
  23216992.477   124195286.121                    96596319.051    23216994.766  
                
  24511799.648   128810383.385    24511805.465   100371754.5084   24511805.824  
                
  20359175.555   106988207.296    20359181.086    83367464.9814   20359181.102  
                
  19583212.992   104646782.965                    81391922.142    19583216.613  
  19583213.031  
  19691444.289   105114277.355                    81755547.241    19691447.180  
  19691442.832  
  21389561.320   112402920.961    21389570.121    87586720.5874   21389570.086  
                
  23589435.414   126143327.670                    98111476.133    23589439.512  
  23589434.281  
  19581815.195   104786258.156                    81500424.728    19581817.570  
  19581813.402  
  23085034.578   121312678.527    23085038.824    94529398.8474                 
                
  24359869.625   128011977.366    24359878.457    99749614.6684   24359878.656  
                
  21435058.266   112642005.308    21435062.207    87773012.6304                 
                
  21991735.570   115567375.581    21991744.676    90052530.9594   21991744.875  
                
 21  8 16  1 49 40.0000000  0 15G 6R14R16R19G29G12R15R18G24R24R17G19
                                G32G 2G25
  21521973.672   113098747.626    21521981.969    88128935.9584   21521982.398  
                
  23236588.297   123864110.447                    96338744.915    23236592.770  
  23236587.980  
  20306507.727   108473733.750                    84368448.093    20306508.785  
  20306507.500  
  23208961.617   124152326.170                    96562905.780    23208963.863  
                
  24505553.367   128777558.299    24505559.039   100346176.5164   24505559.395  
                
  20357277.773   106978234.407    20357283.293    83359693.9024   20357283.324  
                
  19585819.016   104660708.781                    81402753.326    19585822.629  
  19585819.066  
  19687406.727   105092724.589                    81738783.981    19687409.609  
  19687405.297  
  21394275.242   112427692.808    21394284.059    87606023.3134   21394284.023  
                
  23597293.016   126185345.770                    98144156.845    23597297.094  
  23597291.914  
  19585333.078   104805083.055                    81515066.314    19585335.438  
  19585331.266  
  23091243.508   121345306.571    23091247.770    94554823.2754                 
                
  24360695.758   128016318.764    24360704.652    99752997.5604   24360704.848  
                
  21432935.164   112630848.326    21432939.086    87764318.8744                 
                
  21986703.344   115540931.136    21986712.441    90031924.9114   21986712.660  
                
 21  8 16  1 49 50.0000000  0 15G 6R14R16R19G29G12R15R18G24R24R17G19
                                G32G 2G25
  21523379.562   113106135.682    21523387.879    88134692.8944   21523388.305  
                
  23243651.453   123901760.835                    96368028.541    23243655.832  
  23243651.148  
  20301608.344   108447562.179                    84348092.435    20301609.379  
  20301608.105  
  23200934.836   124109388.988                    96529510.181    23200937.184  
                
  24499310.055   128744749.186    24499315.648   100320610.9724   24499315.996  
                
  20355387.172   106968299.243    20355392.676    83351952.2184   20355392.727  
                
  19588437.125   104674699.142                    81413634.726    19588440.734  
  19588437.191  
  19683383.062   105071245.973                    81722078.392    19683385.938  
  19683381.652  
  21398998.031   112452511.268    21399006.840    87625362.3754   21399006.812  
                
  23605152.500   126227373.935                    98176845.400    23605156.594  
  23605151.434  
  19588864.023   104823977.927                    81529762.327    19588866.375  
  19588862.195  
  23097455.242   121377949.383    23097459.531    94580259.2264                 
                
  24361532.812   128020717.587    24361541.777    99756425.2224   24361541.953  
                
  21430823.062   112619749.175    21430826.988    87755670.1914                 
                
  21981675.078   115514507.470    21981684.184    90011335.0534   21981684.387  
                
 21  8 16  1 50  0.0000000  0 15G 6R14R16R19G29G12R15R18G24R24R17G19
                                G32G 2G25
  21524798.281   113113591.092    21524806.605    88140502.2984   21524807.027  
                
  23250719.297   123939435.763                    96397331.267    23250723.508  
  23250718.922  
  20296717.023   108421433.623                    84327770.230    20296718.043  
  20296716.762  
  23192912.477   124066474.821                    96496132.486    23192914.762  
                
  24493069.766   128711955.853    24493075.262   100295057.7284   24493075.621  
                
  20353503.703   106958401.564    20353509.199    83344239.7454   20353509.258  
                
  19591067.258   104688753.767                    81424566.090    19591070.863  
  19591067.344  
  19679373.250   105049841.338                    81705430.352    19679376.109  
  19679371.828  
  21403729.656   112477376.099    21403738.453    87644737.5624   21403738.441  
                
  23613013.836   126269411.978                    98209541.630    23613017.945  
  23613012.789  
  19592407.969   104842942.305                    81544512.386    19592410.297  
  19592406.117  
  23103669.727   121410606.685    23103674.008    94605706.4584                 
                
  24362380.734   128025173.578    24362389.773    99759897.4144   24362389.906  
                
  21428721.938   112608707.711    21428725.875    87747066.4514                 
                
  21976650.750   115488104.468    21976659.863    89990761.2904   21976660.066  
                
 21  8 16  1 50 10.0000000  0 15G 6R14R16R19G29G12R15R18G24R24R17G19
                                G32G 2G25
  21526229.852   113121114.041    21526238.195    88146364.3364   21526238.598  
                
  23257791.594   123977135.319                    96426653.127    23257795.809  
  23257791.270  
  20291833.773   108395348.202                    84307481.558    20291834.781  
  20291833.496  
  23184894.609   124023583.977                    96462772.944    23184896.707  
                
  24486832.461   128679178.656    24486837.965   100269517.0534   24486838.320  
                
  20351627.406   106948541.592    20351632.891    83336556.6504   20351632.957  
                
  19593709.477   104702872.973                    81435547.705    19593713.082  
  19593709.586  
  19675377.383   105028511.108                    81688840.180    19675380.230  
  19675375.977  
  21408470.117   112502287.405    21408478.941    87664148.9684   21408478.910  
                
  23620877.000   126311459.744                    98242245.418    23620881.066  
  23620875.949  
  19595964.953   104861976.478                    81559316.739    19595967.270  
  19595963.074  
  23109886.992   121443278.613    23109891.254    94631165.0894                 
                
  24363239.586   128029686.968    24363248.652    99763414.3484   24363248.742  
                
  21426631.828   112597724.090    21426635.758    87738507.7924                 
                
  21971630.406   115461722.401    21971639.512    89970203.8354   21971639.723  
                
 21  8 16  1 50 20.0000000  0 15G 6R14R16R19G29G12R15R18G24R24R17G19
                                G32G 2G25
  21527674.227   113128704.292    21527682.590    88152278.8134   21527682.984  
                
  23264868.562   124014859.311                    96455993.961    23264872.684  
  23264868.207  
  20286958.570   108369305.752                    84287226.318    20286959.605  
  20286958.297  
  23176880.859   123980716.262                    96429431.408    23176883.023  
                
  24480598.203   128646417.389    24480603.695   100243988.7924   24480604.059  
                
  20349758.258   106938719.170    20349763.742    83328902.8194   20349763.824  
                
  19596363.734   104717056.472                    81446579.310    19596367.340  
  19596363.844  
  19671395.422   105007255.113                    81672307.739    19671398.254  
  19671394.027  
  21413219.391   112527244.959    21413228.246    87683596.4144   21413228.191  
                
  23628741.969   126353517.129                    98274956.702    23628746.023  
  23628740.910  
  19599534.914   104881080.085                    81574175.087    19599537.230  
  19599533.027  
  23116106.977   121475964.876    23116111.230    94656634.8884                 
                
  24364109.289   128034257.478    24364118.328    99766975.7584   24364118.457  
                
  21424552.719   112586798.270    21424556.613    87729994.1634                 
                
  21966614.008   115435361.089    21966623.117    89949662.5594   21966623.332  
                
 21  8 16  1 50 30.0000000  0 15G 6R14R16R19G29G12R15R18G24R24R17G19
                                G32G 2G25
  21529131.398   113136361.763    21529139.781    88158245.6724   21529140.172  
                
  23271950.000   124052607.586                    96485353.737    23271954.148  
  23271949.688  
  20282091.484   108343306.653                    84267004.816    20282092.523  
  20282091.191  
  23168871.359   123937871.836                    96396107.971    23168873.707  
                
  24474366.961   128613672.055    24474372.438   100218472.9574   24474372.820  
                
  20347896.234   106928934.183    20347901.719    83321278.1584   20347901.789  
                
  19599030.008   104731304.206                    81457660.863    19599033.609  
  19599030.133  
  19667427.344   104986073.251                    81655832.951    19667430.172  
  19667425.965  
  21417977.430   112552248.596    21417986.297    87703079.7614   21417986.238  
                
  23636608.672   126395583.851                    98307675.252    23636612.723  
  23636607.625  
  19603117.789   104900252.777                    81589087.188    19603120.102  
  19603115.887  
  23122329.656   121508665.379    23122333.887    94682115.7784                 
                
  24364989.875   128038885.048    24364998.887    99770581.6454   24364999.066  
                
  21422484.602   112575930.210    21422488.477    87721525.5454                 
                
  21961601.562   115409020.567    21961610.656    89929137.4914   21961610.867  
                
 21  8 16  1 50 40.0000000  0 15G 6R14R16R19G29G12R15R18G24R24R17G19
                                G32G 2G25
  21530601.359   113144086.467    21530609.758    88164264.9224   21530610.141  
                
  23279035.984   124090380.258                    96514732.464    23279040.230  
  23279035.738  
  20277232.492   108317350.777                    84246816.904    20277233.543  
  20277232.172  
  23160866.172   123895050.718                    96362802.661    23160868.742  
                
  24468138.734   128580942.728    24468144.242   100192969.5924   24468144.613  
                
  20346041.398   106919186.934    20346046.895    83313682.9034   20346046.953  
                
  19601708.328   104745616.319                    81468792.508    19601711.918  
  19601708.473  
  19663473.164   104964965.568                    81639415.880    19663475.988  
  19663471.785  
  21422744.234   112577298.296    21422753.098    87722599.0044   21422753.039  
                
  23644477.133   126437659.960                    98340401.103    23644481.188  
  23644476.102  
  19606713.609   104919494.744                    81604053.162    19606715.914  
  19606711.723  
  23128555.047   121541380.050    23128559.227    94707607.7304                 
                
  24365881.320   128043569.650    24365890.348    99774231.9634   24365890.531  
                
  21420427.469   112565119.897    21420431.348    87713101.9334                 
                
  21956593.078   115382700.892    21956602.121    89908628.6654   21956602.383  
                
 21  8 16  1 50 50.0000000  0 14G 6R14R16R19G29G12R15R18G24R17G19G32
                                G 2G25
  21532084.398   113151879.877    21532092.805    88170337.7054   21532093.184  
                
  23286126.852   124128178.727                    96544131.253    23286131.145  
  23286126.625  
  20272381.930   108291440.019                    84226664.102    20272382.988  
  20272381.582  
  23152865.633   123852254.711                    96329516.899    23152868.473  
                
  24461913.898   128548230.980    24461919.441   100167479.9304   24461919.781  
                
  20344194.031   106909478.966    20344199.547    83306118.2554   20344199.594  
                
  19604398.953   104759994.148                    81479975.258    19604402.539  
  19604399.105  
  19659533.195   104943933.742                    81623057.791    19659536.016  
  19659531.820  
  21427520.070   112602395.487    21427528.945    87742155.2534   21427528.867  
                
  19610322.594   104938807.172                    81619073.943    19610324.887  
  19610320.707  
  23134783.430   121574110.402    23134787.555    94733111.8944                 
                
  24366783.906   128048312.793    24366792.977    99777927.9184   24366793.141  
                
  21418381.625   112554368.961    21418385.520    87704724.5714                 
                
  21951588.867   115356403.681    21951597.863    89888137.3464   21951598.152  
                
 21  8 16  1 51  0.0000000  0 14G 6R14R16R19G29G12R15R18G24R17G19G32
                                G 2G25
  21533580.070   113159739.692    21533588.465    88176462.2364   21533588.848  
                
  23293222.008   124166000.606                    96573548.261    23293226.465  
  23293221.840  
  20267539.367   108265571.914                    84206544.473    20267540.449  
  20267538.996  
  23144869.695   123809481.681                    96296248.979    23144872.500  
                
  24455692.094   128515534.530    24455697.574   100142002.1864   24455697.875  
                
  20342353.695   106899807.949    20342359.227    83298582.3964   20342359.262  
                
  19607101.492   104774435.674                    81491207.555    19607105.066  
  19607101.668  
  19655607.047   104922975.655                    81606757.059    19655609.883  
  19655605.680  
  21432304.500   112627537.829    21432313.371    87761746.6894   21432313.285  
                
  19613944.320   104958187.786                    81634147.753    19613946.613  
  19613942.438  
  23141014.344   121606854.076    23141018.457    94758626.4344                 
                
  24367697.188   128053112.117    24367706.316    99781667.6424   24367706.465  
                
  21416346.680   112543675.242    21416350.574    87696391.8134                 
                
  21946588.508   115330126.678    21946597.461    89867661.7664   21946597.789  
                
 21  8 16  1 51 10.0000000  0 14G 6R14R16R19G29G12R15R18G24R17G19G32
                                G 2G25
  21535088.484   113167666.406    21535096.859    88182638.9084   21535097.258  
                
  23300321.648   124203846.261                    96602983.767    23300326.184  
  23300321.551  
  20262704.961   108239747.384                    84186458.721    20262706.031  
  20262704.598  
  23136878.289   123766732.087                    96262999.288    23136880.898  
                
  24449473.312   128482854.001    24449478.691   100116536.8324   24449478.965  
                
  20340520.492   106890174.408    20340526.031    83291075.7464   20340526.055  
                
  19609816.016   104788941.185                    81502489.621    19609819.590  
  19609816.207  
  19651694.781   104902091.696                    81590513.992    19651697.617  
  19651693.414  
  21437097.609   112652725.766    21437106.434    87781373.6494   21437106.375  
                
  19617578.844   104977636.803                    81649274.772    19617581.129  
  19617576.961  
  23147247.898   121639611.570    23147252.031    94784151.7474                 
                
  24368621.273   128057968.182    24368630.465    99785451.6044   24368630.590  
                
  21414322.703   112533039.193    21414326.590    87688103.9844                 
                
  21941592.125   115303870.506    21941601.066    89847202.4124   21941601.398  
                
 21  8 16  1 51 20.0000000  0 14G 6R14R16R19G29G12R15R18G24R17G19G32
                                G 2G25
  21536609.695   113175660.428    21536618.051    88188868.0164   21536618.469  
                
  23307425.938   124241716.219                    96632438.155    23307430.508  
  23307425.809  
  20257878.820   108213967.008                    84166407.322    20257879.895  
  20257878.461  
  23128891.086   123724006.634                    96229768.386    23128893.863  
                
  24443257.547   128450189.831    24443262.883   100091084.2254   24443263.172  
                
  20338694.523   106880578.896    20338700.062    83283598.7234   20338700.082  
                
  19612542.617   104803511.280                    81513821.924    19612546.195  
  19612542.820  
  19647796.492   104881282.375                    81574328.960    19647799.340  
  19647795.117  
  21441899.469   112677959.646    21441908.262    87801036.4214   21441908.238  
                
  19621226.250   104997154.847                    81664455.468    19621228.539  
  19621224.367  
  23153484.156   121672383.229    23153488.270    94809688.0864                 
                
  24369556.234   128062881.328    24369565.477    99789280.0024   24369565.613  
                
  21412309.789   112522461.264    21412313.688    87679861.4454                 
                
  21936599.789   115277635.638    21936608.750    89826759.6594   21936609.074  
                
 21  8 16  1 51 30.0000000  0 14G 6R14R16R19G29G12R15R18G24R17G19G32
                                G 2G25
  21538143.875   113183722.638    21538152.219    88195150.2604   21538152.641  
                
  23314534.992   124279611.416                    96661912.183    23314539.562  
  23314534.781  
  20253061.086   108188231.545                    84146390.859    20253062.156  
  20253060.719  
  23120908.836   123681306.194                    96196556.963    23120911.500  
                
  24437045.016   128417543.042    24437050.387   100065645.1624   24437050.660  
                
  20336875.977   106871022.353    20336881.512    83276152.0754   20336881.547  
                
  19615281.477   104818146.918                    81525205.185    19615285.059  
  19615281.688  
  19643912.414   104860548.876                    81558202.913    19643915.262  
  19643911.035  
  21446710.227   112703240.359    21446719.047    87820735.6674   21446719.016  
                
  19624886.688   105016742.626                    81679690.411    19624888.977  
  19624884.801  
  23159723.258   121705169.868    23159727.312    94835236.1144                 
                
  24370502.219   128067852.491    24370511.527    99793153.6224   24370511.637  
                
  21410308.117   112511942.464    21410312.043    87671664.9834                 
                
  21931611.680   115251423.027    21931620.617    89806334.2554   21931620.957  
                
 21  8 16  1 51 40.0000000  0 14G 6R14R16R19G29G12R15R18G24R17G19G32
                                G 2G25
  21539690.648   113191850.960    21539698.984    88201484.0174   21539699.414  
                
  23321648.398   124317529.556                    96691404.035    23321652.926  
  23321648.098  
  20248251.414   108162539.201                    84126407.919    20248252.461  
  20248251.051  
  23112930.867   123638628.938                    96163363.554    23112933.480  
                
  24430835.414   128384911.610    24430840.824   100040218.0634   24430841.070  
                
  20335064.453   106861502.782    20335069.973    83268734.2214   20335070.012  
                
  19618032.180   104832845.867                    81536637.700    19618035.777  
  19618032.395  
  19640042.117   104839888.984                    81542134.110    19640044.969  
  19640040.738  
  21451529.484   112728565.748    21451538.328    87840469.7244   21451538.273  
                
  19628559.734   105036397.870                    81694977.830    19628562.043  
  19628557.820  
  23165964.805   121737969.381    23165968.789    94860794.1714                 
                
  24371458.852   128072879.553    24371468.191    99797070.7794   24371468.238  
                
  21408317.320   112501480.809    21408321.266    87663513.0434                 
                
  21926627.422   115225230.685    21926636.312    89785924.6524   21926636.680  
                
 21  8 16  1 51 50.0000000  0 14G 6R14R16R19G29G12R15R18G24R17G19G32
                                G 2G25
  21541250.031   113200045.555    21541258.367    88207869.4084   21541258.809  
                
  23328766.141   124355470.756                    96720913.851    23328770.633  
  23328765.812  
  20243449.883   108136890.292                    84106458.771    20243450.914  
  20243449.523  
  23104957.180   123595975.309                    96130188.515    23104959.809  
                
  24424628.797   128352295.729    24424634.262   100014803.0864   24424634.465  
                
  20333260.016   106852020.395    20333265.527    83261345.3544   20333265.566  
                
  19620794.797   104847608.441                    81548119.702    19620798.410  
  19620795.008  
  19636185.688   104819303.044                    81526122.822    19636188.543  
  19636184.297  
  21456357.281   112753935.931    21456366.109    87860238.6964   21456366.066  
                
  19632245.406   105056120.678                    81710317.782    19632247.730  
  19632243.496  
  23172208.836   121770781.895    23172212.816    94886362.3594                 
                
  24372426.141   128077962.691    24372435.492    99801031.6484   24372435.508  
                
  21406337.445   112491076.516    21406341.395    87655405.8004                 
                
  21921647.086   115199058.888    21921655.926    89765531.0494   21921656.328  
                
 21  8 16  1 52  0.0000000  0 14G 6R14R16R19G29G12R15R18G24R17G19G32
                                G 2G25
  21542822.109   113208306.908    21542830.453    88214306.8334   21542830.895  
                
  23335888.203   124393435.447                    96750441.937    23335892.688  
  23335887.848  
  20238656.602   108111285.465                    84086543.907    20238657.672  
  20238656.219  
  23096987.898   123553345.482                    96097031.971    23096990.609  
                
  24418425.234   128319695.973    24418430.832    99989400.6994   24418430.984  
                
  20331462.750   106842575.702    20331468.250    83253985.8514   20331468.305  
                
  19623569.398   104862435.040                    81559651.499    19623573.031  
  19623569.602  
  19632343.219   104798791.724                    81510169.588    19632346.082  
  19632341.820  
  21461193.680   112779351.350    21461202.492    87880042.9194   21461202.453  
                
  19635943.797   105075911.540                    81725710.675    19635946.125  
  19635941.883  
  23178455.430   121803607.903    23178459.445    94911941.0554                 
                
  24373404.203   128083102.369    24373413.516    99805036.6164   24373413.512  
                
  21404368.609   112480730.234    21404372.582    87647343.7674                 
                
  21916670.773   115172908.194    21916679.551    89745153.8964   21916679.984  
                
 21  8 16  1 52 10.0000000  0 14G 6R14R16R19G29G12R15R18G24R17G19G32
                                G 2G25
  21544406.898   113216634.997    21544415.238    88220796.2504   21544415.688  
                
  23343014.672   124431423.764                    96779988.361    23343019.191  
  23343014.367  
  20233871.617   108085724.982                    84066663.539    20233872.695  
  20233871.223  
  23089023.227   123510740.161                    96063894.488    23089025.973  
                
  24412224.758   128287112.391    24412230.449    99964010.9084   24412230.578  
                
  20329672.656   106833168.714    20329678.152    83246655.7354   20329678.203  
                
  19626355.984   104877325.741                    81571233.160    19626359.625  
  19626356.172  
  19628514.727   104778354.954                    81494274.311    19628517.590  
  19628513.324  
  21466038.664   112804811.941    21466047.477    87899882.3324   21466047.434  
                
  19639654.875   105095770.260                    81741156.345    19639657.215  
  19639652.965  
  23184704.586   121836447.314    23184708.609    94937530.1984                 
                
  24374393.023   128088298.537    24374402.238    99809085.6024   24374402.227  
                
  21402410.781   112470441.839    21402414.785    87639326.8434                 
                
  21911698.492   115146778.682    21911707.227    89724793.2364   21911707.664  
                
 21  8 16  1 52 20.0000000  0 14G 6R14R16R19G29G12R15R18G24R17G19G32
                                G 2G25
  21546004.414   113225029.997    21546012.750    88227337.8094   21546013.211  
                
  23350145.602   124469435.785                    96809553.265    23350150.180  
  23350145.332  
  20229094.969   108060208.979                    84046817.765    20229096.055  
  20229094.559  
  23081063.125   123468159.242                    96030776.013    23081065.945  
                
  24406027.477   128254545.273    24406033.168    99938633.9274   24406033.281  
                
  20327889.844   106823799.944    20327895.332    83239355.3954   20327895.383  
                
  19629154.625   104892280.828                    81582864.891    19629158.281  
  19629154.820  
  19624700.281   104757993.189                    81478437.401    19624703.152  
  19624698.863  
  21470892.281   112830317.830    21470901.074    87919757.0554   21470901.039  
                
  19643378.664   105115696.946                    81756654.875    19643381.000  
  19643376.758  
  23190956.320   121869300.284    23190960.297    94963129.9134                 
                
  24375392.617   128093551.376    24375401.750    99813178.7564   24375401.766  
                
  21400464.031   112460211.612    21400468.074    87631355.2444                 
                
  21906730.289   115120670.612    21906739.004    89704449.2834   21906739.434  
                
 21  8 16  1 52 30.0000000  0 14G 6R14R16R19G29G12R15R18G24R17G19G32
                                G 2G25
  21547614.648   113233491.825    21547622.984    88233931.4404   21547623.457  
                
  23357281.047   124507471.364                    96839136.470    23357285.547  
  23357280.695  
  20224326.664   108034737.627                    84027006.707    20224327.762  
  20224326.246  
  23073107.852   123425602.792                    95997676.572    23073110.496  
                
  24399833.258   128221994.554    24399838.973    99913269.7344   24399839.105  
                
  20326114.266   106814469.230    20326119.750    83232084.7114   20326119.809  
                
  19631965.297   104907300.207                    81594546.634    19631968.953  
  19631965.477  
  19620899.844   104737706.236                    81462658.669    19620902.719  
  19620898.414  
  21475754.477   112855868.901    21475763.246    87939666.9794   21475763.234  
                
  19647115.125   105135691.503                    81772206.197    19647117.480  
  19647113.223  
  23197210.578   121902166.760    23197214.602    94988740.1334                 
                
  24376402.977   128098860.834    24376412.078    99817315.9794   24376412.117  
                
  21398528.352   112450039.596    21398532.441    87623428.9984                 
                
  21901766.164   115094583.978    21901774.871    89684122.0494   21901775.312  
                
 21  8 16  1 52 40.0000000  0 14G 6R14R16R19G29G12R15R18G24R17G19G32
                                G 2G25
  21549237.602   113242020.498    21549245.941    88240577.1634   21549246.426  
                
  23364420.852   124545530.434                    96868737.964    23364425.324  
  23364420.477  
  20219566.750   108009311.010                    84007230.442    20219567.879  
  20219566.340  
  23065156.992   123383071.283                    95964596.518    23065159.711  
                
  24393642.156   128189460.420    24393647.953    99887918.4664   24393648.117  
                
  20324345.953   106805176.693    20324351.434    83224843.7694   20324351.488  
                
  19634788.008   104922383.914                    81606278.405    19634791.676  
  19634788.168  
  19617113.461   104717494.274                    81446938.254    19617116.340  
  19617112.027  
  21480625.281   112881465.141    21480634.047    87959612.0944   21480634.047  
                
  19650864.266   105155753.879                    81787810.272    19650866.633  
  19650862.371  
  23203467.398   121935046.705    23203471.480    95014360.8324                 
                
  24377424.125   128104226.923    24377433.215    99821497.3364   24377433.270  
                
  21396603.773   112439925.856    21396607.875    87615548.1664                 
                
  21896806.148   115068518.926    21896814.863    89663811.6174   21896815.289  
                
 21  8 16  1 52 50.0000000  0 14G 6R14R16R19G29G12R15R18G24R17G19G32
                                G 2G25
  21550873.266   113250615.949    21550881.617    88247274.9084   21550882.109  
                
  23371565.148   124583613.027                    96898357.748    23371569.512  
  23371564.715  
  20214815.234   107983929.259                    83987489.104    20214816.375  
  20214814.805  
  23057210.969   123340564.688                    95931535.831    23057213.578  
                
  24387454.242   128156942.781    24387460.113    99862580.0404   24387460.242  
                
  20322584.906   106795922.317    20322590.391    83217632.5724   20322590.453  
                
  19637622.734   104937531.868                    81618060.139    19637626.410  
  19637622.867  
  19613341.125   104697357.276                    81431276.142    19613344.008  
  19613339.688  
  21485504.656   112907106.418    21485513.430    87979592.3074   21485513.430  
                
  19654626.039   105175883.908                    81803466.955    19654628.418  
  19654624.145  
  23209726.758   121967939.929    23209730.859    95039991.9114                 
                
  24378456.031   128109649.542    24378465.160    99825722.7394   24378465.215  
                
  21394690.273   112429870.348    21394694.359    87607712.7104                 
                
  21891850.219   115042475.403    21891858.941    89643517.9744   21891859.367  
                
 21  8 16  1 53  0.0000000  0 14G 6R14R16R19G29G12R15R18G24R17G19G32
                                G 2G25
  21552521.609   113259278.092    21552529.980    88254024.6314   21552530.457  
                
  23378713.773   124621718.909                    96927995.644    23378718.059  
  23378713.301  
  20210072.164   107958592.676                    83967782.862    20210073.305  
  20210071.742  
  23049269.562   123298082.982                    95898494.505    23049272.062  
                
  24381269.445   128124441.678    24381275.395    99837254.5274   24381275.512  
                
  20320831.109   106786706.044    20320836.594    83210451.0634   20320836.652  
                
  19640469.492   104952744.087                    81629891.859    19640473.176  
  19640469.613  
  19609582.828   104677295.304                    81415672.392    19609585.703  
  19609581.383  
  21490392.570   112932792.599    21490401.340    87999607.5104   21490401.352  
                
  19658400.406   105196081.314                    81819176.041    19658402.797  
  19658398.500  
  23215988.625   122000846.376    23215992.789    95065633.2874                 
                
  24379498.664   128115128.611    24379507.879    99829992.1304   24379507.934  
                
  21392787.844   112419873.047    21392791.906    87599922.6044                 
                
  21886898.406   115016453.488    21886907.129    89623241.1604   21886907.562  
                
 21  8 16  1 53 10.0000000  0 14G 6R14R16R19G29G12R15R18G24R17G19G32
                                G 2G25
  21554182.641   113268006.838    21554191.031    88260826.2464   21554191.496  
                
  23385866.734   124659848.070                    96957651.649    23385871.031  
  23385866.258  
  20205337.523   107933301.148                    83948111.669    20205338.664  
  20205337.129  
  23041333.180   123255626.416                    95865472.730    23041335.289  
                
  24375087.812   128091957.110    24375093.793    99811941.8864   24375093.910  
                
  20319084.555   106777527.877    20319090.051    83203299.2474   20319090.105  
                
  19643328.266   104968020.577                    81641773.576    19643331.953  
  19643328.379  
  19605838.602   104657308.400                    81400127.033    19605841.477  
  19605837.152  
  21495289.008   112958523.575    21495297.766    88019657.6124   21495297.797  
                
  19662187.344   105216346.028                    81834937.490    19662189.750  
  19662185.449  
  23222252.969   122033765.969    23222257.203    95091284.8764                 
                
  24380552.039   128120664.014    24380561.324    99834305.4254   24380561.359  
                
  21390896.484   112409933.954    21390900.543    87592177.8614                 
                
  21881950.703   114990453.141    21881959.441    89602981.1604   21881959.867  
                
 21  8 16  1 53 20.0000000  0 14G 6R14R16R19G29G12R15R18G24R17G19G32
                                G 2G25
  21555856.344   113276802.196    21555864.758    88267679.7764   21555865.215  
                
  23393023.930   124698000.374                    96987325.674    23393028.336  
  23393023.543  
  20200611.320   107908054.673                    83928475.528    20200612.473  
  20200610.918  
  23033401.078   123213194.835                    95832470.391    23033403.180  
  23033399.074  
  24368909.359   128059489.168    24368915.391    99786642.1884   24368915.488  
                
  20317345.297   106768387.984    20317350.805    83196177.2514   20317350.844  
                
  19646199.070   104983361.318                    81653705.256    19646202.762  
  19646199.168  
  19602108.445   104637396.590                    81384640.074    19602111.320  
  19602106.984  
  21500193.969   112984299.307    21500202.746    88039742.6004   21500202.770  
                
  19665986.844   105236677.911                    81850751.178    19665989.270  
  19665984.938  
  23228519.805   122066698.681    23228524.137    95116946.6844                 
                
  24381616.133   128126255.768    24381625.453    99838662.6604   24381625.461  
                
  21389016.234   112400053.134    21389020.277    87584478.5234                 
                
  21877007.141   114964474.522    21877015.859    89582738.0794   21877016.285  
                
 21  8 16  1 53 30.0000000  0 14G 6R14R16R19G29G12R15R18G24R17G19G32
                                G 2G25
  21557542.719   113285664.121    21557551.156    88274585.1714   21557551.602  
                
  23400185.617   124736175.985                    97017017.783    23400189.996  
  23400185.227  
  20195893.625   107882853.579                    83908874.676    20195894.793  
  20195893.230  
  23025473.602   123170788.394                    95799487.589    23025475.695  
  23025471.051  
  24362734.102   128027037.887    24362740.148    99761355.4734   24362740.238  
                
  20315613.297   106759286.263    20315618.820    83189085.0044   20315618.855  
                
  19649081.875   104998766.156                    81665686.786    19649085.566  
  19649081.957  
  19598392.391   104617560.049                    81369211.653    19598395.262  
  19598390.922  
  21505107.438   113010119.690    21505116.238    88059862.3724   21505116.230  
                
  19669798.875   105257076.838                    81866617.020    19669801.305  
  19669796.977  
  23234789.133   122099644.359    23234793.551    95142618.6254                 
                
  24382690.945   128131903.845    24382700.227    99843063.7544   24382700.227  
                
  21387147.078   112390230.628    21387151.082    87576824.6224                 
                
  21872067.711   114938517.603    21872076.414    89562511.9184   21872076.855  
                
 21  8 16  1 53 40.0000000  0 14G 6R14R16R19G29G12R15R18G24R17G19G32
                                G 2G25
  21559241.758   113294592.640    21559250.215    88281542.4504   21559250.652  
                
  23407351.633   124774374.635                    97046727.849    23407355.961  
  23407351.234  
  20191184.422   107857697.858                    83889309.112    20191185.574  
  20191184.020  
  23017550.711   123128407.585                    95766524.759    23017553.031  
  23017548.273  
  24356562.031   127994603.331    24356568.078    99736081.7984   24356568.168  
                
  20313888.594   106750222.892    20313894.129    83182022.6414   20313894.160  
                
  19651976.719   105014235.339                    81677718.378    19651980.414  
  19651976.793  
  19594690.414   104597798.680                    81353841.714    19594693.281  
  19594688.926  
  21510029.383   113035984.736    21510038.191    88080016.9484   21510038.180  
                
  19673623.438   105277542.835                    81882535.006    19673625.871  
  19673621.539  
  23241060.953   122132603.111    23241065.410    95168300.7464                 
                
  24383776.469   128137608.254    24383785.715    99847508.7634   24383785.723  
                
  21385289.031   112380466.560    21385292.984    87569216.2594                 
                
  21867132.430   114912582.563    21867141.137    89542302.7924   21867141.566  
                
 21  8 16  1 53 50.0000000  0 14G 6R14R16R19G29G12R15R18G24R17G19G32
                                G 2G25
  21560953.469   113303587.740    21560961.949    88288551.6274   21560962.379  
                
  23414522.070   124812596.421                    97076455.885    23414526.250  
  23414521.566  
  20186483.758   107832587.776                    83869779.055    20186484.934  
  20186483.367  
  23009632.805   123086052.049                    95733581.579    23009635.125  
  23009630.340  
  24350393.156   127962185.587    24350399.211    99710821.2284   24350399.285  
                
  20312171.195   106741197.888    20312176.738    83174990.1754   20312176.762  
                
  19654883.578   105029768.756                    81689799.916    19654887.281  
  19654883.660  
  19591002.570   104578112.712                    81338530.408    19591005.438  
  19591001.094  
  21514959.828   113061894.379    21514968.621    88100206.2844   21514968.613  
                
  19677460.539   105298075.897                    81898505.173    19677462.977  
  19677458.648  
  23247335.258   122165574.834    23247339.754    95193992.9854                 
                
  24384872.719   128143368.991    24384881.949    99851997.6564   24384881.965  
                
  21383442.125   112370760.979    21383446.031    87561653.4754                 
                
  21862201.320   114886669.446    21862210.055    89522110.7664   21862210.477  
                
 21  8 16  1 54  0.0000000  0 14G 6R14R16R19G29G12R15R18G24R17G19G32
                                G 2G25
  21562677.820   113312649.241    21562686.312    88295612.5244   21562686.723  
                
  23421696.734   124850840.939                    97106201.613    23421700.859  
  23421696.160  
  20181791.656   107807523.460                    83850284.593    20181792.852  
  20181791.270  
  23001719.531   123043722.163                    95700658.354    23001722.020  
  23001717.129  
  24344227.406   127929784.562    24344233.527    99685573.6794   24344233.605  
                
  20310461.078   106732211.193    20310466.625    83167987.5574   20310466.645  
                
  19657802.438   105045366.260                    81701931.304    19657806.133  
  19657802.516  
  19587328.805   104558501.935                    81323277.589    19587331.668  
  19587327.324  
  21519898.711   113087848.369    21519907.488    88120430.1704   21519907.488  
                
  19681310.070   105318675.512                    81914527.089    19681312.516  
  19681308.184  
  23253612.000   122198559.324    23253616.543    95219695.1654                 
                
  24385979.633   128149185.828    24385988.859    99856530.2624   24385988.875  
                
  21381606.312   112361113.717    21381610.180    87554136.1294                 
                
  21857274.375   114860778.166    21857283.121    89501935.7494   21857283.527  
                
 21  8 16  1 54 10.0000000  0 14G 6R14R16R19G29G12R15R18G24R17G19G32
                                G 2G25
  21564414.820   113321777.268    21564423.336    88302725.2674   21564423.734  
                
  23428875.664   124889108.545                    97135965.278    23428879.832  
  23428875.082  
  20177108.109   107782504.778                    83830825.626    20177109.309  
  20177107.703  
  22993810.984   123001418.185                    95667755.258    22993813.738  
  22993808.777  
  24338064.867   127897400.431    24338070.992    99660339.2944   24338071.070  
                
  20308758.305   106723263.029    20308763.852    83161014.9604   20308763.863  
                
  19660733.344   105061028.101                    81714112.723    19660737.043  
  19660733.430  
  19583669.195   104538966.702                    81308083.525    19583672.074  
  19583667.730  
  21524846.062   113113846.846    21524854.836    88140688.7164   21524854.832  
                
  19685172.078   105339341.874                    81930600.925    19685174.527  
  19685170.195  
  23259891.195   122231556.700    23259895.793    95245407.3844                 
                
  24387097.266   128155058.960    24387106.520    99861106.7074   24387106.504  
                
  21379781.641   112351524.994    21379785.453    87546664.3974                 
                
  21852351.633   114834908.968    21852360.406    89481777.9364   21852360.793  
                
 21  8 16  1 54 20.0000000  0 14G 6R14R16R19G29G12R15R18G24R17G19G32
                                G 2G25
  21566164.453   113330971.617    21566172.984    88309889.7014   21566173.387  
                
  23436058.906   124927398.886                    97165746.637    23436063.070  
  23436058.270  
  20172433.188   107757532.192                    83811402.498    20172434.422  
  20172432.781  
  22985907.438   122959139.868                    95634872.112    22985910.242  
  22985905.176  
  24331905.531   127865033.082    24331911.676    99635117.9864   24331911.762  
                
  20307062.836   106714353.281    20307068.391    83154072.3024   20307068.398  
                
  19663676.266   105076754.142                    81726344.086    19663679.953  
  19663676.371  
  19580023.727   104519506.968                    81292948.188    19580026.605  
  19580022.266  
  21529801.820   113139889.538    21529810.594    88160981.7214   21529810.586  
                
  19689046.516   105360074.764                    81946726.516    19689048.984  
  19689044.633  
  23266172.797   122264566.713    23266177.461    95271129.4464                 
                
  24388225.555   128160988.132    24388234.816    99865726.8204   24388234.801  
                
  21377968.094   112341994.727    21377971.844    87539238.2184                 
                
  21847433.070   114809061.733    21847441.871    89461637.2404   21847442.242  
                
 21  8 16  1 54 30.0000000  0 14G 6R14R16R19G29G12R15R18G24R17G19G32
                                G 2G25
  21567926.711   113340232.314    21567935.242    88317105.8284   21567935.633  
                
  23443246.367   124965712.005                    97195545.722    23443250.512  
  23443245.773  
  20167766.867   107732605.526                    83792015.094    20167768.113  
  20167766.465  
  22978008.516   122916887.433                    95602009.118    22978011.594  
  22978006.402  
  24325749.414   127832682.659    24325755.625    99609909.8734   24325755.715  
                
  20305374.680   106705481.953    20305380.242    83147159.5754   20305380.238  
                
  19666631.211   105092544.423                    81738625.420    19666634.879  
  19666631.324  
  19576392.375   104500122.558                    81277871.421    19576395.258  
  19576390.930  
  21534765.992   113165976.423    21534774.734    88181309.1614   21534774.742  
                
  19692933.359   105380874.024                    81962903.696    19692935.836  
  19692931.477  
  23272456.797   122297589.350    23272461.492    95296861.3374                 
                
  24389364.523   128166973.337    24389373.781    99870390.6244   24389373.742  
                
  21376165.688   112332523.005    21376169.391    87531857.6484                 
                
  21842518.711   114783236.554    21842527.520    89441513.7304   21842527.891  
                
 21  8 16  1 54 40.0000000  0 14G 6R14R16R19G29G12R15R18G24R17G19G32
                                G 2G25
  21569701.562   113349559.253    21569710.094    88324373.5734   21569710.473  
                
  23450438.031   125004047.644                    97225362.337    23450442.172  
  23450437.496  
  20163109.156   107707724.887                    83772663.492    20163110.410  
  20163108.758  
  22970114.648   122874661.075                    95569166.412    22970117.785  
  22970112.594  
  24319596.500   127800349.084    24319602.770    99584714.8884   24319602.891  
                
  20303693.836   106696649.107    20303699.414    83140276.8434   20303699.395  
                
  19669598.141   105108398.833                    81750956.616    19669601.785  
  19669598.250  
  19572775.156   104480813.653                    81262853.390    19572778.035  
  19572773.723  
  21539738.547   113192107.353    21539747.258    88201670.9294   21539747.281  
                
  19696832.562   105401739.481                    81979132.386    19696835.043  
  19696830.703  
  23278743.180   122330624.472    23278747.863    95322602.9754                 
                
  24390514.117   128173014.505    24390523.324    99875098.0344   24390523.297  
                
  21374374.398   112323109.750    21374378.066    87524522.6504                 
                
  21837608.539   114757433.465    21837617.336    89421407.4344   21837617.707  
                
 21  8 16  1 54 50.0000000  0 14G 6R14R16R19G29G12R15R18G24R17G19G32
                                G 2G25
  21571489.031   113358952.464    21571497.562    88331692.9464   21571497.949  
                
  23457634.016   125042405.866                    97255196.481    23457638.094  
  23457633.445  
  20158460.141   107682890.716                    83753348.027    20158461.422  
  20158459.766  
  22962225.562   122832460.714                    95536343.920    22962228.871  
  22962223.625  
  24313446.859   127768032.387    24313453.105    99559533.0404   24313453.270  
                
  20302020.336   106687854.788    20302025.926    83133424.1284   20302025.891  
                
  19672577.094   105124317.408                    81763337.745    19672580.727  
  19672577.215  
  19569172.109   104461580.387                    81247894.183    19569174.984  
  19569170.664  
  21544719.477   113218282.325    21544728.199    88222067.0104   21544728.215  
                
  19700744.125   105422671.014                    81995412.469    19700746.602  
  19700742.285  
  23285031.945   122363672.077    23285036.629    95348354.3274                 
                
  24391674.375   128179111.648    24391683.469    99879849.0614   24391683.480  
                
  21372594.258   112313755.038    21372597.902    87517233.2664                 
                
  21832702.594   114731652.548    21832711.383    89401318.4074   21832711.758  
                
 21  8 16  1 55  0.0000000  0 14G 6R14R16R19G29G12R15R18G24R17G19G32
                                G 2G25
  21573289.078   113368411.808    21573297.617    88339063.8644   21573298.004  
                
  23464834.172   125080786.579                    97285048.127    23464838.223  
  23464833.598  
  20153819.789   107658102.748                    83734068.502    20153821.082  
  20153819.430  
  22954341.586   122790286.633                    95503541.847    22954344.891  
  22954339.621  
  24307300.414   127735732.623    24307306.672    99534364.4024   24307306.859  
                
  20300354.156   106679098.974    20300359.754    83126601.4114   20300359.711  
                
  19675568.039   105140300.114                    81775768.721    19675571.645  
  19675568.156  
  19565583.219   104442422.652                    81232993.724    19565586.090  
  19565581.742  
  21549708.758   113244501.159    21549717.504    88242497.2624   21549717.492  
                
  19704668.000   105443668.412                    82011743.770    19704670.465  
  19704666.172  
  23291323.086   122396731.971    23291327.742    95374115.2794                 
                
  24392845.266   128185264.620    24392854.215    99884643.5984   24392854.277  
                
  21370825.250   112304458.820    21370828.875    87509989.4624                 
                
  21827800.859   114705893.786    21827809.664    89381246.6554   21827810.031  
                
 21  8 16  1 55 10.0000000  0 14G 6R14R16R19G29G12R15R18G24R17G19G32
                                G 2G25
  21575101.711   113377937.274    21575110.250    88346486.2964   21575110.621  
                
  23472038.508   125119189.760                    97314917.232    23472042.566  
  23472037.926  
  20149188.141   107633361.344                    83714825.193    20149189.410  
  20149187.773  
  22946462.469   122748138.615                    95470760.044    22946465.730  
  22946460.492  
  24301157.227   127703449.932    24301163.477    99509209.0514   24301163.660  
                
  20298695.312   106670381.685    20298700.922    83119808.7224   20298700.867  
                
  19678570.977   105156346.872                    81788249.542    19678574.570  
  19678571.094  
  19562008.492   104423340.559                    81218152.109    19562011.359  
  19562006.988  
  21554706.375   113270763.806    21554715.133    88262961.6594   21554715.113  
                
  19708604.180   105464731.656                    82028126.297    19708606.629  
  19708602.395  
  23297616.562   122429804.211    23297621.184    95399885.8574                 
                
  24394026.758   128191473.427    24394035.645    99889481.6234   24394035.746  
                
  21369067.367   112295221.096    21369071.000    87502791.2414                 
                
  21822903.359   114680157.257    21822912.168    89361192.2264   21822912.527  
                
 21  8 16  1 55 20.0000000  0 14G 6R14R16R19G29G12R15R18G24R17G19G32
                                G 2G25
  21576926.938   113387528.916    21576935.473    88353960.3024   21576935.836  
                
  23479247.062   125157615.401                    97344803.806    23479251.145  
  23479246.457  
  20144565.203   107608666.476                    83695618.077    20144566.477  
  20144564.836  
  22938588.398   122706017.295                    95437999.025    22938591.570  
  22938586.320  
  24295017.266   127671184.411    24295023.535    99484067.0904   24295023.738  
                
  20297043.836   106661703.126    20297049.449    83113046.2114   20297049.383  
                
  19681585.930   105172457.890                    81800780.317    19681589.520  
  19681586.066  
  19558447.945   104404334.163                    81203369.361    19558450.812  
  19558446.430  
  21559712.328   113297070.260    21559721.117    88283460.1954   21559721.078  
                
  19712552.672   105485860.787                    82044560.075    19712555.125  
  19712550.926  
  23303912.391   122462888.855    23303916.969    95425666.0914                 
                
  24395218.898   128197738.085    24395227.793    99894363.1754   24395227.914  
                
  21367320.656   112286042.080    21367324.309    87495638.7614                 
                
  21818010.117   114654443.105    21818018.910    89341155.2264   21818019.289  
                
 21  8 16  1 55 30.0000000  0 14G 6R14R16R19G29G12R15R18G24R17G19G32
                                G 2G25
  21578764.703   113397186.483    21578773.230    88361485.6774   21578773.594  
                
  23486459.688   125196063.205                    97374707.619    23486463.902  
  23486459.160  
  20139951.000   107584018.245                    83676447.233    20139952.277  
  20139950.645  
  22930719.203   122663922.443                    95405258.597    22930722.371  
  22930717.094  
  24288880.477   127638935.834    24288886.840    99458938.3294   24288887.047  
                
  20295399.703   106653063.120    20295405.312    83106313.7424   20295405.250  
                
  19684612.852   105188632.812                    81813360.817    19684616.426  
  19684613.000  
  19554901.570   104385403.440                    81188645.473    19554904.434  
  19554900.051  
  21564726.570   113323420.264    21564735.395    88303992.6664   21564735.336  
                
  19716513.406   105507055.394                    82061044.764    19716515.844  
  19716511.664  
  23310210.523   122495985.634    23310215.016    95451455.7724                 
                
  24396421.625   128204058.373    24396430.527    99899288.0634   24396430.641  
                
  21365585.078   112276921.527    21365588.738    87488531.8314                 
                
  21813121.109   114628751.208    21813129.895    89321135.5674   21813130.258  
                
 21  8 16  1 55 40.0000000  0 14G 6R14R16R19G29G12R15R18G24R17G19G32
                                G 2G25
  21580615.023   113406909.989    21580623.547    88369062.4384   21580623.914  
                
  23493676.516   125234533.117                    97404628.627    23493680.797  
  23493676.039  
  20135345.547   107559416.771                    83657312.751    20135346.844  
  20135345.184  
  22922854.977   122621853.988                    95372538.678    22922858.113  
  22922852.789  
  24282746.945   127606704.290    24282753.398    99433822.8614   24282753.602  
                
  20293762.922   106644461.829    20293768.531    83099611.4414   20293768.461  
                
  19687651.758   105204871.811                    81825991.149    19687655.324  
  19687651.918  
  19551369.367   104366548.344                    81173980.397    19551372.230  
  19551367.844  
  21569749.094   113349813.781    21569757.922    88324559.0354   21569757.863  
                
  19720486.352   105528315.372                    82077580.302    19720488.785  
  19720484.605  
  23316510.953   122529094.423    23316515.383    95477254.8244                 
                
  24397634.930   128210434.304    24397643.797    99904256.3124   24397643.879  
                
  21363860.641   112267859.545    21363864.293    87481470.5504                 
                
  21808236.344   114603081.632    21808245.125    89301133.3074   21808245.500  
                
 21  8 16  1 55 50.0000000  0 14G 6R14R16R19G29G12R15R18G24R17G19G32
                                G 2G25
  21582477.906   113416699.554    21582486.426    88376690.6604   21582486.773  
                
  23500897.547   125273025.310                    97434567.004    23500901.836  
  23500897.113  
  20130748.930   107534862.513                    83638215.001    20130750.227  
  20130748.562  
  22914996.008   122579812.467                    95339839.723    22914998.910  
  22914993.609  
  24276616.797   127574489.976    24276623.258    99408720.8154   24276623.461  
                
  20292133.539   106635899.334    20292139.152    83092939.3734   20292139.078  
                
  19690702.672   105221174.949                    81838671.360    19690706.223  
  19690702.840  
  19547851.398   104347769.226                    81159374.418    19547854.258  
  19547849.867  
  21574779.906   113376250.863    21574788.738    88345159.3574   21574788.695  
                
  19724471.516   105549640.787                    82094166.733    19724473.949  
  19724469.770  
  23322813.664   122562215.280    23322818.078    95503063.2774                 
                
  24398858.836   128216865.948    24398867.629    99909267.9884   24398867.656  
                
  21362147.391   112258856.361    21362151.039    87474455.0844                 
                
  21803355.875   114577434.605    21803364.668    89281148.6224   21803365.047  
                
 21  8 16  1 56  0.0000000  0 14G 6R14R16R19G29G12R15R18G24R17G19G32
                                G 2G25
  21584353.367   113426555.166    21584361.895    88384370.3614   21584362.215  
                
  23508122.758   125311539.804                    97464522.716    23508127.078  
  23508122.363  
  20126161.094   107510355.112                    83619153.681    20126162.395  
  20126160.746  
  22907141.766   122537797.891                    95307161.749    22907144.770  
  22907139.469  
  24270489.914   127542293.047    24270496.418    99383632.3064   24270496.605  
                
  20290511.555   106627375.695    20290517.156    83086297.5814   20290517.066  
                
  19693765.609   105237542.353                    81851401.568    19693769.164  
  19693765.777  
  19544347.641   104329065.964                    81144827.448    19544350.500  
  19544346.113  
  21579819.016   113402731.487    21579827.871    88365793.6084   21579827.812  
                
  19728468.898   105571031.535                    82110803.975    19728471.328  
  19728467.141  
  23329118.672   122595348.277    23329123.102    95528881.1724                 
                
  24400093.352   128223353.341    24400102.035    99914323.1254   24400102.039  
                
  21360445.352   112249912.043    21360449.035    87467485.4894                 
                
  21798479.719   114551810.231    21798488.500    89261181.5744   21798488.887  
                
 21  8 16  1 56 10.0000000  0 14G 6R14R16R19G29G12R15R18G24R17G19G32
                                G 2G25
  21586241.344   113436476.591    21586249.871    88392101.3464   21586250.176  
                
  23515352.117   125350076.192                    97494495.468    23515356.438  
  23515351.691  
  20121582.133   107485895.078                    83600129.223    20121583.418  
  20121581.766  
  22899292.578   122495810.098                    95274504.589    22899295.594  
  22899290.328  
  24264366.305   127510113.332    24264372.828    99358557.2094   24264373.004  
                
  20288896.922   106618890.784    20288902.504    83079685.9604   20288902.430  
                
  19696840.516   105253973.689                    81864181.484    19696844.070  
  19696840.684  
  19540858.102   104310438.640                    81130339.536    19540860.965  
  19540856.566  
  21584866.344   113429255.398    21584875.207    88386461.5894   21584875.129  
                
  19732478.422   105592487.356                    82127491.831    19732480.855  
  19732476.664  
  23335425.938   122628493.176    23335430.387    95554708.3374                 
                
  24401338.406   128229896.226    24401346.988    99919421.4904   24401347.012  
                
  21358754.477   112241026.439    21358758.207    87460561.6454                 
                
  21793607.836   114526208.362    21793616.590    89241232.0854   21793616.988  
                
 21  8 16  1 56 20.0000000  0 14G 6R14R16R19G29G12R15R18G24R17G19G32
                                G 2G25
  21588141.867   113446463.900    21588150.395    88399883.6694   21588150.684  
                
  23522585.555   125388634.551                    97524485.309    23522589.910  
  23522585.129  
  20117012.000   107461482.280                    83581141.488    20117013.266  
  20117011.648  
  22891448.406   122453849.613                    95241868.660    22891451.512  
  22891446.238  
  24258246.109   127477950.980    24258252.547    99333495.6344   24258252.715  
                
  20287289.703   106610444.776    20287295.262    83073104.6604   20287295.203  
                
  19699927.422   105270469.176                    81877011.299    19699930.980  
  19699927.594  
  19537382.828   104291887.401                    81115910.794    19537385.703  
  19537381.285  
  21589921.930   113455822.597    21589930.805    88407163.2984   21589930.711  
                
  19736500.125   105614008.246                    82144230.306    19736502.574  
  19736498.375  
  23341735.484   122661650.008    23341739.953    95580544.8004                 
                
  24402594.055   128236494.646    24402602.602    99924563.1184   24402602.633  
                
  21357074.805   112232199.655    21357078.562    87453683.6284                 
                
  21788740.289   114500629.187    21788749.023    89221300.2634   21788749.438  
                
 21  8 16  1 56 30.0000000  0 14G 6R14R16R19G29G12R15R18G24R17G19G32
                                G 2G25
  21590054.906   113456517.012    21590063.430    88407717.2584   21590063.715  
                
  23529823.094   125427214.780                    97554492.131    23529827.473  
  23529822.629  
  20112450.734   107437116.811                    83562190.570    20112451.992  
  20112450.375  
  22883609.109   122411916.022                    95209253.650    22883612.465  
  22883606.781  
  24252129.125   127445805.920    24252135.555    99308447.5414   24252135.699  
                
  20285689.875   106602037.642    20285695.402    83066553.6424   20285695.363  
                
  19703026.312   105287028.644                    81889890.894    19703029.875  
  19703026.484  
  19533921.773   104273412.123                    81101541.147    19533924.660  
  19533920.215  
  21594985.711   113482432.945    21594994.617    88427898.6354   21594994.508  
                
  19740533.938   105635593.997                    82161019.216    19740536.395  
  19740532.191  
  23348047.281   122694818.632    23348051.738    95606390.4754                 
                
  24403860.258   128243148.497    24403868.812    99929747.9454   24403868.836  
                
  21355406.312   112223431.650    21355410.098    87446851.4184                 
                
  21783877.047   114475072.669    21783885.773    89201386.0964   21783886.184  
                
 21  8 16  1 56 40.0000000  0 14G 6R14R16R19G29G12R15R18G24R17G19G32
                                G 2G25
  21591980.469   113466635.891    21591988.969    88415602.0894   21591989.258  
                
  23537064.727   125465816.929                    97584515.989    23537069.156  
  23537064.242  
  20107898.383   107412798.980                    83543276.709    20107899.609  
  20107898.012  
  22875775.195   122370010.015                    95176660.087    22875778.594  
  22875772.766  
  24246015.383   127413678.184    24246021.871    99283412.9614   24246022.004  
                
  20284097.469   106593669.507    20284102.973    83060033.0234   20284102.949  
                
  19706137.180   105303652.183                    81902820.300    19706140.746  
  19706137.344  
  19530474.969   104255012.893                    81087230.625    19530477.859  
  19530473.410  
  21600057.703   113509086.411    21600066.633    88448667.5654   21600066.512  
                
  19744579.844   105657244.450                    82177858.459    19744582.309  
  19744578.109  
  23354361.305   122727999.079    23354365.762    95632245.3654                 
                
  24405137.008   128249857.814    24405145.582    99934975.9674   24405145.590  
                
  21353749.023   112214722.522    21353752.840    87440065.0854                 
                
  21779018.133   114449538.935    21779026.852    89181489.6904   21779027.262  
                
 21  8 16  1 56 50.0000000  0 14G 6R14R16R19G29G12R15R18G24R17G19G32
                                G 2G25
  21593918.570   113476820.674    21593927.035    88423538.2974   21593927.336  
                
  23544310.578   125504441.091                    97614556.989    23544315.016  
  23544310.090  
  20103355.016   107388529.079                    83524400.117    20103356.227  
  20103354.652  
  22867946.453   122328131.598                    95144087.987    22867949.863  
  22867944.070  
  24239904.914   127381568.051    24239911.508    99258392.0934   24239911.645  
                
  20282512.531   106585340.563    20282518.012    83053542.9364   20282518.004  
                
  19709260.078   105320339.980                    81915799.701    19709263.648  
  19709260.254  
  19527042.469   104236689.986                    81072979.483    19527045.383  
  19527040.898  
  21605137.914   113535783.084    21605146.828    88469470.1684   21605146.707  
                
  19748637.898   105678959.829                    82194748.188    19748640.355  
  19748636.160  
  23360677.617   122761191.452    23360682.070    95658109.5204                 
                
  24406424.320   128256622.714    24406432.926    99940247.2924   24406432.918  
                
  21352102.961   112206072.370    21352106.820    87433324.7154                 
                
  21774163.594   114424028.175    21774172.285    89161611.1964   21774172.711  
                
 21  8 16  1 57  0.0000000  0 14G 6R14R16R19G29G12R15R18G24R17G19G32
                                G 2G25
  21595868.805   113487069.222    21595877.230    88431524.1694   21595877.547  
                
  23551560.031   125543084.904                    97644613.269    23551564.539  
  23551559.641  
  20098820.195   107364304.910                    83505559.105    20098821.414  
  20098819.832  
  22860122.289   122286278.712                    95111535.732    22860125.895  
  22860120.211  
  24233797.398   127349473.433    24233804.078    99233383.3174   24233804.215  
                
  20280934.641   106577048.684    20280940.105    83047081.7344   20280940.098  
                
  19712394.586   105337089.787                    81928827.327    19712398.160  
  19712394.770  
  19523623.859   104218441.272                    81058786.047    19523626.781  
  19523622.277  
  21610225.930   113562520.756    21610234.824    88490304.7074   21610234.723  
                
  19752707.617   105700737.688                    82211686.534    19752710.074  
  19752705.879  
  23366995.789   122794393.536    23367000.207    95683981.2494                 
                
  24407721.797   128263441.015    24407730.418    99945560.2464   24407730.410  
                
  21350467.719   112197479.128    21350471.598    87426628.6854                 
                
  21769313.047   114398538.371    21769321.703    89141749.0034   21769322.156  
                
 21  8 16  1 57 10.0000000  0 14G 6R14R16R19G29G12R15R18G24R17G19G32
                                G 2G25
  21597831.391   113497382.672    21597839.781    88439560.6214   21597840.125  
                
  23558813.531   125581749.593                    97674685.778    23558817.949  
  23558813.047  
  20094294.195   107340127.891                    83486754.734    20094295.395  
  20094293.859  
  22852303.297   122244452.685                    95079004.382    22852306.941  
  22852301.270  
  24227693.180   127317395.592    24227699.844    99208387.6024   24227699.992  
                
  20279364.055   106568795.235    20279369.512    83040650.4734   20279369.512  
                
  19715540.930   105353902.888                    81941904.170    19715544.508  
  19715541.105  
  19520219.391   104200268.048                    81044651.324    19520222.328  
  19520217.820  
  21615321.961   113589300.565    21615330.859    88511172.0814   21615330.746  
                
  19756789.234   105722579.237                    82228674.392    19756791.684  
  19756787.480  
  23373316.023   122827606.518    23373320.387    95709861.4964                 
                
  24409029.664   128270313.874    24409038.262    99950915.7094   24409038.273  
                
  21348843.547   112188944.045    21348847.434    87419977.9704                 
                
  21764466.727   114373070.765    21764475.336    89121904.1254   21764475.828  
                
 21  8 16  1 57 20.0000000  0 14G 6R14R16R19G29G12R15R18G24R17G19G32
                                G 2G25
  21599806.750   113507763.306    21599815.102    88447649.4304   21599815.477  
                
  23566071.273   125620437.512                    97704776.374    23566075.676  
  23566070.820  
  20089777.500   107316000.494                    83467988.992    20089778.707  
  20089777.168  
  22844489.984   122202656.075                    95046495.927    22844493.484  
  22844487.820  
  24221592.680   127285336.898    24221599.281    99183406.7934   24221599.438  
                
  20277801.227   106560582.493    20277806.668    83034250.9444   20277806.680  
                
  19718699.578   105370781.746                    81955032.177    19718703.168  
  19718699.754  
  19516829.523   104182172.703                    81030577.175    19516832.469  
  19516827.965  
  21620426.438   113616124.716    21620435.309    88532074.0204   21620435.207  
                
  19760883.164   105744486.764                    82245713.580    19760885.625  
  19760881.395  
  23379638.742   122860832.578    23379643.070    95735751.9224                 
                
  24410348.359   128277243.525    24410356.914    99956315.4584   24410356.945  
                
  21347230.875   112180469.404    21347234.770    87413374.3564                 
                
  21759625.078   114347627.721    21759633.660    89102078.3864   21759634.168  
                
 21  8 16  1 57 30.0000000  0 14G 6R14R16R19G29G12R15R18G24R17G19G32
                                G 2G25
  21601794.703   113518210.039    21601803.027    88455789.7384   21601803.414  
                
  23573333.242   125659147.408                    97734884.065    23573337.539  
  23573332.715  
  20085269.953   107291921.931                    83449261.219    20085271.156  
  20085269.605  
  22836681.938   122160887.950                    95014009.612    22836685.348  
  22836679.707  
  24215495.680   127253296.326    24215502.203    99158440.1114   24215502.348  
                
  20276245.938   106552409.425    20276251.352    83027882.3184   20276251.375  
                
  19721870.320   105387725.180                    81968210.397    19721873.914  
  19721870.492  
  19513454.039   104164154.160                    81016562.749    19513456.992  
  19513452.500  
  21625539.141   113642992.116    21625547.938    88553009.6574   21625547.887  
                
  19764989.188   105766458.957                    82262803.065    19764991.656  
  19764987.379  
  23385963.742   122894070.635    23385968.059    95761651.6884                 
                
  24411677.641   128284228.927    24411686.152    99961758.6294   24411686.227  
                
  21345629.531   112172054.273    21345633.430    87406817.1134                 
                
  21754787.914   114322208.287    21754796.480    89082271.0364   21754796.992  
                
 21  8 16  1 57 40.0000000  0 14G 6R14R16R19G29G12R15R18G24R17G19G32
                                G 2G25
  21603795.195   113528722.730    21603803.512    88463981.4394   21603803.922  
                
  23580599.203   125697879.309                    97765008.880    23580603.555  
  23580598.711  
  20080771.508   107267892.110                    83430571.344    20080772.707  
  20080771.160  
  22828879.062   122119148.245                    94981545.408    22828882.508  
  22828876.863  
  24209402.039   127221273.820    24209408.547    99133487.5004   24209408.668  
                
  20274698.188   106544275.953    20274703.562    83021544.5484   20274703.609  
                
  19725053.094   105404732.988                    81981438.688    19725056.684  
  19725053.270  
  19510092.961   104146212.495                    81002608.121    19510095.902  
  19510091.430  
  21630660.023   113669902.552    21630668.785    88573978.8314   21630668.738  
                
  19769107.234   105788495.578                    82279942.646    19769109.703  
  19769105.391  
  23392291.000   122927320.552    23392295.270    95787560.7024                 
                
  24413017.500   128291269.909    24413025.953    99967245.1114   24413026.051  
                
  21344039.484   112163698.572    21344043.383    87400306.1834                 
                
  21749955.227   114296812.371    21749963.781    89062482.0174   21749964.297  
                
 21  8 16  1 57 50.0000000  0 13G 6R16R19G29G12R15R18G24R17G19G32G 2
                                G25
  21605808.188   113539301.136    21605816.520    88472224.3534   21605816.922  
                
  20076282.211   107243911.109                    83411919.463    20076283.398  
  20076281.859  
  22821081.891   122077436.897                    94949103.249    22821085.027  
  22821079.348  
  24203311.688   127189269.178    24203318.262    99108548.8364   24203318.395  
                
  20273157.945   106536181.940    20273163.277    83015237.5234   20273163.352  
                
  19728247.906   105421805.086                    81994716.965    19728251.516  
  19728248.078  
  19506746.219   104128347.388                    80988713.051    19506749.156  
  19506744.715  
  21635789.055   113696855.790    21635797.824    88594981.3514   21635797.754  
                
  19773237.289   105810596.393                    82297132.167    19773239.746  
  19773235.434  
  23398620.469   122960582.044    23398624.707    95813478.7334                 
                
  24414367.898   128298366.262    24414376.289    99972774.7574   24414376.391  
                
  21342460.719   112155402.132    21342464.625    87393841.4174                 
                
  21745126.992   114271439.885    21745135.543    89042711.2494   21745136.066  
                
 21  8 16  1 58  0.0000000  0 13G 6R16R19G29G12R15R18G24R17G19G32G 2
                                G25
  21607833.570   113549944.561    21607841.934    88480517.9294   21607842.320  
                
  20071801.906   107219978.112                    83393304.921    20071803.086  
  20071801.555  
  22813289.609   122035753.395                    94916682.743    22813292.703  
  22813287.078  
  24197224.570   127157281.768    24197231.262    99083623.5894   24197231.402  
                
  20271625.102   106528126.795    20271630.395    83008960.7844   20271630.488  
                
  19731454.602   105438940.624                    82008044.618    19731458.223  
  19731454.773  
  19503413.727   104110558.287                    80974877.081    19503416.656  
  19503412.254  
  21640926.102   113723851.083    21640934.836    88616016.6384   21640934.770  
                
  19777379.195   105832760.588                    82314370.983    19777381.641  
  19777377.340  
  23404952.000   122993854.383    23404956.301    95839405.2114                 
                
  24415728.711   128305517.275    24415737.039    99978346.9734   24415737.160  
                
  21340893.125   112147164.343    21340897.066    87387422.3674                 
                
  21740303.109   114246090.191    21740311.656    89022958.2594   21740312.180  
                
 21  8 16  1 58 10.0000000  0 13G 6R16R19G29G12R15R18G24R17G19G32G 2
                                G25
  21609871.375   113560653.298    21609879.773    88488862.4074   21609880.145  
                
  20067330.664   107196093.614                    83374728.087    20067331.844  
  20067330.328  
  22805502.633   121994098.138                    94884284.198    22805505.645  
  22805500.141  
  24191140.844   127125311.979    24191147.613    99058712.0734   24191147.750  
                
  20270099.719   106520110.855    20270104.980    83002714.6004   20270105.098  
                
  19734673.273   105456140.232                    82021422.088    19734676.918  
  19734673.434  
  19500095.555   104092845.683                    80961100.627    19500098.477  
  19500094.098  
  21646071.188   113750888.676    21646079.852    88637084.9004   21646079.828  
                
  19781533.000   105854988.423                    82331659.287    19781535.418  
  19781531.148  
  23411285.656   123027137.906    23411290.027    95865340.4014                 
                
  24417099.961   128312723.251    24417108.258    99983962.0134   24417108.387  
                
  21339336.758   112138985.594    21339340.730    87381049.3244                 
                
  21735483.633   114220763.724    21735492.180    89003223.3534   21735492.695  
                
 21  8 16  1 58 20.0000000  0 13G 6R16R19G29G12R15R18G24R17G19G32G 2
                                G25
  21611921.562   113571427.141    21611929.992    88497257.5984   21611930.363  
                
  20062868.500   107172257.531                    83356188.920    20062869.680  
  20062868.172  
  22797720.570   121952470.926                    94851907.500    22797723.863  
  22797718.340  
  24185060.516   127093359.783    24185067.289    99033814.2594   24185067.430  
                
  20268581.773   106512133.984    20268587.012    82996498.8604   20268587.148  
                
  19737903.836   105473403.435                    82034849.014    19737907.488  
  19737903.969  
  19496791.664   104075209.326                    80947383.458    19496794.586  
  19496790.207  
  21651224.273   113777968.310    21651232.902    88658185.9154   21651232.898  
                
  19785698.617   105877279.514                    82348996.814    19785701.016  
  19785696.785  
  23417621.398   123060432.314    23417625.777    95891284.0654                 
                
  24418481.625   128319983.908    24418489.941    99989619.6604   24418490.082  
                
  21337791.586   112130865.704    21337795.555    87374722.1344                 
                
  21730668.562   114195460.339    21730677.098    88983506.4404   21730677.609  
                
 21  8 16  1 58 30.0000000  0 13G 6R16R19G29G12R15R18G24R17G19G32G 2
                                G25
  21613984.156   113582266.151    21613992.602    88505703.5724   21613992.973  
                
  20058415.492   107148470.379                    83337687.800    20058416.660  
  20058415.156  
  22789943.953   121910872.152                    94819552.937    22789947.387  
  22789941.805  
  24178983.508   127061425.325    24178990.352    99008930.2764   24178990.504  
                
  20267071.289   106504196.359    20267076.512    82990313.6964   20267076.648  
                
  19741146.352   105490730.448                    82048325.572    19741150.023  
  19741146.461  
  19493502.094   104057649.443                    80933725.785    19493505.004  
  19493500.633  
  21656385.367   113805090.041    21656394.000    88679319.7204   21656393.992  
                
  19789876.062   105899633.862                    82366383.529    19789878.422  
  19789874.254  
  23423959.234   123093737.611    23423963.582    95917236.2384                 
                
  24419873.727   128327299.352    24419882.039    99995320.0054   24419882.191  
                
  21336257.641   112122804.806    21336261.605    87368440.9174                 
                
  21725857.914   114170180.225    21725866.438    88963807.6404   21725866.941  
                
 21  8 16  1 58 40.0000000  0 13G 6R16R19G29G12R15R18G24R17G19G32G 2
                                G25
  21616059.148   113593170.330    21616067.598    88514200.3334   21616067.969  
                
  20053971.609   107124731.982                    83319224.596    20053972.781  
  20053971.277  
  22782172.828   121869302.108                    94787220.669    22782176.258  
  22782170.676  
  24172909.992   127029508.678    24172916.789    98984060.1644   24172916.934  
                
  20265568.289   106496298.042    20265573.508    82984159.1674   20265573.652  
                
  19744400.836   105508121.421                    82061851.875    19744404.500  
  19744400.945  
  19490226.852   104040166.000                    80920127.560    19490229.742  
  19490225.398  
  21661554.469   113832253.810    21661563.094    88700486.2924   21661563.082  
                
  19794065.336   105922051.487                    82383819.459    19794067.660  
  19794063.527  
  23430299.148   123127053.802    23430303.480    95943196.8944                 
                
  24421276.234   128334669.583    24421284.574   100001063.0444   24421284.723  
                
  21334734.930   112114802.918    21334738.910    87362205.6764                 
                
  21721051.727   114144923.494    21721060.227    88944127.0724   21721060.719  
                
 21  8 16  1 58 50.0000000  0 13G 6R16R19G29G12R15R18G24R17G19G32G 2
                                G25
  21618146.500   113604139.451    21618154.949    88522747.6994   21618155.320  
                
  20049536.883   107101042.469                    83300799.419    20049538.059  
  20049536.562  
  22774407.156   121827760.437                    94754910.468    22774410.441  
  22774404.953  
  24166839.875   126997609.527    24166846.551    98959203.6794   24166846.699  
                
  20264072.766   106488439.011    20264077.984    82978035.2464   20264078.129  
                
  19747667.219   105525575.968                    82075427.637    19747670.887  
  19747667.320  
  19486965.922   104022758.970                    80906588.763    19486968.789  
  19486964.465  
  21666731.523   113859459.386    21666740.133    88721685.4484   21666740.117  
                
  19798266.367   105944532.078                    82401304.354    19798268.660  
  19798264.539  
  23436641.086   123160380.748    23436645.391    95969165.9194                 
                
  24422689.133   128342094.397    24422697.492   100006848.6394   24422697.629  
                
  21333223.391   112106859.818    21333227.398    87356016.2544                 
                
  21716249.953   114119690.039    21716258.430    88924464.6404   21716258.934  
                
 21  8 16  1 59  0.0000000  0 13G 6R16R19G29G12R15R18G24R17G19G32G 2
                                G25
  21620246.258   113615173.743    21620254.723    88531345.8524   21620255.094  
                
  20045111.406   107077402.346                    83282412.661    20045112.586  
  20045111.074  
  22766646.727   121786247.478                    94722622.621    22766650.027  
  22766644.625  
  24160773.133   126965728.411    24160779.750    98934361.2524   24160779.895  
                
  20262584.766   106480619.492    20262589.992    82971942.1184   20262590.133  
                
  19750945.570   105543094.501                    82089053.158    19750949.242  
  19750945.684  
  19483719.359   104005428.602                    80893109.591    19483722.215  
  19483717.895  
  21671916.570   113886706.941    21671925.184    88742917.3014   21671925.176  
                
  19802479.188   105967075.725                    82418838.308    19802481.461  
  19802477.344  
  23442985.109   123193718.671    23442989.391    95995143.5054                 
                
  24424112.461   128349573.982    24424120.770   100012676.8574   24424120.934  
                
  21331723.117   112098975.859    21331727.133    87349872.9154                 
                
  21711452.672   114094480.142    21711461.121    88904820.5704   21711461.641  
                
 21  8 16  1 59 10.0000000  0 13G 6R16R19G29G12R15R18G24R17G19G32G 2
                                G25
  21622358.383   113626273.008    21622366.867    88539994.6264   21622367.230  
                
  20040695.141   107053811.444                    83264064.178    20040696.336  
  20040694.789  
  22758891.789   121744763.412                    94690357.243    22758895.031  
  22758889.598  
  24154709.688   126933865.129    24154716.363    98909532.7084   24154716.496  
                
  20261104.242   106472839.265    20261109.477    82965879.6114   20261109.625  
                
  19754235.844   105560676.723                    82102728.211    19754239.523  
  19754235.949  
  19480487.133   103988174.764                    80879689.945    19480489.977  
  19480485.645  
  21677109.562   113913996.223    21677118.184    88764181.6714   21677118.191  
                
  19806703.742   105989682.196                    82436421.119    19806706.008  
  19806701.875  
  23449331.156   123227067.266    23449335.438    96021129.4124                 
                
  24425546.164   128357108.153    24425554.469   100018547.6294   24425554.664  
                
  21330234.094   112091150.984    21330238.121    87343775.6154                 
                
  21706659.867   114069293.746    21706668.285    88885194.8064   21706668.828  
                
 21  8 16  1 59 20.0000000  0 13G 6R16R19G29G12R15R18G24R17G19G32G 2
                                G25
  21624482.898   113637437.467    21624491.383    88548694.1954   21624491.754  
                
  20036288.172   107030270.232                    83245754.352    20036289.367  
  20036287.828  
  22751142.578   121703308.595                    94658114.613    22751145.480  
  22751140.062  
  24148649.602   126902019.974    24148656.438    98884718.3164   24148656.559  
                
  20259631.250   106465098.672    20259636.488    82959847.9794   20259636.621  
                
  19757538.086   105578322.941                    82116453.050    19757541.766  
  19757538.199  
  19477269.328   103970997.992                    80866330.232    19477272.164  
  19477267.844  
  21682310.516   113941327.433    21682319.137    88785478.7194   21682319.148  
                
  19810940.055   106012351.630                    82454052.897    19810942.309  
  19810938.195  
  23455679.250   123260426.732    23455683.547    96047123.7704                 
                
  24426990.281   128364697.087    24426998.594   100024461.0754   24426998.832  
                
  21328756.359   112083385.525    21328760.406    87337724.6034                 
                
  21701871.578   114044131.169    21701879.961    88865587.6034   21701880.523  
                
 21  8 16  1 59 30.0000000  0 13G 6R16R19G29G12R15R18G24R17G19G32G 2
                                G25
  21626619.789   113648666.861    21626628.266    88557444.3804   21626628.648  
                
  20031890.461   107006778.423                    83227482.945    20031891.652  
  20031890.117  
  22743398.609   121661882.911                    94625894.646    22743401.402  
  22743395.996  
  24142593.039   126870192.807    24142599.953    98859917.9404   24142600.055  
                
  20258165.805   106457397.708    20258171.055    82953847.2314   20258171.172  
                
  19760852.289   105596033.036                    82130227.568    19760855.980  
  19760852.422  
  19474065.898   103953897.860                    80853030.146    19474068.715  
  19474064.410  
  21687519.406   113968700.272    21687528.027    88806808.2034   21687528.043  
                
  19815188.070   106035083.626                    82471733.342    19815190.305  
  19815186.219  
  23462029.383   123293796.858    23462033.641    96073126.4524                 
                
  24428444.805   128372340.568    24428453.129   100030417.0224   24428453.363  
                
  21327289.898   112075679.224    21327293.957    87331719.6984                 
                
  21697087.805   114018992.228    21697096.160    88845998.8254   21697096.719  
                
 21  8 16  1 59 40.0000000  0 13G 6R16R19G29G12R15R18G24R17G19G32G 2
                                G25
  21628768.992   113659961.008    21628777.445    88566245.0054   21628777.848  
                
  20027501.992   106983336.019                    83209249.959    20027503.176  
  20027501.645  
  22735660.164   121620486.464                    94593697.397    22735662.746  
  22735657.449  
  24136539.906   126838383.506    24136546.852    98835131.4804   24136546.941  
                
  20256707.867   106449736.188    20256713.113    82947877.2084   20256713.234  
                
  19764178.391   105613806.712                    82144051.521    19764182.086  
  19764178.535  
  19470876.820   103936874.374                    80839789.653    19470879.609  
  19470875.332  
  21692736.164   113996114.511    21692744.766    88828169.9484   21692744.805  
                
  19819447.734   106057877.963                    82489462.270    19819449.953  
  19819445.875  
  23468381.492   123327177.340    23468385.629    96099137.2094                 
                
  24429909.656   128380038.360    24429918.031   100036415.2824   24429918.254  
                
  21325834.672   112068031.999    21325838.766    87325760.8114                 
                
  21692308.516   113993876.900    21692316.855    88826428.4394   21692317.414  
                
 21  8 16  1 59 50.0000000  0 13G 6R16R19G29G12R15R18G24R17G19G32G 2
                                G25
  21630930.555   113671320.054    21630938.996    88575096.2034   21630939.418  
                
  20023122.883   106959943.570                    83191055.832    20023124.070  
  20023122.523  
  22727926.812   121579119.132                    94561522.785    22727929.574  
  22727924.312  
  24130490.367   126806592.352    24130497.180    98810359.1604   24130497.281  
                
  20255257.469   106442114.233    20255262.707    82941938.0214   20255262.836  
                
  19767516.461   105631644.263                    82157925.172    19767520.156  
  19767516.625  
  19467702.133   103919927.663                    80826608.892    19467704.934  
  19467700.641  
  21697960.844   114023570.290    21697969.410    88849564.0554   21697969.461  
                
  19823719.086   106080734.755                    82507239.778    19823721.305  
  19823717.219  
  23474735.641   123360568.418    23474739.707    96125156.2414                 
                
  24431384.883   128387790.638    24431393.273   100042456.0194   24431393.488  
                
  21324390.719   112060443.992    21324394.840    87319848.0934                 
                
  21687533.766   113968785.367    21687542.098    88806876.6024   21687542.645  
                
 21  8 16  2  0  0.0000000  0 13G 6R16R19G29G12R15R18G24R17G19G32G 2
                                G25
  21633104.383   113682743.636    21633112.820    88583997.7044   21633113.258  
                
  20018753.086   106936600.886                    83172900.408    20018754.270  
  20018752.738  
  22720199.164   121537781.246                    94529371.113    22720201.879  
  22720196.617  
  24124444.211   126774819.039    24124450.914    98785600.7294   24124451.027  
                
  20253814.562   106434531.772    20253819.781    82936029.6124   20253819.918  
                
  19770866.414   105649545.363                    82171848.246    19770870.098  
  19770866.562  
  19464541.805   103903057.678                    80813487.798    19464544.594  
  19464540.324  
  21703193.328   114051067.203    21703201.863    88870990.2184   21703201.918  
                
  19828002.000   106103653.524                    82525065.481    19828004.203  
  19828000.117  
  23481091.727   123393969.742    23481095.809    96151183.2324                 
                
  24432870.391   128395597.044    24432878.777   100048538.9484   24432878.961  
                
  21322957.984   112052914.974    21322962.129    87313981.3244                 
                
  21682763.492   113943717.448    21682771.812    88787343.1624   21682772.367  
                
 21  8 16  2  0 10.0000000  0 13G 6R16R19G29G12R15R18G24R17G19G32G 2
                                G25
  21635290.516   113694231.842    21635298.941    88592949.5524   21635299.391  
                
  20014392.617   106913308.054                    83154783.761    20014393.824  
  20014392.293  
  22712476.898   121496472.529                    94497242.109    22712479.637  
  22712474.328  
  24118401.430   126743063.778    24118408.102    98760856.3694   24118408.199  
                
  20252379.211   106426988.898    20252384.418    82930152.0504   20252384.559  
                
  19774228.266   105667510.037                    82185820.772    19774231.949  
  19774228.406  
  19461395.828   103886264.311                    80800426.294    19461398.605  
  19461394.340  
  21708433.648   114078605.285    21708442.172    88892448.4654   21708442.227  
                
  19832296.500   106126634.265                    82542939.392    19832298.719  
  19832294.594  
  23487449.766   123427381.409    23487453.914    96177218.2634                 
                
  24434366.203   128403457.679    24434374.574   100054664.1014   24434374.770  
                
  21321536.492   112045444.982    21321540.656    87308160.5514                 
                
  21677997.742   113918673.277    21678006.055    88767828.2334   21678006.598  
                
 21  8 16  2  0 20.0000000  0 13G 6R16R19G29G12R15R18G24R17G19G32G 2
                                G25
  21637489.016   113705785.022    21637497.434    88601952.0274   21637497.898  
                
  20010041.555   106890065.387                    83136706.126    20010042.762  
  20010041.242  
  22704760.359   121455193.829                    94465136.478    22704763.012  
  22704757.703  
  24112362.141   126711326.999    24112368.750    98736126.4194   24112368.867  
                
  20250951.461   106419486.049    20250956.668    82924305.6774   20250956.828  
                
  19777602.078   105685538.675                    82199843.047    19777605.762  
  19777602.215  
  19458264.344   103869548.239                    80787424.907    19458267.133  
  19458262.848  
  21713681.867   114106184.863    21713690.359    88913939.0424   21713690.434  
                
  19836602.641   106149677.311                    82560861.764    19836604.887  
  19836600.750  
  23493809.820   123460803.678    23493814.051    96203261.5594                 
                
  24435872.406   128411372.855    24435880.785   100060831.7664   24435880.969  
                
  21320126.328   112038034.546    21320130.516    87302386.1834                 
                
  21673236.602   113893653.343    21673244.922    88748332.1854   21673245.453  
                
 21  8 16  2  0 30.0000000  0 13G 6R16R19G29G12R15R18G24R17G19G32G 2
                                G25
  21639699.867   113717403.147    21639708.273    88611005.1074   21639708.742  
                
  20005699.969   106866873.432                    83118667.949    20005701.176  
  20005699.656  
  22697049.352   121413945.294                    94433054.293    22697052.035  
  22697046.707  
  24106326.383   126679608.776    24106332.934    98711410.9284   24106333.090  
                
  20249531.359   106412023.357    20249536.574    82918490.5884   20249536.730  
                
  19780987.867   105703631.296                    82213915.075    19780991.551  
  19780987.992  
  19455147.320   103852909.384                    80774483.579    19455150.117  
  19455145.836  
  21718937.969   114133805.854    21718946.410    88935461.8914   21718946.512  
                
  19840920.406   106172782.555                    82578832.490    19840922.648  
  19840918.516  
  23500171.922   123494236.603    23500176.176    96229313.1754                 
                
  24437388.992   128419342.546    24437397.352   100067041.9134   24437397.551  
                
  21318727.500   112030683.680    21318731.707    87296658.2394                 
                
  21668480.086   113868657.713    21668488.406    88728855.0704   21668488.926  
                
 21  8 16  2  0 40.0000000  0 13G 6R16R19G29G12R15R18G24R17G19G32G 2
                                G25
  21641922.859   113729085.049    21641931.262    88620107.8904   21641931.738  
                
  20001367.648   106843730.956                    83100668.234    20001368.855  
  20001367.340  
  22689344.086   121372725.764                    94400994.632    22689346.441  
  22689341.211  
  24100293.922   126647907.954    24100300.449    98686708.9944   24100300.652  
                
  20248118.672   106404599.673    20248123.898    82912705.9004   20248124.055  
                
  19784385.430   105721786.824                    82228036.040    19784389.102  
  19784385.543  
  19452044.570   103836346.780                    80761601.553    19452047.363  
  19452043.098  
  21724201.727   114161467.085    21724210.137    88957016.1004   21724210.266  
                
  19845249.547   106195948.651                    82596850.571    19845251.812  
  19845247.664  
  23506535.805   123527678.911    23506540.066    96255372.1104                 
                
  24438915.727   128427365.590    24438924.121   100073293.6374   24438924.344  
                
  21317339.805   112023391.321    21317344.008    87290975.8814                 
                
  21663728.000   113843685.314    21663736.293    88709396.0634   21663736.820  
                
 21  8 16  2  0 50.0000000  0 13G 6R16R19G29G12R15R18G24R17G19G32G 2
                                G25
  21644158.164   113740831.685    21644166.566    88629261.1144   21644167.055  
                
  19997044.805   106820639.106                    83082707.905    19997046.027  
  19997044.504  
  22681644.391   121331536.399                    94368958.477    22681646.500  
  22681641.328  
  24094264.984   126616225.606    24094271.492    98662021.4544   24094271.707  
                
  20246713.609   106397215.994    20246718.855    82906952.3854   20246718.996  
                
  19787794.945   105740006.221                    82242206.668    19787798.621  
  19787795.047  
  19448956.289   103819861.298                    80748779.527    19448959.078  
  19448954.809  
  21729473.312   114189169.465    21729481.738    88978602.3634   21729481.840  
                
  19849590.258   106219176.615                    82614916.764    19849592.555  
  19849588.371  
  23512901.625   123561131.534    23512905.957    96281439.0454                 
                
  24440452.781   128435442.942    24440461.219   100079587.6894   24440461.441  
                
  21315963.445   112016158.505    21315967.645    87285339.9244                 
                
  21658980.539   113818737.251    21658988.812    88689956.0134   21658989.363  
                
 21  8 16  2  1  0.0000000  0 13G 6R16R19G29G12R15R18G24R17G19G32G 2
                                G25
  21646405.742   113752642.749    21646414.141    88638464.5404   21646414.629  
                
  19992731.445   106797597.940                    83064787.002    19992732.668  
  19992731.137  
  22673949.969   121290376.877                    94336945.529    22673952.148  
  22673946.996  
  24088239.570   126584561.556    24088246.039    98637348.1664   24088246.234  
                
  20245316.117   106389872.136    20245321.383    82901229.8984   20245321.500  
                
  19791216.352   105758289.155                    82256426.721    19791220.023  
  19791216.465  
  19445882.414   103803452.749                    80736017.319    19445885.199  
  19445880.957  
  21734752.672   114216912.642    21734761.121    89000220.4204   21734761.188  
                
  19853942.414   106242465.903                    82633030.656    19853944.746  
  19853940.543  
  23519269.352   123594594.155    23519273.750    96307513.7764                 
                
  24442000.109   128443574.298    24442008.594   100085923.7754   24442008.824  
                
  21314598.367   112008984.976    21314602.555    87279750.1634                 
                
  21654237.656   113793813.267    21654245.922    88670534.7274   21654246.465  
                
 21  8 16  2  1 10.0000000  0 13G 6R16R19G29G12R15R18G24R17G19G32G 2
                                G25
  21648665.586   113764518.326    21648673.980    88647718.2244   21648674.469  
                
  19988427.562   106774607.346                    83046905.427    19988428.820  
  19988427.266  
  22666261.273   121249247.636                    94304956.117    22666263.441  
  22666258.312  
  24082217.617   126552915.909    24082224.078    98612689.2164   24082224.273  
                
  20243926.219   106382568.212    20243931.516    82895538.5354   20243931.621  
                
  19794649.680   105776635.837                    82270696.366    19794653.352  
  19794649.793  
  19442823.031   103787121.536                    80723315.266    19442825.820  
  19442821.566  
  21740039.789   114244696.666    21740048.203    89021870.3074   21740048.289  
                
  19858306.062   106265816.673                    82651192.348    19858308.410  
  19858304.188  
  23525639.016   123628066.846    23525643.406    96333596.3894                 
                
  24443557.703   128451759.713    24443566.262   100092302.0054   24443566.484  
                
  21313244.586   112001870.841    21313248.766    87274206.6814                 
                
  21649499.406   113768913.582    21649507.676    88651132.3774   21649508.215  
                
 21  8 16  2  1 20.0000000  0 13G 6R16R19G29G12R15R18G24R17G19G32G 2
                                G25
  21650937.680   113776458.262    21650946.055    88657022.0784   21650946.559  
                
  19984133.219   106751667.792                    83029063.553    19984134.504  
  19984132.930  
  22658578.453   121208148.619                    94272990.221    22658580.398  
  22658575.355  
  24076199.062   126521288.627    24076205.609    98588044.5934   24076205.805  
                
  20242543.930   106375304.230    20242549.250    82889878.2894   20242549.332  
                
  19798094.914   105795046.090                    82285015.444    19798098.598  
  19798095.031  
  19439778.055   103770867.265                    80710673.061    19439780.855  
  19439776.598  
  21745334.664   114272521.401    21745343.031    89043551.9214   21745343.156  
                
  19862681.164   106289228.687                    82669401.696    19862683.539  
  19862679.305  
  23532010.570   123661549.541    23532014.930    96359686.7844                 
                
  24445125.594   128459999.077    24445134.211   100098722.2654   24445134.398  
                
  21311902.102   111994816.035    21311906.277    87268709.4314                 
                
  21644765.781   113744038.203    21644774.039    88631748.9654   21644774.582  
                
 21  8 16  2  1 30.0000000  0 13G 6R16R19G29G12R15R18G24R17G19G32G 2
                                G25
  21653222.008   113788462.470    21653230.344    88666375.9954   21653230.867  
                
  19979848.391   106728779.018                    83011261.180    19979849.688  
  19979848.117  
  22650901.164   121167080.124                    94241048.041    22650903.051  
  22650898.098  
  24070184.109   126489679.663    24070190.641    98563414.2504   24070190.820  
                
  20241169.219   106368080.107    20241174.559    82884249.1024   20241174.633  
                
  19801552.039   105813519.905                    82299383.964    19801555.715  
  19801552.172  
  19436747.547   103754690.242                    80698090.939    19436750.367  
  19436746.086  
  21750637.242   114300386.626    21750645.613    89065265.0844   21750645.727  
                
  19867067.648   106312701.654                    82687658.453    19867070.047  
  19867065.824  
  23538384.000   123695042.030    23538388.312    96385784.8074                 
                
  24446703.703   128468292.203    24446712.348   100105184.4414   24446712.531  
                
  21310570.898   111987820.535    21310575.070    87263258.3914                 
                
  21640036.750   113719187.048    21640044.996    88612384.4374   21640045.559  
                
 21  8 16  2  1 40.0000000  0 13G 6R16R19G29G12R15R18G24R17G19G32G 2
                                G25
  21655518.562   113800530.914    21655526.863    88675779.9794   21655527.414  
                
  19975573.102   106705941.148                    82993498.395    19975574.398  
  19975572.812  
  22643229.383   121126041.872                    94209129.418    22643231.391  
  22643226.426  
  24064172.695   126458089.170    24064179.195    98538798.2844   24064179.348  
                
  20239802.125   106360895.935    20239807.473    82878651.0534   20239807.539  
                
  19805021.039   105832057.168                    82313801.837    19805024.711  
  19805021.191  
  19433731.492   103738590.302                    80685568.775    19433734.328  
  19433730.047  
  21755947.531   114328292.366    21755955.926    89087009.8084   21755956.020  
                
  19871465.531   106336235.535                    82705962.576    19871467.957  
  19871463.703  
  23544759.297   123728544.297    23544763.551    96411890.4734                 
                
  24448292.055   128476639.174    24448300.707   100111688.5504   24448300.891  
                
  21309251.000   111980884.409    21309255.152    87257853.6224                 
                
  21635312.383   113694360.269    21635320.633    88593038.8984   21635321.191  
                
 21  8 16  2  1 50.0000000  0 13G 6R16R19G29G12R15R18G24R17G19G32G 2
                                G25
  21657827.328   113812663.528    21657835.609    88685233.9634   21657836.164  
                
  19971307.422   106683154.664                    82975775.578    19971308.723  
  19971307.109  
  22635563.266   121085034.396                    94177234.722    22635565.484  
  22635560.445  
  24058164.758   126426517.116    24058171.223    98514196.6904   24058171.344  
                
  20238442.633   106353751.766    20238447.980    82873084.1634   20238448.039  
                
  19808501.930   105850657.976                    82328269.127    19808505.598  
  19808502.090  
  19430729.875   103722567.483                    80673106.586    19430732.727  
  19430728.422  
  21761265.500   114356238.496    21761273.879    89108786.0134   21761273.980  
                
  19875874.773   106359830.276                    82724314.036    19875877.230  
  19875872.938  
  23551136.406   123762056.222    23551140.613    96438003.6424                 
                
  24449890.648   128485039.851    24449899.301   100118234.5074   24449899.492  
                
  21307942.398   111974007.668    21307946.520    87252495.1184                 
                
  21630592.641   113669557.903    21630600.902    88573712.3764   21630601.453  
                
 21  8 16  2  2  0.0000000  0 13G 6R16R19G29G12R15R18G24R17G19G32G 2
                                G25
  21660148.281   113824860.237    21660156.555    88694737.8954   21660157.113  
                
  19967051.281   106660419.127                    82958092.387    19967052.570  
  19967050.941  
  22627902.703   121044057.532                    94145363.833    22627905.309  
  22627900.145  
  24052160.406   126394963.479    24052166.746    98489609.4254   24052166.852  
                
  20237090.758   106346647.601    20237096.109    82867548.4564   20237096.180  
                
  19811994.672   105869322.096                    82342785.654    19811998.324  
  19811994.840  
  19427742.742   103706621.938                    80660704.496    19427745.598  
  19427741.312  
  21766591.133   114384224.874    21766599.469    89130593.5834   21766599.602  
                
  19880295.336   106383485.622                    82742712.633    19880297.809  
  19880293.500  
  23557515.359   123795577.716    23557519.531    96464124.2734                 
                
  24451499.438   128493494.135    24451508.109   100124822.2554   24451508.320  
                
  21306645.102   111967190.288    21306649.188    87247182.8764                 
                
  21625877.547   113644779.921    21625885.797    88554404.8624   21625886.348  
                
 21  8 16  2  2 10.0000000  0 13G 6R16R19G29G12R15R18G24R17G19G32G 2
                                G25
  21662481.438   113837120.974    21662489.707    88704291.7124   21662490.246  
                
  19962804.750   106637734.965                    82940449.146    19962806.039  
  19962804.391  
  22620248.148   121003111.398                    94113516.849    22620250.879  
  22620245.805  
  24046159.461   126363428.331    24046165.805    98465036.5824   24046165.875  
                
  20235746.500   106339583.506    20235751.852    82862043.9574   20235751.918  
                
  19815499.305   105888049.740                    82357351.595    19815502.926  
  19815499.488  
  19424770.055   103690753.528                    80648362.406    19424772.914  
  19424768.645  
  21771924.422   114412251.418    21771932.730    89152432.4504   21771932.875  
                
  19884727.211   106407201.462                    82761158.280    19884729.707  
  19884725.395  
  23563896.141   123829108.853    23563900.309    96490252.4094                 
                
  24453118.414   128502002.010    24453127.141   100131451.7454   24453127.355  
                
  21305359.078   111960432.204    21305363.141    87241916.8484                 
                
  21621167.109   113620026.469    21621175.375    88535116.4644   21621175.902  
                
 21  8 16  2  2 20.0000000  0 13G 6R16R19G29G12R15R18G24R17G19G32G 2
                                G25
  21664826.781   113849445.817    21664835.055    88713895.4824   21664835.578  
                
  19958567.906   106615102.517                    82922846.130    19958569.180  
  19958567.547  
  22612599.578   120962196.313                    94081694.003    22612602.270  
  22612597.270  
  24040162.039   126331911.855    24040168.414    98440478.2764   24040168.457  
                
  20234409.891   106332559.580    20234415.250    82856570.7724   20234415.316  
                
  19819015.836   105906840.977                    82371967.005    19819019.453  
  19819016.027  
  19421811.852   103674962.436                    80636080.451    19421814.715  
  19421810.438  
  21777265.352   114440318.181    21777273.652    89174302.6584   21777273.797  
                
  19889170.391   106430977.793                    82779650.981    19889172.898  
  19889168.590  
  23570278.734   123862649.585    23570282.910    96516388.0204                 
                
  24454747.586   128510563.503    24454756.391   100138123.0244   24454756.598  
                
  21304084.383   111953733.630    21304088.426    87236697.1744                 
                
  21616461.359   113595297.633    21616469.637    88515847.2414   21616470.133  
                
 21  8 16  2  2 30.0000000  0 13G 6R16R19G29G12R15R18G24R17G19G32G 2
                                G25
  21667184.273   113861834.539    21667192.535    88723549.0214   21667193.059  
                
  19954340.695   106592521.493                    82905283.103    19954341.926  
  19954340.340  
  22604956.414   120921312.107                    94049895.192    22604959.426  
  22604954.375  
  24034168.141   126300413.831    24034174.547    98415934.3704   24034174.582  
                
  20233080.883   106325575.602    20233086.246    82851128.7084   20233086.312  
                
  19822544.188   105925695.414                    82386631.560    19822547.801  
  19822544.387  
  19418868.094   103659248.463                    80623858.483    19418870.969  
  19418866.684  
  21782613.875   114468424.878    21782622.195    89196203.9754   21782622.328  
                
  19893624.820   106454814.352                    82798190.527    19893627.340  
  19893623.039  
  23576663.086   123896199.663    23576667.227    96542530.8974                 
                
  24456386.930   128519178.425    24456395.766   100144835.9234   24456395.977  
                
  21302820.969   111947094.324    21302824.988    87231523.6874                 
                
  21611760.289   113570593.340    21611768.578    88496597.1474   21611769.055  
                
 21  8 16  2  2 40.0000000  0 13G 6R16R19G29G12R15R18G24R17G19G32G 2
                                G25
  21669553.953   113874287.227    21669562.191    88733252.4184   21669562.723  
                
  19950123.195   106569992.353                    82887760.441    19950124.418  
  19950122.836  
  22597319.398   120880458.939                    94018120.505    22597322.379  
  22597317.375  
  24028177.875   126268934.515    24028184.242    98391405.0424   24028184.262  
                
  20231759.531   106318631.864    20231764.902    82845718.0054   20231764.965  
                
  19826084.422   105944613.340                    82401345.492    19826088.031  
  19826084.633  
  19415938.844   103643611.925                    80611696.739    19415941.727  
  19415937.434  
  21787970.023   114496571.603    21787978.391    89218136.4864   21787978.527  
                
  19898090.500   106478711.052                    82816776.850    19898093.023  
  19898088.746  
  23583049.258   123929759.200    23583053.355    96568681.1884                 
                
  24458036.492   128527846.851    24458045.355   100151590.5484   24458045.562  
                
  21301568.883   111940514.544    21301572.879    87226396.5834                 
                
  21607063.930   113545913.804    21607072.242    88477366.3444   21607072.699  
                
 21  8 16  2  2 50.0000000  0 13G 6R16R19G29G12R15R18G24R17G19G32G 2
                                G25
  21671935.758   113886803.665    21671943.961    88743005.4804   21671944.512  
                
  19945915.367   106547514.856                    82870277.956    19945916.578  
  19945915.000  
  22589688.180   120839636.869                    93986370.016    22589691.148  
  22589686.117  
  24022191.055   126237473.705    24022197.461    98366890.1314   24022197.477  
                
  20230445.812   106311728.250    20230451.191    82840338.5674   20230451.254  
                
  19829636.500   105963594.541                    82416108.646    19829640.102  
  19829636.711  
  19413024.070   103628052.732                    80599595.151    19413026.961  
  19413022.672  
  21793333.711   114524758.043    21793342.133    89240099.9474   21793342.258  
                
  19902567.367   106502667.643                    82835409.753    19902569.879  
  19902565.613  
  23589437.164   123963327.906    23589441.223    96594838.6094                 
                
  24459696.164   128536568.520    24459705.078   100158386.6554   24459705.215  
                
  21300328.086   111933994.116    21300332.070    87221315.7434                 
                
  21602372.242   113521258.873    21602380.590    88458154.7224   21602381.016  
                
 21  8 16  2  3  0.0000000  0 13G 6R16R19G29G12R15R18G24R17G19G32G 2
                                G25
  21674329.734   113899384.034    21674337.914    88752808.3624   21674338.457  
                
  19941717.289   106525089.496                    82852835.995    19941718.480  
  19941716.922  
  22582062.742   120798846.213                    93954643.969    22582065.793  
  22582060.723  
  24016207.773   126206031.746    24016214.309    98342389.9114   24016214.320  
                
  20229139.797   106304865.082    20229145.180    82834990.6444   20229145.234  
                
  19833200.469   105982639.219                    82430921.172    19833204.047  
  19833200.672  
  19410123.828   103612571.049                    80587553.848    19410126.715  
  19410122.414  
  21798705.016   114552984.441    21798713.492    89262094.5304   21798713.598  
                
  19907055.477   106526684.345                    82854089.406    19907058.004  
  19907053.727  
  23595826.883   123996906.141    23595830.965    96621003.4344                 
                
  24461366.016   128545343.698    24461374.914   100165224.4374   24461375.035  
                
  21299098.633   111927533.294    21299102.598    87216281.3334                 
                
  21597685.312   113496628.914    21597693.676    88438962.5534   21597694.105  
                
 21  8 16  2  3 10.0000000  0 13G 6R16R19G29G12R15R18G24R17G19G32G 2
                                G25
  21676735.805   113912028.046    21676743.977    88762660.8424   21676744.516  
                
  19937528.930   106502716.062                    82835434.464    19937530.090  
  19937528.566  
  22574443.336   120758086.840                    93922942.229    22574446.230  
  22574441.188  
  24010228.062   126174608.438    24010234.656    98317904.2244   24010234.688  
                
  20227841.406   106298042.043    20227846.781    82829673.9914   20227846.836  
                
  19836776.258   106001747.126                    82445782.864    19836779.828  
  19836776.469  
  19407238.031   103597166.490                    80575572.523    19407240.910  
  19407236.598  
  21804083.844   114581250.427    21804092.387    89284119.9694   21804092.469  
                
  19911554.719   106550760.710                    82872815.467    19911557.238  
  19911552.961  
  23602218.336   124030493.598    23602222.465    96647175.4574                 
                
  24463046.008   128554172.013    24463054.816   100172103.6624   24463054.957  
                
  21297880.477   111921131.870    21297884.406    87211293.2104                 
                
  21593003.086   113472023.691    21593011.445    88419789.6584   21593011.883  
                
 21  8 16  2  3 20.0000000  0 13G 6R16R19G29G12R15R18G24R17G19G32G 2
                                G25
  21679154.008   113924735.718    21679162.191    88772562.9254   21679162.715  
                
  19933350.359   106480394.860                    82818073.503    19933351.488  
  19933350.000  
  22566829.586   120717358.933                    93891264.958    22566832.555  
  22566827.484  
  24004251.969   126143203.908    24004258.527    98293433.1524   24004258.570  
                
  20226550.703   106291259.360    20226556.066    82824388.7864   20226556.133  
                
  19840363.883   106020918.293                    82460693.774    19840367.465  
  19840364.102  
  19404366.766   103581839.533                    80563651.577    19404369.629  
  19404365.312  
  21809470.211   114609555.973    21809478.816    89306176.2394   21809478.879  
                
  19916065.109   106574896.758                    82891587.943    19916067.613  
  19916063.352  
  23608611.570   124064090.246    23608615.730    96673354.6214                 
                
  24464736.117   128563053.518    24464744.902   100179024.3184   24464745.059  
                
  21296673.648   111914789.956    21296677.551    87206351.4604                 
                
  21588325.602   113447443.375    21588333.941    88400636.1664   21588334.398  
                
 21  8 16  2  3 30.0000000  0 13G 6R16R19G29G12R15R18G24R17G19G32G 2
                                G25
  21681584.344   113937507.185    21681592.562    88782514.7104   21681593.066  
                
  19929181.586   106458125.988                    82800753.273    19929182.680  
  19929181.246  
  22559221.680   120676662.717                    93859612.360    22559224.812  
  22559219.707  
  23998279.445   126111818.315    23998286.012    98268976.8474   23998286.062  
                
  20225267.711   106284517.178    20225273.059    82819135.1414   20225273.137  
                
  19843963.391   106040152.925                    82475654.042    19843966.973  
  19843963.605  
  19401510.023   103566590.073                    80551790.890    19401512.895  
  19401508.559  
  21814864.117   114637901.176    21814872.777    89328263.4084   21814872.820  
                
  19920586.641   106599092.360                    82910406.750    19920589.133  
  19920584.867  
  23615006.586   124097696.149    23615010.785    96699541.0234                 
                
  24466436.367   128571988.310    24466445.184   100185986.4754   24466445.312  
                
  21295478.172   111908507.663    21295482.074    87201456.1604                 
                
  21583652.898   113422888.142    21583661.203    88381502.2154   21583661.684  
                
 21  8 16  2  3 40.0000000  0 13G 6R16R19G29G12R15R18G24R17G19G32G 2
                                G25
  21684026.742   113950342.066    21684034.988    88792515.9054   21684035.480  
                
  19925022.594   106435909.460                    82783473.737    19925023.664  
  19925022.270  
  22551620.086   120635998.229                    93827984.434    22551623.027  
  22551617.871  
  23992310.500   126080451.401    23992317.023    98244535.0874   23992317.105  
                
  20223992.367   106277815.253    20223997.707    82813912.8614   20223997.785  
                
  19847574.703   106059450.678                    82490663.393    19847578.285  
  19847574.918  
  19398667.773   103551418.028                    80539990.415    19398670.641  
  19398666.273  
  21820265.492   114666285.647    21820274.199    89350381.1584   21820274.207  
                
  19925119.219   106623347.138                    82929271.572    19925121.711  
  19925117.434  
  23621403.312   124131310.931    23621407.535    96725734.3534                 
                
  24468146.688   128580976.041    24468155.504   100192989.8664   24468155.625  
                
  21294293.984   111902284.745    21294297.898    87196607.1384                 
                
  21578984.922   113398357.778    21578993.188    88362387.6514   21578993.707  
                
 21  8 16  2  3 50.0000000  0 13G 6R16R19G29G12R15R18G24R17G19G32G 2
                                G25
  21686481.203   113963240.316    21686489.469    88802566.4924   21686489.949  
                
  19920873.406   106413745.240                    82766234.909    19920874.457  
  19920873.066  
  22544024.297   120595365.393                    93796381.120    22544027.133  
  22544022.012  
  23986345.086   126049103.145    23986351.594    98220107.8664   23986351.703  
                
  20222724.695   106271153.592    20222730.031    82808721.9604   20222730.117  
                
  19851197.828   106078811.526                    82505721.827    19851201.414  
  19851198.051  
  19395839.984   103536323.198                    80528250.007    19395842.863  
  19395838.457  
  21825674.320   114694709.300    21825683.043    89372529.4574   21825683.039  
                
  19929662.859   106647661.134                    82948182.452    19929665.352  
  19929661.043  
  23627801.695   124164934.530    23627805.984    96751934.5454                 
                
  24469867.086   128590016.648    24469875.887   100200034.5144   24469875.984  
                
  21293121.102   111896121.199    21293125.016    87191804.3694                 
                
  21574321.688   113373852.382    21574329.961    88343292.5464   21574330.477  
                
 21  8 16  2  4  0.0000000  0 13G 6R16R19G29G12R15R18G24R17G19G32G 2
                                G25
  21688947.773   113976202.129    21688956.055    88812666.5994   21688956.523  
                
  19916734.094   106391633.741                    82749037.072    19916735.133  
  19916733.746  
  22536434.438   120554764.524                    93764802.673    22536437.223  
  22536432.082  
  23980383.367   126017773.960    23980389.867    98195695.5164   23980389.977  
                
  20221464.742   106264532.495    20221470.074    82803562.6654   20221470.152  
                
  19854832.797   106098235.649                    82520829.461    19854836.379  
  19854833.016  
  19393026.789   103521306.157                    80516570.086    19393029.660  
  19393025.242  
  21831090.648   114723172.293    21831099.352    89394708.4164   21831099.367  
                
  19934217.562   106672034.287                    82967139.338    19934220.070  
  19934215.738  
  23634201.797   124198567.166    23634206.129    96778141.7664                 
                
  24471597.594   128599110.313    24471606.355   100207120.4994   24471606.426  
                
  21291959.578   111890017.313    21291963.492    87187048.0944                 
                
  21569663.273   113349372.191    21569671.570    88324217.0774   21569672.062  
                
