     2.11           OBSERVATION DATA    M (MIXED)           RINEX VERSION / TYPE
EFT-CORS.RU                             20210817 150613 UTC PGM / RUN BY / DATE 
MDNG                                                        MARKER NAME         
                                                            MARKER NUMBER       
MDNG                EFT-CORS.RU                             OBSERVER / AGENCY   
0                   TRIMBLE BD970       2.0                 REC # / TYPE / VERS 
0                   UNKNOWN EXT NONE                        ANT # / TYPE        
  3463911.2830  3030468.2400  4402179.3760                  APPROX POSITION XYZ 
        0.0000        0.0000        0.0000                  ANTENNA: DELTA H/E/N
     1     1                                                WAVELENGTH FACT L1/2
     6    C1    L1    P2    L2    C2    P1                  # / TYPES OF OBSERV 
    10.000                                                  INTERVAL            
  2021     8    14     9    30    0.0000000     GPS         TIME OF FIRST OBS   
  2021     8    14    10    30    0.0000000     GPS         TIME OF LAST OBS    
     0                                                      RCV CLOCK OFFS APPL 
                                                            END OF HEADER       
 21  8 14  9 30  0.0000000  0 13R 4G 8G18G27R 3G32G10G23G16R18R20R 5
                                R19
  19307230.781   103389396.930                    80413977.732    19307233.836  
  19307229.816  
  22056592.711   115908190.303    22056601.754    90318113.9394   22056602.398  
                
  22814224.828   119889556.670    22814232.211    93420472.5494   22814232.348  
                
  20624636.125   108383214.380    20624644.449    84454489.3294   20624644.469  
                
  22251643.234   119114821.444                    92644871.106    22251648.023  
  22251641.840  
  22772299.555   119669276.004    22772309.059    93248838.4104   22772309.293  
                
  20415974.211   107286707.171    20415983.113    83600095.2084   20415982.578  
                
  21353078.016   112211202.745    21353085.094    87437352.1964   21353084.945  
                
  24183833.383   127086901.797    24183839.938    99028778.4234                 
                
  22666871.922   120997278.747                    94108991.990    22666876.695  
  22666870.141  
  20714185.055   110768045.971                    86152984.182    20714191.473  
  20714184.094  
  20672011.695   110503773.078                    85947394.022    20672016.125  
  20672011.469  
  19708282.367   105426058.066                    81998074.548    19708286.094  
  19708280.742  
 21  8 14  9 30 10.0000000  0 14R 4G 8G21G18G27R 3G32G10G23G16R18R20
                                R 5R19
  19308349.102   103395385.441                    80418635.454    19308352.156  
  19308348.168  
  22052416.367   115886243.486    22052425.418    90301012.5294   22052426.066  
                
  24766393.281   130148255.458    24766401.934   101414275.2164                 
                
  22819238.211   119915902.151    22819245.656    93441001.4704   22819245.770  
                
  20624305.641   108381477.629    20624313.961    84453136.0124   20624313.992  
                
  22258731.320   119152764.421                    92674382.314    22258736.078  
  22258729.957  
  22766247.422   119637471.898    22766256.910    93224056.0024   22766257.148  
                
  20416274.992   107288287.788    20416283.902    83601326.8624   20416283.363  
                
  21357331.023   112233552.481    21357338.094    87454767.5654   21357337.973  
                
  24189816.891   127118345.276    24189823.469    99053279.8434                 
                
  22673211.258   121031118.534                    94135311.815    22673216.074  
  22673209.438  
  20708910.164   110739838.858                    86131045.310    20708916.578  
  20708909.227  
  20665779.734   110470459.730                    85921483.652    20665784.184  
  20665779.496  
  19710339.719   105437063.501                    82006634.325    19710343.449  
  19710338.078  
 21  8 14  9 30 20.0000000  0 14R 4G 8G21G18G27R 3G32G10G23G16R18R20
                                R 5R19
  19309483.109   103401457.920                    80423358.497    19309486.152  
  19309482.227  
  22048248.953   115864343.568    22048258.000    90283947.6604   22048258.648  
                
  24761429.617   130122171.248    24761438.160   101393949.8814                 
                
  22824255.219   119942266.635    22824262.688    93461545.2134   22824262.781  
                
  20623987.500   108379805.811    20623995.816    84451833.2964   20623995.859  
                
  22265825.336   119190739.101                    92703918.176    22265830.082  
  22265823.996  
  22760200.477   119605694.931    22760209.938    93199294.7244   22760210.168  
                
  20416584.430   107289913.863    20416593.348    83602593.9364   20416592.801  
                
  21361589.891   112255932.962    21361596.969    87472206.9024   21361596.844  
                
  24195803.180   127149803.807    24195809.887    99077792.9604                 
                
  22679556.117   121064988.280                    94161654.933    22679561.039  
  22679554.402  
  20703640.617   110711660.193                    86109128.588    20703647.023  
  20703639.676  
  20659558.328   110437202.791                    85895617.147    20659562.781  
  20659558.078  
  19712408.008   105448127.428                    82015239.606    19712411.734  
  19712406.352  
 21  8 14  9 30 30.0000000  0 14R 4G 8G21G18G27R 3G32G10G23G16R18R20
                                R 5R19
  19310632.992   103407615.427                    80428147.673    19310636.020  
  19310632.145  
  22044090.727   115842491.960    22044099.758    90266920.4314   22044100.422  
                
  24756466.594   130096089.948    24756474.945   101373626.8224                 
                
  22829276.062   119968651.207    22829283.500    93482104.6154   22829283.562  
                
  20623681.945   108378200.056    20623690.262    84450582.0594   20623690.316  
                
  22272925.391   119228746.290                    92733479.307    22272930.180  
  22272924.062  
  22754158.922   119573946.309    22754168.387    93174555.5314   22754168.637  
                
  20416902.711   107291586.458    20416911.648    83603897.2614   20416911.094  
                
  21365854.812   112278345.265    21365861.879    87489671.0274   21365861.762  
                
  24201792.555   127181278.371    24201799.352    99102318.5594                 
                
  22685906.906   121098889.008                    94188022.145    22685911.828  
  22685905.191  
  20698376.648   110683511.393                    86087235.087    20698383.035  
  20698375.699  
  20653347.672   110404003.292                    85869795.335    20653352.129  
  20653347.426  
  19714487.453   105459251.073                    82023891.326    19714491.184  
  19714485.746  
 21  8 14  9 30 40.0000000  0 14R 4G 8G21G18G27R 3G32G10G23G16R18R20
                                R 5R19
  19311798.586   103413857.084                    80433002.292    19311801.602  
  19311797.754  
  22039941.523   115820687.717    22039950.551    90249930.1144   22039951.215  
                
  24751503.953   130070010.792    24751512.184   101353305.4044                 
                
  22834300.586   119995055.077    22834307.969    93502679.0434   22834308.004  
                
  20623388.805   108376659.584    20623397.117    84449381.6914   20623397.188  
                
  22280031.422   119266785.312                    92763065.207    22280036.199  
  22280030.094  
  22748122.578   119542225.285    22748132.109    93149837.8764   22748132.352  
                
  20417229.695   107293304.734    20417238.652    83605236.1814   20417238.086  
                
  21370125.625   112300788.490    21370132.684    87507159.2524   21370132.570  
                
  24207784.781   127212768.179    24207791.711    99126856.0584                 
                
  22692263.250   121132819.686                    94214412.630    22692268.211  
  22692261.535  
  20693118.094   110655391.631                    86065364.159    20693124.477  
  20693117.148  
  20647147.672   110370860.764                    85844017.803    20647152.121  
  20647147.430  
  19716577.906   105470433.583                    82032588.829    19716581.648  
  19716576.180  
 21  8 14  9 30 50.0000000  0 14R 4G 8G21G18G27R 3G32G10G23G16R18R20
                                R 5R19
  19312980.008   103420183.526                    80437922.872    19312983.016  
  19312979.188  
  22035801.477   115798931.613    22035810.516    90232977.3094   22035811.168  
                
  24746541.836   130043934.479    24746549.980   101332986.1994                 
                
  22839328.883   120021478.868    22839336.207    93523269.0134   22839336.266  
                
  20623108.219   108375185.103    20623116.531    84448232.7444   20623116.605  
                
  22287143.445   119304856.480                    92792676.102    22287148.211  
  22287142.094  
  22742091.625   119510532.692    22742101.223    93125142.3664   22742101.457  
                
  20417565.484   107295069.360    20417574.465    83606611.2104   20417573.883  
                
  21374402.430   112323263.253    21374409.477    87524672.0504   21374409.379  
                
  24213780.117   127244273.713    24213787.031    99151405.7954                 
                
  22698625.352   121166781.065                    94240827.006    22698630.336  
  22698623.668  
  20687865.102   110627301.604                    86043516.359    20687871.480  
  20687864.156  
  20640958.422   110337775.681                    85818284.965    20640962.863  
  20640958.219  
  19718679.406   105481675.263                    82041332.359    19718683.152  
  19718677.656  
 21  8 14  9 31  0.0000000  0 14R 4G 8G21G18G27R 3G32G10G23G16R18R20
                                R 5R19
  19314177.195   103426594.326                    80442909.048    19314180.191  
  19314176.410  
  22031670.570   115777223.592    22031679.652    90216061.9784   22031680.270  
                
  24741579.984   130017860.677    24741588.238   101312669.0124                 
                
  22844360.938   120047922.376    22844368.227    93543874.3304   22844368.328  
                
  20622840.156   108373776.420    20622848.469    84447135.0644   20622848.559  
                
  22294261.383   119342959.387                    92822311.689    22294266.168  
  22294260.008  
  22736066.086   119478868.400    22736075.699    93100468.8974   22736075.914  
                
  20417910.047   107296880.065    20417919.047    83608022.1504   20417918.465  
                
  21378685.188   112345769.273    21378692.223    87542209.2084   21378692.133  
                
  24219778.336   127275794.572    24219785.285    99175967.5004                 
                
  22704993.258   121200772.905                    94267265.074    22704998.148  
  22704991.516  
  20682617.719   110599241.475                    86021691.818    20682624.070  
  20682616.785  
  20634779.945   110304748.129                    85792596.882    20634784.383  
  20634779.758  
  19720792.055   105492976.495                    82050122.189    19720795.809  
  19720790.258  
 21  8 14  9 31 10.0000000  0 14R 4G 8G21G18G27R 3G32G10G23G16R18R20
                                R 5R19
  19315390.086   103433089.236                    80447960.642    19315393.070  
  19315389.312  
  22027548.758   115755563.345    22027557.891    90199183.8664   22027558.496  
                
  24736618.750   129991789.301    24736626.953   101292353.6674                 
                
  22849396.688   120074385.250    22849403.961    93564494.7364   22849404.062  
                
  20622584.547   108372433.199    20622592.859    84446088.3974   20622592.965  
                
  22301385.203   119381093.679                    92851971.682    22301390.016  
  22301383.805  
  22730045.898   119447232.176    22730055.496    93075817.3124   22730055.727  
                
  20418263.320   107298736.501    20418272.340    83609468.7224   20418271.738  
                
  21382973.820   112368306.153    21382980.859    87559770.4124   21382980.762  
                
  24225779.461   127307330.265    24225786.344    99200540.7654                 
                
  22711366.758   121234794.772                    94293726.525    22711371.613  
  22711364.980  
  20677375.859   110571210.848                    85999890.227    20677382.191  
  20677374.941  
  20628612.195   110271777.909                    85766953.375    20628616.625  
  20628612.020  
  19722915.703   105504336.543                    82058957.777    19722919.445  
  19722913.859  
 21  8 14  9 31 20.0000000  0 14R 4G 8G21G18G27R 3G32G10G23G16R18R20
                                R 5R19
  19316618.602   103439667.854                    80453077.347    19316621.582  
  19316617.855  
  22023436.031   115733950.840    22023445.180    90182342.9564   22023445.773  
                
  24731657.969   129965719.983    24731666.023   101272039.8674                 
                
  22854436.062   120100867.269    22854443.320    93585130.0614   22854443.398  
                
  20622341.359   108371155.255    20622349.680    84445092.6064   20622349.797  
                
  22308514.805   119419259.057                    92881655.849    22308519.668  
  22308513.395  
  22724031.070   119415623.922    22724040.598    93051187.5074   22724040.828  
                
  20418625.227   107300638.397    20418634.258    83610950.7164   20418633.641  
                
  21387268.266   112390873.579    21387275.320    87577355.4154   21387275.211  
                
  24231783.305   127338880.609    24231790.191    99225125.4414                 
                
  22717745.711   121268846.407                    94320211.126    22717750.637  
  22717743.992  
  20672139.516   110543209.636                    85978111.506    20672145.812  
  20672138.641  
  20622455.125   110238864.822                    85741354.319    20622459.543  
  20622454.938  
  19725050.312   105515755.324                    82067839.062    19725054.055  
  19725048.426  
 21  8 14  9 31 30.0000000  0 14R 4G 8G21G18G27R 3G32G10G23G16R18R20
                                R 5R19
  19317862.820   103446330.527                    80458259.434    19317865.809  
  19317862.090  
  22019332.438   115712386.301    22019341.574    90165539.4184   22019342.168  
                
  24726697.562   129939652.898    24726705.531   101251727.8884                 
                
  22859479.117   120127368.621    22859486.348    93605780.4674   22859486.453  
                
  20622110.656   108369942.880    20622118.984    84444147.8954   20622119.109  
                
  22315650.234   119457455.596                    92911364.245    22315655.148  
  22315648.812  
  22718021.641   119384043.988    22718031.086    93026579.7554   22718031.316  
                
  20418995.844   107302585.972    20419004.879    83612468.3114   20419004.262  
                
  21391568.570   112413471.745    21391575.648    87594964.3714   21391575.523  
                
  24237789.922   127370445.745    24237796.910    99249721.6074                 
                
  22724130.383   121302928.078                    94346719.071    22724135.254  
  22724128.625  
  20666908.727   110515238.221                    85956355.959    20666915.012  
  20666907.895  
  20616308.812   110206009.227                    85715799.977    20616313.219  
  20616308.625  
  19727195.953   105527233.130                    82076766.231    19727199.691  
  19727194.023  
 21  8 14  9 31 40.0000000  0 14R 4G 8G21G18G27R 3G32G10G23G16R18R20
                                R 5R19
  19319122.688   103453077.035                    80463506.718    19319125.676  
  19319121.969  
  22015237.930   115690869.540    22015247.055    90148773.1214   22015247.656  
                
  24721737.461   129913588.084    24721745.465   101231417.6744                 
                
  22864525.836   120153889.299    22864533.070    93626445.9114   22864533.172  
                
  20621892.414   108368796.028    20621900.762    84443254.2414   20621900.887  
                
  22322791.430   119495682.913                    92941096.576    22322796.359  
  22322790.008  
  22712017.586   119352492.417    22712026.953    93001994.1104   22712027.199  
                
  20419375.125   107304579.143    20419384.156    83614021.4334   20419383.547  
                
  21395874.688   112436100.543    21395881.785    87612597.1964   21395881.637  
                
  24243799.305   127402025.367    24243806.348    99274329.1084                 
                
  22730520.562   121337039.662                    94373250.285    22730525.477  
  22730518.852  
  20661683.516   110487296.710                    85934623.699    20661689.824  
  20661682.703  
  20610173.250   110173211.221                    85690290.428    20610177.656  
  20610173.094  
  19729352.656   105538770.019                    82085739.364    19729356.367  
  19729350.727  
 21  8 14  9 31 50.0000000  0 14R 4G 8G21G18G27R 3G32G10G23G16R18R20
                                R 5R19
  19320398.242   103459907.459                    80468819.268    19320401.215  
  19320397.539  
  22011152.594   115669400.954    22011161.688    90132044.3604   22011162.301  
                
  24716777.891   129887525.696    24716785.844   101211109.2714                 
                
  22869576.250   120180429.357    22869583.480    93647126.4534   22869583.590  
                
  20621686.672   108367714.810    20621695.051    84442411.7344   20621695.160  
                
  22329938.383   119533941.063                    92970852.915    22329943.305  
  22329936.969  
  22706018.977   119320969.401    22706028.285    92977430.7244   22706028.543  
                
  20419763.109   107306617.970    20419772.129    83615610.1404   20419771.531  
                
  21400186.648   112458759.981    21400193.762    87630253.9054   21400193.598  
                
  24249811.477   127433619.498    24249818.543    99298947.8904                 
                
  22736916.336   121371181.225                    94399804.777    22736921.363  
  22736914.699  
  20656463.891   110459385.044                    85912914.620    20656470.219  
  20656463.102  
  20604048.500   110140470.898                    85664825.730    20604052.875  
  20604048.371  
  19731520.391   105550365.948                    82094758.421    19731524.078  
  19731518.484  
 21  8 14  9 32  0.0000000  0 14R 4G 8G21G18G27R 3G32G10G23G16R18R20
                                R 5R19
  19321689.414   103466821.571                    80474196.913    19321692.387  
  19321688.730  
  22007076.453   115647980.727    22007085.504    90115353.2684   22007086.133  
                
  24711818.742   129861465.591    24711826.691   101190802.7264                 
                
  22874630.297   120206988.633    22874637.543    93667821.9754   22874637.648  
                
  20621493.391   108366699.102    20621501.797    84441620.2724   20621501.895  
                
  22337091.062   119572229.841                    93000633.059    22337095.980  
  22337089.676  
  22700025.773   119289474.904    22700035.066    92952889.5634   22700035.316  
                
  20420159.742   107308702.289    20420168.738    83617234.2884   20420168.152  
                
  21404504.406   112481449.871    21404511.527    87647934.3284   21404511.340  
                
  24255826.391   127465227.951    24255833.484    99323577.8414                 
                
  22743317.680   121405352.448                    94426382.385    22743322.828  
  22743316.145  
  20651249.906   110431503.480                    85891228.961    20651256.230  
  20651249.125  
  20597934.586   110107788.477                    85639406.066    20597938.934  
  20597934.469  
  19733699.156   105562020.907                    82103823.373    19733702.820  
  19733697.273  
 21  8 14  9 32 10.0000000  0 14R 4G 8G21G18G27R 3G32G10G23G16R18R20
                                R 5R19
  19322996.172   103473819.169                    80479639.494    19322999.148  
  19322995.516  
  22003009.438   115626608.416    22003018.465    90098699.5214   22003019.094  
                
  24706860.117   129835407.646    24706867.988   101170497.8644                 
                
  22879687.984   120233566.950    22879695.250    93688532.3434   22879695.328  
                
  20621312.547   108365748.803    20621320.980    84440879.7784   20621321.074  
                
  22344249.422   119610548.936                    93030436.785    22344254.344  
  22344248.008  
  22694037.984   119258008.894    22694047.297    92928370.6004   22694047.531  
                
  20420564.992   107310831.902    20420573.969    83618893.7294   20420573.395  
                
  21408827.906   112504169.979    21408835.020    87665638.3054   21408834.844  
                
  24261843.969   127496850.424    24261851.059    99348218.7074                 
                
  22749724.664   121439553.240                    94452982.951    22749729.801  
  22749723.121  
  20646041.469   110403651.632                    85869566.406    20646047.797  
  20646040.699  
  20591831.430   110075163.645                    85614031.214    20591835.793  
  20591831.305  
  19735888.930   105573734.672                    82112934.083    19735892.562  
  19735887.070  
 21  8 14  9 32 20.0000000  0 14R 4G 8G21G18G27R 3G32G10G23G16R18R20
                                R 5R19
  19324318.555   103480900.335                    80485147.069    19324321.531  
  19324317.930  
  21998951.648   115605284.522    21998960.656    90082083.4994   21998961.309  
                
  24701901.891   129809352.106    24701909.766   101150194.8894                 
                
  22884749.383   120260164.557    22884756.652    93709257.7484   22884756.727  
                
  20621144.219   108364864.149    20621152.672    84440190.4414   20621152.746  
                
  22351413.430   119648898.408                    93060264.147    22351418.352  
  22351411.977  
  22688055.711   119226571.715    22688065.055    92903874.1044   22688065.246  
                
  20420978.922   107313007.058    20420987.883    83620588.6594   20420987.316  
                
  21413157.203   112526920.508    21413164.320    87683365.9924   21413164.137  
                
  24267864.281   127528487.064    24267871.348    99372870.6364                 
                
  22756137.195   121473783.803                    94479606.699    22756142.359  
  22756135.660  
  20640838.719   110375830.161                    85847927.494    20640845.039  
  20640837.945  
  20585739.148   110042596.836                    85588701.463    20585743.523  
  20585739.027  
  19738089.719   105585507.340                    82122090.601    19738093.332  
  19738087.879  
 21  8 14  9 32 30.0000000  0 14R 4G 8G21G18G27R 3G32G10G23G16R18R20
                                R 5R19
  19325656.461   103488064.733                    80490719.389    19325659.453  
  19325655.840  
  21994902.984   115584008.691    21994911.965    90065504.9264   21994912.629  
                
  24696944.133   129783298.669    24696951.871   101129893.5124                 
                
  22889814.359   120286781.073    22889821.664    93729997.8934   22889821.703  
                
  20620988.297   108364044.814    20620996.770    84439552.0024   20620996.828  
                
  22358583.055   119687277.968                    93090114.886    22358587.980  
  22358581.523  
  22682078.859   119195163.104    22682088.242    92879399.8694   22682088.406  
                
  20421401.414   107315227.319    20421410.367    83622318.7344   20421409.816  
                
  21417492.188   112549700.993    21417499.305    87701117.0134   21417499.117  
                
  24273887.180   127560137.511    24273894.230    99397533.3054                 
                
  22762555.352   121508043.676                    94506253.253    22762560.422  
  22762553.695  
  20635641.602   110348038.850                    85826312.042    20635647.906  
  20635640.805  
  20579657.680   110010087.927                    85563416.774    20579662.074  
  20579657.562  
  19740301.508   105597338.900                    82131292.915    19740305.117  
  19740299.688  
 21  8 14  9 32 40.0000000  0 14R 4G 8G21G18G27R 3G32G10G23G16R18R20
                                R 5R19
  19327009.891   103495312.273                    80496356.360    19327012.898  
  19327009.273  
  21990863.508   115562781.093    21990872.465    90048963.9474   21990873.152  
                
  24691986.758   129757247.331    24691994.344   101109593.7604                 
                
  22894882.953   120313416.486    22894890.262    93750752.7524   22894890.285  
                
  20620844.828   108363290.826    20620853.309    84438964.4754   20620853.348  
                
  22365758.227   119725687.145                    93119988.674    22365763.176  
  22365756.660  
  22676107.469   119163783.177    22676116.887    92854947.9804   22676117.035  
                
  20421832.500   107317492.693    20421841.449    83624083.9534   20421840.906  
                
  21421832.875   112572511.386    21421839.988    87718891.3504   21421839.801  
                
  24279912.578   127591801.525    24279919.723    99422206.5364                 
                
  22768978.930   121542332.874                    94532922.633    22768983.988  
  22768977.250  
  20630450.102   110320277.573                    85804719.941    20630456.414  
  20630449.309  
  20573587.031   109977636.825                    85538177.033    20573591.438  
  20573586.918  
  19742524.305   105609229.322                    82140541.025    19742527.910  
  19742522.516  
 21  8 14  9 32 50.0000000  0 14R 4G 8G21G18G27R 3G32G10G23G16R18R20
                                R 5R19
  19328378.938   103502643.433                    80502058.378    19328381.945  
  19328378.312  
  21986833.344   115541602.498    21986842.316    90032461.1514   21986842.996  
                
  24687029.781   129731198.657    24687037.391   101089296.1364                 
                
  22899955.227   120340071.360    22899962.570    93771522.7604   22899962.578  
                
  20620713.891   108362602.745    20620722.379    84438428.3054   20620722.398  
                
  22372939.055   119764126.654                    93149886.042    22372944.004  
  22372937.449  
  22670141.648   119132432.581    22670151.086    92830518.9474   22670151.219  
                
  20422272.258   107319803.659    20422281.211    83625884.7054   20422280.668  
                
  21426179.352   112595352.171    21426186.465    87736689.3594   21426186.285  
                
  24285940.734   127623479.479    24285947.879    99446890.6524                 
                
  22775408.016   121576651.815                    94559615.130    22775413.062  
  22775406.359  
  20625264.375   110292547.185                    85783151.861    20625270.684  
  20625263.605  
  20567527.352   109945244.368                    85512982.902    20567531.758  
  20567527.238  
  19744758.211   105621179.177                    82149835.350    19744761.809  
  19744756.453  
 21  8 14  9 33  0.0000000  0 14R 4G 8G21G18G27R 3G32G10G23G16R18R20
                                R 5R19
  19329763.555   103510057.971                    80507825.239    19329766.566  
  19329762.910  
  21982812.398   115520472.327    21982821.402    90015996.0904   21982822.051  
                
  24682073.320   129705152.353    24682080.875   101069000.3154                 
                
  22905031.133   120366745.327    22905038.496    93792307.6544   22905038.504  
                
  20620595.445   108361980.297    20620603.938    84437943.2774   20620603.949  
                
  22380125.430   119802595.804                    93179806.497    22380130.348  
  22380123.832  
  22664181.344   119101111.099    22664190.805    92806112.5994   22664190.941  
                
  20422720.625   107322159.887    20422729.586    83627720.7264   20422729.020  
                
  21430531.516   112618222.960    21430538.645    87754510.7494   21430538.461  
                
  24291971.461   127655171.048    24291978.629    99471585.3814                 
                
  22781842.523   121611000.321                    94586330.597    22781847.680  
  22781840.961  
  20620084.367   110264847.286                    85761607.507    20620090.641  
  20620083.594  
  20561478.570   109912910.215                    85487834.127    20561483.008  
  20561478.438  
  19747003.133   105633187.992                    82159175.542    19747006.723  
  19747001.402  
 21  8 14  9 33 10.0000000  0 14R 4G 8G21G18G27R 3G32G10G23G16R18R20
                                R 5R19
  19331163.734   103517555.786                    80513656.880    19331166.738  
  19331163.098  
  21978800.789   115499391.188    21978809.820    89999569.2334   21978810.449  
                
  24677117.367   129679108.602    24677124.836   101048706.4584                 
                
  22910110.695   120393438.564    22910118.094    93813107.5754   22910118.098  
                
  20620489.516   108361423.652    20620498.000    84437509.5234   20620498.004  
                
  22387317.367   119841094.799                    93209750.157    22387322.289  
  22387315.781  
  22658226.641   119069818.991    22658236.156    92781729.1494   22658236.301  
                
  20423177.648   107324561.528    20423186.617    83629592.1454   20423186.043  
                
  21434889.438   112641123.872    21434896.586    87772355.6104   21434896.387  
                
  24298004.688   127686876.286    24298011.996    99496290.7384                 
                
  22788282.617   121645378.395                    94613069.057    22788287.844  
  22788281.105  
  20614910.156   110237178.430                    85740087.283    20614916.422  
  20614909.348  
  20555440.766   109880634.687                    85462730.952    20555445.234  
  20555440.625  
  19749259.141   105645256.015                    82168561.778    19749262.754  
  19749257.418  
 21  8 14  9 33 20.0000000  0 14R 4G 8G21G18G27R 3G32G10G23G16R18R20
                                R 5R19
  19332579.438   103525136.825                    80519553.242    19332582.445  
  19332578.793  
  21974798.445   115478358.798    21974807.500    89983180.3634   21974808.129  
                
  24672161.805   129653067.393    24672169.293   101028414.6784                 
                
  22915193.922   120420151.009    22915201.297    93833922.4564   22915201.348  
                
  20620396.109   108360932.773    20620404.578    84437127.0174   20620404.586  
                
  22394514.812   119879623.373                    93239716.802    22394519.750  
  22394513.246  
  22652277.523   119038556.353    22652287.117    92757368.6604   22652287.246  
                
  20423643.281   107327008.482    20423652.250    83631498.8634   20423651.664  
                
  21439253.047   112664054.774    21439260.215    87790223.8374   21439260.000  
                
  24304040.562   127718594.989    24304047.934    99521006.5844                 
                
  22794728.336   121679785.980                    94639830.496    22794733.570  
  22794726.777  
  20609741.719   110209540.423                    85718591.056    20609747.953  
  20609740.879  
  20549413.930   109848417.819                    85437673.394    20549418.406  
  20549413.801  
  19751526.234   105657383.376                    82177994.164    19751529.848  
  19751524.516  
 21  8 14  9 33 30.0000000  0 14R 4G 8G21G18G27R 3G32G10G23G16R18R20
                                R 5R19
  19334010.664   103532800.909                    80525514.198    19334013.684  
  19334010.012  
  21970805.445   115457375.474    21970814.527    89966829.7294   21970815.137  
                
  24667206.711   129627028.603    24667214.184   101008124.6864                 
                
  22920280.766   120446882.506    22920288.168    93854752.1714   22920288.219  
                
  20620315.203   108360507.582    20620323.645    84436795.6944   20620323.672  
                
  22401717.734   119918181.279                    93269706.272    22401722.680  
  22401716.184  
  22646334.016   119007323.129    22646343.680    92733031.0954   22646343.816  
                
  20424117.516   107329500.599    20424126.469    83633440.7794   20424125.879  
                
  21443622.328   112687015.471    21443629.516    87808115.2884   21443629.293  
                
  24310078.945   127750326.960    24310086.387    99545732.7594                 
                
  22801179.344   121714222.719                    94666614.603    22801184.773  
  22801177.902  
  20604579.031   110181933.243                    85697118.795    20604585.246  
  20604578.211  
  20543398.078   109816259.626                    85412661.477    20543402.547  
  20543397.961  
  19753804.359   105669569.698                    82187472.411    19753807.949  
  19753802.641  
 21  8 14  9 33 40.0000000  0 14R 4G 8G21G18G27R 3G32G10G23G16R18R20
                                R 5R19
  19335457.258   103540547.336                    80531539.209    19335460.281  
  19335456.598  
  21966821.609   115436440.263    21966830.727    89950516.5844   21966831.320  
                
  24662252.039   129600991.602    24662259.395   100987836.1124                 
                
  22925371.094   120473632.409    22925378.562    93875596.2264   22925378.598  
                
  20620246.672   108360147.439    20620255.078    84436515.0634   20620255.125  
                
  22408926.000   119956767.651                    93299717.886    22408930.930  
  22408924.480  
  22640396.023   118976118.815    22640405.715    92708716.0564   22640405.848  
                
  20424600.219   107332037.200    20424609.141    83635417.3524   20424608.566  
                
  21447997.148   112710005.256    21448004.344    87826029.4074   21448004.109  
                
  24316119.617   127782071.495    24316127.223    99570468.7504                 
                
  22807635.656   121748688.096                    94693420.949    22807641.320  
  22807634.383  
  20599422.039   110154356.481                    85675670.239    20599428.238  
  20599421.207  
  20537393.102   109784159.616                    85387694.814    20537397.551  
  20537393.000  
  19756093.375   105681814.378                    82196996.047    19756096.984  
  19756091.680  
 21  8 14  9 33 50.0000000  0 14R 4G 8G21G18G27R 3G32G10G23G16R18R20
                                R 5R19
  19336919.344   103548376.722                    80537628.735    19336922.375  
  19336918.660  
  21962847.117   115415554.236    21962856.273    89934241.7584   21962856.859  
                
  24657297.789   129574957.192    24657305.156   100967549.5774                 
                
  22930465.078   120500401.456    22930472.574    93896455.2144   22930472.594  
                
  20620190.664   108359853.122    20620199.039    84436285.7234   20620199.109  
                
  22416139.750   119995383.334                    93329752.281    22416144.668  
  22416138.246  
  22634463.695   118944944.253    22634473.352    92684424.1914   22634473.500  
                
  20425091.523   107334619.010    20425100.410    83637429.1554   20425099.855  
                
  21452377.641   112733024.841    21452384.844    87843966.7374   21452384.594  
                
  24322162.883   127813829.174    24322170.527    99595214.9784                 
                
  22814097.773   121783182.898                    94720250.208    22814103.387  
  22814096.457  
  20594270.898   110126810.994                    85654245.954    20594277.062  
  20594270.066  
  20531399.141   109752118.511                    85362773.946    20531403.570  
  20531399.020  
  19758393.500   105694118.456                    82206565.873    19758397.109  
  19758391.805  
 21  8 14  9 34  0.0000000  0 14R 4G 8G21G18G27R 3G32G10G23G16R18R20
                                R 5R19
  19338397.117   103556290.109                    80543783.598    19338400.156  
  19338396.406  
  21958882.211   115394718.526    21958891.402    89918006.1474   21958891.996  
                
  24652344.047   129548926.351    24652351.609   100947265.8544                 
                
  22935562.891   120527190.668    22935570.398    93917329.9054   22935570.422  
                
  20620147.383   108359625.677    20620155.734    84436108.4944   20620155.832  
                
  22423359.148   120034029.193                    93359810.157    22423364.043  
  22423357.684  
  22628537.234   118913800.557    22628546.836    92660156.3774   22628547.016  
                
  20425591.609   107337247.017    20425600.453    83639476.9564   20425599.926  
                
  21456763.977   112756075.147    21456771.172    87861928.0184   21456770.938  
                
  24328208.836   127845600.833    24328216.527    99619972.1034                 
                
  22820565.438   121817707.898                    94747102.959    22820571.074  
  22820564.117  
  20589125.805   110099297.859                    85632846.852    20589131.957  
  20589124.953  
  20525416.438   109720137.555                    85337899.872    20525420.836  
  20525416.285  
  19760704.898   105706482.783                    82216182.569    19760708.523  
  19760703.211  
 21  8 14  9 34 10.0000000  0 14R 4G 8G21G18G27R 3G32G10G23G16R18R20
                                R 5R19
  19339890.250   103564285.752                    80550002.428    19339893.301  
  19339889.508  
  21954926.570   115373931.547    21954935.805    89901808.4984   21954936.383  
                
  24647390.789   129522897.477    24647398.457   100926983.6424                 
                
  22940664.227   120553998.328    22940671.770    93938218.9904   22940671.785  
                
  20620116.516   108359463.434    20620124.852    84435982.0674   20620124.957  
                
  22430583.812   120072703.164                    93389889.898    22430588.707  
  22430582.383  
  22622616.352   118882686.183    22622625.906    92635911.4174   22622626.117  
                
  20426100.172   107339919.525    20426108.980    83641559.4374   20426108.477  
                
  21461155.836   112779154.477    21461163.012    87879911.9064   21461162.812  
                
  24334257.125   127877384.813    24334264.836    99644738.8134                 
                
  22827038.516   121852261.471                    94773977.933    22827044.133  
  22827037.148  
  20583986.438   110071815.460                    85611471.653    20583992.590  
  20583985.609  
  20519444.688   109688215.190                    85313071.395    20519449.082  
  20519444.535  
  19763027.258   105718905.775                    82225844.892    19763030.887  
  19763025.562  
 21  8 14  9 34 20.0000000  0 14R 4G 8G21G18G27R 3G32G10G23G16R18R20
                                R 5R19
  19341398.742   103572363.729                    80556285.313    19341401.805  
  19341397.969  
  21950980.234   115353193.469    21950989.523    89885648.9634   21950990.082  
                
  24642438.188   129496870.855    24642445.762   100906703.1884                 
                
  22945769.109   120580824.651    22945776.668    93959122.5984   22945776.691  
                
  20620098.094   108359366.629    20620106.430    84435906.6384   20620106.547  
                
  22437813.734   120111405.488                    93419991.681    22437818.672  
  22437812.324  
  22616701.094   118851601.418    22616710.578    92611689.5174   22616710.820  
                
  20426617.227   107342636.691    20426626.004    83643676.7064   20426625.512  
                
  21465553.234   112802262.938    21465560.410    87897918.4914   21465560.215  
                
  24340307.766   127909181.133    24340315.473    99669515.1624                 
                
  22833516.984   121886843.808                    94800875.267    22833522.543  
  22833515.570  
  20578852.891   110044364.116                    85590120.605    20578859.062  
  20578852.078  
  20513483.938   109656351.617                    85288288.613    20513488.316  
  20513483.770  
  19765360.602   105731387.506                    82235552.896    19765364.230  
  19765358.922  
 21  8 14  9 34 30.0000000  0 14R 4G 8G21G18G27R 3G32G10G23G16R18R20
                                R 5R19
  19342922.711   103580524.525                    80562632.593    19342925.785  
  19342921.914  
  21947043.320   115332504.948    21947052.691    89869528.0524   21947053.215  
                
  24637486.008   129470846.822    24637493.566   100886424.7234                 
                
  22950877.633   120607670.106    22950885.211    93980041.1144   22950885.227  
                
  20620092.234   108359335.758    20620100.578    84435882.5814   20620100.699  
                
  22445049.008   120150136.413                    93450115.720    22445053.945  
  22445047.613  
  22610791.602   118820546.839    22610801.020    92587491.1474   22610801.301  
                
  20427142.867   107345398.959    20427151.629    83645829.1244   20427151.148  
                
  21469956.250   112825400.947    21469963.438    87915948.1004   21469963.238  
                
  24346360.883   127940990.183    24346368.527    99694301.4134                 
                
  22840001.008   121921455.266                    94827795.276    22840006.426  
  22839999.445  
  20573725.312   110016944.584                    85568794.316    20573731.473  
  20573724.504  
  20507534.328   109624547.550                    85263552.121    20507538.699  
  20507534.156  
  19767705.055   105743928.675                    82245307.136    19767708.691  
  19767703.375  
 21  8 14  9 34 40.0000000  0 14R 4G 8G21G18G27R 3G32G10G23G16R18R20
                                R 5R19
  19344462.141   103588768.078                    80569044.243    19344465.207  
  19344461.320  
  21943115.867   115311866.050    21943125.309    89853445.8074   21943125.797  
                
  24632534.227   129444825.540    24632541.871   100866148.3944                 
                
  22955989.805   120634534.719    22955997.410    94000974.5554   22955997.406  
                
  20620098.922   108359370.877    20620107.285    84435909.9504   20620107.395  
                
  22452289.648   120188895.998                    93480262.056    22452294.535  
  22452288.270  
  22604887.898   118789522.635    22604897.293    92563316.4504   22604897.590  
                
  20427677.094   107348206.363    20427685.852    83648016.7084   20427685.375  
                
  21474364.883   112848568.483    21474372.082    87934000.7224   21474371.875  
                
  24352416.320   127972811.892    24352424.000    99719097.5434                 
                
  22846490.359   121956095.945                    94854738.007    22846495.773  
  22846488.828  
  20568603.680   109989556.897                    85547492.789    20568609.848  
  20568602.879  
  20501595.883   109592803.208                    85238862.076    20501600.254  
  20501595.707  
  19770060.570   105756529.046                    82255107.416    19770064.211  
  19770058.898  
 21  8 14  9 34 50.0000000  0 14R 4G 8G21G18G27R 3G32G10G23G16R18R20
                                R 5R19
  19346016.961   103597094.095                    80575520.045    19346020.020  
  19346016.137  
  21939197.805   115291276.559    21939207.309    89837402.0604   21939207.773  
                
  24627582.953   129418806.787    24627590.680   100845874.0774                 
                
  22961105.562   120661418.188    22961113.184    94021922.7144   22961113.172  
                
  20620118.125   108359471.746    20620126.512    84435988.5524   20620126.602  
                
  22459535.570   120227683.769                    93510430.311    22459540.379  
  22459534.223  
  22598989.938   118758528.608    22598999.352    92539165.2754   22598999.648  
                
  20428219.852   107351058.589    20428228.613    83650239.2234   20428228.129  
                
  21478779.078   112871765.224    21478786.277    87952076.0954   21478786.070  
                
  24358474.094   128004645.868    24358481.852    99743903.2074                 
                
  22852985.102   121990765.444                    94881703.152    22852990.492  
  22852983.586  
  20563487.953   109962200.852                    85526215.878    20563494.145  
  20563487.125  
  20495668.523   109561118.110                    85214218.121    20495672.898  
  20495668.352  
  19772427.164   105769188.731                    82264953.828    19772430.820  
  19772425.461  
 21  8 14  9 35  0.0000000  0 14R 4G 8G21G18G27R 3G32G10G23G16R18R20
                                R 5R19
  19347587.172   103605502.491                    80582059.902    19347590.219  
  19347586.359  
  21935289.195   115270736.758    21935298.750    89821397.0314   21935299.195  
                
  24622632.250   129392790.651    24622640.027   100825601.8104                 
                
  22966224.945   120688320.621    22966232.574    94042885.6384   22966232.578  
                
  20620149.852   108359638.490    20620158.262    84436118.4784   20620158.344  
                
  22466786.750   120266499.673                    93540620.459    22466791.508  
  22466785.461  
  22593097.758   118727564.987    22593107.199    92515037.7784   22593107.488  
                
  20428771.148   107353955.687    20428779.926    83652496.7104   20428779.434  
                
  21483198.828   112894991.190    21483206.035    87970174.2484   21483205.836  
                
  24364534.258   128036492.151    24364542.008    99768718.4544                 
                
  22859485.430   122025463.863                    94908690.808    22859490.590  
  22859483.789  
  20558378.180   109934876.731                    85504963.802    20558384.395  
  20558377.309  
  20489752.320   109529492.681                    85189620.566    20489756.691  
  20489752.172  
  19774804.883   105781907.930                    82274846.541    19774808.535  
  19774803.160  
 21  8 14  9 35 10.0000000  0 14R 4G 8G21G18G27R 3G32G10G23G16R18R20
                                R 5R19
  19349172.781   103613993.304                    80588663.877    19349175.809  
  19349171.973  
  21931390.086   115250246.816    21931399.684    89805430.8414   21931400.117  
                
  24617682.094   129366777.259    24617689.906   100805331.6404                 
                
  22971347.938   120715242.048    22971355.578    94063863.3584   22971355.578  
                
  20620194.133   108359871.146    20620202.562    84436299.7664   20620202.645  
                
  22474043.164   120305343.672                    93570832.448    22474047.938  
  22474041.945  
  22587211.383   118696631.885    22587220.840    92490934.0754   22587221.145  
                
  20429330.992   107356897.676    20429339.777    83654789.1744   20429339.277  
                
  21487624.141   112918246.359    21487631.352    87988295.1554   21487631.156  
                
  24370596.727   128068350.649    24370604.500    99793543.2374                 
                
  22865990.992   122060191.148                    94935700.892    22865996.113  
  22865989.410  
  20553274.414   109907584.675                    85483736.639    20553280.637  
  20553273.512  
  20483847.281   109497926.913                    85165069.425    20483851.660  
  20483847.129  
  19777193.656   105794686.276                    82284785.245    19777197.324  
  19777191.918  
 21  8 14  9 35 20.0000000  0 14R 4G 8G21G18G27R 3G32G10G23G16R18R20
                                R 5R19
  19350773.664   103622565.950                    80595331.488    19350776.680  
  19350772.863  
  21927500.383   115229806.293    21927510.027    89789503.1744   21927510.461  
                
  24612732.406   129340766.091    24612740.219   100785063.2174                 
                
  22976474.438   120742181.948    22976482.078    94084855.4664   22976482.055  
                
  20620250.859   108360169.251    20620259.309    84436532.0534   20620259.363  
                
  22481304.688   120344215.051                    93601065.746    22481309.449  
  22481303.527  
  22581330.734   118665728.926    22581340.191    92466853.8514   22581340.512  
                
  20429899.281   107359884.023    20429908.070    83657116.2014   20429907.570  
                
  21492054.906   112941530.170    21492062.121    88006438.3784   21492061.914  
                
  24376661.430   128100220.775    24376669.176    99818377.1014                 
                
  22872501.922   122094946.766                    94962733.001    22872506.980  
  22872500.344  
  20548176.594   109880324.356                    85462534.185    20548182.828  
  20548175.680  
  20477953.367   109466420.580                    85140564.501    20477957.762  
  20477953.230  
  19779593.422   105807523.456                    82294769.717    19779597.090  
  19779591.664  
 21  8 14  9 35 30.0000000  0 14R 4G 8G21G18G27R 3G32G10G23G16R18R20
                                R 5R19
  19352389.961   103631221.117                    80602063.295    19352392.957  
  19352389.184  
  21923620.211   115209415.868    21923629.902    89773614.5424   21923630.320  
                
  24607783.234   129314757.903    24607791.023   100764797.0894                 
                
  22981604.609   120769141.084    22981612.203    94105862.5834   22981612.211  
                
  20620320.195   108360533.590    20620328.648    84436815.9544   20620328.703  
                
  22488571.438   120383114.460                    93631320.830    22488576.164  
  22488570.266  
  22575455.992   118634856.996    22575465.453    92442797.8124   22575465.773  
                
  20430476.148   107362915.486    20430484.938    83659478.3874   20430484.438  
                
  21496491.258   112964843.335    21496498.457    88024604.4774   21496498.254  
                
  24382728.430   128132103.193    24382736.219    99843220.5424                 
                
  22879018.398   122129731.417                    94989787.726    22879023.316  
  22879016.719  
  20543084.852   109853096.537                    85441356.995    20543091.094  
  20543083.926  
  20472070.719   109434974.510                    85116106.469    20472075.133  
  20472070.578  
  19782004.344   105820420.231                    82304800.531    19782008.016  
  19782002.543  
 21  8 14  9 35 40.0000000  0 14R 4G 8G21G18G27R 3G32G10G23G16R18R20
                                R 5R19
  19354021.641   103639958.657                    80608859.165    19354024.617  
  19354020.863  
  21919749.602   115189075.677    21919759.316    89757765.0494   21919759.703  
                
  24602834.664   129288752.646    24602842.379   100744533.3004                 
                
  22986738.422   120796119.357    22986745.973    94126884.6044   22986746.012  
                
  20620402.125   108360964.102    20620410.582    84437151.4154   20620410.629  
                
  22495843.375   120422041.758                    93661597.604    22495848.102  
  22495842.191  
  22569587.148   118604016.087    22569596.613    92418765.9484   22569596.934  
                
  20431061.578   107365991.940    20431070.359    83661875.6224   20431069.855  
                
  21500933.164   112988185.688    21500940.355    88042793.3224   21500940.176  
                
  24388797.680   128163997.688    24388805.559    99868073.3604                 
                
  22885540.352   122164545.092                    95016865.025    22885545.113  
  22885538.570  
  20537999.156   109825901.210                    85420205.070    20538005.398  
  20537998.219  
  20466199.352   109403588.767                    85091695.333    20466203.789  
  20466199.191  
  19784426.375   105833376.504                    82314877.637    19784430.051  
  19784424.559  
 21  8 14  9 35 50.0000000  0 14R 4G 8G21G18G27R 3G32G10G23G16R18R20
                                R 5R19
  19355668.555   103648777.834                    80615718.533    19355671.516  
  19355667.758  
  21915888.438   115168785.183    21915898.148    89741954.2644   21915898.531  
                
  24597886.531   129262749.648    24597894.137   100724271.1924                 
                
  22991875.750   120823116.107    22991883.309    94147921.0034   22991883.344  
                
  20620496.516   108361460.131    20620504.973    84437537.9244   20620505.012  
                
  22503120.367   120460996.113                    93691895.397    22503125.113  
  22503119.180  
  22563724.102   118573205.664    22563733.559    92394757.8374   22563733.910  
                
  20431655.430   107369112.683    20431664.199    83664307.3714   20431663.703  
                
  21505380.484   113011556.511    21505387.668    88061004.3414   21505387.496  
                
  24394869.148   128195903.469    24394877.020    99892934.9784                 
                
  22892067.539   122199386.898                    95043964.166    22892072.238  
  22892065.668  
  20532919.445   109798737.778                    85399077.971    20532925.691  
  20532918.500  
  20460339.141   109372262.643                    85067330.573    20460343.617  
  20460338.965  
  19786859.398   105846391.608                    82325000.481    19786863.059  
  19786857.543  
 21  8 14  9 36  0.0000000  0 14R 4G 8G21G18G27R 3G32G10G23G16R18R20
                                R 5R19
  19357330.789   103657678.998                    80622641.671    19357333.758  
  19357329.973  
  21912036.773   115148544.528    21912046.473    89726182.3364   21912046.863  
                
  24592938.992   129236749.398    24592946.469   100704011.2834                 
                
  22997016.656   120850131.714    22997024.219    94168972.1064   22997024.273  
                
  20620603.461   108362022.101    20620611.918    84437975.8264   20620611.965  
                
  22510402.508   120499977.760                    93722214.443    22510407.242  
  22510401.309  
  22557866.969   118542426.240    22557876.387    92370773.8854   22557876.781  
                
  20432257.789   107372278.100    20432266.539    83666773.9284   20432266.055  
                
  21509833.297   113034956.152    21509840.480    88079237.8264   21509840.309  
                
  24400942.852   128227820.823    24400950.656    99917805.6514                 
                
  22898599.984   122234257.388                    95071085.643    22898604.727  
  22898598.117  
  20527845.867   109771607.162                    85377976.393    20527852.141  
  20527844.918  
  20454490.234   109340996.900                    85043012.797    20454494.773  
  20454490.055  
  19789303.547   105859466.117                    82335169.546    19789307.211  
  19789301.691  
 21  8 14  9 36 10.0000000  0 14R 4G 8G21G18G27R 3G32G10G23G16R18R20
                                R 5R19
  19359008.273   103666661.879                    80629628.354    19359011.230  
  19359007.434  
  21908194.641   115128353.976    21908204.312    89710449.4364   21908204.707  
                
  24587991.805   129210751.635    24587999.293   100683753.2934                 
                
  23002161.117   120877165.887    23002168.664    94190037.6964   23002168.711  
                
  20620722.906   108362649.770    20620731.352    84438464.9174   20620731.398  
                
  22517689.688   120538986.391                    93752554.485    22517694.395  
  22517688.457  
  22552015.711   118511677.672    22552025.070    92346813.9654   22552025.500  
                
  20432868.594   107375487.891    20432877.332    83669275.0594   20432876.852  
                
  21514291.531   113058384.284    21514298.715    88097493.5144   21514298.555  
                
  24407018.688   128259749.411    24407026.465    99942685.0524                 
                
  22905137.703   122269156.051                    95098229.021    22905142.473  
  22905135.852  
  20522778.336   109744508.868                    85356899.940    20522784.621  
  20522777.391  
  20448652.539   109309791.184                    85018741.700    20448657.109  
  20448652.363  
  19791758.758   105872599.845                    82345384.654    19791762.398  
  19791756.895  
 21  8 14  9 36 20.0000000  0 14R 4G 8G21G18G27R 3G32G10G23G16R18R20
                                R 5R19
  19360701.070   103675726.758                    80636678.806    19360704.012  
  19360700.211  
  21904362.109   115108213.912    21904371.746    89694755.8864   21904372.141  
                
  24583044.883   129184756.801    24583052.641   100663497.6124                 
                
  23007309.180   120904219.086    23007316.699    94211118.1104   23007316.730  
                
  20620854.945   108363343.609    20620863.375    84439005.5704   20620863.434  
                
  22524981.938   120578022.321                    93782915.746    22524986.613  
  22524980.641  
  22546170.414   118480960.506    22546179.738    92322878.5134   22546180.180  
                
  20433487.906   107378742.473    20433496.641    83671811.0954   20433496.164  
                
  21518755.250   113081841.294    21518762.426    88115771.6964   21518762.277  
                
  24413096.688   128291689.485    24413104.461    99967573.4234                 
                
  22911680.828   122304083.451                    95125394.748    22911685.559  
  22911678.977  
  20517716.945   109717443.438                    85335849.059    20517723.258  
  20517716.008  
  20442826.172   109278645.993                    84994517.677    20442830.762  
  20442825.996  
  19794225.070   105885792.962                    82355645.977    19794228.711  
  19794223.207  
 21  8 14  9 36 30.0000000  0 14R 4G 8G21G18G27R 3G32G10G23G16R18R20
                                R 5R19
  19362409.203   103684873.708                    80643793.100    19362412.117  
  19362408.340  
  21900539.211   115088124.435    21900548.805    89679101.7504   21900549.215  
                
  24578098.805   129158765.067    24578106.527   100643244.2994                 
                
  23012460.914   120931291.386    23012468.379    94232213.3964   23012468.430  
                
  20620999.594   108364103.700    20621008.000    84439597.8524   20621008.051  
                
  22532279.273   120617085.412                    93813298.112    22532283.902  
  22532277.934  
  22540331.125   118450274.887    22540340.434    92298967.6504   22540340.859  
                
  20434115.773   107382041.889    20434124.512    83674382.0714   20434124.031  
                
  21523224.469   113105327.189    21523231.637    88134072.3874   21523231.504  
                
  24419176.836   128323641.089    24419184.641    99992470.7464                 
                
  22918229.289   122339039.513                    95152582.797    22918234.023  
  22918227.473  
  20512661.789   109690411.238                    85314824.010    20512668.086  
  20512660.859  
  20437011.219   109247561.796                    84970341.094    20437015.801  
  20437011.020  
  19796702.555   105899045.827                    82365953.746    19796706.176  
  19796700.695  
 21  8 14  9 36 40.0000000  0 14R 4G 8G21G18G27R 3G32G10G23G16R18R20
                                R 5R19
  19364132.430   103694101.520                    80650970.299    19364135.316  
  19364131.559  
  21896725.812   115068084.885    21896735.355    89663486.5144   21896735.773  
                
  24573152.984   129132775.268    24573160.793   100622992.5714                 
                
  23017616.078   120958381.717    23017623.535    94253322.7334   23017623.586  
                
  20621156.656   108364929.068    20621165.035    84440240.9984   20621165.090  
                
  22539581.500   120656174.541                    93843700.774    22539586.070  
  22539580.152  
  22534497.672   118419619.947    22534506.953    92275080.6944   22534507.367  
                
  20434751.953   107385385.082    20434760.703    83676987.1664   20434760.207  
                
  21527698.977   113128840.900    21527706.145    88152394.7524   21527706.016  
                
  24425259.023   128355603.051    24425266.809   100017376.1584                 
                
  22924782.930   122374023.285                    95179792.369    22924787.691  
  22924781.113  
  20507612.641   109663411.218                    85293824.002    20507618.953  
  20507611.695  
  20431207.453   109216537.402                    84946211.016    20431212.016  
  20431207.242  
  19799190.984   105912357.296                    82376307.106    19799194.602  
  19799189.102  
 21  8 14  9 36 50.0000000  0 14R 4G 8G21G18G27R 3G32G10G23G16R18R20
                                R 5R19
  19365870.922   103703411.060                    80658211.050    19365873.789  
  19365870.043  
  21892922.047   115048096.000    21892931.535    89647910.7644   21892931.977  
                
  24568207.867   129106788.506    24568215.594   100602743.1554                 
                
  23022774.812   120985490.925    23022782.266    94274446.7954   23022782.320  
                
  20621326.305   108365820.538    20621334.656    84440935.6474   20621334.723  
                
  22546888.695   120695290.262                    93874124.100    22546893.242  
  22546887.344  
  22528670.227   118388996.594    22528679.496    92251218.3514   22528679.906  
                
  20435396.625   107388772.867    20435405.387    83679627.0034   20435404.879  
                
  21532178.930   113152383.165    21532186.105    88170739.3724   21532185.965  
                
  24431343.352   128387576.145    24431351.086   100042290.2554                 
                
  22931341.859   122409035.539                    95207024.066    22931346.711  
  22931340.074  
  20502569.680   109636444.379                    85272849.812    20502576.008  
  20502568.762  
  20425415.047   109185573.741                    84922128.166    20425419.590  
  20425414.840  
  19801690.562   105925728.326                    82386706.793    19801694.168  
  19801688.664  
 21  8 14  9 37  0.0000000  0 14R 4G 8G21G18G27R 3G32G10G23G16R18R20
                                R 5R19
  19367624.711   103712802.535                    80665515.534    19367627.559  
  19367623.832  
  21889127.977   115028157.972    21889137.414    89632374.6354   21889137.875  
                
  24563263.148   129080804.927    24563271.008   100582496.2414                 
                
  23027937.195   121012619.331    23027944.629    94295585.7814   23027944.703  
                
  20621508.594   108366778.439    20621516.930    84441682.0634   20621517.000  
                
  22554200.938   120734432.965                    93904568.389    22554205.434  
  22554199.625  
  22522848.883   118358405.260    22522858.168    92227380.9604   22522858.582  
                
  20436049.844   107392205.507    20436058.625    83682301.7924   20436058.102  
                
  21536664.359   113175954.251    21536671.547    88189106.4494   21536671.395  
                
  24437429.781   128419560.577    24437437.559   100067213.1624                 
                
  22937906.250   122444076.345                    95234277.988    22937911.086  
  22937904.426  
  20497533.016   109609511.053                    85251901.664    20497539.344  
  20497532.094  
  20419634.109   109154671.299                    84898092.947    20419638.629  
  20419633.902  
  19804201.297   105939159.043                    82397152.904    19804204.887  
  19804199.367  
 21  8 14  9 37 10.0000000  0 14R 4G 8G21G18G27R 3G32G10G23G16R18R20
                                R 5R19
  19369393.617   103722274.966                    80672882.992    19369396.453  
  19369392.723  
  21885343.453   115008270.171    21885352.844    89616877.6494   21885353.324  
                
  24558319.164   129054823.794    24558326.930   100562251.2124                 
                
  23033103.055   121039765.976    23033110.426    94316738.9964   23033110.586  
                
  20621703.344   108367801.867    20621711.664    84442479.5394   20621711.742  
                
  22561518.016   120773601.584                    93935032.886    22561522.445  
  22561516.742  
  22517033.469   118327845.130    22517042.785    92203567.8814   22517043.172  
                
  20436711.406   107395682.059    20436720.199    83685010.7984   20436719.660  
                
  21541155.086   113199553.179    21541162.270    88207495.2164   21541162.109  
                
  24443518.188   128451555.292    24443526.016   100092144.0764                 
                
  22944475.852   122479144.955                    95261553.545    22944480.652  
  22944473.984  
  20492502.477   109582610.543                    85230979.048    20492508.785  
  20492501.559  
  20413864.500   109123829.458                    84874104.855    20413868.984  
  20413864.312  
  19806723.031   105952648.638                    82407644.806    19806726.625  
  19806721.094  
 21  8 14  9 37 20.0000000  0 14R 4G 8G21G18G27R 3G32G10G23G16R18R20
                                R 5R19
  19371177.703   103731828.682                    80680313.666    19371180.523  
  19371176.809  
  21881568.562   114988432.982    21881577.902    89601420.1054   21881578.402  
                
  24553375.812   129028845.479    24553383.426   100542008.3904                 
                
  23038272.477   121066931.264    23038279.820    94337906.7464   23038280.031  
                
  20621910.656   108368891.277    20621918.961    84443328.4294   20621919.031  
                
  22568839.938   120812796.371                    93965517.694    22568844.348  
  22568838.676  
  22511224.086   118297316.743    22511233.430    92179779.5394   22511233.809  
                
  20437381.414   107399202.940    20437390.223    83687754.3424   20437389.672  
                
  21545651.180   113223180.314    21545658.348    88225905.9744   21545658.207  
                
  24449608.602   128483560.615    24449616.496   100117083.2534                 
                
  22951050.805   122514241.644                    95288850.964    22951055.441  
  22951048.844  
  20487478.180   109555743.379                    85210082.370    20487484.465  
  20487477.242  
  20408106.266   109093048.393                    84850164.021    20408110.738  
  20408106.090  
  19809255.844   105966197.544                    82418182.844    19809259.449  
  19809253.875  
 21  8 14  9 37 30.0000000  0 14R 4G 8G21G18G27R 3G32G10G23G16R18R20
                                R 5R19
  19372976.961   103741463.654                    80687807.523    19372979.773  
  19372976.051  
  21877803.336   114968646.581    21877812.617    89586002.1324   21877813.141  
                
  24548432.977   129002869.951    24548440.422   100521767.7074                 
                
  23043445.430   121094115.194    23043452.793    94359089.0194   23043453.004  
                
  20622130.523   108370046.687    20622138.809    84444228.7454   20622138.891  
                
  22576166.711   120852017.232                    93996022.780    22576171.152  
  22576165.465  
  22505420.750   118266820.180    22505430.090    92156016.0034   22505430.480  
                
  20438059.836   107402768.078    20438068.664    83690532.3694   20438068.105  
                
  21550152.625   113246835.578    21550159.762    88244338.6424   21550159.645  
                
  24455701.031   128515576.491    24455708.961   100142030.6674                 
                
  22957630.992   122549366.406                    95316170.241    22957635.469  
  22957628.984  
  20482460.141   109528909.664                    85189211.708    20482466.414  
  20482459.199  
  20402359.461   109062328.461                    84826270.761    20402363.922  
  20402359.277  
  19811799.789   105979805.975                    82428767.176    19811803.391  
  19811797.812  
 21  8 14  9 37 40.0000000  0 14R 4G 8G21G18G27R 3G32G10G23G16R18R20
                                R 5R19
  19374791.367   103751179.709                    80695364.458    19374794.168  
  19374790.449  
  21874047.789   114948911.033    21874057.008    89570623.7744   21874057.543  
                
  24543490.695   128976897.136    24543497.988   100501529.1654                 
                
  23048621.891   121121317.647    23048629.258    94380285.7074   23048629.465  
                
  20622362.922   108371267.967    20622371.180    84445180.3824   20622371.285  
                
  22583498.336   120891263.831                    94026547.880    22583502.781  
  22583497.125  
  22499623.461   118236355.423    22499632.801    92132277.2464   22499633.207  
                
  20438746.648   107406377.321    20438755.496    83693344.7674   20438754.926  
                
  21554659.383   113270518.799    21554666.504    88262793.0874   21554666.398  
                
  24461795.445   128547602.672    24461803.328   100166986.1294                 
                
  22964216.211   122584519.099                    95343511.172    22964220.727  
  22964214.270  
  20477448.320   109502109.292                    85168366.966    20477454.605  
  20477447.387  
  20396624.062   109031669.551                    84802424.935    20396628.512  
  20396623.887  
  19814354.789   105993473.541                    82439397.500    19814358.387  
  19814352.789  
 21  8 14  9 37 50.0000000  0 14R 4G 8G21G18G27R 3G32G10G23G16R18R20
                                R 5R19
  19376620.922   103760976.868                    80702984.474    19376623.707  
  19376620.012  
  21870301.961   114929226.593    21870311.125    89555285.2504   21870311.680  
                
  24538548.867   128950927.294    24538556.152   100481292.9294                 
                
  23053801.922   121148538.791    23053809.270    94401496.9874   23053809.484  
                
  20622607.906   108372555.345    20622616.133    84446183.5304   20622616.246  
                
  22590834.836   120930536.441                    94057093.228    22590839.297  
  22590833.629  
  22493832.305   118205922.811    22493841.664    92108563.5374   22493842.051  
                
  20439441.898   107410030.882    20439450.762    83696191.6954   20439450.180  
                
  21559171.500   113294230.110    21559178.625    88281269.4314   21559178.520  
                
  24467891.859   128579639.247    24467899.672   100191949.6754                 
                
  22970806.883   122619699.846                    95370873.958    22970811.273  
  22970804.855  
  20472442.852   109475342.759                    85147548.556    20472449.137  
  20472441.953  
  20390900.156   109001072.024                    84778626.866    20390904.629  
  20390899.973  
  19816920.906   106007200.564                    82450074.059    19816924.508  
  19816918.902  
 21  8 14  9 38  0.0000000  0 14R 4G 8G21G18G27R 3G32G10G23G16R18R20
                                R 5R19
  19378465.586   103770854.934                    80710667.407    19378468.363  
  19378464.691  
  21866565.859   114909593.288    21866574.969    89539986.5734   21866575.551  
                
  24533607.547   128924960.374    24533614.762   100461058.9504                 
                
  23058985.508   121175778.578    23058992.840    94422722.7674   23058993.043  
                
  20622865.461   108373908.789    20622873.648    84447238.1614   20622873.789  
                
  22598176.109   120969834.548                    94087658.418    22598180.574  
  22598174.906  
  22488047.289   118175522.375    22488056.656    92084874.9014   22488057.027  
                
  20440145.555   107413728.625    20440154.422    83699073.0544   20440153.832  
                
  21563688.938   113317969.392    21563696.070    88299767.5664   21563695.957  
                
  24473990.219   128611685.995    24473997.980   100216921.1554                 
                
  22977402.656   122654908.379                    95398258.364    22977407.039  
  22977400.660  
  20467443.688   109448609.974                    85126756.404    20467449.984  
  20467442.777  
  20385187.727   108970535.832                    84754876.508    20385192.199  
  20385187.523  
  19819498.141   106020987.075                    82460796.912    19819501.746  
  19819496.113  
 21  8 14  9 38 10.0000000  0 14R 4G 8G21G18G27R 3G32G10G23G16R18R20
                                R 5R19
  19380325.391   103780814.017                    80718413.356    19380328.141  
  19380324.516  
  21862839.484   114890011.041    21862848.547    89524727.6884   21862849.152  
                
  24528666.789   128898996.407    24528673.977   100440827.3204                 
                
  23064172.617   121203036.981    23064179.957    94443963.0784   23064180.137  
                
  20623135.594   108375328.301    20623143.750    84448344.2724   20623143.914  
                
  22605522.188   121009158.294                    94118243.547    22605526.621  
  22605520.941  
  22482268.422   118145154.245    22482277.805    92061211.4314   22482278.164  
                
  20440857.617   107417470.529    20440866.480    83701988.8304   20440865.895  
                
  21568211.680   113341736.585    21568218.820    88318287.4584   21568218.707  
                
  24480090.531   128643742.900    24480098.223   100241900.5634                 
                
  22984003.734   122690144.902                    95425664.552    22984008.043  
  22984001.715  
  20462450.859   109421911.168                    85105990.672    20462457.180  
  20462449.969  
  20379486.828   108940061.273                    84731174.081    20379491.305  
  20379486.637  
  19822086.477   106034832.918                    82471565.892    19822090.082  
  19822084.449  
 21  8 14  9 38 20.0000000  0 14R 4G 8G21G18G27R 3G32G10G23G16R18R20
                                R 5R19
  19382200.289   103790853.987                    80726222.225    19382203.012  
  19382199.449  
  21859122.867   114870480.109    21859131.875    89509508.7784   21859132.500  
                
  24523726.414   128873035.368    24523733.766   100420597.9454                 
                
  23069363.250   121230314.001    23069370.574    94465217.8904   23069370.758  
                
  20623418.297   108376813.912    20623426.426    84449501.8934   20623426.602  
                
  22612872.984   121048507.493                    94148848.459    22612877.406  
  22612871.691  
  22476495.711   118114818.495    22476505.141    92037573.2004   22476505.480  
                
  20441578.078   107421256.586    20441586.930    83704939.0074   20441586.348  
                
  21572739.719   113365531.619    21572746.871    88336829.0294   21572746.750  
                
  24486192.734   128675809.708    24486200.359   100266887.6634                 
                
  22990609.922   122725409.448                    95453092.480    22990614.324  
  22990607.961  
  20457464.383   109395246.301                    85085251.340    20457470.711  
  20457463.504  
  20373797.430   108909648.209                    84707519.491    20373801.906  
  20373797.242  
  19824685.961   106048738.411                    82482381.271    19824689.570  
  19824683.945  
 21  8 14  9 38 30.0000000  0 14R 4G 8G21G18G27R 3G32G10G23G16R18R20
                                R 5R19
  19384090.359   103800975.146                    80734094.237    19384093.055  
  19384089.551  
  21855416.125   114851001.071    21855425.113    89494330.3104   21855425.762  
                
  24518786.586   128847077.592    24518794.168   100400371.1714                 
                
  23074557.508   121257610.024    23074564.836    94486487.4954   23074565.027  
                
  20623713.656   108378366.016    20623721.762    84450711.3214   20623721.941  
                
  22620228.539   121087882.230                    94179473.238    22620232.957  
  22620227.211  
  22470729.258   118084515.635    22470738.762    92013960.6024   22470739.070  
                
  20442307.008   107425087.127    20442315.844    83707923.8484   20442315.273  
                
  21577273.125   113389354.838    21577280.293    88355392.5794   21577280.168  
                
  24492296.812   128707886.810    24492304.414   100291882.8024                 
                
  22997221.250   122760702.038                    95480542.224    22997225.863  
  22997219.461  
  20452484.375   109368615.940                    85064538.845    20452490.727  
  20452483.480  
  20368119.641   108879297.176                    84683913.142    20368124.133  
  20368119.449  
  19827296.594   106062703.533                    82493243.030    19827300.195  
  19827294.578  
 21  8 14  9 38 40.0000000  0 14R 4G 8G21G18G27R 3G32G10G23G16R18R20
                                R 5R19
  19385995.461   103811176.844                    80742028.903    19385998.129  
  19385994.664  
  21851719.094   114831573.073    21851728.070    89479191.6094   21851728.730  
                
  24513847.414   128821122.710    24513855.102   100380146.6194                 
                
  23079755.289   121284924.469    23079762.617    94507771.4734   23079762.824  
                
  20624021.570   108379984.057    20624029.672    84451972.1384   20624029.848  
                
  22627588.773   121127281.982                    94210117.478    22627593.156  
  22627587.449  
  22464968.977   118054245.212    22464978.523    91990373.2754   22464978.820  
                
  20443044.297   107428961.575    20443053.109    83710942.9004   20443052.555  
                
  21581811.773   113413205.616    21581818.949    88373977.5984   21581818.824  
                
  24498402.688   128739973.502    24498410.273   100316885.4064                 
                
  23003837.992   122796022.126                    95508013.378    23003842.582  
  23003836.156  
  20447510.727   109342019.706                    85043852.883    20447517.098  
  20447509.852  
  20362453.383   108849007.873                    84660354.798    20362457.898  
  20362453.164  
  19829918.320   106076728.035                    82504150.967    19829921.934  
  19829916.285  
 21  8 14  9 38 50.0000000  0 14R 4G 8G21G18G27R 3G32G10G23G16R18R20
                                R 5R19
  19387915.555   103821458.859                    80750026.020    19387918.203  
  19387914.758  
  21848031.805   114812196.251    21848040.762    89464092.7864   21848041.438  
                
  24508908.820   128795170.622    24508916.574   100359924.2094                 
                
  23084956.531   121312257.203    23084963.875    94529069.6854   23084964.082  
                
  20624342.008   108381667.972    20624350.105    84453284.2694   20624350.281  
                
  22634953.648   121166706.543                    94240781.013    22634958.008  
  22634952.344  
  22459214.867   118024007.206    22459224.438    91966811.2064   22459224.723  
                
  20443789.906   107432879.779    20443798.695    83713996.0414   20443798.152  
                
  21586355.633   113437083.767    21586362.793    88392583.9434   21586362.684  
                
  24504510.375   128772069.579    24504517.934   100341895.3034                 
                
  23010459.891   122831369.787                    95535505.931    23010464.480  
  23010458.016  
  20442543.477   109315457.627                    85023193.494    20442549.867  
  20442542.586  
  20356798.656   108818780.172                    84636844.373    20356803.191  
  20356798.422  
  19832551.133   106090811.865                    82515105.049    19832554.766  
  19832549.078  
 21  8 14  9 39  0.0000000  0 14R 4G 8G21G18G27R 3G32G10G23G16R18R20
                                R 5R19
  19389850.695   103831821.462                    80758085.840    19389853.336  
  19389849.898  
  21844354.312   114792870.933    21844363.258    89449034.1064   21844363.941  
                
  24503970.945   128769221.611    24503978.656   100339704.2334                 
                
  23090161.320   121339608.555    23090168.668    94550382.4304   23090168.887  
                
  20624675.047   108383418.047    20624683.148    84454647.9724   20624683.316  
                
  22642323.164   121206156.076                    94271463.961    22642327.531  
  22642321.863  
  22453467.016   117993802.052    22453476.594    91943274.7464   22453476.863  
                
  20444543.898   107436842.045    20444552.672    83717083.5244   20444552.133  
                
  21590904.750   113460989.559    21590911.895    88411211.8354   21590911.797  
                
  24510619.906   128804175.377    24510627.445   100366912.7814                 
                
  23017086.898   122866745.089                    95563020.034    23017091.543  
  23017085.062  
  20437582.680   109288930.070                    85002560.951    20437589.070  
  20437581.785  
  20351155.555   108788614.577                    84613382.252    20351160.094  
  20351155.309  
  19835195.047   106104955.120                    82526105.353    19835198.707  
  19835192.992  
 21  8 14  9 39 10.0000000  0 14R 4G 8G21G18G27R 3G32G10G23G16R18R20
                                R 5R19
  19391800.844   103842264.386                    80766208.110    19391803.480  
  19391800.055  
  21840686.641   114773597.199    21840695.586    89434015.6094   21840696.266  
                
  24499033.594   128743275.428    24499041.266   100319486.4554                 
                
  23095369.586   121366978.190    23095376.938    94571709.4104   23095377.164  
                
  20625020.625   108385234.038    20625028.730    84456063.0244   20625028.902  
                
  22649697.242   121245630.041                    94302165.914    22649701.598  
  22649695.965  
  22447725.383   117963629.564    22447734.910    91919763.7184   22447735.188  
                
  20445306.211   107440848.015    20445314.973    83720205.0614   20445314.441  
                
  21595459.070   113484922.627    21595466.195    88429860.9754   21595466.102  
                
  24516731.312   128836290.452    24516738.723   100391937.5194                 
                
  23023719.094   122902147.779                    95590555.445    23023723.676  
  23023717.223  
  20432628.320   109262436.817                    84981955.100    20432634.715  
  20432627.430  
  20345524.000   108758510.760                    84589968.185    20345528.559  
  20345523.742  
  19837850.039   106119157.553                    82537151.679    19837853.703  
  19837847.984  
 21  8 14  9 39 20.0000000  0 14R 4G 8G21G18G27R 3G32G10G23G16R18R20
                                R 5R19
  19393765.984   103852787.600                    80774392.834    19393768.613  
  19393765.207  
  21837028.766   114754374.978    21837037.699    89419037.2564   21837038.398  
                
  24494096.742   128717332.234    24494104.434   100299270.9944                 
                
  23100581.375   121394366.252    23100588.789    94593050.7484   23100588.988  
                
  20625378.773   108387116.100    20625386.895    84457529.5624   20625387.062  
                
  22657075.914   121285128.599                    94332886.997    22657080.270  
  22657074.645  
  22441990.008   117933490.002    22441999.469    91896278.3484   22441999.773  
                
  20446076.867   107444897.840    20446085.613    83723360.7644   20446085.086  
                
  21600018.594   113508883.075    21600025.703    88448531.4534   21600025.617  
                
  24522844.477   128868414.670    24522851.742   100416969.3224                 
                
  23030356.453   122937577.935                    95618112.210    23030360.953  
  23030354.539  
  20427680.398   109235978.155                    84961376.128    20427686.809  
  20427679.480  
  20339904.094   108728469.141                    84566602.492    20339908.637  
  20339903.816  
  19840516.164   106133419.522                    82548244.331    19840519.828  
  19840514.145  
 21  8 14  9 39 30.0000000  0 14R 4G 8G21G18G27R 3G32G10G23G16R18R20
                                R 5R19
  19395746.109   103863391.031                    80782639.926    19395748.723  
  19395745.344  
  21833380.742   114735204.543    21833389.645    89404099.2564   21833390.371  
                
  24489160.477   128691392.014    24489168.164   100279057.8484                 
                
  23105796.672   121421772.729    23105804.145    94614406.4254   23105804.312  
                
  20625749.484   108389064.215    20625757.625    84459047.5704   20625757.785  
                
  22664459.125   121324651.537                    94363627.044    22664463.492  
  22664457.898  
  22436260.906   117903383.422    22436270.336    91872818.6944   22436270.645  
                
  20446855.859   107448991.432    20446864.590    83726550.5754   20446864.066  
                
  21604583.312   113532870.807    21604590.410    88467223.1884   21604590.312  
                
  24528959.242   128900547.971    24528966.500   100442008.2614                 
                
  23036998.961   122973035.293                    95645690.137    23037003.324  
  23036996.953  
  20422739.000   109209554.264                    84940824.233    20422745.418  
  20422738.102  
  20334295.781   108698489.594                    84543285.084    20334300.324  
  20334295.520  
  19843193.383   106147740.871                    82559383.150    19843197.055  
  19843191.367  
 21  8 14  9 39 40.0000000  0 14R 4G 8G21G18G27R 3G32G10G23G16R18R20
                                R 5R19
  19397741.242   103874074.817                    80790949.543    19397743.863  
  19397740.496  
  21829742.625   114716086.119    21829751.492    89389201.7834   21829752.234  
                
  24484224.758   128665455.007    24484232.566   100258847.2784                 
                
  23111015.500   121449197.830    23111023.020    94635776.6154   23111023.184  
                
  20626132.820   108391078.634    20626140.984    84460617.2494   20626141.129  
                
  22671846.922   121364198.846                    94394386.051    22671851.250  
  22671845.730  
  22430538.148   117873310.185    22430547.586    91849385.0224   22430547.902  
                
  20447643.211   107453129.001    20447651.922    83729774.6594   20447651.406  
                
  21609153.250   113556885.978    21609160.348    88485936.3074   21609160.238  
                
  24535075.672   128932690.481    24535083.000   100467054.3634                 
                
  23043646.586   123008520.296                    95673289.568    23043650.887  
  23043644.566  
  20417804.141   109183165.416                    84920299.568    20417810.570  
  20417803.254  
  20328699.180   108668572.586                    84520016.308    20328703.711  
  20328698.926  
  19845881.727   106162121.790                    82570568.307    19845885.414  
  19845879.711  
 21  8 14  9 39 50.0000000  0 14R 4G 8G21G18G27R 3G32G10G23G16R18R20
                                R 5R19
  19399751.320   103884838.605                    80799321.382    19399753.949  
  19399750.586  
  21826114.367   114697019.526    21826123.215    89374344.7024   21826123.980  
                
  24479289.758   128639520.988    24479297.402   100238638.8974                 
                
  23116237.836   121476641.295    23116245.363    94657161.1044   23116245.547  
                
  20626528.727   108393159.102    20626536.910    84462238.3824   20626537.043  
                
  22679239.227   121403770.346                    94425163.885    22679243.539  
  22679238.043  
  22424821.711   117843270.126    22424831.164    91825977.2004   22424831.477  
                
  20448438.883   107457310.264    20448447.574    83733032.7894   20448447.062  
                
  21613728.352   113580928.291    21613735.453    88504670.5774   21613735.359  
                
  24541193.852   128964841.921    24541201.176   100492107.3694                 
                
  23050299.328   123044032.591                    95700910.200    23050303.527  
  23050297.281  
  20412875.781   109156811.246                    84899801.890    20412882.227  
  20412874.898  
  20323114.242   108638717.919                    84496795.999    20323118.766  
  20323114.008  
  19848581.195   106176562.128                    82581799.670    19848584.891  
  19848579.164  
 21  8 14  9 40  0.0000000  0 14R 4G 8G21G18G27R 3G32G10G23G16R18R20
                                R 5R19
  19401776.320   103895682.393                    80807755.447    19401778.965  
  19401775.594  
  21822496.016   114678005.026    21822504.871    89359528.2154   21822505.656  
                
  24474355.352   128613590.191    24474362.875   100218433.1474                 
                
  23121463.672   121504103.257    23121471.223    94678560.0314   23121471.406  
                
  20626937.227   108395305.802    20626945.426    84463911.1354   20626945.555  
                
  22686635.992   121443365.944                    94455960.449    22686640.352  
  22686634.781  
  22419111.633   117813263.534    22419121.102    91802595.4524   22419121.410  
                
  20449242.891   107461535.348    20449251.551    83736325.0634   20449251.059  
                
  21618308.633   113604997.836    21618315.746    88523426.0564   21618315.656  
                
  24547313.859   128997002.233    24547321.098   100517167.3564                 
                
  23056957.164   123079572.250                    95728552.183    23056961.328  
  23056955.105  
  20407954.039   109130492.526                    84879331.772    20407960.488  
  20407953.160  
  20317541.016   108608925.876                    84473624.427    20317545.535  
  20317540.789  
  19851291.820   106191062.182                    82593077.489    19851295.516  
  19851289.809  
 21  8 14  9 40 10.0000000  0 14R 4G 8G21G18G27R 3G32G10G23G16R18R20
                                R 5R19
  19403816.266   103906606.147                    80816251.697    19403818.934  
  19403815.531  
  21818887.555   114659042.478    21818896.422    89344752.2094   21818897.207  
                
  24469421.578   128587662.514    24469428.801   100198229.6544                 
                
  23126693.008   121531583.567    23126700.559    94699973.2574   23126700.746  
                
  20627358.312   108397518.592    20627366.523    84465635.3914   20627366.664  
                
  22694037.227   121482985.484                    94486775.604    22694041.664  
  22694035.961  
  22413407.906   117783290.346    22413417.387    91779239.7444   22413417.680  
                
  20450055.203   107465804.073    20450063.824    83739651.3444   20450063.355  
                
  21622894.055   113629094.414    21622901.188    88542202.6074   21622901.086  
                
  24553435.492   129029171.245    24553442.660   100542234.1024                 
                
  23063620.039   123115139.114                    95756215.306    23063624.203  
  23063618.023  
  20403038.852   109104208.786                    84858888.880    20403045.301  
  20403037.941  
  20311979.484   108579196.332                    84450501.468    20311983.980  
  20311979.270  
  19854013.578   106205621.732                    82604401.569    19854017.293  
  19854011.594  
 21  8 14  9 40 20.0000000  0 14R 4G 8G21G18G27R 3G32G10G23G16R18R20
                                R 5R19
  19405871.094   103917609.671                    80824809.985    19405873.777  
  19405870.348  
  21815289.016   114640132.051    21815297.891    89330016.8214   21815298.652  
                
  24464488.328   128561737.998    24464495.469   100178028.7794                 
                
  23131925.805   121559082.260    23131933.406    94721400.7794   23131933.578  
                
  20627791.984   108399797.529    20627800.191    84467411.1824   20627800.320  
                
  22701442.906   121522628.819                    94517609.281    22701447.379  
  22701441.617  
  22407710.562   117753350.692    22407720.020    91755910.1594   22407720.324  
                
  20450875.820   107470116.436    20450884.398    83743011.6264   20450883.953  
                
  21627484.617   113653217.988    21627491.758    88561000.1874   21627491.660  
                
  24559558.672   129061348.831    24559565.871   100567307.5334                 
                
  23070287.875   123150733.099                    95783899.457    23070292.121  
  23070285.969  
  20398130.258   109077960.361                    84838473.433    20398136.703  
  20398129.352  
  20306429.680   108549529.491                    84427427.264    20306434.152  
  20306429.473  
  19856746.438   106220240.678                    82615771.863    19856750.160  
  19856744.496  
 21  8 14  9 40 30.0000000  0 14R 4G 8G21G18G27R 3G32G10G23G16R18R20
                                R 5R19
  19407940.836   103928692.967                    80833430.325    19407943.531  
  19407940.086  
  21811700.406   114621273.810    21811709.297    89315322.0904   21811710.047  
                
  24459555.797   128535816.855    24459562.848   100157830.4554                 
                
  23137162.117   121586599.354    23137169.766    94742842.6304   23137169.926  
                
  20628238.250   108402142.655    20628246.453    84469238.5494   20628246.590  
                
  22708853.039   121562295.830                    94548461.400    22708857.504  
  22708851.785  
  22402019.648   117723444.738    22402029.000    91732606.8294   22402029.336  
                
  20451704.750   107474472.452    20451713.281    83746405.9244   20451712.863  
                
  21632080.312   113677368.529    21632087.457    88579818.7944   21632087.355  
                
  24565683.453   129093534.952    24565690.656   100592387.6044                 
                
  23076960.867   123186354.359                    95811604.867    23076965.176  
  23076958.996  
  20393228.312   109051747.473                    84818085.636    20393234.758  
  20393227.383  
  20300891.648   108519925.558                    84404401.984    20300896.113  
  20300891.453  
  19859490.430   106234919.168                    82627188.465    19859494.168  
  19859488.508  
 21  8 14  9 40 40.0000000  0 14R 4G 8G21G18G27R 3G32G10G23G16R18R20
                                R 5R19
  19410025.406   103939855.732                    80842112.465    19410028.098  
  19410024.652  
  21808121.742   114602467.833    21808130.648    89300668.0874   21808131.395  
                
  24454623.656   128509898.652    24454630.789   100137634.4704                 
                
  23142401.883   121614134.577    23142409.547    94764298.6434   23142409.695  
                
  20628697.078   108404553.776    20628705.266    84471117.3444   20628705.422  
                
  22716267.531   121601986.070                    94579331.595    22716271.969  
  22716266.305  
  22396335.133   117693572.390    22396344.371    91709329.6724   22396344.770  
                
  20452541.930   107478871.865    20452550.414    83749834.0374   20452550.020  
                
  21636681.086   113701545.790    21636688.227    88598658.2114   21636688.137  
                
  24571809.859   129125729.288    24571817.043   100617474.0894                 
                
  23083638.969   123222002.422                    95839331.096    23083643.289  
  23083637.098  
  20388332.969   109025569.875                    84797725.291    20388339.422  
  20388332.039  
  20295365.344   108490384.353                    84381425.499    20295369.789  
  20295365.148  
  19862245.500   106249656.948                    82638651.179    19862249.266  
  19862243.570  
 21  8 14  9 40 50.0000000  0 14R 4G 8G21G18G27R 3G32G10G23G16R18R20
                                R 5R19
  19412124.852   103951098.132                    80850856.564    19412127.551  
  19412124.105  
  21804553.062   114583714.286    21804561.977    89286054.9424   21804562.730  
                
  24449692.203   128483983.789    24449699.430   100117441.1414                 
                
  23147645.164   121641688.246    23147652.859    94785769.0414   23147652.988  
                
  20629168.516   108407031.136    20629176.684    84473047.7574   20629176.855  
                
  22723686.445   121641699.953                    94610220.158    22723690.875  
  22723685.184  
  22390657.062   117663733.969    22390666.254    91686078.9664   22390666.660  
                
  20453387.414   107483314.904    20453395.859    83753296.1474   20453395.496  
                
  21641286.984   113725749.949    21641294.145    88617518.5854   21641294.043  
                
  24577937.867   129157931.899    24577944.980   100642567.0244                 
                
  23090322.172   123257677.647                    95867078.453    23090326.520  
  23090320.301  
  20383444.297   108999427.988                    84777392.717    20383450.758  
  20383443.375  
  20289850.844   108460906.172                    84358498.036    20289855.277  
  20289850.617  
  19865011.727   106264454.395                    82650160.292    19865015.512  
  19865009.805  
 21  8 14  9 41  0.0000000  0 14R 4G 8G21G18G27R 3G32G10G23G16R18R20
                                R 5R19
  19414239.148   103962420.077                    80859662.525    19414241.863  
  19414238.379  
  21800994.359   114565013.250    21801003.270    89271482.7014   21801004.035  
                
  24444761.289   128458072.104    24444768.656   100097250.2354                 
                
  23152891.945   121669260.266    23152899.664    94807253.7034   23152899.773  
                
  20629652.539   108409574.701    20629660.695    84475029.7524   20629660.871  
                
  22731109.664   121681436.909                    94641126.666    22731114.078  
  22731108.367  
  22384985.461   117633929.518    22384994.668    91662854.7474   22384995.059  
                
  20454241.172   107487801.457    20454249.586    83756792.1594   20454249.238  
                
  21645897.961   113749980.857    21645905.152    88636399.8104   21645905.047  
                
  24584067.398   129190142.686    24584074.457   100667666.3454                 
                
  23097010.477   123293379.921                    95894846.848    23097014.828  
  23097008.566  
  20378562.297   108973321.831                    84757087.933    20378568.758  
  20378561.406  
  20284348.125   108431491.034                    84335619.595    20284352.559  
  20284347.891  
  19867789.062   106279311.247                    82661715.619    19867792.859  
  19867787.148  
 21  8 14  9 41 10.0000000  0 14R 4G 8G21G18G27R 3G32G10G23G16R18R20
                                R 5R19
  19416368.266   103973821.407                    80868530.225    19416370.988  
  19416367.480  
  21797445.703   114546364.960    21797454.609    89256951.5734   21797455.367  
                
  24439831.109   128432163.751    24439838.484   100077061.9394                 
                
  23158142.211   121696850.569    23158149.949    94828752.6124   23158150.059  
                
  20630149.164   108412184.446    20630157.309    84477063.3184   20630157.496  
                
  22738537.227   121721197.205                    94672051.338    22738541.641  
  22738535.891  
  22379320.344   117604159.147    22379329.578    91639657.0684   22379329.965  
                
  20455103.211   107492331.486    20455111.613    83760322.0484   20455111.266  
                
  21650514.023   113774238.457    21650521.238    88655301.8244   21650521.102  
                
  24590198.430   129222361.530    24590205.516   100692771.9054                 
                
  23103703.758   123329109.014                    95922636.107    23103708.145  
  23103701.816  
  20373687.039   108947251.674                    84736811.160    20373693.531  
  20373686.145  
  20278857.234   108402139.156                    84312790.380    20278861.668  
  20278857.000  
  19870577.523   106294227.609                    82673317.224    19870581.324  
  19870575.621  
 21  8 14  9 41 20.0000000  0 14R 4G 8G21G18G27R 3G32G10G23G16R18R20
                                R 5R19
  19418512.211   103985302.122                    80877459.675    19418514.934  
  19418511.414  
  21793907.055   114527769.246    21793915.980    89242461.4104   21793916.734  
                
  24434901.484   128406258.659    24434908.922   100056876.1944                 
                
  23163395.992   121724459.194    23163403.699    94850265.8214   23163403.816  
                
  20630658.391   108414860.438    20630666.535    84479148.5024   20630666.730  
                
  22745969.047   121760980.389                    94702993.787    22745973.512  
  22745967.668  
  22373661.734   117574422.988    22373670.980    91616486.0524   22373671.359  
                
  20455973.516   107496904.977    20455981.914    83763885.8104   20455981.562  
                
  21655135.156   113798522.713    21655142.387    88674224.6224   21655142.234  
                
  24596330.977   129254588.471    24596338.137   100717883.8004                 
                
  23110401.984   123364864.944                    95950446.230    23110406.496  
  23110400.070  
  20368818.508   108921217.469                    84716562.323    20368825.016  
  20368817.617  
  20273378.203   108372850.655                    84290010.433    20273382.637  
  20273377.961  
  19873377.117   106309203.529                    82684965.158    19873380.918  
  19873375.242  
 21  8 14  9 41 30.0000000  0 14R 4G 8G21G18G27R 3G32G10G23G16R18R20
                                R 5R19
  19420670.930   103996861.966                    80886450.667    19420673.660  
  19420670.125  
  21790378.406   114509226.130    21790387.355    89228012.2384   21790388.090  
                
  24429972.508   128380356.739    24429979.871   100036692.8514                 
                
  23168653.180   121752085.970    23168660.863    94871793.1694   23168660.992  
                
  20631180.188   108417602.484    20631188.352    84481285.1614   20631188.547  
                
  22753405.148   121800786.421                    94733953.987    22753409.664  
  22753403.754  
  22368009.633   117544720.959    22368018.898    91593341.6284   22368019.254  
                
  20456852.055   107501521.740    20456860.453    83767483.2834   20456860.098  
                
  21659761.320   113822833.394    21659768.543    88693168.0044   21659768.379  
                
  24602465.086   129286823.152    24602472.223   100743001.6924                 
                
  23117105.141   123400647.690                    95978277.205    23117109.918  
  23117103.336  
  20363956.664   108895219.082                    84696341.351    20363963.184  
  20363955.781  
  20267910.992   108343625.338                    84267279.635    20267915.426  
  20267910.746  
  19876187.805   106324238.813                    82696659.265    19876191.617  
  19876185.945  
 21  8 14  9 41 40.0000000  0 14R 4G 8G21G18G27R 3G32G10G23G16R18R20
                                R 5R19
  19422844.430   104008500.922                    80895503.181    19422847.172  
  19422843.609  
  21786859.797   114490735.686    21786868.762    89213604.0984   21786869.480  
                
  24425044.219   128354458.048    24425051.453   100016512.0794                 
                
  23173913.844   121779730.943    23173921.461    94893334.6844   23173921.625  
                
  20631714.570   108420410.655    20631722.766    84483473.3454   20631722.953  
                
  22760845.523   121840615.092                    94764931.812    22760850.012  
  22760844.152  
  22362364.070   117515053.230    22362373.344    91570223.9294   22362373.684  
                
  20457738.844   107506181.790    20457747.254    83771114.4954   20457746.891  
                
  21664392.523   113847170.501    21664399.730    88712131.9734   21664399.562  
                
  24608600.703   129319065.525    24608607.758   100768125.6064                 
                
  23123813.422   123436457.029                    96006128.876    23123818.324  
  23123811.676  
  20359101.625   108869256.998                    84676148.633    20359108.137  
  20359100.754  
  20262455.633   108314463.324                    84244598.076    20262460.070  
  20262455.387  
  19879009.672   106339333.853                    82708399.844    19879013.512  
  19879007.816  
 21  8 14  9 41 50.0000000  0 14R 4G 8G21G18G27R 3G32G10G23G16R18R20
                                R 5R19
  19425032.609   104020218.539                    80904616.883    19425035.367  
  19425031.758  
  21783351.188   114472297.821    21783360.172    89199236.9414   21783360.887  
                
  24420116.508   128328562.439    24420123.641    99996333.6734                 
                
  23179177.930   121807393.830    23179185.520    94914890.1834   23179185.707  
                
  20632261.500   108423284.747    20632269.730    84485712.8914   20632269.895  
                
  22768290.070   121880466.068                    94795927.028    22768294.500  
  22768288.707  
  22356725.000   117485419.664    22356734.254    91547132.8384   22356734.582  
                
  20458633.812   107510884.837    20458642.223    83774779.2094   20458641.848  
                
  21669028.688   113871533.707    21669035.855    88731116.2964   21669035.695  
                
  24614737.625   129351315.135    24614744.648   100793255.1784                 
                
  23130526.695   123472292.679                    96034001.031    23130531.625  
  23130524.965  
  20354253.312   108843330.941                    84655983.923    20354259.840  
  20354252.430  
  20257012.102   108285364.578                    84221965.734    20257016.551  
  20257011.848  
  19881842.547   106354487.828                    82720186.254    19881846.387  
  19881840.734  
 21  8 14  9 42  0.0000000  0 14R 4G 8G21G18G27R 3G32G10G23G16R18R20
                                R 5R19
  19427235.586   104032015.417                    80913792.232    19427238.355  
  19427234.707  
  21779852.656   114453912.919    21779861.664    89184911.0384   21779862.355  
                
  24415189.445   128302670.332    24415196.473    99976158.0024                 
                
  23184445.516   121835075.083    23184453.121    94936459.9814   23184453.293  
                
  20632821.047   108426225.174    20632829.312    84488004.1294   20632829.453  
                
  22775738.820   121920339.625                    94826939.775    22775743.223  
  22775737.398  
  22351092.523   117455820.780    22351101.727    91524068.7804   22351102.062  
                
  20459537.031   107515631.299    20459545.430    83778477.7504   20459545.047  
                
  21673669.898   113895923.411    21673677.000    88750121.2624   21673676.867  
                
  24620875.969   129383572.390    24620883.043   100818390.7044                 
                
  23137245.031   123508155.233                    96061894.123    23137249.941  
  23137243.285  
  20349411.789   108817441.197                    84635847.468    20349418.316  
  20349410.895  
  20251580.484   108256329.512                    84199382.919    20251584.945  
  20251580.238  
  19884686.602   106369701.605                    82732019.189    19884690.461  
  19884684.793  
 21  8 14  9 42 10.0000000  0 14R 4G 8G21G18G27R 3G32G10G23G16R18R20
                                R 5R19
  19429453.242   104043890.913                    80923028.735    19429456.031  
  19429452.348  
  21776364.242   114435581.155    21776373.262    89170626.5564   21776373.941  
                
  24410263.000   128276781.562    24410269.980    99955984.9624                 
                
  23189716.555   121862774.438    23189724.176    94958043.8674   23189724.336  
                
  20633393.164   108429231.698    20633401.461    84490346.8694   20633401.578  
                
  22783191.672   121960235.340                    94857969.744    22783196.082  
  22783190.199  
  22345466.617   117426256.454    22345475.789    91501031.6554   22345476.141  
                
  20460448.469   107520420.898    20460456.848    83782209.9034   20460456.480  
                
  21678316.086   113920339.299    21678323.113    88769146.6364   21678323.016  
                
  24627015.648   129415836.973    24627022.875   100843531.8984                 
                
  23143968.250   123544044.166                    96089807.690    23143973.164  
  23143966.516  
  20344577.086   108791587.966                    84615739.402    20344583.609  
  20344576.203  
  20246160.812   108227358.294                    84176849.741    20246165.250  
  20246160.578  
  19887541.766   106384974.780                    82743898.309    19887545.633  
  19887539.980  
 21  8 14  9 42 20.0000000  0 14R 4G 8G21G18G27R 3G32G10G23G16R18R20
                                R 5R19
  19431685.680   104055845.531                    80932326.768    19431688.480  
  19431684.750  
  21772885.953   114417302.643    21772894.996    89156383.5594   21772895.656  
                
  24405337.234   128250896.512    24405344.188    99935814.8024                 
                
  23194991.125   121890492.271    23194998.715    94979642.1734   23194998.863  
                
  20633977.953   108432304.739    20633986.281    84492741.4494   20633986.375  
                
  22790648.773   122000153.691                    94889017.344    22790653.191  
  22790647.277  
  22339847.383   117396727.181    22339856.559    91478021.8444   22339856.930  
                
  20461368.180   107525253.979    20461376.531    83785975.9344   20461376.184  
                
  21682967.328   113944781.707    21682974.320    88788192.6634   21682974.254  
                
  24633156.836   129448109.110    24633164.168   100868678.9914                 
                
  23150696.258   123579960.021                    96117742.213    23150701.438  
  23150694.715  
  20339749.320   108765771.773                    84595660.155    20339755.844  
  20339748.422  
  20240753.117   108198451.088                    84154366.369    20240757.543  
  20240752.891  
  19890408.102   106400307.694                    82755823.910    19890411.969  
  19890406.320  
 21  8 14  9 42 30.0000000  0 14R 4G 8G21G18G27R 3G32G10G23G16R18R20
                                R 5R19
  19433932.797   104067878.735                    80941685.929    19433935.598  
  19433931.859  
  21769417.781   114399077.266    21769426.840    89142181.9664   21769427.488  
                
  24400412.117   128225014.794    24400419.082    99915647.2494                 
                
  23200269.148   121918228.153    23200276.703    95001254.5544   23200276.848  
                
  20634575.320   108435443.884    20634583.680    84495187.5334   20634583.758  
                
  22798109.977   122040093.973                    94920081.991    22798114.387  
  22798108.438  
  22334234.773   117367232.668    22334243.953    91455039.1214   22334244.316  
                
  20462296.086   107530130.121    20462304.402    83789775.5254   20462304.070  
                
  21687623.523   113969250.165    21687630.512    88807258.9874   21687630.449  
                
  24639299.414   129480388.330    24639306.758   100893831.6094                 
                
  23157429.289   123615902.233                    96145697.252    23157434.641  
  23157427.852  
  20334928.398   108739992.149                    84575609.326    20334934.906  
  20334927.500  
  20235357.359   108169607.653                    84131932.595    20235361.781  
  20235357.148  
  19893285.562   106415700.105                    82767795.782    19893289.438  
  19893283.797  
 21  8 14  9 42 40.0000000  0 14R 4G 8G21G18G27R 3G32G10G23G16R18R20
                                R 5R19
  19436194.562   104079990.350                    80951106.065    19436197.375  
  19436193.625  
  21765959.703   114380904.935    21765968.773    89128021.7184   21765969.410  
                
  24395487.570   128199136.237    24395494.520    99895482.1204                 
                
  23205550.523   121945981.986    23205558.098    95022880.9044   23205558.254  
                
  20635185.242   108438649.029    20635193.621    84497685.0484   20635193.688  
                
  22805575.219   122080055.927                    94951163.492    22805579.613  
  22805573.652  
  22328628.766   117337772.890    22328637.941    91432083.4604   22328638.309  
                
  20463232.148   107535049.156    20463240.430    83793608.5344   20463240.129  
                
  21692284.641   113993744.487    21692291.625    88826345.4634   21692291.551  
                
  24645443.289   129512674.405    24645450.613   100918989.5914                 
                
  23164167.219   123651870.666                    96173672.653    23164172.734  
  23164165.871  
  20330114.312   108714249.080                    84555586.947    20330120.809  
  20330113.414  
  20229973.539   108140828.070                    84109548.491    20229977.941  
  20229973.336  
  19896174.117   106431151.952                    82779813.894    19896177.988  
  19896172.375  
 21  8 14  9 42 50.0000000  0 14R 4G 8G21G18G27R 3G32G10G23G16R18R20
                                R 5R19
  19438470.898   104092180.015                    80960586.911    19438473.715  
  19438469.977  
  21762511.648   114362785.291    21762520.746    89113902.5144   21762521.348  
                
  24390563.578   128173260.698    24390570.484    99875319.3734                 
                
  23210835.211   121973753.498    23210842.906    95044520.9944   23210843.047  
                
  20635807.680   108441919.902    20635816.074    84500233.7794   20635816.117  
                
  22813044.430   122120039.107                    94982261.509    22813048.820  
  22813042.875  
  22323029.336   117308347.677    22323038.500    91409154.7314   22323038.879  
                
  20464176.320   107540010.776    20464184.570    83797474.7334   20464184.285  
                
  21696950.602   114018264.329    21696957.578    88845451.8314   21696957.520  
                
  24651588.289   129544966.956    24651595.668   100944152.5874                 
                
  23170909.984   123687864.947                    96201668.173    23170915.691  
  23170908.762  
  20325307.047   108688542.523                    84535592.957    20325313.547  
  20325306.133  
  20224601.609   108112112.067                    84087213.825    20224606.012  
  20224601.418  
  19899073.695   106446662.699                    82791877.800    19899077.551  
  19899071.945  
 21  8 14  9 43  0.0000000  0 14R 4G 8G21G18G27R 3G32G10G23G16R18R20
                                R 5R19
  19440761.820   104104447.826                    80970128.548    19440764.645  
  19440760.895  
  21759073.711   114344718.862    21759082.848    89099824.7784   21759083.406  
                
  24385640.195   128147388.398    24385647.109    99855159.1694                 
                
  23216123.320   122001542.840    23216131.105    95066174.9984   23216131.223  
                
  20636442.648   108445256.712    20636451.055    84502833.8874   20636451.102  
                
  22820517.688   122160043.918                    95013376.349    22820522.031  
  22820516.141  
  22317436.523   117278957.330    22317445.691    91386253.1734   22317446.078  
                
  20465128.617   107545015.169    20465136.840    83801374.2584   20465136.574  
                
  21701621.461   114042809.871    21701628.434    88864578.2244   21701628.383  
                
  24657734.633   129577266.040    24657742.004   100969320.6784                 
                
  23177657.781   123723885.282                    96229683.960    23177663.547  
  23177656.586  
  20320506.656   108662872.750                    84515627.571    20320513.148  
  20320505.719  
  20219241.648   108083460.037                    84064928.927    20219246.047  
  20219241.457  
  19901984.344   106462232.732                    82803987.830    19901988.191  
  19901982.613  
 21  8 14  9 43 10.0000000  0 14R 4G 8G21G18G27R 3G32G10G23G16R18R20
                                R 5R19
  19443067.484   104116794.559                    80979731.558    19443070.309  
  19443066.555  
  21755646.031   114326706.245    21755655.211    89085788.9814   21755655.734  
                
  24380717.625   128121520.168    24380724.492    99835002.1404                 
                
  23221415.008   122029350.855    23221422.828    95087843.5744   23221422.953  
                
  20637090.344   108448660.336    20637098.754    84505486.0624   20637098.801  
                
  22827995.062   122200070.765                    95044508.356    22827999.367  
  22827993.535  
  22311850.562   117249602.849    22311859.727    91363379.5634   22311860.102  
                
  20466089.227   107550063.152    20466097.434    83805307.7494   20466097.188  
                
  21706297.359   114067381.895    21706304.332    88883725.2474   21706304.297  
                
  24663882.438   129609572.404    24663889.762   100994494.4584                 
                
  23184410.711   123759932.407                    96257720.587    23184416.426  
  23184409.414  
  20315713.336   108637240.755                    84495691.578    20315719.820  
  20315712.406  
  20213893.836   108054872.910                    84042694.504    20213898.230  
  20213893.645  
  19904906.312   106477863.233                    82816144.875    19904910.156  
  19904904.594  
 21  8 14  9 43 20.0000000  0 14R 4G 8G21G18G27R 3G32G10G23G16R18R20
                                R 5R19
  19445387.766   104129219.538                    80989395.435    19445390.602  
  19445386.816  
  21752228.562   114308747.315    21752237.762    89071795.0084   21752238.266  
                
  24375795.688   128095655.471    24375802.574    99814847.8684                 
                
  23226710.156   122057176.994    23226717.988    95109526.2664   23226718.125  
                
  20637750.648   108452130.241    20637759.070    84508189.8834   20637759.105  
                
  22835476.438   122240119.158                    95075657.072    22835480.777  
  22835474.918  
  22306271.328   117220283.747    22306280.469    91340533.5154   22306280.844  
                
  20467058.016   107555154.143    20467066.219    83809274.7604   20467065.977  
                
  21710978.180   114091979.778    21710985.176    88902892.4174   21710985.109  
                
  24670031.484   129641885.446    24670038.805   101019673.4254                 
                
  23191168.445   123796005.791                    96285777.609    23191174.250  
  23191167.152  
  20310927.023   108611646.134                    84475784.657    20310933.484  
  20310926.113  
  20208558.047   108026350.119                    84020510.125    20208562.449  
  20208557.855  
  19907839.352   106493552.962                    82828347.993    19907843.207  
  19907837.637  
 21  8 14  9 43 30.0000000  0 14R 4G 8G21G18G27R 3G32G10G23G16R18R20
                                R 5R19
  19447722.648   104141722.761                    80999120.161    19447725.496  
  19447721.676  
  21748821.312   114290842.058    21748830.527    89057842.8614   21748831.012  
                
  24370874.477   128069794.430    24370881.258    99794696.3704                 
                
  23232008.719   122085021.284    23232016.594    95131223.0894   23232016.719  
                
  20638423.570   108455666.452    20638432.004    84510945.3634   20638432.039  
                
  22842961.766   122280188.817                    95106822.348    22842966.172  
  22842960.273  
  22300698.852   117191000.183    22300707.945    91317715.1584   22300708.328  
                
  20468034.992   107560288.128    20468043.191    83813275.2694   20468042.957  
                
  21715663.914   114116603.500    21715670.906    88922079.7304   21715670.852  
                
  24676181.648   129674205.036    24676189.090   101044857.5064                 
                
  23197931.180   123832105.391                    96313855.060    23197936.973  
  23197929.836  
  20306147.703   108586088.969                    84455906.862    20306154.141  
  20306146.797  
  20203234.312   107997891.715                    83998375.818    20203238.711  
  20203234.121  
  19910783.555   106509302.436                    82840597.584    19910787.410  
  19910781.840  
 21  8 14  9 43 40.0000000  0 14R 4G 8G21G18G27R 3G32G10G23G16R18R20
                                R 5R19
  19450072.188   104154304.441                    81008905.913    19450075.043  
  19450071.215  
  21745424.312   114272990.723    21745433.551    89043932.7354   21745434.004  
                
  24365953.984   128043937.348    24365960.816    99774548.0314                 
                
  23237310.820   122112884.025    23237318.707    95152934.3074   23237318.812  
                
  20639109.164   108459269.271    20639117.625    84513752.7544   20639117.648  
                
  22850451.117   122320280.119                    95138004.449    22850455.562  
  22850449.648  
  22295133.211   117161752.545    22295142.242    91294924.7944   22295142.652  
                
  20469020.195   107565465.401    20469028.402    83817309.5094   20469028.164  
                
  21720354.617   114141253.300    21720361.586    88941287.3574   21720361.539  
                
  24682333.156   129706531.427    24682340.617   101070046.8994                 
                
  23204698.992   123868231.508                    96341953.135    23204704.652  
  23204697.539  
  20301375.500   108560569.810                    84436058.627    20301381.914  
  20301374.621  
  20197922.750   107969498.382                    83976292.119    20197927.137  
  20197922.570  
  19913738.969   106525111.885                    82852893.814    19913742.820  
  19913737.254  
 21  8 14  9 43 50.0000000  0 14R 4G 8G21G18G27R 3G32G10G23G16R18R20
                                R 5R19
  19452436.320   104166964.269                    81018752.448    19452439.180  
  19452435.344  
  21742037.578   114255193.293    21742046.801    89030064.6054   21742047.258  
                
  24361034.234   128018083.972    24361041.070    99754402.5314                 
                
  23242616.422   122140764.897    23242624.305    95174659.6404   23242624.387  
                
  20639807.383   108462938.405    20639815.871    84516611.8154   20639815.879  
                
  22857944.438   122360392.511                    95169202.941    22857948.898  
  22857942.984  
  22289574.375   117132540.650    22289583.379    91272162.2904   22289583.824  
                
  20470013.578   107570685.607    20470021.801    83821377.2004   20470021.559  
                
  21725050.227   114165928.827    21725057.164    88960515.0414   21725057.141  
                
  24688485.875   129738864.263    24688493.387   101095241.2964                 
                
  23211471.742   123904383.610                    96370071.419    23211477.191  
  23211470.078  
  20296610.281   108535088.106                    84416239.525    20296616.684  
  20296609.426  
  20192623.305   107941169.789                    83954258.778    20192627.676  
  20192623.145  
  19916705.555   106540981.104                    82865236.547    19916709.414  
  19916703.832  
 21  8 14  9 44  0.0000000  0 14R 4G 8G21G18G27R 3G32G10G23G16R18R20
                                R 5R19
  19454814.859   104179701.247                    81028658.990    19454817.715  
  19454813.855  
  21738660.961   114237449.049    21738670.164    89016237.9274   21738670.625  
                
  24356115.055   127992233.486    24356121.926    99734259.3434                 
                
  23247925.344   122168663.077    23247933.203    95196398.4634   23247933.242  
                
  20640518.070   108466673.047    20640526.590    84519521.9274   20640526.570  
                
  22865441.531   122400524.983                    95200417.080    22865445.992  
  22865440.105  
  22284022.211   117103363.787    22284031.242    91249427.0894   22284031.680  
                
  20471014.961   107575947.904    20471023.203    83825477.6914   20471022.953  
                
  21729750.555   114190629.202    21729757.461    88979762.0874   21729757.461  
                
  24694639.680   129771202.553    24694647.223   101120439.9424                 
                
  23218249.195   123940561.126                    96398209.469    23218254.500  
  23218247.414  
  20291852.031   108509643.587                    84396449.356    20291858.430  
  20291851.172  
  20187335.828   107912905.181                    83932275.207    20187340.184  
  20187335.676  
  19919683.117   106556909.025                    82877624.929    19919686.996  
  19919681.359  
 21  8 14  9 44 10.0000000  0 14R 4G 8G21G18G27R 3G32G10G23G16R18R20
                                R 5R19
  19457207.852   104192515.683                    81038625.778    19457210.719  
  19457206.844  
  21735294.539   114219758.411    21735303.734    89002453.0154   21735304.191  
                
  24351196.562   127966386.347    24351203.371    99714118.7064                 
                
  23253237.586   122196578.946    23253245.430    95218151.0804   23253245.438  
                
  20641241.297   108470473.633    20641249.848    84522483.4164   20641249.809  
                
  22872942.453   122440678.006                    95231647.177    22872946.934  
  22872941.062  
  22278476.797   117074222.473    22278485.879    91226719.5874   22278486.297  
                
  20472024.422   107581252.666    20472032.680    83829611.2704   20472032.418  
                
  21734455.680   114215354.780    21734462.559    88999028.7704   21734462.570  
                
  24700794.523   129803546.609    24700802.164   101145643.0804                 
                
  23225031.312   123976764.287                    96426367.417    23225036.617  
  23225029.457  
  20287100.797   108484236.637                    84376688.383    20287107.180  
  20287099.922  
  20182060.414   107884705.103                    83910341.814    20182064.754  
  20182060.270  
  19922671.742   106572896.215                    82890059.406    19922675.660  
  19922669.980  
 21  8 14  9 44 20.0000000  0 14R 4G 8G21G18G27R 3G32G10G23G16R18R20
                                R 5R19
  19459615.406   104205407.990                    81048653.126    19459618.285  
  19459614.406  
  21731938.445   114202122.016    21731947.621    88988710.3654   21731948.082  
                
  24346278.711   127940543.002    24346285.551    99693981.0814                 
                
  23258553.320   122224512.926    23258561.086    95239917.8214   23258561.117  
                
  20641977.156   108474340.574    20641985.738    84525496.6124   20641985.676  
                
  22880447.250   122480851.836                    95262893.490    22880451.754  
  22880445.918  
  22272938.258   117045117.259    22272947.320    91204040.1974   22272947.746  
                
  20473042.047   107586600.303    20473050.316    83833778.2584   20473050.043  
                
  21739165.672   114240105.943    21739172.516    89018315.3884   21739172.566  
                
  24706950.586   129835896.718    24706958.254   101170850.9454                 
                
  23231818.062   124012993.342                    96454545.526    23231823.617  
  23231816.312  
  20282356.688   108458867.750                    84356957.032    20282363.066  
  20282355.824  
  20176797.172   107856570.074                    83888459.029    20176801.516  
  20176797.031  
  19925671.562   106588943.229                    82902540.412    19925675.488  
  19925669.773  
 21  8 14  9 44 30.0000000  0 14R 4G 8G21G18G27R 3G32G10G23G16R18R20
                                R 5R19
  19462037.391   104218377.635                    81058740.633    19462040.277  
  19462036.375  
  21728592.594   114184539.471    21728601.750    88975009.6844   21728602.223  
                
  24341361.570   127914703.109    24341368.348    99673846.0654                 
                
  23263872.383   122252464.684    23263880.098    95261698.3934   23263880.156  
                
  20642725.578   108478273.519    20642734.195    84528561.2504   20642734.117  
                
  22887955.844   122521045.968                    95294155.602    22887960.340  
  22887954.562  
  22267406.531   117016047.857    22267415.500    91181388.7074   22267415.965  
                
  20474067.750   107591990.409    20474076.027    83837978.3374   20474075.770  
                
  21743880.453   114264882.265    21743887.281    89037621.6054   21743887.352  
                
  24713107.734   129868252.445    24713115.375   101196063.1994                 
                
  23238609.773   124049248.039                    96482743.579    23238615.406  
  23238608.031  
  20277619.688   108433536.820                    84337255.199    20277626.055  
  20277618.844  
  20171546.039   107828499.814                    83866626.608    20171550.379  
  20171545.902  
  19928682.461   106605049.521                    82915067.521    19928686.418  
  19928680.656  
 21  8 14  9 44 40.0000000  0 14R 4G 8G21G18G27R 3G32G10G23G16R18R20
                                R 5R19
  19464473.836   104231424.766                    81068888.388    19464476.738  
  19464472.805  
  21725257.062   114167011.109    21725266.199    88961351.2194   21725266.691  
                
  24336445.164   127888866.870    24336451.859    99653713.9594                 
                
  23269194.820   122280434.336    23269202.531    95283492.9114   23269202.602  
                
  20643486.586   108482272.662    20643495.238    84531677.4614   20643495.145  
                
  22895468.234   122561260.405                    95325433.488    22895472.750  
  22895466.941  
  22261881.664   116987014.543    22261890.586    91158765.3494   22261891.074  
                
  20475101.562   107597423.114    20475109.852    83842211.6104   20475109.590  
                
  21748600.031   114289683.840    21748606.867    89056947.4954   21748606.926  
                
  24719265.906   129900613.916    24719273.555   101221279.8994                 
                
  23245406.180   124085528.494                    96510961.686    23245411.949  
  23245404.500  
  20272889.797   108408243.958                    84317582.982    20272896.156  
  20272888.953  
  20166307.070   107800494.532                    83844844.732    20166311.414  
  20166306.914  
  19931704.469   106621215.282                    82927640.874    19931708.438  
  19931702.621  
 21  8 14  9 44 50.0000000  0 14R 4G 8G21G18G27R 3G32G10G23G16R18R20
                                R 5R19
  19466924.734   104244549.249                    81079096.326    19466927.648  
  19466923.688  
  21721931.812   114149536.784    21721940.938    88947734.8624   21721941.430  
                
  24331529.375   127863034.244    24331536.121    99633584.6394                 
                
  23274520.688   122308421.924    23274528.414    95305301.4174   23274528.492  
                
  20644260.203   108486338.019    20644268.891    84534845.2684   20644268.797  
                
  22902984.422   122601495.240                    95356727.216    22902988.980  
  22902983.074  
  22256363.703   116958017.479    22256372.656    91136170.2404   22256373.117  
                
  20476143.477   107602898.426    20476151.781    83846478.0884   20476151.512  
                
  21753324.414   114314510.660    21753331.254    89076293.0644   21753331.320  
                
  24725425.125   129932981.038    24725432.812   101246501.0114                 
                
  23252207.461   124121834.687                    96539199.787    23252213.328  
  23252205.777  
  20268167.070   108382989.449                    84297940.586    20268173.441  
  20268166.230  
  20161080.297   107772554.443                    83823113.565    20161084.648  
  20161080.121  
  19934737.609   106637440.498                    82940260.487    19934741.582  
  19934735.750  
 21  8 14  9 45  0.0000000  0 14R 4G 8G21G18G27R 3G32G10G23G16R18R20
                                R 5R19
  19469390.000   104257750.699                    81089364.115    19469392.926  
  19469388.918  
  21718616.867   114132116.688    21718625.980    88934160.7624   21718626.469  
                
  24326614.258   127837205.077    24326621.016    99613458.0514                 
                
  23279849.844   122336427.113    23279857.656    95327123.6204   23279857.746  
                
  20645046.359   108490469.282    20645055.078    84538064.4314   20645054.965  
                
  22910504.297   122641749.843                    95388036.319    22910508.902  
  22910502.914  
  22250852.578   116929056.401    22250861.586    91113603.1864   22250862.016  
                
  20477193.438   107608415.978    20477201.762    83850777.4814   20477201.488  
                
  21758053.531   114339362.310    21758060.391    89095657.9864   21758060.453  
                
  24731585.273   129965353.311    24731593.043   101271726.1484                 
                
  23259013.508   124158166.219                    96567457.613    23259019.457  
  23259011.863  
  20263451.477   108357773.046                    84278327.832    20263457.852  
  20263450.656  
  20155865.664   107744679.312                    83801432.933    20155870.035  
  20155865.477  
  19937781.844   106653725.095                    82952926.281    19937785.836  
  19937779.969  
 21  8 14  9 45 10.0000000  0 14R 4G 8G21G18G27R 3G32G10G23G16R18R20
                                R 5R19
  19471869.781   104271029.799                    81099692.293    19471872.711  
  19471868.676  
  21715312.320   114114751.172    21715321.430    88920629.1824   21715321.914  
                
  24321699.914   127811379.974    24321706.684    99593334.5994                 
                
  23285182.500   122364450.537    23285190.410    95348960.0444   23285190.504  
                
  20645845.180   108494667.100    20645853.922    84541335.4564   20645853.797  
                
  22918027.977   122682024.661                    95419361.169    22918032.590  
  22918026.617  
  22245348.469   116900132.114    22245357.516    91091064.8004   22245357.922  
                
  20478251.555   107613976.415    20478259.902    83855110.2864   20478259.617  
                
  21762787.484   114364239.416    21762794.387    89115042.7384   21762794.426  
                
  24737746.602   129997731.324    24737754.387   101296955.7164                 
                
  23265824.578   124194523.635                    96595735.571    23265830.418  
  23265822.898  
  20258743.148   108332595.525                    84258745.321    20258749.523  
  20258742.332  
  20150663.328   107716869.841                    83779803.351    20150667.707  
  20150663.133  
  19940837.281   106670069.547                    82965638.619    19940841.270  
  19940835.434  
 21  8 14  9 45 20.0000000  0 14R 4G 8G21G18G27R 3G32G10G23G16R18R20
                                R 5R19
  19474363.930   104284385.888                    81110080.363    19474366.883  
  19474362.805  
  21712018.117   114097440.001    21712027.234    88907139.9644   21712027.695  
                
  24316786.266   127785558.621    24316793.023    99573214.0874                 
                
  23290518.547   122392491.760    23290526.562    95370810.3164   23290526.633  
                
  20646656.586   108498931.041    20646665.344    84544658.0044   20646665.211  
                
  22925555.352   122722319.264                    95450701.404    22925559.977  
  22925554.035  
  22239851.305   116871244.263    22239860.355    91068554.7864   22239860.742  
                
  20479317.734   107619579.220    20479326.117    83859476.1124   20479325.820  
                
  21767526.188   114389141.468    21767533.113    89134446.9254   21767533.141  
                
  24743908.945   130030114.565    24743916.738   101322189.3644                 
                
  23272640.258   124230906.518                    96624033.358    23272646.176  
  23272638.672  
  20254042.016   108307456.537                    84239192.778    20254048.395  
  20254041.211  
  20145473.195   107689125.672                    83758224.564    20145477.582  
  20145472.984  
  19943903.797   106686473.352                    82978397.145    19943907.789  
  19943901.973  
 21  8 14  9 45 30.0000000  0 14R 4G 8G21G18G27R 3G32G10G23G16R18R20
                                R 5R19
  19476872.492   104297819.125                    81120528.436    19476875.457  
  19476871.352  
  21708734.266   114080183.278    21708743.387    88893693.1774   21708743.844  
                
  24311873.359   127759741.173    24311880.082    99553096.5924                 
                
  23295858.000   122420550.885    23295866.066    95392674.5524   23295866.141  
                
  20647480.602   108503261.251    20647489.371    84548032.1914   20647489.234  
                
  22933086.461   122762633.787                    95482057.127    22933091.141  
  22933085.172  
  22234361.109   116842393.080    22234370.148    91046073.3474   22234370.539  
                
  20480392.008   107625224.530    20480400.422    83863875.0564   20480400.113  
                
  21772269.648   114414068.544    21772276.602    89153870.6204   21772276.625  
                
  24750072.320   130062503.106    24750080.129   101347427.1994                 
                
  23279460.898   124267314.854                    96652350.924    23279466.672  
  23279459.238  
  20249348.164   108282356.365                    84219670.424    20249354.535  
  20249347.367  
  20140295.336   107661447.049                    83736696.758    20140299.723  
  20140295.117  
  19946981.500   106702936.942                    82991202.151    19946985.496  
  19946979.676  
 21  8 14  9 45 40.0000000  0 14R 4G 8G21G18G27R 3G32G10G23G16R18R20
                                R 5R19
  19479395.383   104311329.104                    81131036.201    19479398.352  
  19479394.238  
  21705460.797   114062981.037    21705469.910    88880288.8284   21705470.387  
                
  24306961.109   127733927.442    24306967.840    99532982.0504                 
                
  23301200.844   122448627.714    23301208.938    95414552.5994   23301209.008  
                
  20648317.180   108507657.526    20648325.957    84551457.8594   20648325.805  
                
  22940621.195   122802967.777                    95513427.997    22940625.914  
  22940619.898  
  22228877.883   116813578.496    22228886.906    91023620.4274   22228887.285  
                
  20481474.320   107630912.111    20481482.766    83868306.9364   20481482.453  
                
  21777017.828   114439020.410    21777024.816    89173313.6194   21777024.824  
                
  24756236.633   130094896.538    24756244.422   101372668.8164                 
                
  23286286.125   124303748.392                    96680688.089    23286291.934  
  23286284.477  
  20244661.508   108257294.741                    84200178.052    20244667.871  
  20244660.723  
  20135129.727   107633833.914                    83715219.876    20135134.102  
  20135129.516  
  19950070.281   106719459.747                    83004053.217    19950074.270  
  19950068.457  
 21  8 14  9 45 50.0000000  0 14R 4G 8G21G18G27R 3G32G10G23G16R18R20
                                R 5R19
  19481932.570   104324915.659                    81141603.509    19481935.535  
  19481931.438  
  21702197.672   114045833.225    21702206.781    88866926.9034   21702207.266  
                
  24302049.609   127708117.335    24302056.305    99512870.2424                 
                
  23306546.953   122476722.134    23306555.156    95436444.3214   23306555.215  
                
  20649166.320   108512119.768    20649175.098    84554934.9264   20649174.945  
                
  22948159.531   122843321.004                    95544813.834    22948164.258  
  22948158.219  
  22223401.617   116784800.492    22223410.613    91001196.0094   22223410.980  
                
  20482564.648   107636641.819    20482573.121    83872771.6374   20482572.801  
                
  21781770.688   114463996.867    21781777.703    89192775.7904   21781777.688  
                
  24762401.820   130127294.732    24762409.609   101397914.1324                 
                
  23293116.180   124340207.108                    96709044.851    23293121.910  
  23293114.480  
  20239982.141   108232272.037                    84180715.952    20239988.496  
  20239981.371  
  20129976.344   107606286.163                    83693793.863    20129980.711  
  20129976.113  
  19953170.148   106736041.891                    83016950.421    19953174.109  
  19953168.352  
 21  8 14  9 46  0.0000000  0 14R 4G 8G21G18G27R 3G32G10G23G16R18R20
                                R 5R19
  19484484.039   104338578.704                    81152230.328    19484487.020  
  19484482.902  
  21698944.969   114028740.142    21698954.078    88853607.6174   21698954.559  
                
  24297138.867   127682310.973    24297145.469    99492761.3934                 
                
  23311896.461   122504834.209    23311904.746    95458349.7934   23311904.789  
                
  20650028.023   108516648.046    20650036.801    84558463.4484   20650036.648  
                
  22955701.445   122883693.392                    95576214.555    22955706.172  
  22955700.059  
  22217932.344   116756059.242    22217941.328    90978800.2254   22217941.684  
                
  20483662.992   107642413.681    20483671.496    83877269.1924   20483671.164  
                
  21786528.242   114488997.949    21786535.258    89212257.1454   21786535.242  
                
  24768567.906   130159697.594    24768575.699   101423163.0954                 
                
  23299950.922   124376690.815                    96737421.066    23299956.520  
  23299949.203  
  20235310.023   108207288.126                    84161284.031    20235316.371  
  20235309.250  
  20124835.219   107578803.942                    83672418.800    20124839.562  
  20124835.000  
  19956281.102   106752683.318                    83029893.765    19956285.027  
  19956279.297  
 21  8 14  9 46 10.0000000  0 14R 4G 8G21G18G27R 3G32G10G23G16R18R20
                                R 5R19
  19487049.844   104352318.549                    81162916.879    19487052.840  
  19487048.688  
  21695702.648   114011701.615    21695711.762    88840330.8454   21695712.246  
                
  24292228.750   127656508.431    24292235.379    99472655.5544                 
                
  23317249.430   122532964.062    23317257.715    95480269.1394   23317257.754  
                
  20650902.328   108521242.542    20650911.102    84562043.5734   20650910.957  
                
  22963246.961   122924085.111                    95607630.316    22963251.703  
  22963245.523  
  22212470.109   116727355.003    22212479.113    90956433.2934   22212479.461  
                
  20484769.391   107648227.827    20484777.926    83881799.6954   20484777.578  
                
  21791290.508   114514023.758    21791297.520    89231757.7704   21791297.500  
                
  24774734.961   130192105.125    24774742.699   101448415.7234                 
                
  23306790.414   124413199.821                    96765816.924    23306795.883  
  23306788.641  
  20230645.234   108182343.426                    84141882.605    20230651.586  
  20230644.453  
  20119706.430   107551387.645                    83651095.026    20119710.770  
  20119706.219  
  19959403.203   106769384.472                    83042883.543    19959407.121  
  19959401.359  
 21  8 14  9 46 20.0000000  0 14R 4G 8G21G18G27R 3G32G10G23G16R18R20
                                R 5R19
  19489629.891   104366134.640                    81173662.719    19489632.891  
  19489628.707  
  21692470.727   113994717.785    21692479.852    88827096.6854   21692480.336  
                
  24287319.352   127630709.611    24287325.945    99452552.5854                 
                
  23322605.711   122561111.467    23322613.941    95502202.1744   23322613.984  
                
  20651789.188   108525903.010    20651797.957    84565675.1014   20651797.816  
                
  22970795.984   122964495.522                    95639060.622    22970800.734  
  22970794.562  
  22207014.891   116698687.651    22207023.945    90934095.1044   22207024.254  
                
  20485883.781   107654083.990    20485892.344    83886362.9384   20485891.984  
                
  21796057.414   114539073.985    21796064.422    89251277.4214   21796064.398  
                
  24780902.750   130224517.042    24780910.504   101473671.7374                 
                
  23313634.570   124449733.863                    96794232.278    23313639.957  
  23313632.770  
  20225987.758   108157437.820                    84122511.573    20225994.090  
  20225986.977  
  20114589.906   107524036.940                    83629822.270    20114594.238  
  20114589.707  
  19962536.398   106786144.971                    83055919.491    19962540.309  
  19962534.527  
 21  8 14  9 46 30.0000000  0 14R 4G 8G21G18G27R 3G32G10G23G16R18R20
                                R 5R19
  19492224.273   104380027.473                    81184468.253    19492227.277  
  19492223.066  
  21689249.297   113977789.049    21689258.441    88813905.4684   21689258.938  
                
  24282410.828   127604914.935    24282417.383    99432452.8584                 
                
  23327965.430   122589276.902    23327973.555    95524149.2624   23327973.668  
                
  20652688.695   108530629.915    20652697.473    84569358.4094   20652697.336  
                
  22978348.648   123004925.319                    95670506.013    22978353.391  
  22978347.215  
  22201566.820   116670057.782    22201575.922    90911786.1244   22201576.219  
                
  20487006.266   107659982.635    20487014.848    83890959.2834   20487014.480  
                
  21800829.055   114564149.072    21800836.062    89270816.4504   21800836.027  
                
  24787071.453   130256933.896    24787079.230   101498931.6174                 
                
  23320483.453   124486293.146                    96822667.234    23320488.797  
  23320481.609  
  20221337.695   108132571.870                    84103171.393    20221344.031  
  20221336.922  
  20109485.805   107496752.567                    83608601.097    20109490.121  
  20109485.613  
  19965680.789   106802965.297                    83069001.957    19965684.691  
  19965678.902  
 21  8 14  9 46 40.0000000  0 14R 4G 8G21G18G27R 3G32G10G23G16R18R20
                                R 5R19
  19494832.875   104393996.512                    81195333.055    19494835.875  
  19494831.656  
  21686038.344   113960915.404    21686047.520    88800757.1704   21686048.008  
                
  24277502.969   127579124.092    24277509.516    99412356.1194                 
                
  23333328.523   122617460.025    23333336.523    95546110.1284   23333336.672  
                
  20653600.781   108535422.972    20653609.574    84573093.2534   20653609.434  
                
  22985904.789   123045373.815                    95701965.925    22985909.523  
  22985903.340  
  22196125.812   116641465.149    22196134.926    90889506.1544   22196135.223  
                
  20488136.742   107665923.360    20488145.340    83895588.4204   20488144.973  
                
  21805605.352   114589248.625    21805612.355    89290374.5364   21805612.316  
                
  24793240.977   130289355.134    24793248.781   101524194.9114                 
                
  23327337.016   124522877.631                    96851121.808    23327342.352  
  23327335.141  
  20216695.016   108107745.396                    84083861.924    20216701.359  
  20216694.242  
  20104394.047   107469534.245                    83587431.290    20104398.340  
  20104393.859  
  19968836.273   106819844.954                    83082130.575    19968840.176  
  19968834.379  
 21  8 14  9 46 50.0000000  0 14R 4G 8G21G18G27R 3G32G10G23G16R18R20
                                R 5R19
  19497455.711   104408041.649                    81206257.053    19497458.703  
  19497454.492  
  21682837.836   113944096.620    21682847.027    88787651.6294   21682847.520  
                
  24272595.891   127553337.146    24272602.387    99392262.3814                 
                
  23338694.898   122645660.703    23338702.887    95568084.6734   23338703.059  
                
  20654525.430   108540282.031    20654534.246    84576879.5274   20654534.098  
                
  22993464.422   123085840.943                    95733440.332    22993469.137  
  22993462.980  
  22190691.898   116612909.756    22190701.020    90867255.1974   22190701.320  
                
  20489275.219   107671906.062    20489283.820    83900250.2654   20489283.449  
                
  21810386.273   114614372.475    21810393.270    89309951.5634   21810393.246  
                
  24799411.289   130321780.480    24799419.152   101549461.3774                 
                
  23334195.172   124559487.129                    96879595.782    23334200.578  
  23334193.359  
  20212059.742   108082958.446                    84064583.174    20212066.078  
  20212058.969  
  20099314.625   107442381.880                    83566312.804    20099318.914  
  20099314.426  
  19972002.859   106836784.045                    83095305.414    19972006.742  
  19972000.980  
 21  8 14  9 47  0.0000000  0 14R 4G 8G21G18G27R 3G32G10G23G16R18R20
                                R 5R19
  19500092.734   104422162.855                    81217240.206    19500095.703  
  19500091.527  
  21679647.812   113927332.943    21679657.012    88774589.0264   21679657.520  
                
  24267689.547   127527554.062    24267696.059    99372171.6864                 
                
  23344064.625   122673878.963    23344072.574    95590072.9304   23344072.809  
                
  20655462.641   108545207.147    20655471.492    84580717.2784   20655471.320  
                
  23001027.516   123126326.521                    95764929.095    23001032.215  
  23001026.082  
  22185265.086   116584391.725    22185274.227    90845033.3644   22185274.527  
                
  20490421.672   107677930.713    20490430.277    83904944.8004   20490429.898  
                
  21815171.805   114639520.601    21815178.812    89329547.4964   21815178.789  
                
  24805582.391   130354209.868    24805590.301   101574730.9934                 
                
  23341058.000   124596121.161                    96908088.846    23341063.402  
  23341056.141  
  20207431.852   108058211.100                    84045335.240    20207438.188  
  20207431.090  
  20094247.586   107415295.747                    83545245.807    20094251.871  
  20094247.387  
  19975180.516   106853782.363                    83108526.319    19975184.426  
  19975178.652  
 21  8 14  9 47 10.0000000  0 14R 4G 8G21G18G27R 3G32G10G23G16R18R20
                                R 5R19
  19502743.969   104436360.058                    81228282.476    19502746.941  
  19502742.781  
  21676468.289   113910624.474    21676477.504    88761569.4434   21676478.016  
                
  24262783.922   127501774.918    24262790.484    99352084.0794                 
                
  23349437.703   122702114.865    23349445.684    95612074.9194   23349445.961  
                
  20656412.445   108550198.394    20656421.324    84584606.5554   20656421.129  
                
  23008594.023   123166830.455                    95796432.136    23008598.719  
  23008592.586  
  22179845.430   116555911.261    22179854.613    90822840.7974   22179854.898  
                
  20491576.117   107683997.361    20491584.723    83909672.0574   20491584.352  
                
  21819961.977   114664693.015    21819968.996    89349162.3564   21819968.961  
                
  24811754.195   130386643.285    24811762.234   101600003.7674                 
                
  23347925.531   124632780.183                    96936601.400    23347930.945  
  23347923.629  
  20202811.422   108033503.549                    84026118.261    20202817.773  
  20202810.684  
  20089192.961   107388275.869                    83524230.361    20089197.234  
  20089192.770  
  19978369.328   106870840.360                    83121793.653    19978373.262  
  19978367.488  
 21  8 14  9 47 20.0000000  0 14R 4G 8G21G18G27R 3G32G10G23G16R18R20
                                R 5R19
  19505409.391   104450633.315                    81239383.902    19505412.359  
  19505408.227  
  21673299.305   113893971.341    21673308.527    88748592.9794   21673309.047  
                
  24257879.055   127475999.839    24257885.617    99331999.6164                 
                
  23354814.094   122730368.462    23354822.211    95634090.6854   23354822.473  
                
  20657374.836   108555255.817    20657383.738    84588547.3954   20657383.520  
                
  23016163.953   123207352.817                    95827949.532    23016168.625  
  23016162.527  
  22174432.930   116527468.475    22174442.176    90800677.6064   22174442.441  
                
  20492738.555   107690106.012    20492747.168    83914432.0464   20492746.793  
                
  21824756.766   114689889.704    21824763.793    89368796.1394   21824763.754  
                
  24817926.781   130419080.713    24817934.887   101625279.6274                 
                
  23354797.695   124669463.988                    96965133.232    23354803.078  
  23354795.789  
  20198198.469   108008836.030                    84006932.428    20198204.824  
  20198197.742  
  20084150.758   107361322.460                    83503266.608    20084155.027  
  20084150.555  
  19981569.273   106887957.895                    83135107.282    19981573.215  
  19981567.434  
 21  8 14  9 47 30.0000000  0 14R 4G 8G21G18G27R 3G32G10G23G16R18R20
                                R 5R19
  19508088.977   104464982.382                    81250544.287    19508091.934  
  19508087.824  
  21670140.812   113877373.365    21670150.043    88735659.5004   21670150.562  
                
  24252974.961   127450228.788    24252981.508    99311918.3034                 
                
  23360193.930   122758639.637    23360202.117    95656120.1504   23360202.379  
                
  20658349.812   108560379.345    20658358.727    84592539.7534   20658358.508  
                
  23023737.242   123247893.295                    95859481.001    23023741.895  
  23023735.801  
  22169027.617   116499063.430    22169036.914    90778543.8204   22169037.168  
                
  20493908.969   107696256.574    20493917.605    83919224.6874   20493917.211  
                
  21829556.148   114715110.530    21829563.191    89388448.7314   21829563.125  
                
  24824100.195   130451521.942    24824108.266   101650558.5274                 
                
  23361674.516   124706172.412                    96993684.192    23361679.809  
  23361672.578  
  20193593.008   107984208.506                    83987777.690    20193599.355  
  20193592.281  
  20079120.992   107334435.556                    83482354.589    20079125.277  
  20079120.777  
  19984780.344   106905134.909                    83148467.170    19984784.285  
  19984778.512  
 21  8 14  9 47 40.0000000  0 14R 4G 8G21G18G27R 3G32G10G23G16R18R20
                                R 5R19
  19510782.617   104479406.739                    81261763.223    19510785.574  
  19510781.453  
  21666992.820   113860830.569    21667002.059    88722769.0064   21667002.590  
                
  24248071.594   127424461.423    24248078.117    99291839.8574                 
                
  23365577.180   122786928.021    23365585.316    95678163.0394   23365585.551  
                
  20659337.297   108565568.616    20659346.219    84596583.3284   20659346.000  
                
  23031313.891   123288451.596                    95891026.336    23031318.523  
  23031312.375  
  22163629.445   116470695.867    22163638.773    90756439.2254   22163639.023  
                
  20495087.273   107702448.627    20495095.938    83924049.6674   20495095.531  
                
  21834360.031   114740355.084    21834367.086    89408119.8064   21834367.016  
                
  24830274.281   130483966.508    24830282.293   101675839.9924                 
                
  23368555.906   124742905.228                    97022254.134    23368561.129  
  23368553.941  
  20188994.969   107959620.758                    83968653.887    20189001.316  
  20188994.246  
  20074103.594   107307614.716                    83461493.946    20074107.891  
  20074103.355  
  19988002.414   106922370.749                    83161872.824    19988006.359  
  19988000.574  
 21  8 14  9 47 50.0000000  0 14R 4G 8G21G18G27R 3G32G10G23G16R18R20
                                R 5R19
  19513490.359   104493906.616                    81273040.906    19513493.312  
  19513489.188  
  21663855.352   113844343.125    21663864.605    88709921.6524   21663865.145  
                
  24243168.961   127398698.011    24243175.484    99271764.4754                 
                
  23370963.797   122815233.877    23370971.820    95700219.5384   23370972.012  
                
  20660337.336   108570823.885    20660346.258    84600678.3444   20660346.031  
                
  23038893.812   123329027.606                    95922585.418    23038898.477  
  23038892.199  
  22158238.461   116442366.137    22158247.820    90734364.1214   22158248.078  
                
  20496273.523   107708682.418    20496282.215    83928907.1654   20496281.789  
                
  21839168.469   114765623.569    21839175.523    89427809.5324   21839175.449  
                
  24836448.984   130516414.593    24836456.996   101701124.1824                 
                
  23375441.828   124779662.631                    97050843.203    23375447.008  
  23375439.898  
  20184404.461   107935073.325                    83949561.430    20184410.805  
  20184403.754  
  20069098.648   107280860.485                    83440685.108    20069102.949  
  20069098.398  
  19991235.586   106939666.038                    83175324.717    19991239.543  
  19991233.750  
 21  8 14  9 48  0.0000000  0 14R 4G 8G21G18G27R 3G32G10G23G16R18R20
                                R 5R19
  19516212.234   104508482.123                    81284377.409    19516215.184  
  19516211.070  
  21660728.492   113827911.327    21660737.762    88697117.6614   21660738.316  
                
  24238267.133   127372938.798    24238273.605    99251692.3784                 
                
  23376353.695   122843557.431    23376361.684    95722289.8214   23376361.863  
                
  20661349.977   108576145.369    20661358.898    84604824.9554   20661358.660  
                
  23046477.094   123369621.655                    95954158.534    23046481.816  
  23046475.410  
  22152854.742   116414074.542    22152864.113    90712318.7294   22152864.383  
                
  20497467.750   107714958.118    20497476.469    83933797.3224   20497476.016  
                
  21843981.500   114790916.158    21843988.562    89447518.0304   21843988.480  
                
  24842624.398   130548866.343    24842632.379   101726411.2384                 
                
  23382332.391   124816444.695                    97079451.445    23382337.539  
  23382330.496  
  20179821.555   107910566.354                    83930500.462    20179827.887  
  20179820.875  
  20064106.211   107254173.109                    83419928.270    20064110.520  
  20064105.969  
  19994479.906   106957020.883                    83188822.910    19994483.871  
  19994478.086  
 21  8 14  9 48 10.0000000  0 14R 4G 8G21G18G27R 3G32G10G23G16R18R20
                                R 5R19
  19518948.203   104523133.140                    81295772.640    19518951.152  
  19518947.062  
  21657612.211   113811535.188    21657621.492    88684357.0334   21657622.047  
                
  24233366.055   127347183.736    24233372.516    99231623.5194                 
                
  23381746.898   122871898.615    23381754.922    95744373.8384   23381755.066  
                
  20662375.211   108581533.027    20662384.129    84609023.1254   20662383.895  
                
  23054063.703   123410233.337                    95985745.400    23054068.457  
  23054062.023  
  22147478.305   116385821.196    22147487.691    90690303.1394   22147487.965  
                
  20498669.938   107721275.657    20498678.688    83938720.0714   20498678.227  
                
  21848799.094   114816232.728    21848806.180    89467245.2374   21848806.062  
                
  24848800.367   130581321.594    24848808.430   101751701.0114                 
                
  23389227.570   124853251.288                    97108078.790    23389232.625  
  23389225.676  
  20175246.172   107886099.807                    83911470.931    20175252.520  
  20175245.492  
  20059126.273   107227552.516                    83399223.377    20059130.598  
  20059126.020  
  19997735.352   106974435.258                    83202367.433    19997739.316  
  19997733.562  
 21  8 14  9 48 20.0000000  0 14R 4G 8G21G18G27R 3G32G10G23G16R18R20
                                R 5R19
  19521698.211   104537859.280                    81307226.298    19521701.164  
  19521697.090  
  21654506.523   113795214.693    21654515.824    88671639.7724   21654516.352  
                
  24228465.812   127321432.821    24228472.168    99211557.8574                 
                
  23387143.391   122900257.188    23387151.434    95766471.4294   23387151.562  
                
  20663412.992   108586986.650    20663421.906    84613272.7034   20663421.664  
                
  23061653.586   123450862.491                    96017345.835    23061658.348  
  23061651.906  
  22142109.117   116357605.950    22142118.523    90668317.2394   22142118.801  
                
  20499880.039   107727634.801    20499888.820    83943675.2464   20499888.340  
                
  21853621.203   114841573.050    21853628.301    89486990.9254   21853628.160  
                
  24854976.977   130613779.905    24854985.039   101776993.1854                 
                
  23396127.289   124890082.193                    97136725.054    23396132.230  
  23396125.367  
  20170678.398   107861673.823                    83892472.951    20170684.754  
  20170677.723  
  20054158.844   107200998.786                    83378570.484    20054163.156  
  20054158.578  
  20001001.883   106991908.972                    83215958.090    20001005.852  
  20001000.086  
 21  8 14  9 48 30.0000000  0 14R 4G 8G21G18G27R 3G32G10G23G16R18R20
                                R 5R19
  19524462.234   104552660.487                    81318738.344    19524465.176  
  19524461.141  
  21651411.414   113778949.804    21651420.730    88658965.8314   21651421.242  
                
  24223566.352   127295685.899    24223572.590    99191495.3034                 
                
  23392543.148   122928633.131    23392551.254    95788582.5404   23392551.387  
                
  20664463.328   108592506.210    20664472.230    84617573.6574   20664471.988  
                
  23069246.648   123491508.820                    96048959.616    23069251.465  
  23069244.977  
  22136747.188   116329428.895    22136756.594    90646361.0964   22136756.875  
                
  20501098.039   107734035.457    20501106.855    83948662.7694   20501106.359  
                
  21858447.805   114866936.985    21858454.898    89506755.0204   21858454.746  
                
  24861154.164   130646241.251    24861162.207   101802287.7114                 
                
  23403031.633   124926937.428                    97165390.214    23403036.395  
  23403029.656  
  20166118.195   107837288.478                    83873506.574    20166124.582  
  20166117.516  
  20049203.914   107174511.907                    83357969.586    20049208.211  
  20049203.645  
  20004279.516   107009442.076                    83229594.944    20004283.492  
  20004277.734  
 21  8 14  9 48 40.0000000  0 14R 4G 8G21G18G27R 3G32G10G23G16R18R20
                                R 5R19
  19527240.320   104567536.964                    81330308.946    19527243.242  
  19527239.246  
  21648326.945   113762740.842    21648336.273    88646335.4684   21648336.770  
                
  24218667.695   127269943.210    24218673.867    99171436.0954                 
                
  23397946.273   122957026.661    23397954.434    95810707.3574   23397954.551  
                
  20665526.250   108598091.922    20665535.152    84621926.1484   20665534.930  
                
  23076842.977   123532172.597                    96080586.967    23076847.859  
  23076841.285  
  22131392.578   116301290.315    22131401.949    90624434.9374   22131402.254  
                
  20502323.984   107740477.832    20502332.832    83953682.7964   20502332.324  
                
  21863278.938   114892324.697    21863286.008    89526537.6594   21863285.859  
                
  24867331.945   130678705.789    24867339.984   101827584.7704                 
                
  23409940.391   124963816.927                    97194074.245    23409945.152  
  23409938.496  
  20161565.656   107812944.061                    83854572.019    20161572.062  
  20161564.949  
  20044261.508   107148092.018                    83337420.793    20044265.801  
  20044261.223  
  20007568.258   107027034.599                    83243278.006    20007572.230  
  20007566.480  
 21  8 14  9 48 50.0000000  0 14R 4G 8G21G18G27R 3G32G10G23G16R18R20
                                R 5R19
  19530032.406   104582488.415                    81341937.857    19530035.316  
  19530031.352  
  21645253.133   113746587.857    21645262.469    88633748.7334   21645262.961  
                
  24213769.867   127244204.767    24213776.020    99151380.1704                 
                
  23403352.586   122985437.675    23403360.945    95832845.7624   23403361.062  
                
  20666601.742   108603743.699    20666610.641    84626330.1304   20666610.426  
                
  23084442.477   123572853.386                    96112227.565    23084447.406  
  23084440.781  
  22126045.312   116273190.254    22126054.629    90602538.7974   22126054.949  
                
  20503557.836   107746961.793    20503566.715    83958735.2324   20503566.195  
                
  21868114.562   114917736.081    21868121.621    89546338.7364   21868121.480  
                
  24873510.312   130711173.294    24873518.348   101852884.0834                 
                
  23416853.758   125000720.757                    97222777.229    23416858.504  
  23416851.863  
  20157020.789   107788640.566                    83835669.312    20157027.191  
  20157020.078  
  20039331.688   107121739.318                    83316924.257    20039335.980  
  20039331.414  
  20010868.078   107044686.422                    83257007.199    20010872.035  
  20010866.297  
 21  8 14  9 49  0.0000000  0 14R 4G 8G21G18G27R 3G32G10G23G16R18R20
                                R 5R19
  19532838.461   104597514.685                    81353624.955    19532841.367  
  19532837.402  
  21642189.922   113730490.570    21642199.273    88621205.3934   21642199.777  
                
  24208872.820   127218470.487    24208879.098    99131327.5084                 
                
  23408762.203   123013866.051    23408770.746    95854997.7074   23408770.832  
                
  20667689.789   108609461.436    20667698.688    84630785.5024   20667698.465  
                
  23092045.148   123613551.296                    96143881.495    23092050.125  
  23092043.441  
  22120705.375   116245128.733    22120714.656    90580672.6764   22120714.984  
                
  20504799.586   107753487.213    20504808.480    83963819.9754   20504807.953  
                
  21872954.672   114943170.958    21872961.738    89566158.1194   21872961.590  
                
  24879689.234   130743643.473    24879697.230   101878185.5084                 
                
  23423771.555   125037648.660                    97251498.869    23423776.324  
  23423769.750  
  20152483.578   107764378.090                    83816798.509    20152489.996  
  20152482.867  
  20034414.414   107095453.719                    83296479.914    20034418.711  
  20034414.121  
  20014178.984   107062397.496                    83270782.472    20014182.926  
  20014177.203  
 21  8 14  9 49 10.0000000  0 14R 4G 8G21G18G27R 3G32G10G23G16R18R20
                                R 5R19
  19535658.461   104612615.695                    81365370.177    19535661.391  
  19535657.383  
  21639137.375   113714449.333    21639146.754    88608705.7314   21639147.242  
                
  24203976.539   127192740.484    24203982.953    99111278.1894                 
                
  23414175.164   123042311.805    23414183.816    95877163.2224   23414183.906  
                
  20668790.383   108615245.165    20668799.270    84635292.2994   20668799.059  
                
  23099650.977   123654265.956                    96175548.430    23099655.949  
  23099649.285  
  22115372.797   116217105.867    22115382.055    90558836.6814   22115382.379  
                
  20506049.219   107760054.099    20506058.125    83968937.0244   20506057.598  
                
  21877799.234   114968629.328    21877806.312    89585995.8034   21877806.141  
                
  24885868.664   130776116.358    24885876.609   101903489.0344                 
                
  23430693.945   125074600.712                    97280239.334    23430698.730  
  23430692.141  
  20147954.062   107740156.760                    83797959.694    20147960.461  
  20147953.340  
  20029509.680   107069235.216                    83276087.755    20029513.980  
  20029509.367  
  20017500.977   107080167.906                    83284603.900    20017504.926  
  20017499.199  
 21  8 14  9 49 20.0000000  0 14R 4G 8G21G18G27R 3G32G10G23G16R18R20
                                R 5R19
  19538492.422   104627791.449                    81377173.544    19538495.371  
  19538491.316  
  21636095.477   113698464.048    21636104.871    88596249.6634   21636105.348  
                
  24199081.070   127167014.670    24199087.594    99091232.0974                 
                
  23419591.453   123070774.917    23419600.188    95899342.2414   23419600.293  
                
  20669903.547   108621094.885    20669912.422    84639850.5204   20669912.219  
                
  23107259.969   123694997.441                    96207228.440    23107264.969  
  23107258.305  
  22110047.586   116189121.756    22110056.836    90537030.8834   22110057.141  
                
  20507306.734   107766662.394    20507315.645    83974086.3454   20507315.105  
                
  21882648.266   114994111.101    21882655.340    89605851.7264   21882655.168  
                
  24892048.523   130808591.867    24892056.453   101928794.5994                 
                
  23437620.914   125111576.789                    97308998.458    23437625.641  
  23437619.020  
  20143432.258   107715976.609                    83779152.915    20143438.652  
  20143431.559  
  20024617.594   107043084.219                    83255748.107    20024621.895  
  20024617.254  
  20020834.109   107097997.876                    83298471.648    20020838.047  
  20020832.336  
 21  8 14  9 49 30.0000000  0 14R 4G 8G21G18G27R 3G32G10G23G16R18R20
                                R 5R19
  19541340.297   104643041.694                    81389034.842    19541343.273  
  19541339.180  
  21633064.312   113682535.171    21633073.727    88583837.5514   21633074.188  
                
  24194186.414   127141293.154    24194193.000    99071189.4194                 
                
  23425011.094   123099255.440    23425019.902    95921534.8594   23425020.016  
                
  20671029.273   108627010.630    20671038.133    84644460.1834   20671037.930  
                
  23114872.078   123735745.584                    96238921.423    23114877.086  
  23114870.469  
  22104729.781   116161176.533    22104739.027    90515255.3964   22104739.332  
                
  20508572.141   107773312.117    20508581.047    83979267.9484   20508580.512  
                
  21887501.750   115019616.288    21887508.828    89625725.8964   21887508.652  
                
  24898228.891   130841069.904    24898236.773   101954102.1284                 
                
  23444552.297   125148576.941                    97337776.311    23444557.070  
  23444550.422  
  20138918.203   107691837.932                    83760378.398    20138924.586  
  20138917.488  
  20019738.102   107017000.613                    83235460.866    20019742.402  
  20019737.754  
  20024178.312   107115887.134                    83312385.521    20024182.242  
  20024176.555  
 21  8 14  9 49 40.0000000  0 14R 4G 8G21G18G27R 3G32G10G23G16R18R20
                                R 5R19
  19544202.062   104658366.307                    81400953.975    19544205.047  
  19544200.945  
  21630043.766   113666662.090    21630053.176    88571468.9184   21630053.637  
                
  24189292.555   127115575.728    24189299.145    99051149.8424                 
                
  23430434.000   123127753.132    23430442.875    95943740.8094   23430442.961  
                
  20672167.516   108632992.158    20672176.359    84649121.1114   20672176.176  
                
  23122487.242   123776510.086                    96270627.136    23122492.262  
  23122485.676  
  22099419.336   116133270.068    22099428.586    90493510.1134   22099428.887  
                
  20509845.367   107780002.984    20509854.273    83984481.6144   20509853.734  
                
  21892359.625   115045144.578    21892366.707    89645618.0574   21892366.531  
                
  24904409.680   130873550.097    24904417.547   101979411.3684                 
                
  23451488.227   125185600.966                    97366572.736    23451492.941  
  23451486.332  
  20134411.812   107667740.319                    83741635.803    20134418.176  
  20134411.082  
  20014871.188   106990984.260                    83215225.928    20014875.492  
  20014870.836  
  20027533.578   107133835.446                    83326345.301    20027537.473  
  20027531.816  
 21  8 14  9 49 50.0000000  0 14R 4G 8G21G18G27R 3G32G10G23G16R18R20
                                R 5R19
  19547077.703   104673765.235                    81412930.921    19547080.695  
  19547076.609  
  21627033.945   113650845.387    21627043.336    88559144.2224   21627043.797  
                
  24184399.523   127089862.639    24184406.141    99031113.7054                 
                
  23435860.195   123156268.149    23435869.113    95965960.3004   23435869.164  
                
  20673318.320   108639039.676    20673327.141    84653833.4564   20673326.973  
                
  23130105.445   123817290.880                    96302345.515    23130110.543  
  23130103.906  
  22094116.336   116105402.658    22094125.574    90471795.2544   22094125.879  
                
  20511126.461   107786735.168    20511135.367    83989727.4714   20511134.832  
                
  21897221.914   115070696.100    21897228.996    89665528.3344   21897228.832  
                
  24910590.969   130906032.535    24910598.766   102004722.3274                 
                
  23458428.531   125222648.755                    97395387.645    23458433.285  
  23458426.664  
  20129913.250   107643684.457                    83722925.690    20129919.586  
  20129912.512  
  20010016.906   106965035.413                    83195043.508    20010021.219  
  20010016.574  
  20030899.953   107151843.310                    83340351.420    20030903.848  
  20030898.188  
 21  8 14  9 50  0.0000000  0 14R 4G 8G21G18G27R 3G32G10G23G16R18R20
                                R 5R19
  19549967.227   104689238.455                    81424965.642    19549970.223  
  19549966.148  
  21624034.906   113635085.273    21624044.270    88546863.6074   21624044.734  
                
  24179507.258   127064153.875    24179513.891    99011080.9054                 
                
  23441289.734   123184800.549    23441298.668    95988193.3334   23441298.676  
                
  20674481.680   108645153.207    20674490.465    84658597.2394   20674490.316  
                
  23137726.695   123858088.065                    96334076.632    23137731.840  
  23137725.207  
  22088820.797   116077574.462    22088830.016    90450110.9554   22088830.324  
                
  20512415.422   107793508.679    20512424.336    83995005.5304   20512423.781  
                
  21902088.641   115096270.871    21902095.750    89685456.7194   21902095.582  
                
  24916772.633   130938517.168    24916780.363   102030034.9964                 
                
  23465373.195   125259720.297                    97424221.029    23465378.090  
  23465371.438  
  20125422.484   107619670.382                    83704248.079    20125428.828  
  20125421.746  
  20005175.289   106939154.213                    83174913.698    20005179.602  
  20005174.961  
  20034277.422   107169910.507                    83354403.680    20034281.320  
  20034275.656  
 21  8 14  9 50 10.0000000  0 14R 4G 8G21G18G27R 3G32G10G23G16R18R20
                                R 5R19
  19552870.609   104704785.920                    81437058.127    19552873.605  
  19552869.547  
  21621046.562   113619381.435    21621055.918    88534626.8504   21621056.391  
                
  24174615.812   127038449.506    24174622.543    98991051.5704                 
                
  23446722.555   123213350.223    23446731.512    96010439.8134   23446731.477  
                
  20675657.594   108651332.684    20675666.340    84663412.4104   20675666.207  
                
  23145350.984   123898901.382                    96365820.320    23145356.160  
  23145349.523  
  22083532.719   116049785.507    22083541.957    90428457.2344   22083542.270  
                
  20513712.227   107800323.397    20513721.152    84000315.7034   20513720.582  
                
  21906959.766   115121868.737    21906966.930    89705403.1044   21906966.738  
                
  24922954.727   130971003.857    24922962.367   102055349.2954                 
                
  23472322.305   125296815.750                    97453072.994    23472327.371  
  23472320.660  
  20120939.547   107595698.107                    83685602.977    20120945.898  
  20120938.789  
  20000346.352   106913340.805                    83154836.608    20000350.656  
  20000346.020  
  20037665.969   107188036.976                    83368502.027    20037669.852  
  20037664.195  
 21  8 14  9 50 20.0000000  0 14R 4G 8G21G18G27R 3G32G10G23G16R18R20
                                R 5R19
  19555787.766   104720407.167                    81449207.976    19555790.742  
  19555786.688  
  21618068.953   113603733.997    21618078.305    88522434.0394   21618078.777  
                
  24169725.211   127012749.336    24169731.941    98971025.4554                 
                
  23452158.625   123241916.977    23452167.598    96032699.6004   23452167.531  
                
  20676846.008   108657577.885    20676854.715    84668278.7974   20676854.594  
                
  23152978.211   123939730.563                    96397576.326    23152983.414  
  23152976.688  
  22078252.094   116022035.673    22078261.387    90406833.9984   22078261.656  
                
  20515016.820   107807179.077    20515025.758    84005657.7904   20515025.164  
                
  21911835.227   115147489.430    21911842.422    89725367.2824   21911842.215  
                
  24929137.062   131003492.331    24929144.695   102080664.9524                 
                
  23479275.977   125333934.552                    97481943.161    23479281.059  
  23479274.258  
  20116464.430   107571767.717                    83666990.458    20116470.793  
  20116463.664  
  19995530.047   106887594.919                    83134812.029    19995534.328  
  19995529.727  
  20041065.555   107206222.450                    83382646.295    20041069.441  
  20041063.781  
 21  8 14  9 50 30.0000000  0 14R 4G 8G21G18G27R 3G32G10G23G16R18R20
                                R 5R19
  19558718.734   104736102.394                    81461415.388    19558721.711  
  19558717.664  
  21615102.117   113588143.117    21615111.465    88510285.3034   21615111.926  
                
  24164835.414   126987053.553    24164842.176    98951002.7794                 
                
  23457598.000   123270501.014    23457606.930    96054972.8634   23457606.863  
                
  20678046.977   108663889.020    20678055.652    84673196.5664   20678055.547  
                
  23160608.391   123980575.659                    96429344.722    23160613.664  
  23160606.855  
  22072978.969   115994325.299    22072988.297    90385241.5064   22072988.562  
                
  20516329.258   107814075.935    20516338.211    84011031.9694   20516337.602  
                
  21916715.070   115173133.144    21916722.262    89745349.3904   21916722.074  
                
  24935319.727   131035982.720    24935327.426   102105982.1234                 
                
  23486234.094   125371077.063                    97510831.755    23486239.141  
  23486232.309  
  20111997.156   107547879.233                    83648410.517    20112003.520  
  20111996.371  
  19990726.438   106861916.918                    83114840.267    19990730.703  
  19990726.129  
  20044476.242   107224467.299                    83396836.730    20044480.113  
  20044474.457  
 21  8 14  9 50 40.0000000  0 14R 4G 8G21G18G27R 3G32G10G23G16R18R20
                                R 5R19
  19561663.516   104751871.524                    81473680.253    19561666.492  
  19561662.438  
  21612146.086   113572609.027    21612155.438    88498180.8144   21612155.883  
                
  24159946.500   126961362.298    24159953.234    98930983.6744                 
                
  23463040.695   123299102.363    23463049.578    96077259.6174   23463049.496  
                
  20679260.516   108670266.201    20679269.164    84678165.7854   20679269.062  
                
  23168241.531   124021436.544                    96461125.383    23168246.902  
  23168240.012  
  22067713.398   115966654.538    22067722.758    90363679.8834   22067723.012  
                
  20517649.531   107821013.979    20517658.500    84016438.2374   20517657.883  
                
  21921599.305   115198799.883    21921606.500    89765349.4404   21921606.328  
                
  24941502.867   131068474.919    24941510.508   102131300.7064                 
                
  23493196.617   125408243.320                    97539738.810    23493201.684  
  23493194.828  
  20107537.820   107524033.120                    83629863.551    20107544.180  
  20107537.004  
  19985935.562   106836306.954                    83094921.416    19985939.828  
  19985935.254  
  20047898.023   107242771.579                    83411073.379    20047901.887  
  20047896.234  
 21  8 14  9 50 50.0000000  0 14R 4G 8G21G18G27R 3G32G10G23G16R18R20
                                R 5R19
  19564622.016   104767714.224                    81486002.369    19564625.004  
  19564620.945  
  21609200.781   113557131.361    21609210.141    88486120.2944   21609210.586  
                
  24155058.438   126935675.429    24155065.102    98910967.9214                 
                
  23468486.648   123327720.805    23468495.492    96099559.6914   23468495.406  
                
  20680486.562   108676709.137    20680495.195    84683186.2534   20680495.098  
                
  23175877.609   124062313.046                    96492918.178    23175883.039  
  23175876.074  
  22062455.328   115939023.255    22062464.754    90342149.0314   22062464.996  
                
  20518977.594   107827992.958    20518986.570    84021876.3974   20518985.941  
                
  21926487.852   115224489.343    21926495.062    89785367.1954   21926494.895  
                
  24947686.227   131100968.614    24947693.871   102156620.4304                 
                
  23500163.500   125445432.956                    97568664.043    23500168.566  
  23500161.703  
  20103086.344   107500229.063                    83611349.295    20103092.711  
  20103085.531  
  19981157.375   106810764.838                    83075055.334    19981161.637  
  19981157.066  
  20051330.859   107261134.914                    83425355.973    20051334.727  
  20051329.031  
 21  8 14  9 51  0.0000000  0 14R 4G 8G21G18G27R 3G32G10G23G16R18R20
                                R 5R19
  19567594.289   104783630.626                    81498381.783    19567597.273  
  19567593.223  
  21606266.297   113541710.488    21606275.668    88474104.0264   21606276.094  
                
  24150171.242   126909993.055    24150177.969    98890955.7124                 
                
  23473935.914   123356356.458    23473944.688    96121873.1834   23473944.625  
                
  20681725.148   108683217.979    20681733.762    84688258.0624   20681733.676  
                
  23183516.586   124103205.117                    96524723.083    23183522.066  
  23183514.996  
  22057204.828   115911431.706    22057214.309    90320649.1364   22057214.516  
                
  20520313.445   107835012.930    20520322.414    84027346.5064   20520321.785  
                
  21931380.742   115250201.610    21931387.973    89805402.7244   21931387.805  
                
  24953869.812   131133463.789    24953877.531   102181941.3044                 
                
  23507134.719   125482645.953                    97597607.466    23507139.789  
  23507132.930  
  20098642.797   107476467.433                    83592868.021    20098649.160  
  20098641.996  
  19976391.922   106785290.813                    83055242.214    19976396.180  
  19976391.617  
  20054774.766   107279557.540                    83439684.679    20054778.656  
  20054772.906  
 21  8 14  9 51 10.0000000  0 14R 4G 8G21G18G27R 3G32G10G23G16R18R20
                                R 5R19
  19570580.297   104799620.551                    81510818.391    19570583.270  
  19570579.250  
  21603342.633   113526346.514    21603352.023    88462132.1024   21603352.438  
                
  24145284.883   126884315.181    24145291.594    98870946.9814                 
                
  23479388.414   123385009.340    23479397.145    96144200.0944   23479397.113  
                
  20682976.281   108689792.728    20682984.875    84693381.2454   20682984.797  
                
  23191158.422   124144112.423                    96556539.860    23191163.922  
  23191156.785  
  22051961.906   115883879.996    22051971.387    90299180.2814   22051971.609  
                
  20521657.109   107842073.924    20521666.070    84032848.5814   20521665.449  
                
  21936277.961   115275936.643    21936285.234    89825455.9954   21936285.039  
                
  24960053.797   131165960.457    24960061.477   102207263.3984                 
                
  23514110.367   125519882.411                    97626569.120    23514115.414  
  23514108.582  
  20094207.203   107452748.302                    83574419.815    20094213.543  
  20094206.402  
  19971639.234   106759885.080                    83035482.211    19971643.504  
  19971638.930  
  20058229.742   107298039.390                    83454059.443    20058233.656  
  20058227.871  
 21  8 14  9 51 20.0000000  0 14R 4G 8G21G18G27R 3G32G10G23G16R18R20
                                R 5R19
  19573580.008   104815683.826                    81523312.042    19573582.984  
  19573578.984  
  21600429.766   113511039.347    21600439.160    88450204.4374   21600439.566  
                
  24140399.367   126858641.747    24140406.113    98850941.7284                 
                
  23484844.102   123413679.264    23484852.820    96166540.2684   23484852.828  
                
  20684239.914   108696433.202    20684248.492    84698555.6354   20684248.430  
                
  23198803.078   124185034.963                    96588368.467    23198808.625  
  23198801.391  
  22046726.555   115856368.060    22046735.980    90277742.4074   22046736.238  
                
  20523008.531   107849175.689    20523017.473    84038382.4264   20523016.855  
                
  21941179.469   115301694.208    21941186.773    89845526.8144   21941186.547  
                
  24966237.992   131198458.334    24966245.621   102232586.3634                 
                
  23521090.281   125557142.086                    97655548.842    23521095.422  
  23521088.598  
  20089779.555   107429071.713                    83556004.695    20089785.895  
  20089778.754  
  19966899.320   106734547.565                    83015775.251    19966903.578  
  19966899.031  
  20061695.750   107316580.279                    83468480.128    20061699.680  
  20061693.828  
 21  8 14  9 51 30.0000000  0 14R 4G 8G21G18G27R 3G32G10G23G16R18R20
                                R 5R19
  19576593.367   104831820.199                    81535862.555    19576596.328  
  19576592.367  
  21597527.719   113495788.929    21597537.121    88438320.9934   21597537.520  
                
  24135514.719   126832972.734    24135521.395    98830939.9244                 
                
  23490303.031   123442366.177    23490311.730    96188893.6854   23490311.758  
                
  20685516.062   108703139.371    20685524.621    84703781.2164   20685524.574  
                
  23206450.539   124225972.491                    96620208.745    23206456.117  
  23206448.797  
  22041498.781   115828895.945    22041508.188    90256335.5784   22041508.453  
                
  20524367.719   107856318.191    20524376.633    84043948.0154   20524376.023  
                
  21946085.250   115327474.228    21946092.570    89865615.1344   21946092.312  
                
  24972422.398   131230957.248    24972429.996   102257910.1924                 
                
  23528074.734   125594424.907                    97684546.566    23528079.809  
  23528072.949  
  20085359.852   107405437.573                    83537622.585    20085366.184  
  20085359.039  
  19962172.133   106709278.007                    82996121.161    19962176.371  
  19962171.852  
  20065172.852   107335180.496                    83482946.954    20065176.789  
  20065170.926  
 21  8 14  9 51 40.0000000  0 14R 4G 8G21G18G27R 3G32G10G23G16R18R20
                                R 5R19
  19579620.414   104848029.824                    81548470.052    19579623.359  
  19579619.449  
  21594636.492   113480595.456    21594645.898    88426481.9234   21594646.281  
                
  24130630.938   126807308.352    24130637.547    98810941.6674                 
                
  23495765.250   123471070.282    23495773.969    96211260.4994   23495773.984  
                
  20686804.734   108709911.437    20686813.281    84709058.1484   20686813.246  
                
  23214100.820   124266925.084                    96652060.730    23214106.387  
  23214099.070  
  22036278.648   115801463.978    22036288.074    90234960.0364   22036288.332  
                
  20525734.672   107863501.593    20525743.555    84049545.4694   20525742.957  
                
  21950995.328   115353276.854    21951002.668    89885721.0684   21951002.398  
                
  24978606.992   131263457.255    24978614.594   102283234.8504                 
                
  23535063.445   125631730.980                    97713562.355    23535068.523  
  23535061.617  
  20080948.180   107381846.415                    83519273.907    20080954.504  
  20080947.375  
  19957457.766   106684077.086                    82976520.456    19957461.996  
  19957457.488  
  20068661.016   107353839.825                    83497459.773    20068664.945  
  20068659.074  
 21  8 14  9 51 50.0000000  0 14R 4G 8G21G18G27R 3G32G10G23G16R18R20
                                R 5R19
  19582661.078   104864312.406                    81561134.273    19582664.004  
  19582660.117  
  21591756.148   113465459.122    21591765.547    88414687.3804   21591765.914  
                
  24125747.977   126781648.397    24125754.621    98790946.9204                 
                
  23501230.688   123499791.396    23501239.430    96233640.5574   23501239.457  
                
  20688105.930   108716749.235    20688114.453    84714386.2994   20688114.422  
                
  23221753.891   124307892.491                    96683924.254    23221759.430  
  23221752.137  
  22031066.156   115774072.103    22031075.574    90213615.7214   22031075.828  
                
  20527109.383   107870725.697    20527118.238    84055174.6414   20527117.656  
                
  21955909.664   115379101.863    21955917.012    89905844.4454   21955916.727  
                
  24984791.750   131295958.110    24984799.391   102308560.1814                 
                
  23542056.484   125669060.131                    97742596.133    23542061.586  
  23542054.621  
  20076544.508   107358298.102                    83500958.557    20076550.824  
  20076543.723  
  19952756.172   106658944.351                    82956972.782    19952760.383  
  19952755.902  
  20072160.227   107372558.311                    83512018.575    20072164.180  
  20072158.246  
 21  8 14  9 52  0.0000000  0 14R 4G 8G21G18G27R 3G32G10G23G16R18R20
                                R 5R19
  19585715.406   104880668.187                    81573855.430    19585718.316  
  19585714.445  
  21588886.727   113450380.199    21588896.113    88402937.5684   21588896.492  
                
  24120865.938   126755993.219    24120872.590    98770955.9034                 
                
  23506699.430   123528529.705    23506708.164    96256034.0334   23506708.211  
                
  20689419.664   108723652.965    20689428.168    84719765.8224   20689428.141  
                
  23229409.742   124348874.850                    96715799.416    23229415.258  
  23229407.984  
  22025861.344   115746720.633    22025870.738    90192302.8844   22025871.000  
                
  20528491.859   107877990.673    20528500.699    84060835.6594   20528500.121  
                
  21960828.289   115404949.419    21960835.633    89925985.3874   21960835.348  
                
  24990976.680   131328460.135    24990984.371   102333886.4424                 
                
  23549053.766   125706412.490                    97771647.931    23549058.957  
  23549051.957  
  20072148.945   107334793.084                    83482676.879    20072155.258  
  20072148.176  
  19948067.430   106633880.373                    82937478.589    19948071.617  
  19948067.168  
  20075670.531   107391336.138                    83526623.544    20075674.488  
  20075668.535  
 21  8 14  9 52 10.0000000  0 14R 4G 8G21G18G27R 3G32G10G23G16R18R20
                                R 5R19
  19588783.555   104897097.952                    81586634.148    19588786.453  
  19588782.594  
  21586028.375   113435359.441    21586037.750    88391233.0824   21586038.141  
                
  24115985.008   126730343.766    24115991.750    98750969.3244                 
                
  23512171.641   123557286.199    23512180.359    96278441.6744   23512180.418  
                
  20690746.125   108730623.581    20690754.602    84725197.4734   20690754.586  
                
  23237068.523   124389872.877                    96747686.762    23237073.992  
  23237066.766  
  22020664.422   115719410.626    22020673.809    90171022.3694   22020674.066  
                
  20529882.305   107885297.465    20529891.137    84066529.2624   20529890.555  
                
  21965751.383   115430820.437    21965758.707    89946144.6174   21965758.422  
                
  24997162.055   131360964.045    24997169.688   102359214.1144                 
                
  23556055.617   125743789.038                    97800718.511    23556060.887  
  23556053.832  
  20067761.672   107311332.320                    83464429.631    20067768.004  
  20067760.887  
  19943391.727   106608886.045                    82918038.560    19943395.910  
  19943391.484  
  20079192.125   107410174.349                    83541275.478    20079196.094  
  20079190.117  
 21  8 14  9 52 20.0000000  0 14R 4G 8G21G18G27R 3G32G10G23G16R18R20
                                R 5R19
  19591864.875   104913598.290                    81599467.741    19591867.777  
  19591863.902  
  21583180.547   113420393.983    21583189.910    88379571.6824   21583190.305  
                
  24111104.602   126704696.952    24111111.367    98730984.8094                 
                
  23517646.688   123586057.602    23517655.406    96300860.9374   23517655.430  
                
  20692084.711   108737657.848    20692093.164    84730678.7164   20692093.156  
                
  23244729.617   124430883.241                    96779583.696    23244735.059  
  23244727.820  
  22015474.781   115692138.922    22015484.180    90149771.7094   22015484.445  
                
  20531280.070   107892642.794    20531288.895    84072252.8934   20531288.309  
                
  21970678.312   115456711.612    21970685.586    89966319.5564   21970685.340  
                
  25003347.094   131393466.379    25003354.762   102384540.5784                 
                
  23563061.453   125781186.389                    97829805.313    23563066.691  
  23563059.621  
  20063382.086   107287912.743                    83446214.404    20063388.438  
  20063381.328  
  19938728.453   106583958.192                    82898650.241    19938732.617  
  19938728.230  
  20082724.375   107429069.429                    83555971.650    20082728.348  
  20082722.391  
 21  8 14  9 52 30.0000000  0 14R 4G 8G21G18G27R 3G32G10G23G16R18R20
                                R 5R19
  19594959.891   104930171.936                    81612358.347    19594962.781  
  19594958.914  
  21580343.750   113405486.542    21580353.109    88367955.4944   21580353.508  
                
  24106225.203   126679055.444    24106231.953    98711004.4034                 
                
  23523125.102   123614846.758    23523133.848    96323294.0234   23523133.840  
                
  20693435.930   108744758.576    20693444.363    84736211.7464   20693444.367  
                
  23252393.508   124471908.705                    96811492.354    23252398.973  
  23252391.672  
  22010293.000   115664908.484    22010302.383    90128553.1944   22010302.680  
                
  20532685.711   107900029.428    20532694.535    84078008.7124   20532693.945  
                
  21975609.617   115482625.706    21975616.879    89986512.3524   21975616.652  
                
  25009532.328   131425969.932    25009540.051   102409868.0064                 
                
  23570071.555   125818607.307                    97858910.472    23570076.918  
  23570069.773  
  20059010.742   107264537.210                    83428033.442    20059017.105  
  20059009.980  
  19934078.188   106559099.883                    82879315.999    19934082.332  
  19934077.984  
  20086267.766   107448024.277                    83570714.304    20086271.781  
  20086265.793  
 21  8 14  9 52 40.0000000  0 14R 4G 8G21G18G27R 3G32G10G23G16R18R20
                                R 5R19
  19598068.484   104946818.285                    81625305.507    19598071.363  
  19598067.508  
  21577517.914   113390636.660    21577527.270    88356384.1594   21577527.680  
                
  24101346.688   126653418.738    24101353.539    98691027.7974                 
                
  23528606.758   123643653.017    23528615.539    96345740.4424   23528615.473  
                
  20694799.680   108751925.140    20694808.086    84741796.0784   20694808.094  
                
  23260060.094   124512948.675                    96843412.296    23260065.574  
  23260058.207  
  22005118.977   115637718.800    22005128.332    90107366.4314   22005128.648  
                
  20534099.078   107907456.767    20534107.902    84083796.2444   20534107.305  
                
  21980545.148   115508562.061    21980552.406    90006722.4954   21980552.176  
                
  25015717.617   131458474.075    25015725.438   102435195.8614                 
                
  23577085.969   125856051.083                    97888033.340    23577091.438  
  23577084.262  
  20054647.531   107241205.237                    83409886.344    20054653.906  
  20054646.758  
  19929440.812   106534310.465                    82860035.351    19929444.961  
  19929440.609  
  20089822.305   107467038.681                    83585503.270    20089826.344  
  20089820.344  
 21  8 14  9 52 50.0000000  0 14R 4G 8G21G18G27R 3G32G10G23G16R18R20
                                R 5R19
  19601190.656   104963537.345                    81638309.221    19601193.543  
  19601189.676  
  21574703.031   113375844.357    21574712.387    88344857.6964   21574712.820  
                
  24096469.070   126627786.795    24096475.926    98671054.8684                 
                
  23534091.688   123672476.328    23534100.434    96368200.1484   23534100.332  
                
  20696175.961   108759157.514    20696184.344    84747431.6884   20696184.363  
                
  23267729.359   124554002.786                    96875343.259    23267734.844  
  23267727.480  
  21999952.711   115610569.882    21999962.027    90086211.4354   21999962.367  
                
  20535520.180   107914924.677    20535529.000    84089615.4004   20535528.410  
                
  21985484.898   115534520.580    21985492.164    90026949.9074   21985491.922  
                
  25021903.055   131490978.514    25021910.891   102460523.9704                 
                
  23584104.867   125893517.638                    97917173.972    23584110.262  
  23584103.027  
  20050292.492   107217916.908                    83391773.216    20050298.867  
  20050291.691  
  19924816.352   106509590.053                    82840808.366    19924820.477  
  19924816.160  
  20093387.898   107486112.211                    83600338.243    20093391.949  
  20093385.938  
 21  8 14  9 53  0.0000000  0 14R 4G 8G21G18G27R 3G32G10G23G16R18R20
                                R 5R19
  19604326.289   104980328.491                    81651369.004    19604329.184  
  19604325.312  
  21571899.086   113361109.510    21571908.430    88333375.9904   21571908.883  
                
  24091592.312   126602159.603    24091599.203    98651085.6234                 
                
  23539579.789   123701316.495    23539588.477    96390673.0174   23539588.367  
                
  20697564.719   108766455.486    20697573.078    84753118.4174   20697573.105  
                
  23275401.227   124595070.868                    96907285.078    23275406.695  
  23275399.402  
  21994794.180   115583461.688    21994803.449    90065088.1824   21994803.816  
                
  20536948.969   107922432.993    20536957.797    84095466.0334   20536957.203  
                
  21990428.828   115560501.036    21990436.094    90047194.4184   21990435.844  
                
  25028088.516   131523483.102    25028096.371   102485852.2014                 
                
  23591127.898   125931006.766                    97946332.149    23591133.277  
  23591126.012  
  20045945.617   107194672.299                    83373694.073    20045952.008  
  20045944.805  
  19920204.758   106484938.442                    82821634.905    19920208.875  
  19920204.562  
  20096964.484   107505244.614                    83615218.982    20096968.559  
  20096962.535  
 21  8 14  9 53 10.0000000  0 14R 4G 8G21G18G27R 3G32G10G23G16R18R20
                                R 5R19
  19607475.406   104997191.852                    81664484.954    19607478.316  
  19607474.430  
  21569106.094   113346432.232    21569115.449    88321939.1574   21569115.902  
                
  24086716.508   126576537.196    24086723.410    98631120.1244                 
                
  23545071.172   123730173.629    23545079.746    96413159.0944   23545079.648  
                
  20698965.984   108773819.148    20698974.320    84758856.3344   20698974.355  
                
  23283075.703   124636152.844                    96939237.715    23283081.176  
  23283073.977  
  21989643.453   115556394.424    21989652.691    90043996.8204   21989653.062  
                
  20538385.445   107929981.740    20538394.277    84101348.1754   20538393.676  
                
  21995376.938   115586503.467    21995384.180    90067456.0564   21995383.957  
                
  25034273.961   131555987.757    25034281.840   102511180.4914                 
                
  23598155.125   125968518.774                    97975508.099    23598160.570  
  23598153.262  
  20041606.953   107171471.475                    83355648.992    20041613.332  
  20041606.082  
  19915606.102   106460355.988                    82802515.215    19915610.199  
  19915605.910  
  20100552.133   107524436.136                    83630145.737    20100556.215  
  20100550.215  
 21  8 14  9 53 20.0000000  0 14R 4G 8G21G18G27R 3G32G10G23G16R18R20
                                R 5R19
  19610637.977   105014127.291                    81677656.953    19610640.898  
  19610636.984  
  21566324.062   113331812.588    21566333.438    88310547.2254   21566333.879  
                
  24081841.570   126550919.435    24081848.520    98611158.2334                 
                
  23550565.742   123759047.637    23550574.262    96435658.3154   23550574.164  
                
  20700379.727   108781248.428    20700388.043    84764645.3804   20700388.086  
                
  23290752.766   124677248.620                    96971201.073    23290758.227  
  23290751.141  
  21984500.508   115529368.111    21984509.777    90022937.3634   21984510.121  
                
  20539829.609   107937570.852    20539838.441    84107261.7674   20539837.832  
                
  22000329.203   115612527.758    22000336.418    90087734.7154   22000336.211  
                
  25040459.445   131588492.391    25040467.289   102536508.7514                 
                
  23605186.469   126006053.222                    98004701.532    23605192.129  
  23605184.719  
  20037276.500   107148314.682                    83337638.158    20037282.895  
  20037275.609  
  19911020.328   106435842.456                    82783449.142    19911024.418  
  19911020.145  
  20104150.812   107543686.673                    83645118.354    20104154.898  
  20104148.883  
 21  8 14  9 53 30.0000000  0 14R 4G 8G21G18G27R 3G32G10G23G16R18R20
                                R 5R19
  19613813.969   105031134.600                    81690884.869    19613816.910  
  19613812.969  
  21563553.008   113317250.594    21563562.418    88299200.2244   21563562.852  
                
  24076967.539   126525306.453    24076974.609    98591200.1244                 
                
  23556063.484   123787938.482    23556071.988    96458170.6594   23556071.910  
                
  20701805.961   108788743.288    20701814.262    84770485.5254   20701814.316  
                
  23298432.352   124718357.896                    97003174.968    23298437.797  
  23298430.801  
  21979365.383   115502382.819    21979374.664    90001909.8744   21979375.004  
                
  20541281.430   107945200.232    20541290.266    84113206.7384   20541289.656  
                
  22005285.617   115638573.838    22005292.797    90108030.3484   22005292.590  
                
  25046644.922   131620996.833    25046652.711   102561836.8814                 
                
  23612222.188   126043610.187                    98033912.475    23612227.848  
  23612220.438  
  20032954.273   107125201.838                    83319661.505    20032960.676  
  20032953.359  
  19906447.500   106411398.072                    82764436.851    19906451.574  
  19906447.312  
  20107760.539   107562996.274                    83660136.944    20107764.645  
  20107758.629  
 21  8 14  9 53 40.0000000  0 13R 4G 8G21G18G27R 3G32G10G23G16R20R 5
                                R19
  19617003.125   105048212.422                    81704167.609    19617006.086  
  19617002.090  
  21560792.664   113302744.912    21560802.102    88287897.0954   21560802.527  
                
  24072094.164   126499696.928    24072101.328    98571244.7114                 
                
  23561564.164   123816844.842    23561572.648    96480695.0624   23561572.594  
                
  20703244.414   108796302.407    20703252.699    84776375.7464   20703252.762  
                
  23306114.195   124759479.330                    97035158.301    23306119.664  
  23306112.652  
  21974237.805   115475437.312    21974247.047    89980913.3824   21974247.426  
                
  20542740.664   107952868.540    20542749.500    84119182.0484   20542748.883  
                
  22010245.898   115664640.292    22010253.035    90128341.8804   22010252.855  
                
  25052830.047   131653499.801    25052837.816   102587163.8414                 
                
  20028640.016   107102131.671                    83301718.036    20028646.434  
  20028639.074  
  19901887.359   106387021.552                    82745477.345    19901891.430  
  19901887.168  
  20111381.023   107582363.488                    83675200.319    20111385.152  
  20111379.113  
 21  8 14  9 53 50.0000000  0 13R 4G 8G21G18G27R 3G32G10G23G16R20R 5
                                R19
  19620205.867   105065363.027                    81717506.973    19620208.844  
  19620204.809  
  21558043.547   113288298.179    21558052.992    88276639.8984   21558053.402  
                
  24067221.922   126474093.285    24067229.102    98551293.8094                 
                
  23567068.242   123845769.011    23567076.730    96503233.3514   23567076.688  
                
  20704695.547   108803928.095    20704703.824    84782317.8364   20704703.883  
                
  23313798.734   124800615.199                    97067152.831    23313804.246  
  23313797.191  
  21969118.266   115448534.024    21969127.453    89959949.7944   21969127.879  
                
  20544207.734   107960578.074    20544216.574    84125189.4764   20544215.953  
                
  22015210.500   115690729.452    22015217.609    90148671.0764   22015217.453  
                
  25059015.266   131686003.385    25059023.066   102612491.2844                 
                
  20024334.250   107079106.850                    83283809.837    20024340.676  
  20024333.328  
  19897340.344   106362715.188                    82726572.403    19897344.418  
  19897340.148  
  20115012.734   107601790.681                    83690310.348    20115016.863  
  20115010.844  
 21  8 14  9 54  0.0000000  0 13R 4G 8G21G18G27R 3G32G10G23G16R20R 5
                                R19
  19623422.055   105082585.603                    81730902.319    19623425.059  
  19623420.957  
  21555305.492   113273909.619    21555314.949    88265428.0364   21555315.352  
                
  24062350.695   126448494.802    24062357.840    98531346.9394                 
                
  23572575.625   123874710.274    23572584.098    96525784.9864   23572584.074  
                
  20706159.211   108811619.664    20706167.477    84788311.2664   20706167.523  
                
  23321485.797   124841764.628                    97099157.902    23321491.363  
  23321484.238  
  21964006.672   115421672.412    21964015.840    89939018.6784   21964016.281  
                
  20545682.523   107968328.115    20545691.367    84131228.4724   20545690.750  
                
  22020179.281   115716840.527    22020186.383    90169017.3734   22020186.230  
                
  25065200.477   131718506.810    25065208.273   102637818.5994                 
                
  20020036.867   107056126.792                    83265936.467    20020043.305  
  20020035.941  
  19892806.375   106338478.585                    82707721.719    19892810.457  
  19892806.176  
  20118655.547   107621277.222                    83705466.545    20118659.676  
  20118653.691  
 21  8 14  9 54 10.0000000  0 13R 4G 8G21G18G27R 3G32G10G23G16R20R 5
                                R19
  19626651.602   105099879.760                    81744353.319    19626654.648  
  19626650.480  
  21552578.500   113259579.169    21552587.984    88254261.4564   21552588.375  
                
  24057480.422   126422901.266    24057487.484    98511403.9344                 
                
  23578086.211   123903668.418    23578094.691    96548349.7704   23578094.688  
                
  20707635.359   108819376.849    20707643.605    84794355.8164   20707643.656  
                
  23329175.328   124882927.337                    97131173.306    23329180.930  
  23329173.750  
  21958902.961   115394852.273    21958912.145    89918119.8814   21958912.559  
                
  20547164.953   107976118.376    20547173.797    84137298.8034   20547173.168  
                
  22025152.172   115742973.248    22025159.270    90189380.5294   22025159.129  
                
  25071385.586   131751009.731    25071393.375   102663145.5164                 
                
  20015747.805   107033191.282                    83248097.746    20015754.234  
  20015746.910  
  19888285.398   106314311.456                    82688925.071    19888289.500  
  19888285.199  
  20122309.367   107640822.708                    83720668.587    20122313.516  
  20122307.512  
 21  8 14  9 54 20.0000000  0 13R 4G 8G21G18G27R 3G32G10G23G16R20R 5
                                R19
  19629894.477   105117245.202                    81757859.768    19629897.551  
  19629893.336  
  21549862.523   113245306.682    21549872.035    88243140.0374   21549872.418  
                
  24052611.055   126397312.560    24052618.039    98491464.6704                 
                
  23583599.938   123932643.262    23583608.480    96570927.5394   23583608.465  
                
  20709123.953   108827199.457    20709132.188    84800451.3514   20709132.250  
                
  23336867.305   124924102.969                    97163198.796    23336872.902  
  23336865.715  
  21953807.141   115368073.549    21953816.348    89897253.3524   21953816.734  
                
  20548655.000   107983948.618    20548663.832    84143400.2944   20548663.207  
                
  22030129.125   115769127.355    22030136.223    90209760.3424   22030136.094  
                
  25077570.500   131783511.785    25077578.348   102688471.7794                 
                
  20011467.094   107010300.400                    83230293.721    20011473.531  
  20011466.238  
  19883777.398   106290213.645                    82670182.331    19883781.504  
  19883777.191  
  20125974.203   107660427.087                    83735916.431    20125978.363  
  20125972.355  
 21  8 14  9 54 30.0000000  0 13R 4G 8G21G18G27R 3G32G10G23G16R20R 5
                                R19
  19633150.711   105134682.175                    81771421.855    19633153.809  
  19633149.570  
  21547157.617   113231092.290    21547167.152    88232063.8874   21547167.531  
                
  24047742.641   126371728.949    24047749.598    98471529.4114                 
                
  23589116.914   123961635.031    23589125.484    96593518.4984   23589125.449  
                
  20710625.055   108835087.760    20710633.270    84806598.0754   20710633.332  
                
  23344561.727   124965291.721                    97195234.470    23344567.316  
  23344560.121  
  21948719.258   115341336.594    21948728.457    89876419.3664   21948728.855  
                
  20550152.703   107991819.085    20550161.523    84149533.1254   20550160.914  
                
  22035110.211   115795303.070    22035117.312    90230157.0004   22035117.195  
                
  25083755.344   131816013.227    25083763.195   102713797.5434                 
                
  20007194.758   106987454.250                    83212524.492    20007201.199  
  20007193.926  
  19879282.477   106266185.712                    82651493.952    19879286.590  
  19879282.262  
  20129650.094   107680090.613                    83751210.283    20129654.285  
  20129648.285  
 21  8 14  9 54 40.0000000  0 13R 4G 8G21G18G27R 3G32G10G23G16R20R 5
                                R19
  19636420.211   105152190.231                    81785039.230    19636423.340  
  19636419.078  
  21544463.766   113216936.017    21544473.309    88221033.0234   21544473.680  
                
  24042875.156   126346150.214    24042882.074    98451597.9614                 
                
  23594637.094   123990643.465    23594645.629    96616122.4854   23594645.578  
                
  20712138.609   108843041.487    20712146.812    84812795.7854   20712146.883  
                
  23352258.500   125006493.051                    97227279.933    23352264.102  
  23352256.879  
  21943639.305   115314641.277    21943648.457    89855617.8374   21943648.887  
                
  20551658.000   107999729.503    20551666.809    84155697.0864   20551666.215  
                
  22040095.336   115821500.110    22040102.422    90250570.2624   22040102.320  
                
  25089940.062   131848513.714    25089947.852   102739122.5974                 
                
  20002930.805   106964652.982                    83194790.178    20002937.258  
  20002930.004  
  19874800.555   106242227.291                    82632859.625    19874804.660  
  19874800.336  
  20133336.984   107699812.948                    83766549.860    20133341.188  
  20133335.191  
 21  8 14  9 54 50.0000000  0 13R 4G 8G21G18G27R 3G32G10G23G16R20R 5
                                R19
  19639702.977   105169769.332                    81798711.858    19639706.141  
  19639701.840  
  21541780.945   113202837.702    21541790.488    88210047.3244   21541790.848  
                
  24038008.609   126320576.381    24038015.504    98431670.3194                 
                
  23600160.414   124019668.554    23600168.910    96638739.4094   23600168.883  
                
  20713664.602   108851060.610    20713672.793    84819044.4474   20713672.867  
                
  23359957.664   125047707.129                    97259335.290    23359963.289  
  23359956.051  
  21938567.289   115287987.675    21938576.391    89834848.8034   21938576.852  
                
  20553170.898   108007679.829    20553179.691    84161892.1404   20553179.113  
                
  22045084.516   115847718.369    22045091.605    90271000.0754   22045091.516  
                
  25096124.586   131881013.141    25096132.250   102764446.8194                 
                
  19998675.227   106941896.510                    83177090.703    19998681.699  
  19998674.453  
  19870331.656   106218338.538                    82614279.489    19870335.762  
  19870331.449  
  20137034.883   107719594.084                    83781935.187    20137039.059  
  20137033.098  
 21  8 14  9 55  0.0000000  0 13R 4G 8G21G18G27R 3G32G10G23G16R20R 5
                                R19
  19642998.977   105187419.301                    81812439.607    19643002.160  
  19642997.852  
  21539109.250   113188797.878    21539118.793    88199107.2014   21539119.148  
                
  24033143.023   126295007.574    24033149.918    98411746.5964                 
                
  23605686.906   124048710.322    23605695.371    96661369.3464   23605695.336  
                
  20715203.047   108859145.162    20715211.223    84825344.0964   20715211.289  
                
  23367659.180   125088933.761                    97291400.418    23367664.824  
  23367657.602  
  21933503.250   115261375.944    21933512.324    89814112.3924   21933512.789  
                
  20554691.391   108015670.054    20554700.176    84168118.2904   20554699.609  
                
  22050077.734   115873957.862    22050084.832    90291446.4384   22050084.727  
                
  25102308.836   131913511.449    25102316.434   102789770.1564                 
                
  19994428.070   106919185.072                    83159426.253    19994434.539  
  19994427.297  
  19865875.812   106194519.469                    82595753.550    19865879.918  
  19865875.594  
  20140743.766   107739434.088                    83797366.298    20140747.945  
  20140742.012  
 21  8 14  9 55 10.0000000  0 13R 4G 8G21G18G27R 3G32G10G23G16R20R 5
                                R19
  19646308.211   105205140.145                    81826222.486    19646311.418  
  19646307.074  
  21536448.664   113174816.391    21536458.195    88188212.5344   21536458.570  
                
  24028278.359   126269443.775    24028285.270    98391826.7904                 
                
  23611216.602   124077768.704    23611225.000    96684012.2204   23611224.945  
                
  20716753.938   108867295.104    20716762.109    84831694.6934   20716762.180  
                
  23375362.977   125130172.635                    97323475.081    23375368.637  
  23375361.398  
  21928447.180   115234806.123    21928456.219    89793408.6454   21928456.695  
                
  20556219.453   108023700.102    20556228.230    84174375.4694   20556227.672  
                
  22055074.977   115900218.513    22055082.066    90311909.2704   22055081.973  
                
  25108492.828   131946008.481    25108500.395   102815092.4944                 
                
  19990189.383   106896518.873                    83141796.990    19990195.855  
  19990188.590  
  19861433.008   106170770.172                    82577281.879    19861437.105  
  19861432.789  
  20144463.633   107759332.818                    83812843.082    20144467.785  
  20144461.867  
 21  8 14  9 55 20.0000000  0 13R 4G 8G21G18G27R 3G32G10G23G16R20R 5
                                R19
  19649630.641   105222931.616                    81840060.298    19649633.859  
  19649629.488  
  21533799.172   113160893.241    21533808.676    88177363.3274   21533809.086  
                
  24023414.695   126243885.103    24023421.629    98371910.9584                 
                
  23616749.453   124106843.749    23616757.797    96706668.0944   23616757.754  
                
  20718317.273   108875510.461    20718325.449    84838096.2644   20718325.516  
                
  23383069.070   125171423.897                    97355559.381    23383074.750  
  23383067.457  
  21923399.117   115208278.390    21923408.145    89772737.6954   21923408.613  
                
  20557755.109   108031770.012    20557763.879    84180663.7064   20557763.328  
                
  22060076.234   115926500.292    22060083.320    90332388.5754   22060083.242  
                
  25114676.602   131978504.202    25114684.133   102840413.8444                 
                
  19985959.141   106873897.932                    83124202.925    19985965.621  
  19985958.352  
  19857003.289   106147090.823                    82558864.622    19857007.406  
  19857003.086  
  20148194.531   107779290.669                    83828365.855    20148198.672  
  20148192.746  
 21  8 14  9 55 30.0000000  0 13R 4G 8G21G18G27R 3G32G10G23G16R20R 5
                                R19
  19652966.305   105240793.999                    81853953.266    19652969.543  
  19652965.148  
  21531160.867   113147028.833    21531170.336    88166559.8914   21531170.777  
                
  24018552.055   126218331.651    24018559.012    98351999.1914                 
                
  23622285.469   124135935.574    23622293.754    96729337.0474   23622293.703  
                
  20719893.078   108883791.350    20719901.270    84844548.9054   20719901.328  
                
  23390777.469   125212687.563                    97387653.304    23390783.195  
  23390775.789  
  21918359.102   115181792.945    21918368.129    89752099.6974   21918368.578  
                
  20559298.359   108039879.848    20559307.133    84186983.0644   20559306.574  
                
  22065081.539   115952803.283    22065088.629    90352884.4034   22065088.559  
                
  25120860.016   132010998.588    25120867.605   102865734.0914                 
                
  19981737.422   106851322.488                    83106644.248    19981743.910  
  19981736.617  
  19852586.680   106123481.558                    82540501.875    19852590.820  
  19852586.488  
  20151936.453   107799307.371                    83843934.386    20151940.574  
  20151934.641  
 21  8 14  9 55 40.0000000  0 12R 4G 8G21G18G27R 3G32G10G23R20R 5R19
  19656315.227   105258727.347                    81867901.412    19656318.461  
  19656314.059  
  21528533.773   113133223.386    21528543.219    88155802.3994   21528543.672  
                
  24013690.453   126192783.858    24013697.430    98332091.8324                 
                
  23627824.727   124165044.588    23627832.984    96752019.3854   23627832.938  
                
  20721481.430   108892138.156    20721489.629    84851052.9034   20721489.684  
                
  23398488.203   125253963.776                    97419756.988    23398493.965  
  23398486.480  
  21913327.234   115155350.286    21913336.246    89731495.0274   21913336.695  
                
  20560849.273   108048029.979    20560858.047    84193333.8134   20560857.480  
                
  22070090.945   115979127.831    22070098.031    90373397.0344   22070097.980  
                
  19977524.297   106828793.070                    83089121.368    19977530.793  
  19977523.492  
  19848183.266   106099942.826                    82522193.972    19848187.402  
  19848183.082  
  20155689.469   107819383.493                    83859549.133    20155693.555  
  20155687.656  
 21  8 14  9 55 50.0000000  0 12R 4G 8G21G18G27R 3G32G10G23R20R 5R19
  19659677.250   105276730.782                    81881904.082    19659680.488  
  19659676.094  
  21525917.758   113119476.128    21525927.199    88145090.2524   21525927.668  
                
  24008829.781   126167240.896    24008836.773    98312188.2574                 
                
  23633367.094   124194169.851    23633375.336    96774714.3794   23633375.285  
                
  20723082.148   108900549.948    20723090.359    84857607.5494   20723090.410  
                
  23406201.133   125295251.601                    97451869.747    23406206.922  
  23406199.410  
  21908303.352   115128949.601    21908312.344    89710923.0724   21908312.812  
                
  20562407.688   108056219.464    20562416.477    84199715.2274   20562415.906  
                
  22075104.266   116005472.970    22075111.340    90393925.7074   22075111.320  
                
  19973319.648   106806308.923                    83071633.716    19973326.172  
  19973318.832  
  19843792.914   106076473.894                    82503940.360    19843797.047  
  19843792.734  
  20159453.383   107839517.923                    83875209.252    20159457.441  
  20159451.574  
 21  8 14  9 56  0.0000000  0 12R 4G 8G21G18G27R 3G32G10G23R20R 5R19
  19663052.359   105294804.278                    81895961.247    19663055.586  
  19663051.215  
  21523312.852   113105787.267    21523322.293    88134423.6074   21523322.762  
                
  24003970.055   126141702.872    24003977.039    98292288.5024                 
                
  23638912.586   124223311.402    23638920.855    96797422.0954   23638920.785  
                
  20724695.250   108909026.822    20724703.477    84864212.9014   20724703.527  
                
  23413916.203   125336550.993                    97483991.496    23413922.039  
  23413914.500  
  21903287.484   115102591.087    21903296.477    89690383.9814   21903296.934  
                
  20563973.594   108064448.348    20563982.395    84206127.3414   20563981.816  
                
  22080121.516   116031838.736    22080128.609    90414470.4534   22080128.582  
                
  19969123.508   106783870.293                    83054181.446    19969130.059  
  19969122.688  
  19839415.633   106053074.856                    82485741.121    19839419.754  
  19839415.453  
  20163228.266   107859710.993                    83890914.954    20163232.309  
  20163226.457  
 21  8 14  9 56 10.0000000  0 12R 4G 8G21G18G27R 3G32G10G23R20R 5R19
  19666440.578   105312948.025                    81910073.046    19666443.785  
  19666439.449  
  21520719.141   113092157.245    21520728.574    88123802.8174   21520729.047  
                
  23999111.328   126116170.098    23999118.324    98272392.8684                 
                
  23644461.281   124252469.619    23644469.555    96820142.7474   23644469.469  
                
  20726320.789   108917569.084    20726329.043    84870869.2044   20726329.082  
                
  23421633.500   125377862.150                    97516122.374    23421639.316  
  23421631.816  
  21898279.719   115076275.165    21898288.699    89669878.0724   21898289.160  
                
  20565547.055   108072716.949    20565555.867    84212570.4024   20565555.273  
                
  22085142.734   116058225.396    22085149.840    90435031.4924   22085149.785  
                
  19964935.977   106761477.761                    83036765.033    19964942.543  
  19964935.168  
  19835051.492   106029746.070                    82467596.502    19835055.605  
  19835051.320  
  20167014.117   107879962.739                    83906666.315    20167018.125  
  20167012.336  
 21  8 14  9 56 20.0000000  0 12R 4G 8G21G18G27R 3G32G10G23R20R 5R19
  19669841.805   105331161.417                    81924239.026    19669845.004  
  19669840.699  
  21518136.555   113078585.650    21518145.984    88113227.5434   21518146.465  
                
  23994253.523   126090642.187    23994260.496    98252500.9904                 
                
  23650013.000   124281644.011    23650021.312    96842876.0134   23650021.160  
                
  20727958.680   108926176.246    20727966.973    84877576.0794   20727966.988  
                
  23429352.875   125419184.485                    97548261.954    23429358.672  
  23429351.188  
  21893279.992   115050001.451    21893288.941    89649405.0574   21893289.422  
                
  20567127.969   108081024.735    20567136.789    84219044.0024   20567136.191  
                
  22090167.844   116084632.464    22090174.910    90455608.4094   22090174.875  
                
  19960756.953   106739130.686                    83019383.967    19960763.512  
  19960756.152  
  19830700.445   106006487.294                    82449506.353    19830704.566  
  19830700.258  
  20170810.891   107900272.955                    83922463.142    20170814.875  
  20170809.133  
 21  8 14  9 56 30.0000000  0 12R 4G 8G21G18G27R 3G32G10G23R20R 5R19
  19673256.109   105349444.911                    81938459.516    19673259.293  
  19673255.020  
  21515565.156   113065072.893    21515574.586    88102698.1224   21515575.078  
                
  23989396.711   126065119.455    23989403.652    98232613.1594                 
                
  23655567.867   124310834.952    23655576.121    96865622.1844   23655575.977  
                
  20729609.000   108934848.693    20729617.328    84884333.8254   20729617.328  
                
  23437074.398   125460518.302                    97580410.449    23437080.145  
  23437072.672  
  21888288.391   115023770.451    21888297.309    89628965.3274   21888297.801  
                
  20568716.422   108089372.071    20568725.234    84225548.4244   20568724.637  
                
  22095196.883   116111060.229    22095203.926    90476201.4854   22095203.910  
                
  19956586.570   106716829.817                    83002038.852    19956593.137  
  19956585.754  
  19826362.539   105983298.725                    82431470.798    19826366.664  
  19826362.328  
  20174618.672   107920641.935                    83938305.669    20174622.625  
  20174616.938  
 21  8 14  9 56 40.0000000  0 12R 4G 8G21G18G27R 3G32G10G23R20R 5R19
  19676683.453   105367798.166                    81952734.273    19676686.621  
  19676682.387  
  21513004.977   113051619.080    21513014.414    88092214.6304   21513014.895  
                
  23984540.906   126039601.973    23984547.801    98212729.4194                 
                
  23661125.867   124340042.387    23661134.035    96888381.2264   23661133.949  
                
  20731271.742   108943586.412    20731280.098    84891142.4344   20731280.082  
                
  23444798.070   125501863.582                    97612567.868    23444803.770  
  23444796.316  
  21883304.930   114997582.257    21883313.855    89608558.9564   21883314.344  
                
  20570312.391   108097758.932    20570321.188    84232083.6394   20570320.605  
                
  22100229.859   116137508.694    22100236.898    90496810.6654   22100236.855  
                
  19952424.812   106694575.054                    82984729.592    19952431.367  
  19952423.980  
  19822037.852   105960180.796                    82413490.200    19822041.980  
  19822037.613  
  20178437.398   107941069.441                    83954193.731    20178441.320  
  20178435.695  
 21  8 14  9 56 50.0000000  0 12R 4G 8G21G18G27R 3G32G10G23R20R 5R19
  19680123.852   105386221.345                    81967063.408    19680126.984  
  19680122.789  
  21510456.039   113038224.326    21510465.473    88081777.1634   21510465.938  
                
  23979686.125   126014089.995    23979692.988    98192849.9534                 
                
  23666687.016   124369266.501    23666695.180    96911153.2394   23666695.117  
                
  20732946.914   108952389.536    20732955.281    84898002.0044   20732955.266  
                
  23452523.852   125543220.179                    97644734.085    23452529.508  
  23452522.105  
  21878329.656   114971437.128    21878338.613    89588186.1394   21878339.086  
                
  20571915.898   108106185.418    20571924.680    84238649.7254   20571924.098  
                
  22105266.781   116163977.907    22105273.809    90517436.0214   22105273.762  
                
  19948271.750   106672366.807                    82967456.521    19948278.305  
  19948270.902  
  19817726.359   105937133.462                    82395564.499    19817730.500  
  19817726.125  
  20182267.172   107961556.081                    83970127.796    20182271.059  
  20182265.496  
 21  8 14  9 57  0.0000000  0 12R 4G 8G21G18G27R 3G32G10G23R20R 5R19
  19683577.234   105404714.080                    81981446.640    19683580.352  
  19683576.168  
  21507918.352   113024888.694    21507927.777    88071385.7594   21507928.234  
                
  23974832.320   125988583.243    23974839.180    98172974.5864                 
                
  23672251.289   124398507.078    23672259.520    96933938.0784   23672259.430  
                
  20734634.500   108961257.837    20734642.871    84904912.3604   20734642.867  
                
  23460251.727   125584587.972                    97676909.009    23460257.336  
  23460250.012  
  21873362.570   114945334.957    21873371.555    89567846.7914   21873372.004  
                
  20573526.898   108114651.285    20573535.676    84245246.5074   20573535.098  
                
  22110307.609   116190467.638    22110314.648    90538077.3664   22110314.586  
                
  19944127.359   106650204.936                    82950219.505    19944133.902  
  19944126.508  
  19813428.047   105914156.533                    82377693.554    19813432.188  
  19813427.816  
  20186107.898   107982101.306                    83986107.405    20186111.766  
  20186106.230  
 21  8 14  9 57 10.0000000  0 12R 4G 8G21G18G27R 3G32G10G23R20R 5R19
  19687043.578   105423276.183                    81995883.833    19687046.656  
  19687042.512  
  21505391.867   113011611.945    21505401.285    88061040.2334   21505401.762  
                
  23969979.508   125963081.681    23969986.297    98153103.2414                 
                
  23677818.688   124427763.916    23677826.949    96956735.5984   23677826.836  
                
  20736334.453   108970191.123    20736342.832    84911873.3614   20736342.828  
                
  23467981.625   125625966.575                    97709092.340    23467987.215  
  23467979.949  
  21868403.641   114919275.665    21868412.641    89547540.8574   21868413.082  
                
  20575145.352   108123156.338    20575154.129    84251873.8194   20575153.547  
                
  22115352.297   116216977.663    22115359.348    90558734.5194   22115359.270  
                
  19939991.656   106628089.470                    82933018.586    19939998.195  
  19939990.781  
  19809142.938   105891250.202                    82359877.529    19809147.070  
  19809142.703  
  20189959.547   108002704.987                    84002132.482    20189963.410  
  20189957.887  
 21  8 14  9 57 20.0000000  0 12R 4G 8G21G18G27R 3G32G10G23R20R 5R19
  19690522.867   105441907.626                    82010374.961    19690525.922  
  19690521.789  
  21502876.625   112998394.243    21502886.039    88050740.7284   21502886.496  
                
  23965127.742   125937585.632    23965134.434    98133236.2154                 
                
  23683389.266   124457037.300    23683397.477    96979546.0064   23683397.379  
                
  20738046.820   108979189.695    20738055.211    84918885.2294   20738055.207  
                
  23475713.594   125667356.251                    97741284.286    23475719.148  
  23475711.926  
  21863452.945   114893259.622    21863461.965    89527268.6234   21863462.395  
                
  20576771.312   108131700.807    20576780.090    84258531.8464   20576779.504  
                
  22120400.898   116243508.186    22120407.957    90579407.6574   22120407.879  
                
  19935864.688   106606020.744                    82915854.041    19935871.227  
  19935863.801  
  19804871.070   105868414.675                    82342116.569    19804875.211  
  19804870.836  
  20193822.211   108023367.489                    84018203.312    20193826.078  
  20193820.551  
 21  8 14  9 57 30.0000000  0 12R 4G 8G21G18G27R 3G32G10G23R20R 5R19
  19694015.133   105460608.537                    82024920.109    19694018.156  
  19694014.055  
  21500372.688   112985235.991    21500382.098    88040487.5544   21500382.559  
                
  23960277.016   125912095.011    23960283.676    98113373.3884                 
                
  23688963.008   124486327.094    23688971.125    97002369.2264   23688971.047  
                
  20739771.586   108988253.392    20739780.004    84925947.8554   20739779.988  
                
  23483447.547   125708756.608                    97773484.548    23483453.109  
  23483445.891  
  21858510.477   114867286.822    21858519.520    89507030.0864   21858519.930  
                
  20578404.750   108140284.574    20578413.523    84265220.4904   20578412.945  
                
  22125453.359   116270059.086    22125460.434    90600096.6664   22125460.363  
                
  19931746.500   106583999.004                    82898726.015    19931753.043  
  19931745.629  
  19800612.430   105845649.833                    82324410.592    19800616.586  
  19800612.199  
  20197695.797   108044088.474                    84034319.631    20197699.652  
  20197694.129  
 21  8 14  9 57 40.0000000  0 12R 4G 8G21G18G27R 3G32G10G23R20R 5R19
  19697520.266   105479378.344                    82039518.848    19697523.258  
  19697519.207  
  21497880.000   112972136.863    21497889.406    88030280.4344   21497889.867  
                
  23955427.258   125886609.669    23955433.945    98093514.7324                 
                
  23694539.844   124515633.121    23694547.836    97025205.0724   23694547.809  
                
  20741508.711   108997382.052    20741517.156    84933061.0864   20741517.133  
                
  23491183.438   125750167.374                    97805692.901    23491189.004  
  23491181.801  
  21853576.219   114841357.180    21853585.270    89486825.1824   21853585.664  
                
  20580045.617   108148907.400    20580054.383    84271939.5684   20580053.812  
                
  22130509.656   116296630.114    22130516.742    90620801.3394   22130516.668  
                
  19927637.016   106562023.773                    82881634.164    19927643.543  
  19927636.137  
  19796366.977   105822955.508                    82306759.441    19796371.129  
  19796366.738  
  20201580.273   108064867.773                    84050481.302    20201584.145  
  20201578.633  
 21  8 14  9 57 50.0000000  0 12R 4G 8G21G18G27R 3G32G10G23R20R 5R19
  19701038.281   105498217.116                    82054171.234    19701041.250  
  19701037.230  
  21495398.578   112959096.880    21495407.980    88020119.4044   21495408.438  
                
  23950578.578   125861129.660    23950585.258    98073660.1884                 
                
  23700119.758   124544955.389    23700127.719    97048053.5804   23700127.684  
                
  20743258.195   109006575.644    20743266.656    84940224.9224   20743266.633  
                
  23498921.281   125791588.688                    97837909.464    23498926.863  
  23498919.672  
  21848650.219   114815470.831    21848659.262    89466654.0104   21848659.641  
                
  20581693.922   108157569.271    20581702.684    84278689.0764   20581702.105  
                
  22135569.789   116323221.205    22135576.871    90641521.6754   22135576.805  
                
  19923536.328   106540095.487                    82864578.821    19923542.828  
  19923535.461  
  19792134.758   105800331.899                    82289163.317    19792138.922  
  19792134.512  
  20205475.703   108085705.665                    84066688.550    20205479.594  
  20205474.062  
 21  8 14  9 58  0.0000000  0 12R 4G 8G21G18G27R 3G32G10G23R20R 5R19
  19704569.172   105517124.880                    82068877.262    19704572.121  
  19704568.113  
  21492928.477   112946116.433    21492937.867    88010004.7654   21492938.328  
                
  23945730.930   125835655.177    23945737.664    98053809.9554                 
                
  23705702.797   124574294.071    23705710.723    97070914.8904   23705710.648  
                
  20745020.070   109015834.372    20745028.551    84947439.5124   20745028.520  
                
  23506661.086   125833020.495                    97870134.179    23506666.688  
  23506659.480  
  21843732.500   114789628.053    21843741.539    89446516.7824   21843741.895  
                
  20583349.680   108166270.361    20583358.434    84285469.1524   20583357.859  
                
  22140633.766   116349832.551    22140640.840    90662257.7884   22140640.809  
                
  19919444.430   106518214.291                    82847560.119    19919450.906  
  19919443.586  
  19787915.852   105777779.439                    82271622.513    19787920.012  
  19787915.602  
  20209382.086   108106602.156                    84082941.365    20209386.000  
  20209380.445  
 21  8 14  9 58 10.0000000  0 12R 4G 8G21G18G27R 3G32G10G23R20R 5R19
  19708112.906   105536101.465                    82083636.832    19708115.840  
  19708111.852  
  21490469.703   112933195.499    21490479.074    87999936.5144   21490479.527  
                
  23940884.312   125810186.152    23940891.152    98033963.9954                 
                
  23711288.922   124603649.112    23711296.797    97093788.9384   23711296.738  
                
  20746794.328   109025158.165    20746802.828    84954704.7994   20746802.785  
                
  23514402.820   125874462.594                    97902366.914    23514408.398  
  23514401.230  
  21838823.078   114763828.889    21838832.125    89426413.5514   21838832.461  
                
  20585012.891   108175010.577    20585021.633    84292279.7074   20585021.070  
                
  22145701.578   116376464.024    22145708.676    90683009.5824   22145708.648  
                
  19915361.391   106496380.428                    82830578.232    19915367.863  
  19915360.551  
  19783710.211   105755297.950                    82254136.909    19783714.375  
  19783709.969  
  20213299.422   108127557.172                    84099239.708    20213303.352  
  20213297.793  
 21  8 14  9 58 20.0000000  0 12R 4G 8G21G18G27R 3G32G10G23R20R 5R19
  19711669.438   105555146.566                    82098449.688    19711672.359  
  19711668.387  
  21488022.234   112920333.962    21488031.578    87989914.5274   21488032.043  
                
  23936038.742   125784722.546    23936045.617    98014122.2304                 
                
  23716878.133   124633020.316    23716885.996    97116675.5754   23716885.926  
                
  20748580.938   109034546.813    20748589.469    84962020.6194   20748589.418  
                
  23522146.414   125915914.604                    97934607.350    23522151.984  
  23522144.859  
  21833921.945   114738073.247    21833931.008    89406344.2244   21833931.316  
                
  20586683.500   108183789.690    20586692.227    84299120.5704   20586691.684  
                
  22150773.180   116403115.395    22150780.297    90703776.8734   22150780.258  
                
  19911287.156   106474593.690                    82813632.986    19911293.621  
  19911286.320  
  19779517.852   105732887.410                    82236706.491    19779522.027  
  19779517.609  
  20217227.688   108148570.653                    84115583.518    20217231.621  
  20217226.047  
 21  8 14  9 58 30.0000000  0 12R 4G 8G21G18G27R 3G32G10G23R20R 5R19
  19715238.812   105574260.378                    82113315.988    19715241.727  
  19715237.773  
  21485586.094   112907531.946    21485595.410    87979938.9304   21485595.891  
                
  23931194.273   125759264.671    23931201.160    97994284.9544                 
                
  23722470.422   124662407.951    23722478.309    97139575.0224   23722478.242  
                
  20750379.922   109044000.560    20750388.492    84969387.1744   20750388.434  
                
  23529891.961   125957377.009                    97966855.860    23529897.500  
  23529890.434  
  21829029.172   114712361.532    21829038.242    89386309.1224   21829038.527  
                
  20588361.570   108192607.941    20588370.281    84305991.9324   20588369.762  
                
  22155848.609   116429786.897    22155855.750    90724559.8574   22155855.715  
                
  19907221.836   106452854.597                    82796724.819    19907228.281  
  19907220.980  
  19775338.812   105710548.074                    82219331.462    19775342.988  
  19775338.562  
  20221166.914   108169642.722                    84131972.892    20221170.855  
  20221165.297  
 21  8 14  9 58 40.0000000  0 12R 4G 8G21G18G27R 3G32G10G23R20R 5R19
  19718820.922   105593442.462                    82128235.374    19718823.828  
  19718819.898  
  21483161.242   112894789.274    21483170.539    87970009.5714   21483171.027  
                
  23926350.828   125733812.106    23926357.688    97974451.7734                 
                
  23728065.758   124691811.570    23728073.637    97162486.9054   23728073.590  
                
  20752191.219   109053518.987    20752199.812    84976804.1234   20752199.742  
                
  23537639.297   125998849.089                    97999111.907    23537644.793  
  23537637.785  
  21824144.688   114686693.373    21824153.750    89366307.9664   21824154.012  
                
  20590046.984   108201464.860    20590055.691    84312893.4254   20590055.180  
                
  22160927.766   116456478.028    22160934.957    90745358.1304   22160934.895  
                
  19903165.359   106431162.859                    82779853.460    19903171.797  
  19903164.520  
  19771173.055   105688279.758                    82202011.661    19771177.242  
  19771172.805  
  20225117.016   108190773.061                    84148407.592    20225120.984  
  20225115.406  
 21  8 14  9 58 50.0000000  0 12R 4G 8G21G18G27R 3G32G10G23R20R 5R19
  19722415.789   105612692.713                    82143207.782    19722418.680  
  19722414.789  
  21480747.742   112882106.258    21480757.027    87960126.7064   21480757.508  
                
  23921508.430   125708365.071    23921515.297    97954622.9614                 
                
  23733664.141   124721231.395    23733672.051    97185411.4014   23733671.992  
                
  20754014.859   109063102.296    20754023.465    84984271.6294   20754023.402  
                
  23545388.453   126040330.891                    98031375.505    23545393.941  
  23545386.961  
  21819268.547   114661069.093    21819277.605    89346341.0034   21819277.867  
                
  20591739.797   108210360.652    20591748.496    84319825.2064   20591747.988  
                
  22166010.719   116483188.969    22166017.930    90766171.8434   22166017.840  
                
  19899117.773   106409518.638                    82763019.069    19899124.199  
  19899116.941  
  19767020.594   105666082.471                    82184747.097    19767024.773  
  19767020.352  
  20229077.992   108211961.610                    84164887.567    20229081.969  
  20229076.375  
 21  8 14  9 59  0.0000000  0 12R 4G 8G21G18G27R 3G32G10G23R20R 5R19
  19726023.375   105632011.177                    82158233.270    19726026.262  
  19726022.395  
  21478345.547   112869482.648    21478354.832    87950290.1244   21478355.293  
                
  23916667.086   125682923.620    23916673.910    97934798.4374                 
                
  23739265.641   124750667.343    23739273.527    97208348.4924   23739273.418  
                
  20755850.844   109072750.411    20755859.465    84991789.6354   20755859.402  
                
  23553139.438   126081822.465                    98063646.707    23553144.945  
  23553138.000  
  21814400.766   114635488.762    21814409.828    89326408.2864   21814410.086  
                
  20593439.992   108219295.222    20593448.691    84326787.2044   20593448.180  
                
  22171097.406   116509919.620    22171104.629    90787000.9224   22171104.535  
                
  19895079.133   106387922.209                    82746221.847    19895085.555  
  19895078.289  
  19762881.445   105643956.380                    82167537.924    19762885.625  
  19762881.215  
  20233049.883   108233208.503                    84181412.933    20233053.879  
  20233048.285  
 21  8 14  9 59 10.0000000  0 12R 4G 8G21G18G27R 3G32G10G23R20R 5R19
  19729643.695   105651397.774                    82173311.733    19729646.574  
  19729642.727  
  21475954.727   112856918.838    21475964.020    87940500.1334   21475964.461  
                
  23911826.789   125657487.821    23911833.582    97914978.3294                 
                
  23744870.188   124780119.448    23744878.035    97231298.1734   23744877.891  
                
  20757699.164   109082463.399    20757707.801    84999358.1894   20757707.723  
                
  23560892.211   126123323.546                    98095925.319    23560897.711  
  23560890.820  
  21809541.383   114609952.547    21809550.445    89306509.9414   21809550.695  
                
  20595147.562   108228268.621    20595156.254    84333779.4614   20595155.742  
                
  22176187.844   116536670.028    22176195.066    90807845.3884   22176194.984  
                
  19891049.445   106366373.748                    82729461.935    19891055.867  
  19891048.605  
  19758755.641   105621901.636                    82150384.245    19758759.828  
  19758755.414  
  20237032.727   108254513.943                    84197983.811    20237036.730  
  20237031.094  
 21  8 14  9 59 20.0000000  0 12R 4G 8G21G18G27R 3G32G10G23R20R 5R19
  19733276.695   105670852.259                    82188442.986    19733279.574  
  19733275.730  
  21473575.336   112844415.065    21473584.641    87930756.9304   21473585.070  
                
  23906987.523   125632057.655    23906994.352    97895162.6474                 
                
  23750477.781   124809587.724    23750485.633    97254260.4564   23750485.492  
                
  20759559.812   109092241.181    20759568.465    85006977.2394   20759568.371  
                
  23568646.734   126164834.007                    98128211.228    23568652.230  
  23568645.406  
  21804690.406   114584460.495    21804699.465    89286646.0084   21804699.715  
                
  20596862.516   108237280.752    20596871.211    84340801.9014   20596870.691  
                
  22181282.031   116563440.084    22181289.238    90828705.1644   22181289.176  
                
  19887028.711   106344873.065                    82712739.182    19887035.133  
  19887027.875  
  19754643.219   105599918.400                    82133286.175    19754647.398  
  19754643.000  
  20241026.453   108275877.645                    84214600.021    20241030.492  
  20241024.820  
 21  8 14  9 59 30.0000000  0 12R 4G 8G21G18G27R 3G32G10G23R20R 5R19
  19736922.406   105690374.849                    82203627.228    19736925.289  
  19736921.449  
  21471207.359   112831971.250    21471216.676    87921060.4554   21471217.098  
                
  23902149.414   125606633.416    23902156.293    97875351.5954                 
                
  23756088.539   124839072.386    23756096.324    97277235.4964   23756096.203  
                
  20761432.852   109102083.999    20761441.516    85014646.9594   20761441.418  
                
  23576403.039   126206354.073                    98160504.563    23576408.578  
  23576401.746  
  21799847.891   114559012.929    21799856.945    89266816.7454   21799857.199  
                
  20598584.875   108246331.836    20598593.566    84347854.6914   20598593.043  
                
  22186379.984   116590229.955    22186387.195    90849580.3834   22186387.141  
                
  19883017.039   106323420.842                    82696054.128    19883023.461  
  19883016.203  
  19750544.180   105578006.720                    82116243.754    19750548.359  
  19750543.973  
  20245031.133   108297299.928                    84231261.800    20245035.199  
  20245029.484  
 21  8 14  9 59 40.0000000  0 12R 4G 8G21G18G27R 3G32G10G23R20R 5R19
  19740580.734   105709965.035                    82218864.040    19740583.617  
  19740579.781  
  21468850.773   112819587.313    21468860.098    87911410.6344   21468860.504  
                
  23897312.375   125581214.711    23897319.223    97855544.8114                 
                
  23761702.281   124868573.058    23761709.984    97300223.0434   23761709.926  
                
  20763318.172   109111991.432    20763326.844    85022367.0304   20763326.746  
                
  23584161.078   126247883.421                    98192805.115    23584166.660  
  23584159.812  
  21795013.797   114533609.578    21795022.867    89247021.9354   21795023.109  
                
  20600314.570   108255421.447    20600323.266    84354937.4994   20600322.738  
                
  22191481.625   116617039.245    22191488.836    90870470.7294   22191488.797  
                
  19879014.359   106302016.675                    82679406.444    19879020.793  
  19879013.512  
  19746458.516   105556166.501                    82099256.914    19746462.703  
  19746458.305  
  20249046.664   108318780.299                    84247968.735    20249050.781  
  20249044.996  
 21  8 14  9 59 50.0000000  0 12R 4G 8G21G18G27R 3G32G10G23R20R 5R19
  19744251.727   105729623.011                    82234153.576    19744254.613  
  19744250.766  
  21466505.633   112807263.533    21466514.965    87901807.6844   21466515.355  
                
  23892476.469   125555801.958    23892483.418    97835742.7114                 
                
  23767319.203   124898090.020    23767326.750    97323223.2464   23767326.789  
                
  20765215.852   109121963.800    20765224.523    85030137.7044   20765224.434  
                
  23591920.844   126289421.977                    98225112.860    23591926.469  
  23591919.621  
  21790188.188   114508250.867    21790197.293    89227261.9114   21790197.508  
                
  20602051.648   108264549.853    20602060.355    84362050.5464   20602059.816  
                
  22196587.016   116643868.173    22196594.238    90891376.3924   22196594.199  
                
  19875020.750   106280661.095                    82662796.553    19875027.199  
  19875019.918  
  19742386.258   105534398.000                    82082325.872    19742390.457  
  19742386.055  
  20253073.133   108340319.158                    84264721.165    20253077.270  
  20253071.449  
 21  8 14 10  0  0.0000000  0 12R 4G 8G21G18G27R 3G32G10G23R20R 5R19
  19747935.289   105749348.286                    82249495.448    19747938.184  
  19747934.344  
  21464171.898   112794999.674    21464181.238    87892251.4294   21464181.629  
                
  23887641.648   125530394.855    23887648.531    97815944.9704                 
                
  23772939.188   124927622.920    23772946.574    97346235.8754   23772946.676  
                
  20767125.820   109132000.734    20767134.484    85037958.6834   20767134.395  
                
  23599682.227   126330969.244                    98257427.396    23599687.863  
  23599681.020  
  21785371.016   114482936.528    21785380.160    89207536.4614   21785380.352  
                
  20603796.039   108273716.688    20603804.762    84369193.5334   20603804.211  
                
  22201696.062   116670716.404    22201703.316    90912297.0784   22201703.270  
                
  19871036.164   106259353.679                    82646224.117    19871042.629  
  19871035.344  
  19738327.375   105512700.966                    82065450.398    19738331.590  
  19738327.184  
  20257110.453   108361916.146                    84281518.813    20257114.645  
  20257108.730  
 21  8 14 10  0 10.0000000  0 12R 4G 8G21G18G27R 3G32G10G23R20R 5R19
  19751631.438   105769140.940                    82264889.733    19751634.352  
  19751630.496  
  21461849.617   112782796.012    21461858.969    87882742.0874   21461859.359  
                
  23882807.930   125504993.594    23882814.680    97796151.7904                 
                
  23778562.234   124957171.919    23778569.461    97369261.0454   23778569.617  
                
  20769048.102   109142102.366    20769056.758    85045830.0814   20769056.676  
                
  23607445.305   126372525.533                    98289748.945    23607450.965  
  23607444.062  
  21780562.344   114457666.827    21780571.523    89187845.8024   21780571.703  
                
  20605547.766   108282922.082    20605556.504    84376366.5734   20605555.941  
                
  22206808.805   116697584.021    22206816.082    90933232.8754   22206816.020  
                
  19867060.672   106238094.969                    82629689.577    19867067.148  
  19867059.871  
  19734281.891   105491075.558                    82048630.647    19734286.113  
  19734281.695  
  20261158.664   108383571.392                    84298361.773    20261162.887  
  20261156.910  
 21  8 14 10  0 20.0000000  0 12R 4G 8G21G18G27R 3G32G10G23R20R 5R19
  19755340.172   105789001.001                    82280336.450    19755343.113  
  19755339.246  
  21459538.797   112770652.546    21459548.148    87873279.6474   21459548.539  
                
  23877975.305   125479598.152    23877981.957    97776363.1454                 
                
  23784188.398   124986737.004    23784195.500    97392298.7674   23784195.668  
                
  20770982.695   109152268.726    20770991.348    85053751.9114   20770991.262  
                
  23615210.016   126414090.611                    98322077.298    23615215.711  
  23615208.734  
  21775762.195   114432441.897    21775771.395    89168190.0234   21775771.555  
                
  20607306.836   108292166.056    20607315.586    84383569.6624   20607315.004  
                
  22211925.227   116724471.010    22211932.520    90954183.7734   22211932.453  
                
  19863094.289   106216884.954                    82613192.880    19863100.766  
  19863093.504  
  19730249.859   105469522.057                    82031866.813    19730254.074  
  19730249.645  
  20265217.781   108405284.869                    84315250.033    20265222.020  
  20265216.023  
 21  8 14 10  0 30.0000000  0 12R 4G 8G21G18G27R 3G32G10G23R20R 5R19
  19759061.484   105808928.414                    82295835.544    19759064.441  
  19759060.590  
  21457239.469   112758569.508    21457248.805    87863864.2884   21457249.207  
                
  23873143.859   125454208.864    23873150.387    97756579.3014                 
                
  23789817.672   125016318.374    23789824.711    97415349.1714   23789824.820  
                
  20772929.633   109162499.965    20772938.285    85061724.3024   20772938.203  
                
  23622976.438   126455664.798                    98354412.752    23622982.133  
  23622975.090  
  21770970.617   114407262.036    21770979.793    89148569.3484   21770979.961  
                
  20609073.266   108301448.722    20609082.023    84390802.9054   20609081.438  
                
  22217045.375   116751377.525    22217052.668    90975149.8774   22217052.602  
                
  19859137.102   106195724.120                    82596734.467    19859143.566  
  19859136.324  
  19726231.312   105448040.680                    82015159.074    19726235.520  
  19726231.078  
  20269287.812   108427056.812                    84332183.754    20269292.051  
  20269286.039  
 21  8 14 10  0 40.0000000  0 12R 4G 8G21G18G27R 3G32G10G23R20R 5R19
  19762795.102   105828921.754                    82311385.914    19762798.086  
  19762794.211  
  21454951.391   112746545.596    21454960.719    87854495.0094   21454961.121  
                
  23868313.367   125428824.413    23868319.926    97736799.2204                 
                
  23795449.750   125045914.686    23795456.746    97438411.2184   23795456.848  
                
  20774888.672   109172794.737    20774897.320    85069746.2024   20774897.242  
                
  23630744.242   126497246.416                    98386753.996    23630749.988  
  23630742.891  
  21766187.383   114382125.970    21766196.535    89128982.8204   21766196.715  
                
  20610846.797   108310768.725    20610855.555    84398065.2454   20610854.977  
                
  22222168.961   116778302.142    22222176.262    90996130.1004   22222176.188  
                
  19855188.836   106174610.977                    82580313.139    19855195.305  
  19855188.047  
  19722225.977   105426629.876                    81998506.221    19722230.164  
  19722225.727  
  20273368.500   108448885.715                    84349161.792    20273372.738  
  20273366.707  
 21  8 14 10  0 50.0000000  0 12R 4G 8G21G18G27R 3G32G10G23R20R 5R19
  19766541.281   105848982.344                    82326988.593    19766544.289  
  19766540.371  
  21452674.883   112734582.444    21452684.215    87845173.0754   21452684.613  
                
  23863484.031   125403446.141    23863490.680    97717023.9584                 
                
  23801084.961   125075527.220    23801091.910    97461485.9084   23801091.992  
                
  20776860.047   109183154.336    20776868.691    85077818.6174   20776868.625  
                
  23638513.648   126538836.551                    98419101.864    23638519.418  
  23638512.344  
  21761412.750   114357035.125    21761421.918    89109431.5254   21761422.086  
                
  20612627.688   108320127.336    20612636.434    84405357.6654   20612635.863  
                
  22227296.242   116805246.166    22227303.531    91017125.4354   22227303.449  
                
  19851249.797   106153547.117                    82563930.123    19851256.262  
  19851249.031  
  19718234.141   105405291.242                    81981909.514    19718238.316  
  19718233.883  
  20277460.117   108470773.046                    84366185.255    20277464.328  
  20277458.301  
 21  8 14 10  1  0.0000000  0 12R 4G 8G21G18G27R 3G32G10G23R20R 5R19
  19770299.891   105869109.586                    82342643.111    19770302.926  
  19770298.961  
  21450409.859   112722679.674    21450419.203    87835898.1904   21450419.594  
                
  23858655.836   125378073.788    23858662.527    97697253.3224                 
                
  23806723.156   125105155.737    23806730.121    97484573.0424   23806730.172  
                
  20778843.695   109193578.471    20778852.340    85085941.3134   20778852.266  
                
  23646284.602   126580435.062                    98451456.235    23646290.402  
  23646283.348  
  21756646.695   114331989.341    21756655.871    89089915.3404   21756656.020  
                
  20614415.859   108329524.265    20614424.590    84412679.9424   20614424.039  
                
  22232427.148   116832209.273    22232434.426    91038135.6334   22232434.355  
                
  19847319.953   106132532.450                    82547585.395    19847326.402  
  19847319.180  
  19714255.773   105384024.620                    81965368.805    19714259.949  
  19714255.500  
  20281562.609   108492718.580                    84383253.997    20281566.805  
  20281560.781  
 21  8 14 10  1 10.0000000  0 11R 4G 8G21G18G27G32G10G23R20R 5R19
  19774071.305   105889305.379                    82358350.950    19774074.371  
  19774070.359  
  21448156.680   112710839.141    21448166.039    87826671.8014   21448166.410  
                
  23853829.141   125352709.208    23853835.816    97677488.7034                 
                
  23812364.672   125134801.924    23812371.676    97507673.9574   23812371.707  
                
  20780839.961   109204068.872    20780848.602    85094115.6474   20780848.523  
                
  21751889.555   114306990.429    21751898.691    89070435.6834   21751898.863  
                
  20616211.641   108338961.192    20616220.352    84420033.3934   20616219.809  
                
  22237562.016   116859193.111    22237569.312    91059161.9994   22237569.246  
                
  19843399.641   106111568.739                    82531280.282    19843406.078  
  19843398.867  
  19710291.203   105362831.727                    81948885.462    19710295.387  
  19710290.941  
  20285676.266   108514723.851                    84400369.203    20285680.449  
  20285674.426  
 21  8 14 10  1 20.0000000  0 11R 4G 8G21G18G27G32G10G23R20R 5R19
  19777854.945   105909566.636                    82374109.701    19777858.043  
  19777853.969  
  21445914.797   112699057.949    21445924.164    87817491.6524   21445924.547  
                
  23849003.367   125327349.611    23849010.023    97657728.0064                 
                
  23818009.031   125164463.027    23818016.090    97530786.5054   23818016.102  
                
  20782848.305   109214622.742    20782856.945    85102339.4354   20782856.863  
                
  21747140.836   114282035.751    21747149.949    89050990.4844   21747150.129  
                
  20618014.516   108348435.341    20618023.215    84427415.8504   20618022.684  
                
  22242700.289   116886194.914    22242707.625    91080202.3524   22242707.547  
                
  19839488.398   106090653.549                    82515012.920    19839494.840  
  19839487.625  
  19706339.953   105341710.001                    81932457.443    19706344.129  
  19706339.711  
  20289800.609   108536786.260                    84417528.844    20289804.762  
  20289798.762  
 21  8 14 10  1 30.0000000  0 11R 4G 8G21G18G27G32G10G23R20R 5R19
  19781650.922   105929893.939                    82389919.818    19781654.031  
  19781649.914  
  21443684.352   112687336.871    21443693.734    87808358.3424   21443694.125  
                
  23844178.648   125301995.593    23844185.297    97637971.6614                 
                
  23823656.297   125194139.643    23823663.418    97553911.0924   23823663.398  
                
  20784868.828   109225240.632    20784877.457    85110613.1144   20784877.383  
                
  21742400.664   114257125.954    21742409.781    89031580.2644   21742409.953  
                
  20619824.578   108357947.266    20619833.258    84434827.7384   20619832.734  
                
  22247842.086   116913215.191    22247849.445    91101257.1154   22247849.363  
                
  19835586.281   106069787.185                    82498783.526    19835592.707  
  19835585.477  
  19702402.094   105320659.906                    81916085.143    19702406.258  
  19702401.875  
  20293935.719   108558906.274                    84434733.306    20293939.840  
  20293933.883  
 21  8 14 10  1 40.0000000  0 11R 4G 8G21G18G27G32G10G23R20R 5R19
  19785459.273   105950287.498                    82405781.468    19785462.402  
  19785458.246  
  21441465.414   112675676.256    21441474.812    87799272.1504   21441475.207  
                
  23839355.109   125276647.563    23839361.688    97618219.9564                 
                
  23829306.602   125223832.065    23829313.723    97577048.0424   23829313.711  
                
  20786901.602   109235922.883    20786910.219    85118936.9424   20786910.148  
                
  21737669.109   114232261.501    21737678.234    89012205.3754   21737678.395  
                
  20621641.883   108367497.243    20621650.555    84442269.2824   20621650.027  
                
  22252987.453   116940254.267    22252994.859    91122326.5074   22252994.773  
                
  19831693.445   106048970.435                    82482592.722    19831699.855  
  19831692.621  
  19698477.734   105299681.973                    81899768.981    19698481.898  
  19698477.527  
  20298081.656   108581084.282                    84451982.850    20298085.773  
  20298079.832  
 21  8 14 10  1 50.0000000  0 11R 4G 8G21G18G27G32G10G23R20R 5R19
  19789279.969   105970747.163                    82421694.527    19789283.105  
  19789278.938  
  21439258.016   112664076.358    21439267.434    87790233.2664   21439267.816  
                
  23834532.680   125251305.588    23834539.184    97598472.9484                 
                
  23834959.836   125253540.277    23834967.035    97600197.2734   23834967.074  
                
  20788946.602   109246669.459    20788955.184    85127310.8884   20788955.133  
                
  21732946.188   114207442.448    21732955.328    88992865.8664   21732955.480  
                
  20623466.406   108377085.243    20623475.070    84449740.4484   20623474.551  
                
  22258136.367   116967312.055    22258143.824    91143410.4864   22258143.730  
                
  19827809.891   106028203.400                    82466440.590    19827816.309  
  19827809.062  
  19694566.867   105278776.193                    81883508.926    19694571.023  
  19694566.664  
  20302238.422   108603320.188                    84469277.437    20302242.527  
  20302236.609  
 21  8 14 10  2  0.0000000  0 11R 4G 8G21G18G27G32G10G23R20R 5R19
  19793113.016   105991272.912                    82437659.008    19793116.160  
  19793112.004  
  21437062.195   112652537.182    21437071.625    87781241.7064   21437071.992  
                
  23829711.430   125225969.771    23829717.895    97578730.7724                 
                
  23840616.109   125283264.342    23840623.395    97623358.8664   23840623.453  
                
  20791003.867   109257480.401    20791012.418    85135734.9944   20791012.391  
                
  21728231.953   114182668.988    21728241.109    88973561.8824   21728241.242  
                
  20625298.203   108386711.311    20625306.863    84457241.2774   20625306.340  
                
  22263288.859   116994388.592    22263296.363    91164509.0714   22263296.266  
                
  19823935.656   106007486.133                    82450327.158    19823942.074  
  19823934.840  
  19690669.531   105257942.650                    81867305.058    19690673.695  
  19690669.324  
  20306406.039   108625614.001                    84486617.061    20306410.117  
  20306404.246  
 21  8 14 10  2 10.0000000  0 11R 4G 8G21G18G27G32G10G23R20R 5R19
  19796958.352   106011864.457                    82453674.638    19796961.504  
  19796957.328  
  21434877.930   112641058.783    21434887.367    87772297.4994   21434887.727  
                
  23824891.305   125200639.939    23824897.824    97558993.2704                 
                
  23846275.305   125313004.121    23846282.742    97646532.6864   23846282.793  
                
  20793073.344   109268355.569    20793081.867    85144209.1494   20793081.859  
                
  21723526.383   114157941.061    21723535.527    88954293.3844   21723535.660  
                
  20627137.188   108396375.276    20627145.844    84464771.6354   20627145.312  
                
  22268444.875   117021483.680    22268452.410    91185622.1174   22268452.305  
                
  19820070.742   105986818.753                    82434252.530    19820077.164  
  19820069.906  
  19686785.719   105237181.434                    81851157.456    19686789.895  
  19686785.508  
  20310584.438   108647965.613                    84504001.654    20310588.508  
  20310582.684  
 21  8 14 10  2 20.0000000  0 11R 4G 8G21G18G27G32G10G23R20R 5R19
  19800816.008   106032522.048                    82469741.659    19800819.172  
  19800814.984  
  21432705.258   112629641.304    21432714.703    87763400.7624   21432715.078  
                
  23820072.391   125175316.402    23820078.969    97539260.6634                 
                
  23851937.539   125342759.919    23851945.113    97669719.0124   23851945.152  
                
  20795155.094   109279295.228    20795163.586    85152733.5504   20795163.602  
                
  21718829.555   114133259.081    21718838.660    88935060.6784   21718838.824  
                
  20628983.438   108406077.384    20628992.098    84472331.7174   20628991.566  
                
  22273604.477   117048597.577    22273612.020    91206749.8164   22273611.898  
                
  19816215.227   105966201.624                    82418216.987    19816221.656  
  19816214.367  
  19682915.477   105216492.777                    81835066.270    19682919.648  
  19682915.270  
  20314773.703   108670375.338                    84521431.430    20314777.762  
  20314771.961  
 21  8 14 10  2 30.0000000  0 11R 4G 8G21G18G27G32G10G23R20R 5R19
  19804685.938   106053245.393                    82485859.806    19804689.109  
  19804684.902  
  21430544.203   112618284.876    21430553.633    87754551.5914   21430554.027  
                
  23815254.641   125149999.001    23815261.246    97519532.8344                 
                
  23857602.727   125372531.498    23857610.418    97692917.6034   23857610.508  
                
  20797249.070   109290299.123    20797257.535    85161308.0164   20797257.566  
                
  21714141.445   114108622.908    21714150.527    88915863.6704   21714150.699  
                
  20630836.898   108415817.382    20630845.566    84479921.3264   20630845.035  
                
  22278767.609   117075730.002    22278775.148    91227891.9624   22278775.039  
                
  19812369.102   105945634.675                    82402220.470    19812375.551  
  19812368.250  
  19679058.797   105195876.604                    81819031.469    19679062.988  
  19679058.578  
  20318973.805   108692842.990                    84538906.255    20318977.863  
  20318972.070  
 21  8 14 10  2 40.0000000  0 11R 4G 8G21G18G27G32G10G23R20R 5R19
  19808568.094   106074034.166                    82502028.848    19808571.281  
  19808567.043  
  21428394.672   112606988.987    21428404.086    87745749.6044   21428404.496  
                
  23810438.062   125124687.758    23810444.688    97499809.8024                 
                
  23863271.070   125402318.704    23863278.762    97716128.3964   23863278.871  
                
  20799355.250   109301367.132    20799363.680    85169932.4324   20799363.734  
                
  21709462.047   114084032.528    21709471.133    88896702.3504   21709471.305  
                
  20632697.539   108425595.131    20632706.211    84487540.3514   20632705.680  
                
  22283934.242   117102880.803    22283941.785    91249048.4234   22283941.660  
                
  19808532.359   105925117.901                    82386262.969    19808538.809  
  19808531.516  
  19675215.625   105175332.673                    81803052.874    19675219.832  
  19675215.418  
  20323184.664   108715368.255                    84556425.912    20323188.734  
  20323182.930  
 21  8 14 10  2 50.0000000  0 11R 4G 8G21G18G27G32G10G23R20R 5R19
  19812462.422   106094888.173                    82518248.625    19812465.621  
  19812461.371  
  21426256.742   112595754.087    21426266.137    87736995.1374   21426266.574  
                
  23805622.633   125099382.602    23805629.266    97480091.5114                 
                
  23868942.406   125432121.475    23868950.074    97739351.3184   23868950.164  
                
  20801473.602   109312499.167    20801482.008    85178606.7424   20801482.082  
                
  21704791.375   114059487.981    21704800.480    88877576.7354   21704800.645  
                
  20634565.344   108435410.513    20634574.020    84495188.6984   20634573.488  
                
  22289104.352   117130049.877    22289111.895    91270219.1244   22289111.750  
                
  19804704.992   105904651.202                    82370344.438    19804711.426  
  19804704.176  
  19671386.016   105154861.234                    81787130.646    19671390.230  
  19671385.824  
  20327406.297   108737951.104                    84573990.347    20327410.371  
  20327404.594  
 21  8 14 10  3  0.0000000  0 11R 4G 8G21G18G27G32G10G23R20R 5R19
  19816368.984   106115807.633                    82534519.310    19816372.184  
  19816367.953  
  21424130.422   112584580.175    21424139.805    87728288.1984   21424140.273  
                
  23800808.414   125074083.765    23800815.059    97460378.1624                 
                
  23874616.656   125461939.966    23874624.418    97762586.4824   23874624.480  
                
  20803604.180   109323695.374    20803612.559    85187331.0544   20803612.652  
                
  21700129.477   114034989.515    21700138.594    88858487.0384   21700138.754  
                
  20636440.352   108445263.697    20636449.039    84502866.5004   20636448.512  
                
  22294277.961   117157237.337    22294285.496    91291404.1544   22294285.359  
                
  19800887.094   105884235.141                    82354465.268    19800893.523  
  19800886.281  
  19667569.977   105134462.309                    81771264.811    19667574.203  
  19667569.797  
  20331638.750   108760591.846                    84591599.796    20331642.859  
  20331637.051  
 21  8 14 10  3 10.0000000  0 11R 4G 8G21G18G27G32G10G23R20R 5R19
  19820287.703   106136792.158                    82550840.609    19820290.883  
  19820286.695  
  21422015.695   112573467.216    21422025.082    87719628.7504   21422025.555  
                
  23795995.398   125048791.169    23796001.934    97440669.6474                 
                
  23880293.891   125491774.037    23880301.684    97785833.7814   23880301.723  
                
  20805746.930   109334955.582    20805755.281    85196105.2454   20805755.383  
                
  21695476.328   114010537.081    21695485.434    88839433.2034   21695485.594  
                
  20638322.500   108455154.487    20638331.207    84510573.6084   20638330.676  
                
  22299455.031   117184443.010    22299462.535    91312603.3714   22299462.410  
                
  19797078.625   105863869.563                    82338625.395    19797085.074  
  19797077.801  
  19663767.516   105114135.976                    81755455.454    19663771.762  
  19663767.340  
  20335881.984   108783290.274                    84609254.115    20335886.113  
  20335880.289  
 21  8 14 10  3 20.0000000  0 11R 4G 8G21G18G27G32G10G23R20R 5R19
  19824218.594   106157841.858                    82567212.582    19824221.750  
  19824217.609  
  21419912.648   112562415.616    21419922.039    87711017.1174   21419922.508  
                
  23791183.586   125023504.947    23791190.023    97420966.1034                 
                
  23885974.125   125521623.797    23885981.895    97809093.3214   23885981.941  
                
  20807901.891   109346279.924    20807910.223    85204929.4004   20807910.340  
                
  21690831.984   113986130.925    21690841.070    88820415.4334   21690841.254  
                
  20640211.844   108465082.979    20640220.574    84518310.0934   20640220.039  
                
  22304635.578   117211666.942    22304643.055    91333816.8334   22304642.934  
                
  19793279.633   105843554.671                    82322824.924    19793286.109  
  19793278.812  
  19659978.664   105093882.409                    81739702.690    19659982.922  
  19659978.477  
  20340136.039   108806046.492                    84626953.404    20340140.199  
  20340134.340  
 21  8 14 10  3 30.0000000  0 11R 4G 8G21G18G27G32G10G23R20R 5R19
  19828161.609   106178956.436                    82583635.031    19828164.742  
  19828160.672  
  21417821.234   112551425.126    21417830.637    87702453.0994   21417831.105  
                
  23786373.008   124998225.071    23786379.379    97401267.4994                 
                
  23891657.383   125551489.180    23891665.090    97832365.0544   23891665.172  
                
  20810069.031   109357668.302    20810077.355    85213803.4564   20810077.484  
                
  21686196.461   113961771.085    21686205.527    88801433.7454   21686205.715  
                
  20642108.328   108475049.073    20642117.090    84526075.8854   20642116.543  
                
  22309819.602   117238909.095    22309827.055    91355044.4664   22309826.926  
                
  19789490.172   105823290.736                    82307064.087    19789496.668  
  19789489.375  
  19656203.422   105073701.609                    81724006.510    19656207.688  
  19656203.242  
  20344400.828   108828860.218                    84644697.387    20344405.012  
  20344399.133  
 21  8 14 10  3 40.0000000  0 11R 4G 8G21G18G27G32G10G23R20R 5R19
  19832116.727   106200135.875                    82600107.934    19832119.832  
  19832115.828  
  21415741.477   112540495.879    21415750.883    87693936.7994   21415751.336  
                
  23781563.633   124972951.524    23781569.996    97381573.8224                 
                
  23897343.555   125581370.173    23897351.301    97855648.9234   23897351.402  
                
  20812248.344   109369120.659    20812256.668    85222727.3624   20812256.793  
                
  21681569.750   113937457.600    21681578.820    88782488.1894   21681579.012  
                
  20644011.961   108485052.726    20644020.746    84533870.9384   20644020.188  
                
  22315007.055   117266169.344    22315014.484    91376286.2034   22315014.355  
                
  19785710.227   105803077.592                    82291342.747    19785716.730  
  19785709.457  
  19652441.789   105053593.539                    81708366.911    19652446.055  
  19652441.602  
  20348676.398   108851731.690                    84662486.301    20348680.621  
  20348674.715  
 21  8 14 10  3 50.0000000  0 11R 4G 8G21G18G27G32G10G23R20R 5R19
  19836083.922   106221379.983                    82616631.134    19836087.008  
  19836083.031  
  21413673.352   112529627.773    21413682.750    87685468.1464   21413683.199  
                
  23776755.469   124947684.406    23776761.824    97361885.1564                 
                
  23903032.625   125611266.783    23903040.500    97878944.9664   23903040.566  
                
  20814439.836   109380636.974    20814448.164    85231701.1164   20814448.285  
                
  21676951.883   113913190.606    21676960.965    88763578.8574   21676961.148  
                
  20645922.742   108495093.911    20645931.555    84541695.2394   20645930.980  
                
  22320197.945   117293447.675    22320205.363    91397542.0424   22320205.230  
                
  19781939.828   105782915.536                    82275661.161    19781946.336  
  19781939.078  
  19648693.805   105033558.447                    81692784.070    19648698.078  
  19648693.613  
  20352962.750   108874660.644                    84680319.928    20352966.957  
  20352961.039  
 21  8 14 10  4  0.0000000  0 11R 4G 8G21G18G27G32G10G23R20R 5R19
  19840063.172   106242688.677                    82633204.558    19840066.246  
  19840062.277  
  21411616.891   112518820.990    21411626.281    87677047.2764   21411626.746  
                
  23771948.508   124922423.640    23771954.875    97342201.4794                 
                
  23908724.586   125641178.895    23908732.621    97902253.0654   23908732.691  
                
  20816643.477   109392217.179    20816651.816    85240724.6384   20816651.938  
                
  21672342.867   113888970.085    21672351.926    88744705.7314   21672352.121  
                
  20647840.641   108505172.512    20647849.473    84549548.6874   20647848.887  
                
  22325392.250   117320743.932    22325399.633    91418811.8424   22325399.516  
                
  19778178.984   105762804.665                    82260019.369    19778185.496  
  19778178.262  
  19644959.438   105013596.136                    81677257.820    19644963.719  
  19644959.242  
  20357259.859   108897647.231                    84698198.380    20357264.078  
  20357258.156  
 21  8 14 10  4 10.0000000  0 11R 4G 8G21G18G27G32G10G23R20R 5R19
  19844054.477   106264061.855                    82649828.143    19844057.566  
  19844053.586  
  21409572.094   112508075.481    21409581.484    87668674.1474   21409581.934  
                
  23767142.797   124897169.365    23767149.184    97322522.8444                 
                
  23914419.523   125671106.587    23914427.746    97925573.3404   23914427.824  
                
  20818859.297   109403861.321    20818867.648    85249797.9884   20818867.766  
                
  21667742.734   113864796.270    21667751.746    88725869.0024   21667751.977  
                
  20649765.672   108515288.590    20649774.523    84557431.3514   20649773.938  
                
  22330589.984   117348058.190    22330597.312    91440095.6774   22330597.238  
                
  19774427.750   105742745.100                    82244417.489    19774434.254  
  19774427.035  
  19641238.719   104993706.758                    81661788.330    19641243.000  
  19641238.516  
  20361567.711   108920691.313                    84716121.552    20361571.938  
  20361566.012  
 21  8 14 10  4 20.0000000  0 11R 4G 8G21G18G27G32G10G23R20R 5R19
  19848057.750   106285499.216                    82666501.627    19848060.828  
  19848056.840  
  21407539.000   112497391.445    21407548.395    87660348.9244   21407548.824  
                
  23762338.289   124871921.483    23762344.691    97302849.1794                 
                
  23920117.461   125701049.694    23920125.801    97948905.6164   23920125.867  
                
  20821087.234   109415569.223    20821095.598    85258921.0314   20821095.707  
                
  21663151.477   113840669.067    21663160.434    88707068.5914   21663160.688  
                
  20651697.789   108525441.953    20651706.648    84565343.0544   20651706.070  
                
  22335791.109   117375390.247    22335798.422    91461393.3844   22335798.352  
                
  19770686.055   105722736.540                    82228855.269    19770692.555  
  19770685.340  
  19637531.617   104973890.211                    81646375.448    19637535.891  
  19637531.398  
  20365886.281   108943792.840                    84734089.388    20365890.512  
  20365884.574  
 21  8 14 10  4 30.0000000  0 11R 4G 8G21G18G27G32G10G23R20R 5R19
  19852073.055   106307000.954                    82683225.205    19852076.133  
  19852072.152  
  21405517.578   112486768.774    21405526.988    87652071.5134   21405527.395  
                
  23757535.031   124846680.203    23757541.422    97283180.6534                 
                
  23925818.336   125731008.455    23925826.812    97972250.0744   23925826.898  
                
  20823327.352   109427341.069    20823335.719    85268093.8934   20823335.836  
                
  21658569.141   113816588.803    21658578.059    88688304.7594   21658578.344  
                
  20653637.039   108535632.781    20653645.910    84573283.9574   20653645.340  
                
  22340995.648   117402740.271    22341002.973    91482705.0794   22341002.879  
                
  19766954.047   105702779.833                    82213333.398    19766960.543  
  19766953.332  
  19633838.211   104954146.894                    81631019.540    19633842.477  
  19633837.977  
  20370215.641   108966951.986                    84752102.056    20370219.863  
  20370213.906  
 21  8 14 10  4 40.0000000  0 11R 4G 8G21G18G27G32G10G23R20R 5R19
  19856100.305   106328566.668                    82699998.543    19856103.371  
  19856099.406  
  21403507.836   112476207.487    21403517.262    87643841.9404   21403517.660  
                
  23752733.016   124821445.391    23752739.371    97263517.1714                 
                
  23931522.242   125760982.559    23931530.738    97995606.5084   23931530.840  
                
  20825579.586   109439176.616    20825587.949    85277316.3914   20825588.066  
                
  21653995.711   113792555.310    21654004.590    88669577.3744   21654004.895  
                
  20655583.367   108545860.803    20655592.258    84581253.8424   20655591.680  
                
  22346203.555   117430107.960    22346210.891    91504030.5514   22346210.773  
                
  19763231.656   105682874.504                    82197851.462    19763238.152  
  19763230.945  
  19630158.453   104934476.546                    81615720.394    19630162.707  
  19630158.199  
  20374555.719   108990168.519                    84770159.343    20374559.953  
  20374553.977  
 21  8 14 10  4 50.0000000  0 11R 4G 8G21G18G27G32G10G23R20R 5R19
  19860139.484   106350196.310                    82716821.595    19860142.531  
  19860138.578  
  21401509.789   112465707.680    21401519.223    87635660.2744   21401519.602  
                
  23747932.211   124796217.105    23747938.551    97243858.7604                 
                
  23937229.000   125790972.017    23937237.531    98018974.8814   23937237.723  
                
  20827843.922   109451075.800    20827852.277    85286588.4784   20827852.395  
                
  21649431.188   113768568.698    21649440.043    88650886.5204   21649440.363  
                
  20657536.758   108556125.974    20657545.668    84589252.6764   20657545.078  
                
  22351414.805   117457493.290    22351422.137    91525369.7564   22351422.016  
                
  19759518.930   105663020.846                    82182409.731    19759525.410  
  19759518.223  
  19626492.344   104914879.112                    81600477.943    19626496.594  
  19626492.078  
  20378906.508   109013442.276                    84788261.149    20378910.746  
  20378904.750  
 21  8 14 10  5  0.0000000  0 11R 4G 8G21G18G27G32G10G23R20R 5R19
  19864190.602   106371889.800                    82733694.306    19864193.656  
  19864189.680  
  21399523.547   112455269.896    21399532.988    87627526.9404   21399533.355  
                
  23743132.664   124770995.399    23743139.023    97224205.5104                 
                
  23942938.688   125820976.978    23942947.340    98042355.3404   23942947.531  
                
  20830120.406   109463038.760    20830128.750    85295910.2584   20830128.879  
                
  21644875.641   113744629.188    21644884.480    88632232.3704   21644884.793  
                
  20659497.242   108566428.388    20659506.172    84597280.5294   20659505.574  
                
  22356629.438   117484896.335    22356636.789    91546722.7754   22356636.652  
                
  19755815.906   105643219.106                    82167008.379    19755822.371  
  19755815.207  
  19622839.922   104895354.885                    81585292.437    19622844.168  
  19622839.648  
  20383268.055   109036773.631                    84806407.768    20383272.297  
  20383266.270  
 21  8 14 10  5 10.0000000  0 11R 4G 8G21G18G27G32G10G23R20R 5R19
  19868253.609   106393647.037                    82750616.597    19868256.668  
  19868252.676  
  21397549.023   112444893.697    21397558.465    87619441.5844   21397558.844  
                
  23738334.391   124745780.367    23738340.730    97204557.4464                 
                
  23948651.289   125850997.386    23948660.094    98065747.8394   23948660.266  
                
  20832409.008   109475065.448    20832417.348    85305281.7034   20832417.484  
                
  21640329.070   113720736.871    21640337.871    88613614.9894   21640338.184  
                
  20661464.805   108576768.010    20661473.750    84605337.3704   20661473.145  
                
  22361847.430   117512317.052    22361854.812    91568089.5534   22361854.656  
                
  19752122.625   105623469.438                    82151647.531    19752129.078  
  19752121.926  
  19619201.227   104875903.997                    81570163.969    19619205.461  
  19619200.961  
  20387640.336   109060162.424                    84824599.042    20387644.586  
  20387638.504  
 21  8 14 10  5 20.0000000  0 11R 4G 8G21G18G27G32G10G23R20R 5R19
  19872328.477   106415467.750                    82767588.258    19872331.531  
  19872327.520  
  21395586.242   112434579.162    21395595.672    87611404.2884   21395596.066  
                
  23733537.375   124720571.875    23733543.738    97184914.4774                 
                
  23954366.891   125881033.089    23954375.742    98089152.2414   23954375.891  
                
  20834709.703   109487155.649    20834718.039    85314702.6314   20834718.184  
                
  21635791.469   113696891.641    21635800.223    88595034.3024   21635800.551  
                
  20663439.414   108587144.627    20663448.371    84613423.0424   20663447.758  
                
  22367068.727   117539755.187    22367076.109    91589469.9164   22367075.953  
                
  19748439.039   105603771.668                    82136327.046    19748445.500  
  19748438.316  
  19615576.219   104856526.263                    81555092.410    19615580.430  
  19615575.957  
  20392023.312   109083608.452                    84842834.818    20392027.590  
  20392021.445  
 21  8 14 10  5 30.0000000  0 11R 4G 8G21G18G27G32G10G23R20R 5R19
  19876415.164   106437351.812                    82784609.194    19876418.234  
  19876414.195  
  21393635.164   112424326.182    21393644.566    87603414.9514   21393644.965  
                
  23728741.578   124695369.921    23728748.008    97165276.6214                 
                
  23960085.406   125911083.998    23960094.277    98112568.5204   23960094.395  
                
  20837022.469   109499309.291    20837030.812    85324172.9944   20837030.961  
                
  21631262.836   113673093.562    21631271.559    88576490.3424   21631271.895  
                
  20665421.039   108597558.144    20665429.996    84621537.4704   20665429.383  
                
  22372293.336   117567210.666    22372300.711    91610863.7834   22372300.559  
                
  19744765.172   105584125.864                    82121046.978    19744771.633  
  19744764.438  
  19611964.875   104837221.575                    81540077.656    19611969.086  
  19611964.621  
  20396416.953   109107111.531                    84861114.989    20396421.254  
  20396415.066  
