     2.11           OBSERVATION DATA    M (MIXED)           RINEX VERSION / TYPE
EFT-CORS.RU                             20210817 145253 UTC PGM / RUN BY / DATE 
MDNG                                                        MARKER NAME         
                                                            MARKER NUMBER       
MDNG                EFT-CORS.RU                             OBSERVER / AGENCY   
0                   TRIMBLE BD970       2.0                 REC # / TYPE / VERS 
0                   UNKNOWN EXT NONE                        ANT # / TYPE        
  3463911.2830  3030468.2400  4402179.3760                  APPROX POSITION XYZ 
        0.0000        0.0000        0.0000                  ANTENNA: DELTA H/E/N
     1     1                                                WAVELENGTH FACT L1/2
     6    C1    L1    P2    L2    C2    P1                  # / TYPES OF OBSERV 
    10.000                                                  INTERVAL            
  2021     8    15    12    30    0.0000000     GPS         TIME OF FIRST OBS   
  2021     8    15    13    30    0.0000000     GPS         TIME OF LAST OBS    
     0                                                      RCV CLOCK OFFS APPL 
                                                            END OF HEADER       
 21  8 15 12 30  0.0000000  0 17G17R23R 8G31G 1G22G21R15R 7R16G32R21
                                R22G 8R 6G 3G10
  24581238.672   129175288.581    24581247.066   100656104.2724   24581246.961  
                
  22739241.688   121639626.402                                                  
  22739240.082  
  22304879.109   119441641.550                    92899059.733    22304883.199  
  22304878.141  
  22451429.961   117983108.343    22451437.082    91934945.9694   22451437.441  
                
  20511956.516   107791110.624    20511966.504    83993124.9844   20511966.051  
                
  21354439.383   112218384.075    21354443.836    87442877.4514                 
                
  20915220.094   109910273.132    20915226.402    85644410.9774                 
                
  23480867.852   125474632.608                    97591386.686    23480873.465  
  23480867.781  
  19604528.062   104944632.527                    81623621.973    19604532.836  
  19604526.461  
  22935007.805   122514698.657                    95289236.329    22935011.023  
  22935007.016  
  21880066.773   114980566.843    21880075.672    89595303.4404   21880075.914  
                
  21341679.258   114203656.349                    88825074.382    21341683.852  
  21341677.383  
  19516384.000   104179836.332                    81028782.830    19516386.590  
  19516382.059  
  24051765.828   126392866.502    24051777.770    98487999.7184   24051778.215  
                
  20666541.242   110280664.303                                                  
  20666538.898  
  22432859.266   117885520.273    22432868.984    91858896.0684   22432869.258  
                
  24304098.883   127718890.712    24304109.703    99521269.2394   24304109.293  
                
 21  8 15 12 30 10.0000000  0 17G17R23R 8G31G 1G22G21R15R 7R16G32R21
                                R22G 8R 6G 3G10
  24577407.234   129155154.454    24577415.648   100640415.3584   24577415.539  
                
  22731900.781   121600357.612                                                  
  22731899.176  
  22299408.359   119412345.933                    92876274.326    22299412.434  
  22299407.410  
  22446378.914   117956564.859    22446386.039    91914262.7434   22446386.375  
                
  20509160.633   107776418.116    20509170.578    83981676.2794   20509170.145  
                
  21351454.953   112202700.800    21351459.398    87430656.7284                 
                
  20914970.273   109908960.314    20914976.570    85643388.0004                 
                
  23482235.070   125481938.628                    97597069.137    23482240.703  
  23482235.008  
  19603697.797   104940188.066                    81620165.184    19603702.570  
  19603696.211  
  22930406.039   122490116.946                    95270117.232    22930409.316  
  22930405.254  
  21884659.445   115004701.417    21884668.371    89614109.5964   21884668.598  
                
  21349044.172   114243067.334                    88855727.352    21349048.746  
  21349042.293  
  19517323.008   104184848.932                    81032681.513    19517325.598  
  19517321.055  
  24058047.062   126425874.597    24058059.000    98513720.2934   24058059.457  
                
  20671360.531   110306380.937                                                  
  20671358.152  
  22428126.992   117860652.084    22428136.711    91839518.2724   22428136.988  
                
  24309485.305   127747196.495    24309496.172    99543325.6684   24309495.758  
                
 21  8 15 12 30 20.0000000  0 17G17R23R 8G31G 1G22G21R15R 7R16G32R21
                                R22G 8R 6G 3G10
  24573584.812   129135067.621    24573593.246   100624763.2994   24573593.164  
                
  22724566.914   121561126.385                                                  
  22724565.301  
  22293943.125   119383079.406                    92853511.477    22293947.066  
  22293942.113  
  22441336.148   117930064.927    22441343.312    91893613.4624   22441343.609  
                
  20506375.188   107761780.520    20506385.094    83970270.3594   20506384.691  
                
  21348475.406   112187043.214    21348479.863    87418456.0214                 
                
  20914729.633   109907695.718    20914735.910    85642402.5954                 
                
  23483617.547   125489326.178                    97602815.023    23483623.199  
  23483617.461  
  19602876.633   104935792.345                    81616746.294    19602881.402  
  19602875.051  
  22925815.250   122465593.781                    95251043.672    22925818.527  
  22925814.488  
  21889258.445   115028869.320    21889267.387    89632941.7294   21889267.613  
                
  21356417.836   114282525.184                    88886416.760    21356422.438  
  21356415.965  
  19518279.383   104189954.137                    81036652.228    19518281.988  
  19518277.422  
  24064330.141   126458892.397    24064342.098    98539448.4274   24064342.582  
                
  20676184.320   110332121.638                                                  
  20676181.930  
  22423398.148   117835801.957    22423407.859    91820154.5654   22423408.168  
                
  24314873.500   127775511.562    24314884.418    99565389.3284   24314884.008  
                
 21  8 15 12 30 30.0000000  0 17G17R23R 8G31G 1G22G21R15R 7R16G32R21
                                R22G 8R 6G 3G10
  24569771.352   129115027.953    24569779.824   100609148.0124   24569779.738  
                
  22717240.047   121521932.709                                                  
  22717238.465  
  22288483.273   119353841.848                    92830771.130    22288487.082  
  22288482.246  
  22436301.641   117903608.449    22436308.863    91872998.0424   22436309.125  
                
  20503600.164   107747197.737    20503610.043    83958907.1574   20503609.660  
                
  21345500.719   112171411.122    21345505.191    87406275.1704                 
                
  20914498.133   109906479.199    20914504.383    85641454.6614                 
                
  23485015.219   125496794.927                    97608624.020    23485020.824  
  23485015.164  
  19602064.508   104931444.961                    81613364.987    19602069.281  
  19602062.930  
  22921235.445   122441129.213                    95232015.674    22921238.672  
  22921234.688  
  21893863.742   115053070.294    21893872.695    89651799.6264   21893872.930  
                
  21363800.234   114322029.668                    88917142.449    21363804.832  
  21363798.359  
  19519253.000   104195151.444                    81040694.578    19519255.613  
  19519251.047  
  24070615.000   126491919.772    24070627.000    98565184.0104   24070627.512  
                
  20681012.578   110357886.143                                                  
  20681010.188  
  22418672.734   117810969.773    22418682.398    91800804.8134   22418682.715  
                
  24320263.445   127803835.709    24320274.359    99587460.0774   24320273.961  
                
 21  8 15 12 30 40.0000000  0 17G17R23R 8G31G 1G22G21R15R 7R16G32R21
                                R22G 8R 6G 3G10
  24565966.953   129095035.750    24565975.414   100593569.6604   24565975.297  
                
  22709920.227   121482776.757                                                  
  22709918.652  
  22283028.789   119324633.106                    92808053.271    22283032.516  
  22283027.773  
  22431275.453   117877195.733    22431282.707    91852416.7224   22431282.965  
                
  20500835.633   107732670.018    20500845.492    83947586.8614   20500845.129  
                
  21342530.930   112155804.760    21342535.418    87394114.3754                 
                
  20914275.820   109905310.915    20914282.043    85640544.3074                 
                
  23486428.156   125504345.139                    97614496.421    23486433.699  
  23486428.152  
  19601261.461   104927146.163                    81610021.480    19601266.227  
  19601259.910  
  22916666.664   122416723.510                    95213033.478    22916669.895  
  22916665.941  
  21898475.359   115077304.453    21898484.320    89670683.3864   21898484.559  
                
  21371191.375   114361580.916                    88947904.512    21371195.953  
  21371189.527  
  19520243.938   104200441.171                    81044808.810    19520246.562  
  19520241.980  
  24076901.680   126524956.930    24076913.773    98590927.1954   24076914.320  
                
  20685845.289   110383674.416                                                  
  20685842.898  
  22413950.773   117786155.742    22413960.383    91781469.2154   22413960.715  
                
  24325655.141   127832169.121    24325666.039    99609538.0524   24325665.637  
                
 21  8 15 12 30 50.0000000  0 17G17R23R 8G31G 1G22G21R15R 7R16G32R21
                                R22G 8R 6G 3G10
  24562171.508   129075090.650    24562179.934   100578028.0684   24562179.789  
                
  22702607.430   121443658.403                                                  
  22702605.828  
  22277579.703   119295453.309                    92785357.876    22277583.371  
  22277578.703  
  22426257.531   117850826.487    22426264.816    91831869.2704   22426265.055  
                
  20498081.516   107718197.048    20498091.363    83936309.2264   20498091.016  
                
  21339565.961   112140223.784    21339570.465    87381973.3604                 
                
  20914062.609   109904190.485    20914068.812    85639671.2454                 
                
  23487856.234   125511976.257                    97620431.727    23487861.703  
  23487856.266  
  19600467.406   104922895.574                    81606715.479    19600472.191  
  19600465.871  
  22912108.805   122392376.344                    95194096.836    22912112.090  
  22912108.074  
  21903093.188   115101571.331    21903102.168    89689592.6314   21903102.391  
                
  21378591.125   114401178.169                    88978702.360    21378595.664  
  21378589.289  
  19521252.117   104205822.921                    81048994.611    19521254.750  
  19521250.148  
  24083190.180   126558003.066    24083202.273    98616677.4024   24083202.820  
                
  20690682.359   110409486.007                                                  
  20690679.957  
  22409232.195   117761359.469    22409241.773    91762147.4454   22409242.094  
                
  24331048.492   127860511.406    24331059.441    99631622.9124   24331059.012  
                
 21  8 15 12 31  0.0000000  0 17G17R23R 8G31G 1G22G21R15R 7R16G32R21
                                R22G 8R 6G 3G10
  24558385.102   129055192.967    24558393.477   100562523.3504   24558393.328  
                
  22695301.719   121404577.874                                                  
  22695300.094  
  22272135.977   119266302.200                    92762684.808    22272139.625  
  22272134.945  
  22421247.922   117824500.922    22421255.270    91811355.8724   22421255.484  
                
  20495337.852   107703779.036    20495347.691    83925074.4194   20495347.363  
                
  21336605.852   112124668.319    21336610.375    87369852.2224                 
                
  20913858.547   109903118.127    20913864.730    85638835.6394                 
                
  23489299.484   125519688.469                    97626430.121    23489304.883  
  23489299.543  
  19599682.352   104918693.161                    81603446.941    19599687.156  
  19599680.816  
  22907561.992   122368088.145                    95175206.052    22907565.312  
  22907561.227  
  21907717.258   115125870.975    21907726.238    89708527.4144   21907726.480  
                
  21385999.508   114440821.615                    89009536.136    21386004.008  
  21385997.660  
  19522277.539   104211296.834                    81053252.088    19522280.191  
  19522275.566  
  24089480.422   126591058.314    24089492.504    98642434.7094   24089493.062  
                
  20695523.820   110435320.971                                                  
  20695521.406  
  22404517.016   117736581.149    22404526.590    91742839.6834   22404526.914  
                
  24336443.562   127888862.674    24336454.574    99653714.7824   24336454.129  
                
 21  8 15 12 31 10.0000000  0 17G17R23R 8G31G 1G22G21R15R 7R16G32R21
                                R22G 8R 6G 3G10
  24554607.727   129035342.752    24554616.090   100547055.6634   24554615.941  
                
  22688003.148   121365535.557                                                  
  22688001.520  
  22266697.648   119237180.194                    92740034.392    22266701.305  
  22266696.578  
  22416246.680   117798219.303    22416254.070    91790876.7024   22416254.230  
                
  20492604.688   107689416.158    20492614.523    83913882.5704   20492614.195  
                
  21333650.625   112109138.483    21333655.156    87357751.0594                 
                
  20913663.672   109902094.016    20913669.840    85638037.6304                 
                
  23490757.953   125527481.969                    97632491.721    23490763.285  
  23490758.051  
  19598906.359   104914539.215                    81600216.092    19598911.168  
  19598904.812  
  22903026.352   122343859.394                    95156361.448    22903029.605  
  22903025.516  
  21912347.570   115150203.421    21912356.551    89727487.7584   21912356.816  
                
  21393416.477   114480511.100                    89040405.719    21393420.980  
  21393414.633  
  19523320.266   104216862.972                    81057581.306    19523322.922  
  19523318.301  
  24095772.477   126624122.953    24095784.512    98668199.3334   24095785.082  
                
  20700369.688   110461179.425                                                  
  20700367.234  
  22399805.297   117711820.868    22399814.863    91723545.9724   22399815.180  
                
  24341840.359   127917223.018    24341851.438    99675813.7124   24341850.980  
                
 21  8 15 12 31 20.0000000  0 17G17R23R 8G31G 1G22G21R15R 7R16G32R21
                                R22G 8R 6G 3G10
  24550839.391   129015540.065    24550847.781   100531625.0174   24550847.629  
                
  22680711.734   121326531.425                                                  
  22680710.078  
  22261264.680   119208087.060                    92717406.406    22261268.344  
  22261263.629  
  22411253.805   117771981.625    22411261.199    91770431.7724   22411261.359  
                
  20489882.016   107675108.433    20489891.852    83902733.6994   20489891.531  
                
  21330700.258   112093634.238    21330704.789    87345669.8414                 
                
  20913477.961   109901118.096    20913484.117    85637277.1714                 
                
  23492231.586   125535356.528                    97638616.383    23492236.895  
  23492231.723  
  19598139.383   104910433.531                    81597022.788    19598144.211  
  19598137.832  
  22898501.664   122319689.591                    95137562.744    22898504.961  
  22898500.793  
  21916984.102   115174568.529    21916993.098    89746473.5564   21916993.352  
                
  21400842.016   114520246.556                    89071311.048    21400846.535  
  21400840.164  
  19524380.281   104222521.403                    81061982.298    19524382.945  
  19524378.316  
  24102066.172   126657196.584    24102078.215    98693970.9654   24102078.809  
                
  20705219.945   110487061.261                                                  
  20705217.480  
  22395097.000   117687078.654    22395106.582    91704266.3344   22395106.898  
                
  24347238.852   127945592.359    24347249.973    99697919.6614   24347249.516  
                
 21  8 15 12 31 30.0000000  0 17G17R23R 8G31G 1G22G21R15R 7R16G32R21
                                R22G 8R 6G 3G10
  24547080.102   128995784.954    24547088.473   100516231.4454   24547088.344  
                
  22673427.484   121287565.701                                                  
  22673425.773  
  22255837.094   119179022.874                    92694800.969    22255840.801  
  22255836.062  
  22406269.336   117745788.141    22406276.711    91750021.2854   22406276.883  
                
  20487169.852   107660855.937    20487179.684    83891627.8624   20487179.371  
                
  21327754.781   112078155.695    21327759.312    87333608.6444                 
                
  20913301.422   109900190.386    20913307.566    85636554.2864                 
                
  23493720.367   125543312.173                    97644804.106    23493725.656  
  23493720.547  
  19597381.383   104906375.952                    81593866.901    19597386.230  
  19597379.828  
  22893988.109   122295579.208                    95118810.262    22893991.461  
  22893987.211  
  21921626.836   115198966.239    21921635.844    89765484.7624   21921636.082  
                
  21408276.086   114560027.705                    89102251.932    21408280.617  
  21408274.246  
  19525457.539   104228271.945                    81066454.937    19525460.223  
  19525455.570  
  24108361.531   126690278.964    24108373.582    98719749.4114   24108374.215  
                
  20710074.531   110512966.286                                                  
  20710072.055  
  22390392.141   117662354.520    22390401.723    91685000.7774   22390402.047  
                
  24352639.055   127973970.712    24352650.215    99720032.6364   24352649.734  
                
 21  8 15 12 31 40.0000000  0 17G17R23R 8G31G 1G22G21R15R 7R16G32R21
                                R22G 8R 6G 3G10
  24543329.938   128976077.653    24543338.312   100500875.1334   24543338.184  
                
  22666150.453   121248638.618                                                  
  22666148.707  
  22250414.953   119149987.748                    92672218.117    22250418.680  
  22250413.871  
  22401293.305   117719638.962    22401300.695    91729645.3034   22401300.844  
                
  20484468.234   107646658.835    20484478.066    83880565.1874   20484477.750  
                
  21324814.219   112062702.930    21324818.754    87321567.5314                 
                
  20913134.078   109899310.975    20913140.215    85635869.0254                 
                
  23495224.359   125551349.014                    97651054.977    23495229.602  
  23495224.598  
  19596632.438   104902366.780                    81590748.665    19596637.301  
  19596630.891  
  22889485.727   122271528.517                    95100104.168    22889489.086  
  22889484.820  
  21926275.781   115223396.557    21926284.762    89784521.3724   21926285.023  
                
  21415718.719   114599854.541                    89133228.345    21415723.250  
  21415716.871  
  19526552.117   104234114.862                    81070999.427    19526554.844  
  19526550.152  
  24114658.664   126723370.467    24114670.734    98745534.9664   24114671.387  
                
  20714933.484   110538894.545                                                  
  20714931.016  
  22385690.742   117637648.539    22385700.297    91665749.3744   22385700.629  
                
  24358040.977   128002358.164    24358052.180    99742152.6974   24358051.668  
                
 21  8 15 12 31 50.0000000  0 17G17R23R 8G31G 1G22G21R15R 7R16G32R21
                                R22G 8R 6G 3G10
  24539588.820   128956417.918    24539597.137   100485555.8664   24539597.023  
                
  22658880.617   121209750.044                                                  
  22658878.852  
  22244998.133   119120981.438                    92649657.694    22245001.945  
  22244997.051  
  22396325.672   117693533.873    22396333.098    91709303.6844   22396333.219  
                
  20481777.102   107632516.870    20481786.941    83869545.4764   20481786.617  
                
  21321878.500   112047275.629    21321883.039    87309546.2624                 
                
  20912975.875   109898479.625    20912982.012    85635221.2204                 
                
  23496743.484   125559466.677                    97657368.731    23496748.707  
  23496743.746  
  19595892.438   104898405.513                    81587667.675    19595897.312  
  19595890.895  
  22884994.477   122247537.264                    95081444.321    22884997.910  
  22884993.570  
  21930930.852   115247859.111    21930939.793    89803583.0914   21930940.082  
                
  21423169.797   114639726.717                    89164240.011    21423174.320  
  21423167.918  
  19527663.898   104240049.597                    81075615.328    19527666.602  
  19527661.934  
  24120957.414   126756470.317    24120969.488    98771327.0114   24120970.137  
                
  20719796.711   110564845.586                                                  
  20719794.238  
  22380992.750   117612960.478    22381002.305    91646511.9364   22381002.637  
                
  24363444.586   128030754.351    24363455.824    99764279.5944   24363455.285  
                
 21  8 15 12 32  0.0000000  0 17G17R23R 8G31G 1G22G21R15R 7R16G32R21
                                R22G 8R 6G 3G10
  24535856.773   128936805.956    24535865.102   100470273.8574   24535865.020  
                
  22651618.039   121170900.349                                                  
  22651616.266  
  22239586.758   119092004.198                    92627119.883    22239590.625  
  22239585.672  
  22391366.469   117667473.191    22391373.934    91688996.6844   22391374.043  
                
  20479096.516   107618430.303    20479106.363    83858568.9374   20479106.035  
                
  21318947.664   112031873.986    21318952.215    87297544.9964                 
                
  20912826.859   109897696.532    20912833.004    85634611.0174                 
                
  23498277.750   125567665.273                    97663745.430    23498282.980  
  23498278.023  
  19595161.430   104894492.387                    81584624.134    19595166.301  
  19595159.895  
  22880514.422   122223605.828                    95062831.018    22880517.945  
  22880513.508  
  21935592.070   115272353.984    21935600.977    89822670.0004   21935601.289  
                
  21430629.320   114679644.140                    89195286.877    21430633.852  
  21430627.402  
  19528792.945   104246076.471                    81080302.894    19528795.598  
  19528790.984  
  24127257.859   126789578.820    24127269.875    98797125.8134   24127270.520  
                
  20724664.258   110590819.720                                                  
  20724661.785  
  22376298.203   117588290.503    22376307.758    91627288.5984   22376308.078  
                
  24368849.922   128059159.458    24368861.176    99786413.4374   24368860.613  
                
 21  8 15 12 32 10.0000000  0 17G17R23R 8G31G 1G22G21R15R 7R16G32R21
                                R22G 8R 6G 3G10
  24532133.836   128917241.813    24532142.168   100455029.0804   24532142.066  
                
  22644362.734   121132089.561                                                  
  22644360.988  
  22234180.836   119063056.057                    92604604.674    22234184.746  
  22234179.766  
  22386415.750   117641457.050    22386423.211    91668724.3744   22386423.320  
                
  20476426.492   107604399.225    20476436.352    83847635.6254   20476436.016  
                
  21316021.711   112016498.052    21316026.262    87285563.7524                 
                
  20912687.016   109896961.634    20912693.168    85634038.3664                 
                
  23499827.148   125575944.782                    97670185.019    23499832.371  
  23499827.441  
  19594439.398   104890627.313                    81581617.974    19594444.281  
  19594437.871  
  22876045.641   122199734.405                    95044264.349    22876049.133  
  22876044.695  
  21940259.422   115296881.085    21940268.312    89841782.0224   21940268.645  
                
  21438097.258   114719606.729                    89226368.867    21438101.812  
  21438095.340  
  19529939.250   104252195.559                    81085062.169    19529941.891  
  19529937.316  
  24133559.922   126822695.655    24133571.789    98822931.1154   24133572.445  
                
  20729536.078   110616816.690                                                  
  20729533.605  
  22371607.102   117563638.676    22371616.625    91608079.3834   22371616.938  
                
  24374256.961   128087573.490    24374268.238    99808554.2264   24374267.656  
                
 21  8 15 12 32 20.0000000  0 17G17R23R 8G31G 1G22G21R15R 7R16G32R21
                                R22G 8R 6G 3G10
  24528420.031   128897725.715    24528428.340   100439821.7294   24528428.266  
                
  22637114.812   121093318.166                                                  
  22637113.082  
  22228780.375   119034137.040                    92582112.160    22228784.309  
  22228779.320  
  22381473.562   117615485.770    22381481.012    91648487.0284   22381481.129  
                
  20473767.070   107590423.872    20473776.945    83836745.7474   20473776.594  
                
  21313100.711   112001148.094    21313105.262    87273602.7564                 
                
  20912556.422   109896275.353    20912562.582    85633503.6014                 
                
  23501391.734   125584305.412                    97676687.744    23501396.922  
  23501392.012  
  19593726.367   104886810.391                    81578649.266    19593731.250  
  19593724.836  
  22871588.117   122175923.198                    95025744.540    22871591.641  
  22871587.176  
  21944932.945   115321440.553    21944941.816    89860919.2694   21944942.168  
                
  21445573.695   114759614.465                    89257485.977    21445578.238  
  21445571.758  
  19531102.828   104258406.864                    81089893.179    19531105.488  
  19531100.910  
  24139863.594   126855820.969    24139875.328    98848743.0294   24139876.012  
                
  20734412.234   110642836.830                                                  
  20734409.762  
  22366919.508   117539005.210    22366928.996    91588884.4914   22366929.320  
                
  24379665.703   128115996.617    24379677.043    99830702.0924   24379676.461  
                
 21  8 15 12 32 30.0000000  0 17G17R23R 8G31G 1G22G21R15R 7R16G32R21
                                R22G 8R 6G 3G10
  24524715.352   128878257.507    24524723.664   100424651.6994   24524723.590  
                
  22629874.203   121054585.888                                                  
  22629872.434  
  22223385.359   119005247.115                    92559642.247    22223389.309  
  22223384.312  
  22376539.891   117589559.166    22376547.293    91628284.5074   22376547.422  
                
  20471118.219   107576504.052    20471128.105    83825899.1334   20471127.738  
                
  21310184.594   111985823.808    21310189.125    87261661.7594                 
                
  20912435.023   109895637.389    20912441.191    85633006.4894                 
                
  23502971.406   125592746.773                    97683253.242    23502976.586  
  23502971.656  
  19593022.289   104883041.388                    81575717.807    19593027.168  
  19593020.770  
  22867141.898   122152172.249                    95007271.631    22867145.473  
  22867140.969  
  21949612.555   115346032.020    21949621.406    89880081.4544   21949621.770  
                
  21453058.539   114799667.079                    89288638.008    21453063.031  
  21453056.578  
  19532283.625   104264710.071                    81094795.663    19532286.305  
  19532281.711  
  24146168.727   126888954.502    24146180.441    98874561.3414   24146181.145  
                
  20739292.664   110668879.701                                                  
  20739290.172  
  22362235.359   117514389.850    22362244.816    91569703.6904   22362245.148  
                
  24385076.125   128144428.565    24385087.516    99852856.8264   24385086.938  
                
 21  8 15 12 32 40.0000000  0 17G17R23R 8G31G 1G22G21R15R 7R16G32R21
                                R22G 8R 6G 3G10
  24521019.828   128858837.415    24521028.148   100409519.1714   24521028.070  
                
  22622640.984   121015893.240                                                  
  22622639.148  
  22217995.797   118976386.330                    92537194.964    22217999.723  
  22217994.793  
  22371614.773   117563677.557    22371622.125    91608117.0304   22371622.285  
                
  20468479.984   107562640.026    20468489.883    83815095.9994   20468489.500  
                
  21307273.398   111970525.381    21307277.898    87249740.9054                 
                
  20912322.852   109895047.935    20912329.020    85632547.1764                 
                
  23504566.258   125601269.167                    97689881.737    23504571.426  
  23504566.531  
  19592327.172   104879320.339                    81572823.671    19592332.043  
  19592325.668  
  22862706.953   122128481.511                    94988845.524    22862710.477  
  22862706.023  
  21954298.281   115370655.629    21954307.129    89899268.6734   21954307.500  
                
  21460551.703   114839764.510                    89319824.881    21460556.172  
  21460549.734  
  19533481.727   104271105.620                    81099769.971    19533484.441  
  19533479.809  
  24152475.359   126922096.349    24152487.168    98900386.1154   24152487.875  
                
  20744177.391   110694945.458                                                  
  20744174.879  
  22357554.688   117489792.795    22357564.145    91550537.1684   22357564.469  
                
  24390488.273   128172869.489    24390499.688    99875018.5674   24390499.117  
                
 21  8 15 12 32 50.0000000  0 17G17R23R 8G31G 1G22G21R15R 7R16G32R21
                                R22G 8R 6G 3G10
  24517333.477   128839465.480    24517341.781   100394424.1624   24517341.703  
                
  22615415.125   120977240.153                                                  
  22615413.281  
  22212611.664   118947554.564                    92514770.279    22212615.555  
  22212610.695  
  22366698.227   117537841.005    22366705.539    91587984.6614   22366705.707  
                
  20465852.359   107548831.800    20465862.266    83804336.3484   20465861.871  
                
  21304367.117   111955252.791    21304371.578    87237840.1974                 
                
  20912219.898   109894506.929    20912226.059    85632125.6074                 
                
  23506176.227   125609872.336                    97696573.093    23506181.406  
  23506176.516  
  19591641.008   104875647.263                    81569966.845    19591645.879  
  19591639.527  
  22858283.375   122104851.572                    94970466.702    22858286.891  
  22858282.457  
  21958990.086   115395311.200    21958998.941    89918480.8044   21958999.332  
                
  21468053.211   114879906.460                    89351046.388    21468057.648  
  21468051.250  
  19534697.062   104277593.189                    81104815.863    19534699.852  
  19534695.164  
  24158783.586   126955246.088    24158795.391    98926217.0504   24158796.082  
                
  20749066.289   110721033.577                                                  
  20749063.805  
  22352877.500   117465214.050    22352886.965    91531384.9094   22352887.281  
                
  24395902.117   128201319.311    24395913.578    99897187.2454   24395912.996  
                
 21  8 15 12 33  0.0000000  0 17G17R23R 8G31G 1G22G21R15R 7R16G32R21
                                R22G 8R 6G 3G10
  24513656.297   128820141.756    24513664.617   100379366.7604   24513664.531  
                
  22608196.727   120938626.962                                                  
  22608194.895  
  22207233.055   118918752.144                    92492368.416    22207236.867  
  22207232.070  
  22361790.289   117512049.623    22361797.574    91567887.4974   22361797.742  
                
  20463235.367   107535079.405    20463245.281    83793620.1934   20463244.875  
                
  21301465.758   111940006.060    21301470.184    87225959.6354                 
                
  20912126.156   109894014.305    20912132.312    85631741.7444                 
                
  23507801.344   125618556.395                    97703327.370    23507806.543  
  23507801.645  
  19590963.789   104872022.089                    81567147.273    19590968.656  
  19590962.320  
  22853871.188   122081282.476                    94952135.207    22853874.676  
  22853870.293  
  21963687.961   115419998.638    21963696.836    89937717.7694   21963697.242  
                
  21475563.047   114920092.864                    89382302.460    21475567.457  
  21475561.086  
  19535929.688   104284172.955                    81109933.441    19535932.535  
  19535927.809  
  24165093.320   126988403.640    24165105.105    98952054.0724   24165105.762  
                
  20753959.445   110747144.366                                                  
  20753956.980  
  22348203.789   117440653.562    22348213.254    91512246.8774   22348213.570  
                
  24401317.672   128229778.019    24401329.164    99919362.8314   24401328.582  
                
 21  8 15 12 33 10.0000000  0 17G17R23R 8G31G 1G22G21R15R 7R16G32R21
                                R22G 8R 6G 3G10
  24509988.281   128800866.120    24509996.562   100364346.7934   24509996.500  
                
  22600985.797   120900053.594                                                  
  22600983.941  
  22201859.812   118889978.729                    92469989.144    22201863.641  
  22201858.855  
  22356890.938   117486303.355    22356898.219    91547825.4904   22356898.379  
                
  20460629.000   107521382.835    20460638.926    83782947.5424   20460638.504  
                
  21298569.320   111924785.172    21298573.727    87214099.1974                 
                
  20912041.617   109893570.084    20912047.762    85631395.5934                 
                
  23509441.555   125627321.100                    97710144.343    23509446.750  
  23509441.883  
  19590295.508   104868444.705                    81564364.857    19590300.371  
  19590294.047  
  22849470.312   122057774.031                    94933850.865    22849473.773  
  22849469.516  
  21968391.875   115444717.799    21968400.770    89956979.4544   21968401.164  
                
  21483081.109   114960323.597                    89413593.003    21483085.535  
  21483079.133  
  19537179.516   104290844.641                    81115122.525    19537182.398  
  19537177.664  
  24171404.578   127021569.053    24171416.320    98977897.2194   24171416.961  
                
  20758856.852   110773277.851                                                  
  20758854.414  
  22343533.547   117416111.279    22343543.000    91493123.0334   22343543.309  
                
  24406734.891   128258245.499    24406746.422    99941545.2534   24406745.809  
                
 21  8 15 12 33 20.0000000  0 17G17R23R 8G31G 1G22G21R15R 7R16G32R21
                                R22G 8R 6G 3G10
  24506329.445   128781638.835    24506337.711   100349364.5194   24506337.668  
                
  22593782.367   120861520.384                                                  
  22593780.551  
  22196492.039   118861234.447                    92447632.478    22196495.836  
  22196491.105  
  22352000.242   117460602.596    22352007.539    91527798.9394   22352007.691  
                
  20458033.289   107507742.271    20458043.227    83772318.5394   20458042.801  
                
  21295677.797   111909590.150    21295682.203    87202258.9354                 
                
  20911966.336   109893174.444    20911972.469    85631087.3014                 
                
  23511096.859   125636166.491                    97717024.124    23511102.102  
  23511097.211  
  19589636.172   104864915.181                    81561619.662    19589641.020  
  19589634.730  
  22845080.883   122034326.450                    94915613.886    22845084.312  
  22845080.090  
  21973101.836   115469468.712    21973110.738    89976265.8704   21973111.121  
                
  21490607.367   115000598.519                    89444917.927    21490611.883  
  21490605.406  
  19538446.586   104297608.306                    81120383.161    19538449.488  
  19538444.762  
  24177717.312   127054742.105    24177729.008    99003746.3304   24177729.637  
                
  20763758.430   110799433.547                                                  
  20763755.984  
  22338866.797   117391587.369    22338876.230    91474013.5014   22338876.527  
                
  24412153.781   128286721.868    24412165.348    99963734.5964   24412164.707  
                
 21  8 15 12 33 30.0000000  0 17G17R23R 8G31G 1G22G21R15R 7R16G32R21
                                R22G 8R 6G 3G10
  24502679.820   128762459.964    24502688.035   100334419.9584   24502688.043  
                
  22586586.492   120823027.468                                                  
  22586584.707  
  22191129.703   118832519.500                    92425298.627    22191133.480  
  22191128.785  
  22347118.180   117434947.224    22347125.488    91507807.7554   22347125.617  
                
  20455448.219   107494157.717    20455458.184    83761733.1754   20455457.742  
                
  21292791.203   111894420.989    21292795.629    87190438.8214                 
                
  20911900.273   109892827.339    20911906.398    85630816.8274                 
                
  23512767.273   125645092.653                    97723966.691    23512772.523  
  23512767.641  
  19588985.711   104861433.248                    81558911.491    19588990.551  
  19588984.289  
  22840702.961   122010940.418                    94897424.783    22840706.402  
  22840702.164  
  21977817.789   115494251.214    21977826.680    89995576.9114   21977827.066  
                
  21498141.891   115040917.389                    89476277.030    21498146.426  
  21498139.945  
  19539730.883   104304464.002                    81125715.355    19539733.820  
  19539729.094  
  24184031.414   127087922.690    24184043.137    99029601.2984   24184043.742  
                
  20768664.219   110825611.755                                                  
  20768661.789  
  22334203.531   117367081.786    22334212.945    91454918.2454   22334213.250  
                
  24417574.320   128315207.026    24417585.906    99985930.7894   24417585.277  
                
 21  8 15 12 33 40.0000000  0 17G17R23R 8G31G 1G22G21R15R 7R16G32R21
                                R22G 8R 6G 3G10
  24499039.453   128743329.775    24499047.664   100319513.3094   24499047.672  
                
  22579398.211   120784575.150                                                  
  22579396.438  
  22185772.859   118803833.956                    92402987.666    22185776.629  
  22185771.934  
  22342244.852   117409337.677    22342252.148    91487852.2744   22342252.266  
                
  20452873.898   107480629.537    20452883.895    83751191.7364   20452883.441  
                
  21289909.594   111879278.057    21289914.047    87178639.1344                 
                
  20911843.523   109892529.044    20911849.641    85630584.3914                 
                
  23514452.836   125654099.722                    97730972.162    23514458.074  
  23514453.199  
  19588344.273   104857999.509                    81556240.816    19588349.098  
  19588342.863  
  22836336.469   121987615.569                    94879283.266    22836339.879  
  22836335.633  
  21982539.805   115519065.534    21982548.664    90014912.7434   21982549.078  
                
  21505684.703   115081280.357                    89507670.433    21505689.234  
  21505682.793  
  19541032.461   104311411.847                    81131119.230    19541035.430  
  19541030.691  
  24190346.922   127121110.864    24190358.691    99055462.1624   24190359.289  
                
  20773574.250   110851812.440                                                  
  20773571.820  
  22329543.812   117342594.821    22329553.227    91435837.5074   22329553.539  
                
  24422996.609   128343701.240    24423008.203   100008134.0574   24423007.574  
                
 21  8 15 12 33 50.0000000  0 17G17R23R 8G31G 1G22G21R15R 7R16G32R21
                                R22G 8R 6G 3G10
  24495408.328   128724248.079    24495416.543   100304644.4844   24495416.535  
                
  22572217.523   120746163.403                                                  
  22572215.793  
  22180421.438   118775177.489                    92380699.350    22180425.219  
  22180420.492  
  22337380.219   117383773.880    22337387.500    91467932.4504   22337387.633  
                
  20450310.242   107467157.474    20450320.273    83740694.0314   20450319.797  
                
  21287032.914   111864161.010    21287037.375    87166859.6224                 
                
  20911795.992   109892279.263    20911802.094    85630389.7564                 
                
  23516153.445   125663187.237                    97738040.219    23516158.684  
  23516153.809  
  19587711.719   104854613.378                    81553607.166    19587716.535  
  19587710.328  
  22831981.469   121964352.195                    94861189.552    22831984.836  
  22831980.621  
  21987267.797   115543911.271    21987276.629    90034273.0654   21987277.070  
                
  21513235.664   115121686.913                    89539097.734    21513240.172  
  21513233.781  
  19542351.281   104318451.715                    81136594.675    19542354.266  
  19542349.523  
  24196663.891   127154306.455    24196675.609    99081328.8404   24196676.203  
                
  20778488.383   110878035.139                                                  
  20778485.977  
  22324887.594   117318126.218    22324897.020    91416771.0734   22324897.320  
                
  24428420.555   128372204.215    24428432.129   100030344.1414   24428431.508  
                
 21  8 15 12 34  0.0000000  0 17G17R23R 8G31G 1G22G21R15R 7R16G32R21
                                R22G 8R 6G 3G10
  24491786.438   128705214.995    24491794.660   100289813.5244   24491794.664  
                
  22565044.461   120707792.317                                                  
  22565042.758  
  22175075.508   118746550.526                    92358433.959    22175079.324  
  22175074.555  
  22332524.305   117358255.894    22332531.547    91448048.3184   22332531.695  
                
  20447757.297   107453741.656    20447767.363    83730240.1524   20447766.871  
                
  21284161.172   111849069.919    21284165.633    87155100.3364                 
                
  20911757.703   109892078.086    20911763.793    85630232.9934                 
                
  23517869.133   125672355.353                    97745170.998    23517874.379  
  23517869.512  
  19587088.070   104851274.937                    81551010.610    19587092.879  
  19587086.680  
  22827638.000   121941150.371                    94843143.731    22827641.410  
  22827637.094  
  21992001.766   115568788.434    21992010.590    90053657.8604   21992011.043  
                
  21520794.797   115162137.164                    89570559.041    21520799.266  
  21520792.906  
  19543687.320   104325583.554                    81142141.666    19543690.359  
  19543685.609  
  24202982.250   127187509.433    24202993.938    99107201.2624   24202994.520  
                
  20783406.680   110904280.137                                                  
  20783404.289  
  22320234.875   117293676.040    22320244.293    91397718.9984   22320244.602  
                
  24433846.164   128400716.002    24433857.707   100052561.0684   24433857.113  
                
 21  8 15 12 34 10.0000000  0 17G17R23R 8G31G 1G22G21R15R 7R16G32R21
                                R22G 8R 6G 3G10
  24488173.828   128686230.685    24488182.082   100275020.5704   24488182.051  
                
  22557879.047   120669462.174                                                  
  22557877.379  
  22169735.031   118717952.828                    92336191.333    22169738.902  
  22169734.074  
  22327677.148   117332783.937    22327684.340    91428200.0564   22327684.523  
                
  20445215.094   107440382.295    20445225.191    83719830.2604   20445224.695  
                
  21281294.406   111834004.980    21281298.859    87143361.4274                 
                
  20911728.703   109891925.647    20911734.777    85630114.2084                 
                
  23519599.922   125681604.127                    97752364.479    23519605.203  
  23519600.293  
  19586473.328   104847984.185                    81548451.145    19586478.129  
  19586471.949  
  22823306.062   121918010.147                    94825145.817    22823309.523  
  22823305.129  
  21996741.719   115593697.038    21996750.559    90073067.1574   21996751.004  
                
  21528362.055   115202631.034                    89602054.248    21528366.516  
  21528360.164  
  19545040.594   104332807.344                    81147760.166    19545043.652  
  19545038.910  
  24209301.891   127220719.543    24209313.652    99133079.2374   24209314.203  
                
  20788329.141   110930547.253                                                  
  20788326.766  
  22315585.688   117269244.445    22315595.105    91378681.3914   22315595.422  
                
  24439273.492   128429236.661    24439284.961   100074784.9554   24439284.391  
                
 21  8 15 12 34 20.0000000  0 17G17R23R 8G31G 1G22G21R15R 7R16G32R21
                                R22G 8R 6G 3G10
  24484570.484   128667295.052    24484578.773   100260265.5634   24484578.699  
                
  22550721.312   120631173.068                                                  
  22550719.641  
  22164399.992   118689384.189                    92313971.302    22164403.914  
  22164399.031  
  22322838.750   117307357.988    22322845.914    91408387.6414   22322846.113  
                
  20442683.609   107427079.260    20442693.738    83709464.2624   20442693.234  
                
  21278432.594   111818966.049    21278437.043    87131642.7824                 
                
  20911708.945   109891821.782    20911714.992    85630033.2684                 
                
  23521345.797   125690933.506                    97759620.661    23521351.082  
  23521346.152  
  19585867.492   104844741.095                    81545928.733    19585872.277  
  19585866.109  
  22818985.727   121894931.948                    94807196.110    22818989.215  
  22818984.840  
  22001487.609   115618636.842    22001496.465    90092500.7664   22001496.910  
                
  21535937.406   115243168.152                    89633583.088    21535941.871  
  21535935.504  
  19546411.094   104340123.087                    81153450.190    19546414.164  
  19546409.434  
  24215622.953   127253936.688    24215634.734    99158962.6984   24215635.262  
                
  20793255.695   110956836.309                                                  
  20793253.289  
  22310940.008   117244831.269    22310949.469    91359658.1554   22310949.754  
                
  24444702.484   128457766.055    24444713.875   100097015.6344   24444713.297  
                
 21  8 15 12 34 30.0000000  0 17G17R23R 8G31G 1G22G21R15R 7R16G32R21
                                R22G 8R 6G 3G10
  24480976.430   128648408.128    24480984.727   100245548.4844   24480984.629  
                
  22543571.273   120592925.081                                                  
  22543569.586  
  22159070.492   118660845.156                    92291774.316    22159074.426  
  22159069.539  
  22318009.141   117281978.171    22318016.281    91388611.1754   22318016.496  
                
  20440162.852   107413832.613    20440172.992    83699142.2074   20440172.480  
                
  21275575.719   111803953.114    21275580.164    87119944.4034                 
                
  20911698.430   109891766.500    20911704.453    85629990.1924                 
                
  23523106.711   125700343.218                    97766939.321    23523111.969  
  23523107.066  
  19585270.477   104841545.271                    81543443.103    19585275.242  
  19585269.090  
  22814677.062   121871915.754                    94789294.656    22814680.508  
  22814676.129  
  22006239.414   115643607.746    22006248.297    90111958.6104   22006248.746  
                
  21543520.781   115283748.306                    89665145.400    21543525.281  
  21543518.902  
  19547798.812   104347530.770                    81159211.715    19547801.844  
  19547797.156  
  24221945.266   127287160.802    24221957.125    99184851.5814   24221957.641  
                
  20798186.344   110983147.234                                                  
  20798183.910  
  22306297.836   117220436.531    22306307.348    91340649.2914   22306307.621  
                
  24450133.125   128486304.144    24450144.445   100119253.0964   24450143.855  
                
 21  8 15 12 34 40.0000000  0 17G17R23R 8G31G 1G22G21R15R 7R16G32R21
                                R22G 8R 6G 3G10
  24477391.664   128629570.093    24477399.996   100230869.5064   24477399.895  
                
  22536428.977   120554718.533                                                  
  22536427.273  
  22153746.453   118632335.288                    92269599.999    22153750.434  
  22153745.512  
  22313188.312   117256644.629    22313195.445    91368870.7724   22313195.680  
                
  20437652.859   107400642.537    20437663.008    83688864.2294   20437662.500  
                
  21272723.836   111788966.423    21272728.281    87108266.4704                 
                
  20911697.195   109891759.995    20911703.188    85629985.1184                 
                
  23524882.680   125709833.474                    97774320.608    23524887.961  
  23524883.027  
  19584682.375   104838397.132                    81540994.555    19584687.125  
  19584680.977  
  22810379.961   121848961.544                    94771441.423    22810383.391  
  22810379.000  
  22010997.148   115668609.792    22011006.074    90131440.7224   22011006.508  
                
  21551112.234   115324371.508                    89696741.204    21551116.711  
  21551110.367  
  19549203.750   104355030.384                    81165044.741    19549206.766  
  19549202.117  
  24228268.914   127320391.806    24228280.785    99210745.8374   24228281.316  
                
  20803121.125   111009480.148                                                  
  20803118.691  
  22301659.211   117196060.402    22301668.734    91321654.9114   22301669.008  
                
  24455565.453   128514851.034    24455576.738   100141497.4184   24455576.141  
                
 21  8 15 12 34 50.0000000  0 17G17R23R 8G31G 1G22G21R15R 7R16G32R21
                                R22G 8R 6G 3G10
  24473816.258   128610781.143    24473824.578   100216228.7704   24473824.449  
                
  22529294.430   120516553.618                                                  
  22529292.727  
  22148427.938   118603854.977                    92247448.658    22148431.906  
  22148427.031  
  22308376.359   117231357.654    22308383.523    91349166.6574   22308383.746  
                
  20435153.672   107387509.222    20435163.828    83678630.4774   20435163.328  
                
  21269876.953   111774005.953    21269881.402    87096608.9614                 
                
  20911705.266   109891802.405    20911711.246    85630018.1674                 
                
  23526673.695   125719404.099                    97781764.436    23526678.996  
  23526674.000  
  19584103.180   104835296.667                    81538583.087    19584107.922  
  19584101.773  
  22806094.570   121826069.805                    94753636.777    22806097.980  
  22806093.559  
  22015760.812   115693643.038    22015769.797    90150947.1314   22015770.195  
                
  21558711.727   115365037.745                    89728370.499    21558716.180  
  21558709.875  
  19550625.906   104362621.899                    81170949.248    19550628.906  
  19550624.301  
  24234593.805   127353629.460    24234605.707    99236645.2854   24234606.258  
                
  20808060.023   111035835.135                                                  
  20808057.605  
  22297024.148   117171703.000    22297033.691    91302675.1234   22297033.945  
                
  24460999.484   128543406.801    24461010.766   100163748.6494   24461010.164  
                
 21  8 15 12 35  0.0000000  0 17G17R23R 8G31G 1G22G21R15R 7R16G32R21
                                R22G 8R 6G 3G10
  24470250.195   128592041.261    24470258.496   100201626.2644   24470258.367  
                
  22522167.672   120478430.446                                                  
  22522165.965  
  22143114.969   118575404.279                    92225320.332    22143118.863  
  22143114.078  
  22303573.289   117206117.283    22303580.469    91329498.8454   22303580.680  
                
  20432665.273   107374432.641    20432675.441    83668440.9404   20432674.941  
                
  21267035.047   111759071.697    21267039.492    87084971.8934                 
                
  20911722.641   109891893.701    20911728.609    85630089.3054                 
                
  23528479.781   125729055.286                    97789270.925    23528485.086  
  23528480.047  
  19583532.875   104832243.794                    81536208.633    19583537.605  
  19583531.453  
  22801820.836   121803240.497                    94735880.666    22801824.266  
  22801819.809  
  22020530.375   115718707.264    22020539.418    90170477.6934   22020539.785  
                
  21566319.195   115405746.831                    89760033.123    21566323.648  
  21566317.340  
  19552065.312   104370305.389                    81176925.286    19552068.305  
  19552063.719  
  24240919.992   127386873.964    24240931.930    99262550.0574   24240932.477  
                
  20813002.984   111062211.822                                                  
  20813000.570  
  22292392.625   117147364.235    22292402.188    91283709.8764   22292402.414  
                
  24466435.180   128571971.356    24466446.473   100186006.7214   24466445.840  
                
 21  8 15 12 35 10.0000000  0 17G17R23R 8G31G 1G22G21R15R 7R16G32R21
                                R22G 8R 6G 3G10
  24466693.461   128573350.482    24466701.770   100187062.0284   24466701.633  
                
  22515048.734   120440349.144                                                  
  22515047.082  
  22137807.500   118546982.977                    92203214.889    22137811.375  
  22137806.629  
  22298779.102   117180923.631    22298786.289    91309867.4464   22298786.496  
                
  20430187.688   107361412.879    20430197.863    83658295.6764   20430197.363  
                
  21264198.148   111744163.702    21264202.582    87073355.2784                 
                
  20911749.312   109892033.844    20911755.270    85630198.5044                 
                
  23530300.898   125738786.857                    97796839.910    23530306.219  
  23530301.098  
  19582971.453   104829238.455                    81533871.143    19582976.164  
  19582970.000  
  22797558.836   121780474.026                    94718173.454    22797562.293  
  22797557.785  
  22025305.836   115743802.454    22025314.906    90190032.3784   22025315.266  
                
  21573934.594   115446498.595                    89791728.934    21573939.105  
  21573932.758  
  19553521.938   104378080.823                    81182972.849    19553524.910  
  19553520.363  
  24247247.414   127420125.048    24247259.391    99288459.9464   24247259.922  
                
  20817950.117   111088610.504                                                  
  20817947.684  
  22287764.672   117123044.193    22287774.203    91264759.2014   22287774.430  
                
  24471872.555   128600544.714    24471883.848   100208271.6454   24471883.195  
                
 21  8 15 12 35 20.0000000  0 17G17R23R 8G31G 1G22G21R15R 7R16G32R21
                                R22G 8R 6G 3G10
  24463146.016   128554708.624    24463154.375   100172535.9394   24463154.230  
                
  22507937.617   120402309.782                                                  
  22507936.023  
  22132505.477   118518590.956                    92181132.240    22132509.359  
  22132504.621  
  22293993.773   117155776.598    22294000.984    91290272.3704   22294001.168  
                
  20427720.883   107348449.747    20427731.070    83648194.5384   20427730.566  
                
  21261366.188   111729281.681    21261370.609    87061758.9094                 
                
  20911785.242   109892222.651    20911791.191    85630345.6244                 
                
  23532137.016   125748598.509                    97804471.216    23532142.379  
  23532137.195  
  19582418.828   104826280.238                    81531570.313    19582423.535  
  19582417.379  
  22793308.523   121757769.897                    94700514.726    22793312.004  
  22793307.438  
  22030087.125   115768928.272    22030096.203    90209610.9344   22030096.582  
                
  21581557.852   115487292.595                    89823457.575    21581562.445  
  21581556.004  
  19554995.727   104385948.012                    81189091.777    19554998.684  
  19554994.168  
  24253576.055   127453382.517    24253588.027    99314374.8384   24253588.586  
                
  20822901.195   111115030.387                                                  
  20822898.789  
  22283140.219   117098742.619    22283149.738    91245822.9204   22283149.977  
                
  24477311.523   128629126.619    24477322.812   100230543.2394   24477322.172  
                
 21  8 15 12 35 30.0000000  0 17G17R23R 8G31G 1G22G21R15R 7R16G32R21
                                R22G 8R 6G 3G10
  24459607.953   128536116.011    24459616.340   100158048.2194   24459616.164  
                
  22500834.375   120364312.500                                                  
  22500832.777  
  22127208.992   118490228.592                    92159072.650    22127212.855  
  22127208.109  
  22289217.367   117130676.461    22289224.609    91270713.8474   22289224.773  
                
  20425264.914   107335543.538    20425275.109    83638137.7574   20425274.605  
                
  21258539.227   111714425.920    21258543.637    87050182.9974                 
                
  20911830.492   109892460.438    20911836.426    85630530.9084                 
                
  23533988.172   125758490.449                    97812164.901    23533993.504  
  23533988.352  
  19581875.062   104823369.420                    81529306.350    19581879.770  
  19581873.617  
  22789070.047   121735128.830                    94682905.052    22789073.508  
  22789068.930  
  22034874.266   115794084.865    22034883.355    90229213.4684   22034883.746  
                
  21589189.031   115528128.982                    89855219.182    21589193.715  
  21589187.219  
  19556486.758   104393907.109                    81195282.177    19556489.688  
  19556485.207  
  24259905.891   127486646.356    24259917.906    99340294.6774   24259918.488  
                
  20827856.391   111141472.237                                                  
  20827853.969  
  22278519.336   117074459.789    22278528.863    91226901.2564   22278529.090  
                
  24482752.172   128657717.278    24482763.430   100252821.6544   24482762.820  
                
 21  8 15 12 35 40.0000000  0 17G17R23R 8G31G 1G22G21R15R 7R16G32R21
                                R22G 8R 6G 3G10
  24456079.273   128517572.651    24456087.637   100143598.8404   24456087.461  
                
  22493739.078   120326357.594                                                  
  22493737.453  
  22121917.953   118461895.549                    92137035.850    22121921.832  
  22121917.039  
  22284449.898   117105623.301    22284457.160    91251191.9104   22284457.297  
                
  20422819.781   107322694.281    20422829.980    83628125.3494   20422829.473  
                
  21255717.273   111699596.433    21255721.676    87038627.5624                 
                
  20911885.047   109892747.080    20911890.965    85630754.2674                 
                
  23535854.336   125768462.629                    97819921.090    23535859.699  
  23535854.520  
  19581340.133   104820505.931                    81527079.202    19581344.840  
  19581338.672  
  22784843.375   121712550.748                    94665344.334    22784846.809  
  22784842.223  
  22039667.242   115819272.094    22039676.355    90248839.8714   22039676.742  
                
  21596828.172   115569007.620                    89887013.650    21596832.902  
  21596826.395  
  19557994.961   104401957.994                    81201543.977    19557997.898  
  19557993.410  
  24266236.906   127519916.299    24266248.965    99366219.2714   24266249.570  
                
  20832815.586   111167935.396                                                  
  20832813.168  
  22273902.023   117050195.659    22273911.535    91207994.1454   22273911.750  
                
  24488194.484   128686316.633    24488205.715   100275106.8314   24488205.137  
                
 21  8 15 12 35 50.0000000  0 17G17R23R 8G31G 1G22G21R15R 7R16G32R21
                                R22G 8R 6G 3G10
  24452559.930   128499078.434    24452568.242   100129187.7744   24452568.086  
                
  22486651.680   120288444.978                                                  
  22486650.090  
  22116632.352   118433591.706                    92115021.768    22116636.266  
  22116631.414  
  22279691.320   117080616.840    22279698.617    91231706.3804   22279698.711  
                
  20420385.445   107309901.820    20420395.641    83618157.1964   20420395.129  
                
  21252900.258   111684792.964    21252904.656    87027092.3934                 
                
  20911948.859   109893082.414    20911954.750    85631015.5624                 
                
  23537735.453   125778514.807                    97827739.408    23537740.809  
  23537735.637  
  19580813.992   104817689.498                    81524888.649    19580818.699  
  19580812.520  
  22780628.461   121690035.531                    94647832.515    22780631.883  
  22780627.348  
  22044465.984   115844489.670    22044475.117    90268489.9234   22044475.496  
                
  21604475.086   115609928.073                    89918840.658    21604479.906  
  21604473.371  
  19559520.305   104410100.327                    81207876.893    19559523.230  
  19559518.742  
  24272569.086   127553192.003    24272581.188    99392148.3594   24272581.766  
                
  20837778.742   111194419.749                                                  
  20837776.316  
  22269288.219   117025950.039    22269297.742    91189101.4794   22269297.957  
                
  24493638.422   128714924.448    24493649.602   100297398.6074   24493649.055  
                
 21  8 15 12 36  0.0000000  0 17G17R23R 8G31G 1G22G21R15R 7R16G32R21
                                R22G 8R 6G 3G10
  24449049.984   128480633.598    24449058.246   100114815.1994   24449058.141  
                
  22479572.242   120250574.902                                                  
  22479570.660  
  22111352.328   118405317.654                    92093030.862    22111356.281  
  22111351.375  
  22274941.734   117055657.621    22274949.074    91212257.6514   22274949.129  
                
  20417961.984   107297166.442    20417972.168    83608233.5324   20417971.664  
                
  21250088.258   111670015.798    21250092.672    87015577.7284                 
                
  20912021.969   109893466.615    20912027.832    85631314.9394                 
                
  23539631.570   125788647.057                    97835620.055    23539636.941  
  23539631.730  
  19580296.695   104814920.406                    81522734.914    19580301.395  
  19580295.223  
  22776425.375   121667583.475                    94630369.825    22776428.816  
  22776424.309  
  22049270.539   115869737.747    22049279.688    90288163.7444   22049280.070  
                
  21612129.812   115650890.242                    89950700.096    21612134.699  
  21612128.117  
  19561062.828   104418334.459                    81214281.213    19561065.785  
  19561061.258  
  24278902.438   127586473.846    24278914.602    99418082.2224   24278915.156  
                
  20842745.875   111220925.395                                                  
  20842743.473  
  22264678.000   117001723.206    22264687.555    91170223.4404   22264687.758  
                
  24499083.984   128743540.904    24499095.137   100319697.1414   24499094.621  
                
 21  8 15 12 36 10.0000000  0 17G17R23R 8G31G 1G22G21R15R 7R16G32R21
                                R22G 8R 6G 3G10
  24445549.453   128462238.143    24445557.656   100100481.1144   24445557.605  
                
  22472500.781   120212747.475                                                  
  22472499.207  
  22106077.758   118377072.776                    92071062.670    22106081.766  
  22106076.773  
  22270201.156   117030745.713    22270208.520    91192845.7844   22270208.539  
                
  20415549.367   107284488.049    20415559.535    83598354.2654   20415559.043  
                
  21247281.242   111655264.855    21247285.680    87004083.4954                 
                
  20912104.367   109893899.582    20912110.211    85631652.3134                 
                
  23541542.664   125798859.378                    97843562.979    23541548.070  
  23541542.762  
  19579788.188   104812198.329                    81520617.746    19579792.898  
  19579786.711  
  22772234.133   121645194.732                    94612956.387    22772237.621  
  22772233.090  
  22054080.859   115895016.081    22054090.043    90307861.1494   22054090.406  
                
  21619792.391   115691894.156                    89982591.998    21619797.305  
  21619790.695  
  19562622.523   104426660.175                    81220756.768    19562625.480  
  19562620.922  
  24285236.922   127619761.354    24285249.051    99444020.5144   24285249.586  
                
  20847716.969   111247452.027                                                  
  20847714.570  
  22260071.328   116977515.003    22260080.887    91151359.9134   22260081.094  
                
  24504531.172   128772165.872    24504542.305   100342002.2844   24504541.816  
                
 21  8 15 12 36 20.0000000  0 17G17R23R 8G31G 1G22G21R15R 7R16G32R21
                                R22G 8R 6G 3G10
  24442058.344   128443892.276    24442066.496   100086185.6244   24442066.465  
                
  22465437.344   120174963.045                                                  
  22465435.781  
  22100808.719   118348857.564                    92049117.531    22100812.785  
  22100807.691  
  22265469.617   117005881.316    22265476.984    91173470.9414   22265476.996  
                
  20413147.633   107271866.915    20413157.785    83588519.6124   20413157.301  
                
  21244479.242   111640540.294    21244483.695    86992609.8094                 
                
  20912196.070   109894381.479    20912201.895    85632027.8144                 
                
  23543468.727   125809151.716                    97851568.129    23543474.145  
  23543468.805  
  19579288.508   104809523.511                    81518537.339    19579293.211  
  19579287.027  
  22768054.805   121622869.658                    94595592.483    22768058.328  
  22768053.793  
  22058896.945   115920324.793    22058906.160    90327582.2184   22058906.523  
                
  21627462.727   115732939.632                    90014516.234    21627467.652  
  21627461.102  
  19564199.383   104435077.572                    81227303.645    19564202.324  
  19564197.766  
  24291572.477   127653054.808    24291584.586    99469963.4384   24291585.141  
                
  20852692.062   111274000.061                                                  
  20852689.633  
  22255468.234   116953325.658    22255477.789    91132511.0894   22255478.027  
                
  24509979.977   128800799.518    24509991.094   100364314.1974   24509990.629  
                
 21  8 15 12 36 30.0000000  0 17G17R23R 8G31G 1G22G21R15R 7R16G32R21
                                R22G 8R 6G 3G10
  24438576.656   128425595.948    24438584.746   100071928.7714   24438584.777  
                
  22458381.953   120137221.825                                                  
  22458380.457  
  22095545.297   118320672.238                    92027195.632    22095549.340  
  22095544.238  
  22260747.125   116981064.455    22260754.492    91154133.1414   22260754.508  
                
  20410756.828   107259303.142    20410766.973    83578729.6704   20410766.504  
                
  21241682.258   111625842.069    21241686.734    86981156.6574                 
                
  20912297.094   109894912.365    20912302.898    85632441.4944                 
                
  23545409.781   125819524.132                    97859635.539    23545415.188  
  23545409.902  
  19578797.648   104806895.896                    81516493.645    19578802.348  
  19578796.180  
  22763887.430   121600608.388                    94578278.195    22763890.918  
  22763886.395  
  22063718.805   115945663.861    22063728.035    90347326.9344   22063728.395  
                
  21635140.906   115774026.464                    90046472.652    21635145.742  
  21635139.258  
  19565793.422   104443586.654                    81233921.804    19565796.367  
  19565791.785  
  24297909.062   127686353.896    24297921.207    99495910.7374   24297921.777  
                
  20857671.133   111300569.188                                                  
  20857668.695  
  22250868.750   116929155.223    22250878.312    91113676.9974   22250878.527  
                
  24515430.445   128829441.885    24515441.555   100386632.9054   24515441.090  
                
 21  8 15 12 36 40.0000000  0 17G17R23R 8G31G 1G22G21R15R 7R16G32R21
                                R22G 8R 6G 3G10
  24435104.422   128407349.273    24435112.492   100057710.6154   24435112.586  
                
  22451334.656   120099523.817                                                  
  22451333.195  
  22090287.375   118292516.423                    92005296.676    22090291.406  
  22090286.324  
  22256033.703   116956295.273    22256041.059    91134832.4944   22256041.070  
                
  20408376.930   107246796.710    20408387.070    83568984.3974   20408386.609  
                
  21238890.297   111611170.248    21238894.797    86969724.0744                 
                
  20912407.461   109895492.291    20912413.250    85632893.3834                 
                
  23547365.812   125829976.542                    97867765.206    23547371.238  
  23547365.934  
  19578315.602   104804315.448                    81514486.637    19578320.309  
  19578314.156  
  22759731.961   121578410.675                    94561013.329    22759735.402  
  22759730.930  
  22068546.414   115971033.095    22068555.680    90367095.1584   22068556.020  
                
  21642826.852   115815154.752                    90078461.314    21642831.562  
  21642825.125  
  19567404.656   104452187.549                    81240611.393    19567407.566  
  19567403.004  
  24304246.766   127719658.652    24304258.953    99521862.4554   24304259.516  
                
  20862654.164   111327159.519                                                  
  20862651.738  
  22246272.859   116905003.666    22246282.387    91094857.6174   22246282.605  
                
  24520882.562   128858092.865    24520893.680   100408958.3184   24520893.195  
                
 21  8 15 12 36 50.0000000  0 17G17R23R 8G31G 1G22G21R15R 7R16G32R21
                                R22G 8R 6G 3G10
  24431641.633   128389152.269    24431649.676   100043531.1174   24431649.777  
                
  22444295.438   120061869.047                                                  
  22444293.980  
  22085034.984   118264390.057                    91983420.622    22085038.945  
  22085033.926  
  22251329.344   116931573.707    22251336.707    91115568.9534   22251336.727  
                
  20406007.930   107234347.542    20406018.074    83559283.7484   20406017.617  
                
  21236103.336   111596524.686    21236107.848    86958311.9574                 
                
  20912527.141   109896121.179    20912532.906    85633383.4214                 
                
  23549336.773   125840508.740                    97875956.902    23549342.207  
  23549336.902  
  19577842.297   104801781.796                    81512516.021    19577847.000  
  19577840.855  
  22755588.469   121556277.015                    94543798.282    22755591.867  
  22755587.488  
  22073379.719   115996432.293    22073389.047    90386886.7364   22073389.340  
                
  21650520.312   115856324.102                    90110481.900    21650525.012  
  21650518.562  
  19569033.008   104460879.834                    81247372.052    19569035.887  
  19569031.324  
  24310585.625   127752968.781    24310597.703    99547818.3664   24310598.266  
                
  20867641.086   111353770.619                                                  
  20867638.676  
  22241680.531   116880870.879    22241689.996    91076052.8444   22241690.254  
                
  24526336.281   128886752.305    24526347.406   100431290.3324   24526346.918  
                
 21  8 15 12 37  0.0000000  0 17G17R23R 8G31G 1G22G21R15R 7R16G32R21
                                R22G 8R 6G 3G10
  24428188.305   128371004.968    24428196.312   100029390.3764   24428196.375  
                
  22437264.391   120024257.765                                                  
  22437262.941  
  22079788.156   118236293.288                    91961567.583    22079792.020  
  22079787.098  
  22246634.086   116906899.987    22246641.441    91096342.6964   22246641.461  
                
  20403649.852   107221955.807    20403660.000    83549627.8544   20403659.543  
                
  21233321.383   111581905.492    21233325.906    86946920.3884                 
                
  20912656.156   109896799.112    20912661.895    85633911.6834                 
                
  23551322.648   125851120.682                    97884210.657    23551328.117  
  23551322.805  
  19577377.766   104799295.128                    81510581.948    19577382.469  
  19577376.316  
  22751457.023   121534207.492                    94526633.122    22751460.383  
  22751456.062  
  22078218.719   116021861.462    22078228.098    90406701.6654   22078228.348  
                
  21658221.336   115897534.325                    90142534.291    21658226.090  
  21658219.617  
  19570678.484   104469663.597                    81254203.861    19570681.316  
  19570676.773  
  24316925.430   127786284.270    24316937.445    99573778.4564   24316938.031  
                
  20872631.969   111380402.867                                                  
  20872629.570  
  22237091.781   116856756.927    22237101.254    91057262.7634   22237101.527  
                
  24531791.617   128915420.286    24531802.762   100453629.0074   24531802.262  
                
 21  8 15 12 37 10.0000000  0 17G17R23R 8G31G 1G22G21R15R 7R16G32R21
                                R22G 8R 6G 3G10
  24424744.484   128352907.584    24424752.500   100015288.5344   24424752.504  
                
  22430241.547   119986690.422                                                  
  22430240.113  
  22074546.859   118208226.275                    91939737.712    22074550.672  
  22074545.848  
  22241948.000   116882274.431    22241955.309    91077153.9614   22241955.367  
                
  20401302.758   107209621.745    20401312.906    83540016.9004   20401312.453  
                
  21230544.508   111567312.897    21230549.055    86935549.5464                 
                
  20912794.562   109897526.419    20912800.266    85634478.4184                 
                
  23553323.492   125861812.644                    97892526.580    23553329.008  
  23553323.590  
  19576922.055   104796855.648                    81508684.579    19576926.762  
  19576920.621  
  22747337.594   121512202.271                    94509517.957    22747340.934  
  22747336.664  
  22083063.453   116047320.731    22083072.855    90426540.0384   22083073.098  
                
  21665930.031   115938785.544                    90174618.550    21665934.852  
  21665928.332  
  19572341.180   104478539.198                    81261107.105    19572344.000  
  19572339.449  
  24323266.164   127819605.114    24323278.176    99599742.7064   24323278.809  
                
  20877626.781   111407056.017                                                  
  20877624.383  
  22232506.688   116832662.091    22232516.207    91038487.5864   22232516.453  
                
  24537248.617   128944096.993    24537259.797   100475974.4614   24537259.309  
                
 21  8 15 12 37 20.0000000  0 17G17R23R 8G31G 1G22G21R15R 7R16G32R21
                                R22G 8R 6G 3G10
  24421310.148   128334860.065    24421318.148   100001225.5324   24421318.141  
                
  22423226.953   119949167.026                                                  
  22423225.484  
  22069311.094   118180188.937                    91917930.918    22069314.879  
  22069310.105  
  22237271.070   116857696.980    22237278.301    91058002.7054   22237278.422  
                
  20398966.625   107197345.313    20398976.770    83530450.8524   20398976.309  
                
  21227772.672   111552746.815    21227777.238    86924199.3554                 
                
  20912942.344   109898302.975    20912948.008    85635083.5234                 
                
  23555339.258   125872584.363                    97900904.600    23555344.797  
  23555339.305  
  19576475.117   104794463.147                    81506823.744    19576479.812  
  19576473.676  
  22743230.227   121490261.408                    94492452.847    22743233.555  
  22743229.316  
  22087913.875   116072809.864    22087923.285    90446401.6994   22087923.520  
                
  21673646.375   115980077.583                    90206734.550    21673651.234  
  21673644.703  
  19574021.047   104487506.437                    81268081.621    19574023.867  
  19574019.293  
  24329607.867   127852931.031    24329619.871    99625710.9164   24329620.547  
                
  20882625.438   111433729.879                                                  
  20882623.070  
  22227925.188   116808586.227    22227934.730    91019727.1874   22227934.973  
                
  24542707.250   128972782.283    24542718.484   100498326.5984   24542717.984  
                
 21  8 15 12 37 30.0000000  0 17G17R23R 8G31G 1G22G21R15R 7R16G32R21
                                R22G 8R 6G 3G10
  24417885.336   128316862.588    24417893.367    99987201.5274   24417893.340  
                
  22416220.586   119911687.612                                                  
  22416219.105  
  22064080.867   118152181.307                    91896147.194    22064084.613  
  22064079.887  
  22232603.305   116833167.762    22232610.520    91038889.0374   22232610.660  
                
  20396641.461   107185126.535    20396651.598    83520929.7244   20396651.137  
                
  21225005.883   111538207.249    21225010.461    86912869.8334                 
                
  20913099.445   109899128.529    20913105.066    85635726.8134                 
                
  23557369.961   125883435.916                    97909344.681    23557375.562  
  23557370.004  
  19576036.898   104792117.365                    81504999.261    19576041.594  
  19576035.465  
  22739134.938   121468385.010                    94475437.883    22739138.219  
  22739134.074  
  22092769.953   116098328.771    22092779.367    90466286.5544   22092779.594  
                
  21681370.352   116021410.104                    90238882.053    21681375.203  
  21681368.715  
  19575718.016   104496564.958                    81275127.132    19575720.805  
  19575716.242  
  24335950.602   127886262.117    24335962.555    99651683.1624   24335963.270  
                
  20887628.031   111460424.624                                                  
  20887625.656  
  22223347.305   116784529.337    22223356.820    91000981.5724   22223357.078  
                
  24548167.516   129001476.061    24548178.766   100520685.3714   24548178.250  
                
 21  8 15 12 37 40.0000000  0 17G17R23R 8G31G 1G22G21R15R 7R16G32R21
                                R22G 8R 6G 3G10
  24414470.047   128298915.161    24414478.066    99973216.5064   24414478.035  
                
  22409222.438   119874252.346                                                  
  22409220.977  
  22058856.172   118124203.275                    91874386.509    22058859.867  
  22058855.184  
  22227944.742   116808686.927    22227951.992    91019813.0874   22227952.117  
                
  20394327.297   107172965.500    20394337.438    83511453.5954   20394336.977  
                
  21222244.188   111523694.472    21222248.766    86901561.1814                 
                
  20913265.898   109900003.184    20913271.480    85636408.3644                 
                
  23559415.578   125894367.098                    97917846.737    23559421.230  
  23559415.605  
  19575607.484   104789818.662                    81503211.379    19575612.184  
  19575606.055  
  22735051.758   121446573.371                    94458473.301    22735055.039  
  22735050.926  
  22097631.703   116123877.419    22097641.117    90486194.5874   22097641.348  
                
  21689101.977   116062783.121                    90271061.053    21689106.766  
  21689100.281  
  19577432.148   104505715.154                    81282243.949    19577434.934  
  19577430.391  
  24342294.312   127919597.985    24342306.191    99677659.1344   24342306.941  
                
  20892634.508   111487140.056                                                  
  20892632.145  
  22218773.062   116760491.510    22218782.555    90982250.8054   22218782.820  
                
  24553629.422   129030178.426    24553640.691   100543050.8244   24553640.156  
                
 21  8 15 12 37 50.0000000  0 17G17R23R 8G31G 1G22G21R15R 7R16G32R21
                                R22G 8R 6G 3G10
  24411064.227   128281017.551    24411072.262    99959270.3334   24411072.223  
                
  22402232.523   119836861.190                                                  
  22402231.109  
  22053636.961   118096254.781                    91852648.827    22053640.645  
  22053635.977  
  22223295.328   116784254.167    22223302.621    91000774.5854   22223302.738  
                
  20392024.062   107160861.974    20392034.215    83502022.2744   20392033.750  
                
  21219487.492   111509207.950    21219492.066    86890272.9924                 
                
  20913441.633   109900926.678    20913447.191    85637127.9674                 
                
  23561476.039   125905377.645                    97926410.454    23561481.707  
  23561476.062  
  19575186.758   104787566.509                    81501459.711    19575191.445  
  19575185.332  
  22730980.570   121424826.070                    94441558.772    22730983.840  
  22730979.750  
  22102499.023   116149455.396    22102508.441    90506125.4724   22102508.664  
                
  21696841.109   116104196.065                    90303271.107    21696845.816  
  21696839.328  
  19579163.344   104514956.510                    81289431.669    19579166.121  
  19579161.562  
  24348638.852   127952938.553    24348650.734    99703638.7564   24348651.488  
                
  20897644.781   111513875.804                                                  
  20897642.418  
  22214202.375   116736472.439    22214211.871    90963534.6544   22214212.129  
                
  24559092.898   129058889.034    24559104.164   100565422.6924   24559103.645  
                
 21  8 15 12 38  0.0000000  0 17G17R23R 8G31G 1G22G21R15R 7R16G32R21
                                R22G 8R 6G 3G10
  24407667.992   128263170.207    24407676.027    99945363.3514   24407675.973  
                
  22395251.016   119799514.832                                                  
  22395249.625  
  22048423.359   118068336.111                    91830934.326    22048427.027  
  22048422.348  
  22218655.195   116759870.150    22218662.516    90981774.0694   22218662.621  
                
  20389731.883   107148816.479    20389742.062    83492636.1844   20389741.578  
                
  21216735.867   111494748.088    21216740.441    86879005.5624                 
                
  20913626.789   109901899.578    20913632.336    85637886.0744                 
                
  23563551.461   125916467.966                    97935036.263    23563557.164  
  23563551.473  
  19574774.805   104785361.321                    81499744.557    19574779.488  
  19574773.379  
  22726921.656   121403144.013                    94424694.958    22726924.863  
  22726920.836  
  22107372.016   116175063.143    22107381.445    90526079.5464   22107381.652  
                
  21704587.742   116145649.316                    90335512.502    21704592.426  
  21704585.918  
  19580911.711   104524289.405                    81296690.583    19580914.461  
  19580909.922  
  24354984.250   127986284.005    24354996.199    99729622.1874   24354996.934  
                
  20902658.938   111540632.300                                                  
  20902656.602  
  22209635.352   116712472.605    22209644.840    90944833.5064   22209645.098  
                
  24564558.047   129087608.317    24564569.293   100587801.3234   24564568.777  
                
 21  8 15 12 38 10.0000000  0 17G17R23R 8G31G 1G22G21R15R 7R16G32R21
                                R22G 8R 6G 3G10
  24404281.273   128245372.965    24404289.289    99931495.3864   24404289.230  
                
  22388277.758   119762212.855                                                  
  22388276.371  
  22043215.273   118040447.200                    91809242.979    22043218.969  
  22043214.250  
  22214024.320   116735534.882    22214031.648    90962811.5314   22214031.762  
                
  20387450.695   107136828.824    20387460.906    83483295.1574   20387460.410  
                
  21213989.273   111480314.688    21213993.844    86867758.7684                 
                
  20913821.281   109902921.637    20913826.824    85638682.4844                 
                
  23565641.734   125927637.785                    97943723.901    23565647.453  
  23565641.754  
  19574371.555   104783202.736                    81498065.657    19574376.223  
  19574370.129  
  22722874.867   121381526.852                    94407881.616    22722878.051  
  22722874.059  
  22112250.578   116200700.253    22112260.020    90546056.5084   22112260.223  
                
  21712341.805   116187142.528                    90367784.960    21712346.492  
  21712339.961  
  19582677.141   104533713.476                    81304020.405    19582679.902  
  19582675.340  
  24361330.562   128019633.807    24361342.469    99755608.9994   24361343.215  
                
  20907676.914   111567409.193                                                  
  20907674.559  
  22205071.945   116688491.806    22205081.402    90926147.1734   22205081.668  
                
  24570024.781   129116336.009    24570036.020   100610186.5214   24570035.527  
                
 21  8 15 12 38 20.0000000  0 17G17R23R 8G31G 1G22G21R15R 7R16G32R21
                                R22G 8R 6G 3G10
  24400904.164   128227626.150    24400912.129    99917666.7184   24400912.055  
                
  22381312.945   119724955.893                                                  
  22381311.523  
  22038012.805   118012588.355                    91787575.004    22038016.508  
  22038011.777  
  22209402.742   116711248.429    22209410.102    90943887.0414   22209410.223  
                
  20385180.570   107124899.266    20385190.809    83473999.3894   20385190.305  
                
  21211247.797   111465908.121    21211252.359    86856532.8774                 
                
  20914025.180   109903993.078    20914030.715    85639517.3764                 
                
  23567746.906   125938887.142                    97952473.361    23567752.629  
  23567746.984  
  19573977.070   104781091.014                    81496423.216    19573981.746  
  19573975.645  
  22718840.305   121359974.954                    94391119.033    22718843.453  
  22718839.488  
  22117134.766   116226366.848    22117144.254    90566056.4464   22117144.445  
                
  21720103.414   116228675.570                    90400088.421    21720107.984  
  21720101.477  
  19584459.727   104543229.080                    81311421.433    19584462.496  
  19584457.906  
  24367677.750   128052988.017    24367689.570    99781599.2544   24367690.340  
                
  20912698.734   111594206.555                                                  
  20912696.375  
  22200512.203   116664530.210    22200521.645    90907475.8084   22200521.895  
                
  24575493.156   129145072.280    24575504.379   100632578.3974   24575503.891  
                
 21  8 15 12 38 30.0000000  0 17G17R23R 8G31G 1G22G21R15R 7R16G32R21
                                R22G 8R 6G 3G10
  24397536.625   128209929.612    24397544.516    99903877.2284   24397544.469  
                
  22374356.508   119687743.780                                                  
  22374355.066  
  22032815.828   117984758.989                    91765929.965    22032819.543  
  22032814.820  
  22204790.430   116687010.709    22204797.844    90925000.5244   22204797.957  
                
  20382921.469   107113027.610    20382931.730    83464748.7584   20382931.215  
                
  21208511.367   111451528.108    21208515.934    86845327.6724                 
                
  20914238.445   109905113.792    20914243.973    85640390.6604                 
                
  23569866.914   125950215.761                    97961284.512    23569872.621  
  23569867.062  
  19573591.281   104779025.882                    81494817.018    19573595.945  
  19573589.859  
  22714817.945   121338488.294                    94374407.228    22714821.074  
  22714817.086  
  22122024.508   116252062.635    22122034.055    90586079.1294   22122034.230  
                
  21727872.375   116270248.229                    90432422.693    21727876.828  
  21727870.355  
  19586259.391   104552835.812                    81318893.340    19586262.137  
  19586257.562  
  24374025.789   128086346.704    24374037.508    99807593.0064   24374038.328  
                
  20917724.328   111621024.110                                                  
  20917721.977  
  22195956.078   116640587.642    22195965.539    90888819.2774   22195965.758  
                
  24580963.078   129173816.876    24580974.316   100654976.7754   24580973.797  
                
 21  8 15 12 38 40.0000000  0 17G17R23R 8G31G 1G22G21R15R 7R16G32R21
                                R22G 8R 6G 3G10
  24394178.672   128192283.480    24394186.504    99890127.0144   24394186.453  
                
  22367408.508   119650576.782                                                  
  22367407.035  
  22027624.414   117956959.453                    91744308.123    22027628.133  
  22027623.422  
  22200187.438   116662821.947    22200194.867    90906152.1534   22200194.996  
                
  20380673.422   107101214.087    20380683.691    83455543.4194   20380683.180  
                
  21205780.016   111437174.738    21205784.594    86834143.2334                 
                
  20914461.125   109906283.917    20914466.648    85641302.4404                 
                
  23572001.812   125961623.961                    97970157.566    23572007.500  
  23572001.965  
  19573214.219   104777007.452                    81493247.132    19573218.871  
  19573212.789  
  22710807.859   121317067.229                    94357746.393    22710810.945  
  22710806.980  
  22126919.820   116277787.696    22126929.426    90606124.6174   22126929.574  
                
  21735648.602   116311860.526                    90464787.801    21735653.105  
  21735646.625  
  19588076.172   104562533.913                    81326436.303    19588078.914  
  19588074.340  
  24380374.555   128119709.712    24380386.332    99833590.1264   24380387.145  
                
  20922753.742   111647861.976                                                  
  20922751.402  
  22191403.609   116616664.276    22191413.074    90870177.6994   22191413.301  
                
  24586434.609   129202569.953    24586445.836   100677381.7564   24586445.277  
                
 21  8 15 12 38 50.0000000  0 18G 4G17R23R 8G31G 1G22G21R15R 7R16G32
                                R21R22G 8R 6G 3G10
  24755854.070   130092887.740    24755865.109   101371128.9724   24755865.035  
                
  24390830.328   128174687.911    24390838.148    99876416.1854   24390838.098  
                
  22360468.969   119613455.006                                                  
  22360467.457  
  22022438.617   117929189.851                    91722709.563    22022442.344  
  22022437.613  
  22195593.781   116638682.273    22195601.188    90887342.0204   22195601.348  
                
  20378436.453   107089458.773    20378446.730    83446383.4294   20378446.219  
                
  21203053.742   111422848.088    21203058.332    86822979.6144                 
                
  20914693.141   109907503.179    20914698.660    85642252.5154                 
                
  23574151.547   125973111.461                    97979092.281    23574157.234  
  23574151.715  
  19572845.844   104775035.549                    81491713.433    19572850.480  
  19572844.410  
  22706810.031   121295711.765                    94341136.608    22706813.137  
  22706809.160  
  22131820.680   116303541.950    22131830.332    90626192.8524   22131830.453  
                
  21743432.180   116353512.185                    90497183.521    21743436.691  
  21743430.254  
  19589910.039   104572323.240                    81334050.219    19589912.797  
  19589908.195  
  24386724.094   128153076.874    24386735.953    99859590.4614   24386736.738  
                
  20927786.938   111674720.029                                                  
  20927784.598  
  22186854.781   116592760.119    22186864.242    90851551.1054   22186864.473  
                
  24591907.750   129231331.519    24591918.957   100699793.3404   24591918.398  
                
 21  8 15 12 39  0.0000000  0 18G 4G17R23R 8G31G 1G22G21R15R 7R16G32
                                R21R22G 8R 6G 3G10
  24749104.070   130057415.994    24749115.117   101343488.6844   24749115.035  
                
  24387491.664   128157143.224    24387499.488    99862745.0064   24387499.434  
                
  22353538.000   119576379.270                                                  
  22353536.531  
  22017258.469   117901450.551                    91701134.572    22017262.234  
  22017257.496  
  22191009.562   116614592.212    22191016.969    90868570.5644   22191017.145  
                
  20376210.656   107077762.159    20376220.945    83437269.1834   20376220.434  
                
  21200332.633   111408548.618    21200337.238    86811837.1754                 
                
  20914934.609   109908772.072    20914940.117    85643241.2644                 
                
  23576316.188   125984678.624                    97988088.979    23576321.883  
  23576316.422  
  19572486.281   104773110.802                    81490216.410    19572490.902  
  19572484.844  
  22702824.594   121274422.488                    94324578.302    22702827.711  
  22702823.672  
  22136727.172   116329325.751    22136736.832    90646284.1234   22136736.945  
                
  21751223.180   116395203.531                    90529610.114    21751227.695  
  21751221.258  
  19591761.109   104582204.382                    81341735.547    19591763.832  
  19591759.266  
  24393074.484   128186448.393    24393086.406    99885594.2064   24393087.172  
                
  20932823.992   111701598.641                                                  
  20932821.637  
  22182309.727   116568875.678    22182319.207    90832939.8664   22182319.418  
                
  24597382.586   129260101.982    24597393.785   100722211.8664   24597393.211  
                
 21  8 15 12 39 10.0000000  0 18G 4G17R23R 8G31G 1G22G21R15R 7R16G32
                                R21R22G 8R 6G 3G10
  24742356.312   130021956.299    24742367.414   101315857.7754   24742367.309  
                
  24384162.539   128139648.635    24384170.344    99849112.8434   24384170.273  
                
  22346615.484   119539348.655                                                  
  22346614.059  
  22012083.797   117873740.422                    91679582.288    22012087.598  
  22012082.805  
  22186434.641   116590550.952    22186442.027    90849837.1314   22186442.215  
                
  20373995.867   107066123.366    20374006.180    83428200.0014   20374005.660  
                
  21197616.523   111394275.367    21197621.141    86800715.1644                 
                
  20915185.375   109910089.839    20915190.871    85644268.0964                 
                
  23578495.602   125996324.674                    97997147.000    23578501.285  
  23578495.875  
  19572135.289   104771231.909                    81488755.050    19572139.887  
  19572133.840  
  22698851.406   121253198.662                    94308070.886    22698854.547  
  22698850.465  
  22141639.102   116355138.102    22141648.766    90666397.6284   22141648.859  
                
  21759021.336   116436933.624                    90562066.832    21759025.949  
  21759019.500  
  19593629.172   104592176.214                    81349491.407    19593631.891  
  19593627.320  
  24399425.562   128219823.726    24399437.590    99911600.9094   24399438.336  
                
  20937864.672   111728496.678                                                  
  20937862.324  
  22177768.234   116545010.024    22177777.711    90814343.2624   22177777.891  
                
  24602858.930   129288880.386    24602870.137   100744636.5734   24602869.570  
                
 21  8 15 12 39 20.0000000  0 18G 4G17R23R 8G31G 1G22G21R15R 7R16G32
                                R21R22G 8R 6G 3G10
  24735610.883   129986509.253    24735622.094   101288236.7524   24735621.980  
                
  24380843.055   128122204.707    24380850.867    99835520.1894   24380850.809  
                
  22339701.578   119502363.886                                                  
  22339700.168  
  22006914.773   117846060.494                    91658053.486    22006918.551  
  22006913.754  
  22181869.148   116566559.285    22181876.527    90831142.3314   22181876.715  
                
  20371792.195   107054543.023    20371802.539    83419176.3664   20371802.008  
                
  21194905.547   111380029.039    21194910.168    86789614.1324                 
                
  20915445.555   109911457.065    20915451.047    85645333.4664                 
                
  23580689.852   126008050.061                    98006266.754    23580695.566  
  23580690.148  
  19571793.008   104769399.669                    81487329.971    19571797.590  
  19571791.551  
  22694890.617   121232040.882                    94291614.864    22694893.781  
  22694889.633  
  22146556.547   116380979.460    22146566.219    90686533.7434   22146566.297  
                
  21766826.805   116478702.690                    90594553.856    21766831.504  
  21766825.047  
  19595514.312   104602239.222                    81357318.188    19595517.051  
  19595512.465  
  24405777.375   128253202.880    24405789.449    99937610.5964   24405790.223  
                
  20942909.125   111755414.857                                                  
  20942906.793  
  22173230.438   116521163.752    22173239.879    90795761.7614   22173240.070  
                
  24608336.906   129317667.294    24608348.090   100767067.9074   24608347.543  
                
 21  8 15 12 39 30.0000000  0 18G 4G17R23R 8G31G 1G22G21R15R 7R16G32
                                R21R22G 8R 6G 3G10
  24728867.891   129951074.656    24728879.098   101260625.4344   24728878.984  
                
  24377533.180   128104811.326    24377541.062    99821966.9234   24377541.004  
                
  22332796.195   119465424.923                                                  
  22332794.785  
  22001751.273   117818410.275                    91636547.761    22001755.055  
  22001750.277  
  22177313.055   116542617.015    22177320.434    90812486.0264   22177320.629  
                
  20369599.609   107043020.928    20369609.980    83410198.1084   20369609.438  
                
  21192199.625   111365809.373    21192204.250    86778533.8784                 
                
  20915715.102   109912873.518    20915720.590    85646437.1944                 
                
  23582898.844   126019854.290                    98015447.815    23582904.594  
  23582899.148  
  19571459.359   104767613.638                    81485940.850    19571463.934  
  19571457.887  
  22690942.141   121210948.982                    94275210.076    22690945.367  
  22690941.160  
  22151479.445   116406849.476    22151489.098    90706692.1884   22151489.164  
                
  21774639.547   116520510.427                    90627070.967    21774644.301  
  21774637.777  
  19597416.500   104612393.186                    81365215.700    19597419.238  
  19597414.656  
  24412129.938   128286585.679    24412141.965    99963623.1174   24412142.758  
                
  20947957.352   111782353.080                                                  
  20947954.996  
  22168696.273   116497336.582    22168705.684    90777195.1384   22168705.879  
                
  24613816.453   129346462.397    24613827.625   100789505.6194   24613827.094  
                
 21  8 15 12 39 40.0000000  0 18G 4G17R23R 8G31G 1G22G21R15R 7R16G32
                                R21R22G 8R 6G 3G10
  24722127.305   129915652.768    24722138.484   101233024.0074   24722138.387  
                
  24374232.984   128087468.697    24374240.902    99808453.2084   24374240.828  
                
  22325899.406   119428531.917                                                  
  22325897.969  
  21996593.367   117790789.955                    91615065.320    21996597.148  
  21996592.379  
  22172766.438   116518724.466    22172773.820    90793868.4714   22172774.012  
                
  20367418.164   107031557.351    20367428.570    83401265.4584   20367428.031  
                
  21189498.828   111351616.549    21189503.449    86767474.5354                 
                
  20915994.055   109914339.412    20915999.527    85647579.4484                 
                
  23585122.672   126031737.715                    98024690.466    23585128.398  
  23585122.953  
  19571134.406   104765874.149                    81484587.913    19571138.965  
  19571132.922  
  22687006.109   121189923.424                    94258856.867    22687009.336  
  22687005.133  
  22156407.844   116432748.323    22156417.449    90726873.0984   22156417.527  
                
  21782459.641   116562356.854                    90659618.160    21782464.340  
  21782457.793  
  19599335.766   104622638.287                    81373184.114    19599338.484  
  19599333.930  
  24418483.250   128319972.209    24418495.219    99989638.5694   24418496.027  
                
  20953009.258   111809310.983                                                  
  20953006.914  
  22164165.797   116473528.787    22164175.164    90758643.6174   22164175.375  
                
  24619297.625   129375265.918    24619308.781   100811949.8984   24619308.242  
                
 21  8 15 12 39 50.0000000  0 18G 4G17R23R 8G31G 1G22G21R15R 7R16G32
                                R21R22G 8R 6G 3G10
  24715389.133   129880243.611    24715400.273   101205432.4794   24715400.184  
                
  24370942.438   128070176.922    24370950.414    99794979.0954   24370950.340  
                
  22319011.273   119391685.148                                                  
  22319009.828  
  21991441.055   117763199.504                    91593606.092    21991444.785  
  21991440.066  
  22168229.250   116494881.592    22168236.645    90775289.6274   22168236.840  
                
  20365247.852   107020152.306    20365258.289    83392378.4144   20365257.738  
                
  21186803.125   111337450.571    21186807.738    86756436.1174                 
                
  20916282.422   109915854.802    20916287.875    85648760.2764                 
                
  23587361.289   126043700.192                    98033994.618    23587366.988  
  23587361.520  
  19570818.102   104764180.985                    81483271.023    19570822.660  
  19570816.590  
  22683082.430   121168964.052                    94242555.170    22683085.633  
  22683081.461  
  22161341.688   116458675.842    22161351.262    90747076.3594   22161351.344  
                
  21790287.000   116604241.649                    90692195.199    21790291.551  
  21790285.027  
  19601272.086   104632974.439                    81381223.343    19601274.824  
  19601270.270  
  24424837.250   128353362.143    24424849.133   100015656.6874   24424849.941  
                
  20958064.891   111836288.637                                                  
  20958062.547  
  22159638.992   116449740.337    22159648.324    90740107.1784   22159648.543  
                
  24624780.367   129404077.783    24624791.523   100834400.6794   24624791.004  
                
 21  8 15 12 40  0.0000000  0 18G 4G17R23R 8G31G 1G22G21R15R 7R16G32
                                R21R22G 8R 6G 3G10
  24708653.391   129844847.142    24708664.488   101177850.8394   24708664.418  
                
  24367661.562   128052935.905    24367669.570    99781544.5624   24367669.492  
                
  22312131.820   119354884.640                                                  
  22312130.336  
  21986294.320   117735638.903                    91572170.076    21986298.000  
  21986293.340  
  22163701.531   116471088.463    22163708.938    90756749.5354   22163709.133  
                
  20363088.664   107008805.753    20363099.117    83383536.9484   20363098.559  
                
  21184112.523   111323311.400    21184117.125    86745418.5934                 
                
  20916580.172   109917419.506    20916585.605    85649979.5274                 
                
  23589614.648   126055741.480                    98043360.025    23589620.348  
  23589614.879  
  19570510.438   104762534.064                    81481990.071    19570514.992  
  19570508.918  
  22679171.219   121148071.270                    94226305.235    22679174.410  
  22679170.219  
  22166280.961   116484631.879    22166290.520    90767301.8304   22166290.605  
                
  21798121.383   116646164.771                    90724802.045    21798125.922  
  21798119.438  
  19603225.445   104643401.591                    81389333.349    19603228.195  
  19603223.629  
  24431191.875   128386755.565    24431203.734   100041677.5094   24431204.551  
                
  20963124.195   111863285.990                                                  
  20963121.859  
  22155115.859   116425971.165    22155125.164    90721585.7594   22155125.387  
                
  24630264.664   129432897.901    24630275.832   100856857.9024   24630275.309  
                
 21  8 15 12 40 10.0000000  0 18G 4G17R23R 8G31G 1G22G21R15R 7R16G32
                                R21R22G 8R 6G 3G10
  24701920.062   129809463.536    24701931.238   101150279.2494   24701931.133  
                
  24364390.391   128035745.825    24364398.387    99768149.7284   24364398.305  
                
  22305261.070   119318130.733                                                  
  22305259.555  
  21981153.195   117708108.247                    91550757.367    21981156.793  
  21981152.211  
  22159183.328   116447345.269    22159190.762    90738248.3624   22159190.941  
                
  20360940.664   106997517.902    20360951.133    83374741.2204   20360950.570  
                
  21181427.039   111309199.098    21181431.629    86734421.9924                 
                
  20916887.352   109919033.702    20916892.758    85651237.3404                 
                
  23591882.805   126067861.817                    98052786.961    23591888.500  
  23591883.023  
  19570211.414   104760933.393                    81480745.108    19570215.965  
  19570209.887  
  22675272.500   121127245.174                    94210107.190    22675275.715  
  22675271.469  
  22171225.680   116510616.462    22171235.219    90787549.5604   22171235.305  
                
  21805962.938   116688126.199                    90757438.703    21805967.457  
  21805961.016  
  19605195.859   104653919.699                    81397514.090    19605198.598  
  19605194.074  
  24437547.086   128420152.228    24437558.992   100067700.8404   24437559.812  
                
  20968187.203   111890303.001                                                  
  20968184.848  
  22150596.438   116402221.441    22150605.680    90703079.4894   22150605.934  
                
  24635750.578   129461726.376    24635761.734   100879321.6294   24635761.230  
                
 21  8 15 12 40 20.0000000  0 18G 4G17R23R 8G31G 1G22G21R15R 7R16G32
                                R21R22G 8R 6G 3G10
  24695189.195   129774092.789    24695200.469   101122717.6874   24695200.324  
                
  24361128.914   128018606.712    24361136.902    99754794.6064   24361136.832  
                
  22298399.039   119281423.451                                                  
  22298397.539  
  21976017.641   117680607.717                    91529368.097    21976021.219  
  21976016.625  
  22154674.648   116423652.092    22154682.098    90719786.1644   22154682.270  
                
  20358803.820   106986288.737    20358814.301    83365991.2234   20358813.734  
                
  21178746.664   111295113.681    21178751.250    86723446.3534                 
                
  20917203.930   109920697.321    20917209.316    85652533.6724                 
                
  23594165.719   126080060.966                    98062275.174    23594171.414  
  23594165.902  
  19569921.031   104759378.959                    81479536.105    19569925.578  
  19569919.500  
  22671386.320   121106485.981                    94193961.151    22671389.535  
  22671385.309  
  22176175.805   116536629.482    22176185.316    90807819.4394   22176185.406  
                
  21813811.562   116730125.629                    90790104.930    21813816.102  
  21813809.625  
  19607183.281   104664528.633                    81405765.472    19607186.012  
  19607181.508  
  24443902.883   128453552.157    24443914.906   100093726.7124   24443915.688  
                
  20973253.891   111917339.657                                                  
  20973251.527  
  22146080.703   116378491.105    22146089.906    90684588.3264   22146090.191  
                
  24641238.055   129490563.134    24641249.203   100901791.8154   24641248.707  
                
 21  8 15 12 40 30.0000000  0 18G 4G17R23R 8G31G 1G22G21R15R 7R16G32
                                R21R22G 8R 6G 3G10
  24688460.867   129738734.954    24688472.121   101095166.1464   24688471.930  
                
  24357877.125   128001518.552    24357885.055    99741479.1674   24357885.016  
                
  22291545.703   119244762.931                                                  
  22291544.254  
  21970887.656   117653136.964                    91508001.950    21970891.180  
  21970886.625  
  22150175.523   116400009.083    22150182.996    90701363.0434   22150183.152  
                
  20356678.156   106975118.322    20356688.648    83357287.0034   20356688.074  
                
  21176071.406   111281055.125    21176075.984    86712491.6364                 
                
  20917529.930   109922410.473    20917535.293    85653868.5944                 
                
  23596463.375   126092338.944                    98071824.697    23596469.090  
  23596463.531  
  19569639.250   104757870.572                    81478362.923    19569643.785  
  19569637.707  
  22667512.625   121085793.640                    94177867.114    22667515.879  
  22667511.645  
  22181131.328   116562670.826    22181140.816    90828111.3974   22181140.891  
                
  21821667.125   116772162.905                    90822800.571    21821671.789  
  21821665.227  
  19609187.703   104675228.328                    81414087.465    19609190.477  
  19609185.961  
  24450259.242   128486955.244    24450271.398   100119755.0574   24450272.133  
                
  20978324.219   111944395.795                                                  
  20978321.875  
  22141568.664   116354780.208    22141577.871    90666112.3094   22141578.141  
                
  24646727.102   129519408.149    24646738.246   100924268.4344   24646737.742  
                
 21  8 15 12 40 40.0000000  0 18G 4G17R23R 8G31G 1G22G21R15R 7R16G32
                                R21R22G 8R 6G 3G10
  24681734.938   129703390.313    24681746.242   101067624.9154   24681746.027  
                
  24354635.086   127984481.607    24354642.969    99728203.6474   24354642.965  
                
  22284701.234   119208149.673                                                  
  22284699.828  
  21965763.328   117625696.425                    91486659.330    21965766.824  
  21965762.273  
  22145685.984   116376416.478    22145693.465    90682979.2034   22145693.605  
                
  20354563.719   106964006.888    20354574.227    83348628.7464   20354573.637  
                
  21173401.305   111267023.656    21173405.863    86701558.0264                 
                
  20917865.367   109924173.201    20917870.703    85655242.1454                 
                
  23598775.766   126104695.701                    98081435.514    23598781.496  
  23598775.938  
  19569366.117   104756408.493                    81477225.762    19569370.656  
  19569364.578  
  22663651.516   121065168.375                    94161825.280    22663654.809  
  22663650.578  
  22186092.266   116588740.627    22186101.742    90848425.5284   22186101.805  
                
  21829529.602   116814238.103                    90855525.690    21829534.543  
  21829527.898  
  19611209.195   104686019.069                    81422480.259    19611211.930  
  19611207.469  
  24456616.172   128520361.316    24456628.434   100145785.7274   24456629.121  
                
  20983398.164   111971471.304                                                  
  20983395.824  
  22137060.359   116331088.924    22137069.555    90647651.5744   22137069.828  
                
  24652217.750   129548261.603    24652228.895   100946751.6254   24652228.398  
                
 21  8 15 12 40 50.0000000  0 17G 4G17R23R 8G31G 1G22G21R15R 7R16G32
                                R21R22G 8R 6G 3
  24675011.594   129668059.664    24675023.016   101040094.5774   24675022.801  
                
  24351402.984   127967496.792    24351410.824    99714968.7194   24351410.840  
                
  22277865.789   119171584.556                                                  
  22277864.406  
  21960644.789   117598286.982                    91465340.900    21960648.258  
  21960643.742  
  22141206.219   116352875.240    22141213.723    90664635.4084   22141213.871  
                
  20352460.680   106952955.317    20352471.211    83340017.1404   20352470.609  
                
  21170736.523   111253020.134    21170741.062    86690646.1974                 
                
  20918210.414   109925986.374    20918215.723    85656655.0114                 
                
  23601103.109   126117132.308                    98091108.442    23601108.844  
  23601103.281  
  19569101.797   104754993.568                    81476125.265    19569106.328  
  19569100.262  
  22659803.180   121044611.304                    94145836.463    22659806.457  
  22659802.246  
  22191058.750   116614839.602    22191068.211    90868762.3924   22191068.258  
                
  21837399.555   116856351.986                    90888280.905    21837404.543  
  21837397.895  
  19613247.875   104696901.661                    81430944.489    19613250.605  
  19613246.184  
  24462973.883   128553771.171    24462986.203   100171819.3364   24462986.871  
                
  20988475.953   111998567.395                                                  
  20988473.598  
  22132555.953   116307418.113    22132565.121    90629206.7964   22132565.398  
                
 21  8 15 12 41  0.0000000  0 17G 4G17R23R 8G31G 1G22G21R15R 7R16G32
                                R21R22G 8R 6G 3
  24668290.797   129632741.793    24668302.223   101012574.2074   24668302.008  
                
  24348180.531   127950562.823    24348188.355    99701773.4384   24348188.371  
                
  22271039.133   119135066.383                                                  
  22271037.773  
  21955531.773   117570907.169                    91444045.508    21955535.258  
  21955530.730  
  22136735.977   116329384.120    22136743.539    90646330.6634   22136743.672  
                
  20350368.781   106941962.356    20350379.332    83331451.1954   20350378.707  
                
  21168076.805   111239043.250    21168081.324    86679755.1254                 
                
  20918564.781   109927848.642    20918570.066    85658106.1304                 
                
  23603445.062   126129647.050                    98100842.144    23603450.820  
  23603445.230  
  19568846.000   104753624.321                    81475060.298    19568850.520  
  19568844.445  
  22655967.328   121024121.032                    94129899.607    22655970.613  
  22655966.395  
  22196030.508   116640966.380    22196039.941    90889120.9064   22196040.004  
                
  21845276.656   116898502.917                    90921064.952    21845281.500  
  21845274.863  
  19615303.492   104707874.645                    81439479.021    19615306.211  
  19615301.812  
  24469332.055   128587183.495    24469344.430   100197854.8744   24469345.094  
                
  20993557.266   112025682.285                                                  
  20993554.918  
  22128055.180   116283766.476    22128064.355    90610776.9644   22128064.633  
                
 21  8 15 12 41 10.0000000  0 17G 4G17R23R 8G31G 1G22G21R15R 7R16G32
                                R21R22G 8R 6G 3
  24661572.320   129597436.200    24661583.793   100985063.4054   24661583.559  
                
  24344967.672   127933679.174    24344975.504    99688617.3684   24344975.500  
                
  22264221.148   119098594.663                                                  
  22264219.805  
  21950424.195   117543556.390                    91422772.703    21950427.691  
  21950423.145  
  22132275.211   116305942.654    22132282.781    90628064.5924   22132282.918  
                
  20348287.961   106931027.534    20348298.523    83322930.5514   20348297.887  
                
  21165422.078   111225092.587    21165426.574    86668884.4834                 
                
  20918928.422   109929759.554    20918933.688    85659595.1494                 
                
  23605801.602   126142239.596                    98110636.320    23605807.336  
  23605801.773  
  19568598.641   104752300.177                    81474030.409    19568603.176  
  19568597.074  
  22652144.008   121003697.501                    94114014.657    22652147.285  
  22652143.047  
  22201007.445   116667120.305    22201016.887    90909500.5854   22201016.957  
                
  21853160.461   116940690.164                    90953877.224    21853165.270  
  21853158.602  
  19617375.938   104718937.400                    81448083.392    19617378.676  
  19617374.254  
  24475690.688   128620597.673    24475703.043   100223891.8534   24475703.672  
                
  20998642.031   112052815.516                                                  
  20998639.672  
  22123557.992   116260133.507    22123567.180    90592361.6644   22123567.457  
                
 21  8 15 12 41 20.0000000  0 17G 4G17R23R 8G31G 1G22G21R15R 7R16G32
                                R21R22G 8R 6G 3
  24654856.383   129562144.094    24654867.887   100957563.1234   24654867.676  
                
  24341764.617   127916847.050    24341772.461    99675501.4374   24341772.438  
                
  22257412.109   119062170.853                                                  
  22257410.797  
  21945322.289   117516236.035                    91401523.535    21945325.812  
  21945321.254  
  22127824.133   116282552.147    22127831.664    90609838.2294   22127831.805  
                
  20346218.406   106920152.010    20346228.977    83314456.1234   20346228.332  
                
  21162772.547   111211169.256    21162777.016    86658035.1374                 
                
  20919301.531   109931720.276    20919306.793    85661122.9884                 
                
  23608172.844   126154910.820                    98120491.693    23608178.570  
  23608172.969  
  19568359.922   104751022.336                    81473036.529    19568364.469  
  19568358.355  
  22648333.352   120983341.828                    94098182.478    22648336.656  
  22648332.438  
  22205989.750   116693302.453    22205999.215    90929902.2544   22205999.277  
                
  21861051.195   116982914.958                    90986718.703    21861056.047  
  21861049.324  
  19619465.367   104730091.007                    81456758.422    19619468.156  
  19619463.680  
  24482049.711   128654014.483    24482062.160   100249930.8804   24482062.742  
                
  21003730.422   112079968.137                                                  
  21003728.062  
  22119064.547   116236520.359    22119073.754    90573961.8164   22119074.020  
                
 21  8 15 12 41 30.0000000  0 17G 4G17R23R 8G31G 1G22G21R15R 7R16G32
                                R21R22G 8R 6G 3
  24648142.992   129526865.295    24648154.512   100930073.1864   24648154.316  
                
  24338571.344   127900066.348    24338579.211    99662425.5754   24338579.176  
                
  22250612.047   119025794.870                                                  
  22250610.754  
  21940226.016   117488945.747                    91380297.784    21940229.582  
  21940224.980  
  22123382.734   116259212.491    22123390.234    90591651.4824   22123390.379  
                
  20344160.125   106909335.634    20344170.691    83306027.7834   20344170.047  
                
  21160128.172   111197272.977    21160132.613    86647206.8764                 
                
  20919684.086   109933730.562    20919689.344    85662689.4394                 
                
  23610558.797   126167660.535                    98130408.172    23610564.512  
  23610558.930  
  19568129.781   104749790.405                    81472078.370    19568134.344  
  19568128.227  
  22644535.328   120963053.602                    94082402.777    22644538.625  
  22644534.434  
  22210977.367   116719512.529    22210986.828    90950325.6834   22210986.879  
                
  21868948.844   117025176.687                    91019588.899    21868953.723  
  21868946.961  
  19621571.852   104741335.489                    81465504.117    19621574.656  
  19621570.152  
  24488409.203   128687433.915    24488421.734   100275971.9464   24488422.285  
                
  21008822.469   112107140.135                                                  
  21008820.070  
  22114574.844   116212926.833    22114584.086    90555577.2704   22114584.340  
                
 21  8 15 12 41 40.0000000  0 17G 4G17R23R 8G31G 1G22G21R15R 7R16G32
                                R21R22G 8R 6G 3
  24641432.094   129491599.962    24641443.711   100902593.7474   24641443.484  
                
  24335387.883   127883337.239    24335395.785    99649389.9114   24335395.777  
                
  22243820.961   118989466.972                                                  
  22243819.676  
  21935135.328   117461685.501                    91359095.381    21935138.938  
  21935134.270  
  22118951.039   116235923.878    22118958.574    90573504.5394   22118958.703  
                
  20342113.133   106898578.609    20342123.691    83297645.6834   20342123.047  
                
  21157488.977   111183403.895    21157493.391    86636399.7974                 
                
  20920076.102   109935790.603    20920081.363    85664294.6684                 
                
  23612959.469   126180488.984                    98140385.855    23612965.172  
  23612959.598  
  19567908.242   104748604.487                    81471155.996    19567912.832  
  19567906.684  
  22640750.086   120942833.476                    94066676.000    22640753.367  
  22640749.188  
  22215970.305   116745750.549    22215979.758    90970770.8934   22215979.785  
                
  21876853.406   117067475.450                    91052487.918    21876858.297  
  21876851.512  
  19623695.305   104752670.592                    81474320.309    19623698.094  
  19623693.602  
  24494769.227   128720855.784    24494781.730   100302014.9274   24494782.270  
                
  21013918.070   112134331.199                                                  
  21013915.641  
  22110088.906   116189353.090    22110098.191    90537208.1324   22110098.449  
                
 21  8 15 12 41 50.0000000  0 17G 4G17R23R 8G31G 1G22G21R15R 7R16G32
                                R21R22G 8R 6G 3
  24634723.797   129456347.831    24634735.410   100875124.6104   24634735.152  
                
  24332214.188   127866659.406    24332222.148    99636394.2104   24332222.117  
                
  22237038.805   118953186.901                                                  
  22237037.512  
  21930050.219   117434455.277                    91337916.352    21930053.898  
  21930049.176  
  22114529.000   116212686.068    22114536.578    90555397.1904   22114536.680  
                
  20340077.375   106887880.627    20340087.922    83289309.5924   20340087.285  
                
  21154854.898   111169561.763    21154859.277    86625613.7274                 
                
  20920477.523   109937900.099    20920482.797    85665938.4374                 
                
  23615374.742   126193395.477                    98150424.230    23615380.473  
  23615374.879  
  19567695.227   104747464.242                    81470269.141    19567699.828  
  19567693.664  
  22636977.523   120922681.135                    94051001.978    22636980.812  
  22636976.652  
  22220968.484   116772016.116    22220977.918    90991237.5594   22220977.941  
                
  21884764.664   117109810.734                    91085415.332    21884769.672  
  21884762.879  
  19625835.672   104764096.022                    81483206.740    19625838.465  
  19625833.965  
  24501129.695   128754279.758    24501142.121   100328059.5544   24501142.664  
                
  21019017.195   112161541.111                                                  
  21019014.727  
  22105606.656   116165798.793    22105615.965    90518854.1464   22105616.223  
                
 21  8 15 12 42  0.0000000  0 17G 4G17R23R 8G31G 1G22G21R15R 7R16G32
                                R21R22G 8R 6G 3
  24628018.008   129421109.222    24628029.672   100847666.0144   24628029.430  
                
  24329050.305   127850033.145    24329058.277    99623438.7104   24329058.223  
                
  22230265.688   118916955.210                                                  
  22230264.402  
  21924970.805   117407255.254                    91316760.784    21924974.492  
  21924969.758  
  22110116.742   116189499.514    22110124.301    90537329.7484   22110124.406  
                
  20338052.914   106877242.025    20338063.453    83281019.7804   20338062.816  
                
  21152226.016   111155746.883    21152230.367    86614848.8904                 
                
  20920888.406   109940059.331    20920893.691    85667620.9464                 
                
  23617804.695   126206380.381                    98160523.613    23617810.441  
  23617804.848  
  19567490.805   104746369.958                    81469418.038    19567495.414  
  19567489.254  
  22633217.672   120902596.814                    94035380.889    22633221.008  
  22633216.809  
  22225971.945   116798309.426    22225981.348    91011725.8554   22225981.375  
                
  21892682.766   117152182.737                    91118371.300    21892687.887  
  21892681.070  
  19627993.016   104775612.034                    81492163.641    19627995.836  
  19627991.316  
  24507490.539   128787705.755    24507502.922   100354105.7454   24507503.453  
                
  21024119.859   112188769.934                                                  
  21024117.387  
  22101128.141   116142264.082    22101137.457    90500515.4344   22101137.715  
                
 21  8 15 12 42 10.0000000  0 17G 4G17R23R 8G31G 1G22G21R15R 7R16G32
                                R21R22G 8R 6G 3
  24621314.844   129385884.081    24621326.504   100820217.9124   24621326.301  
                
  24325896.242   127833458.469    24325904.219    99610523.3794   24325904.148  
                
  22223501.586   118880771.836                                                  
  22223500.309  
  21919897.016   117380085.396                    91295628.694    21919900.715  
  21919895.984  
  22105714.195   116166364.052    22105721.734    90519302.1284   22105721.848  
                
  20336039.742   106866662.740    20336050.266    83272776.1844   20336049.637  
                
  21149602.281   111141959.078    21149606.609    86604105.1544                 
                
  20921308.727   109942268.108    20921314.027    85669342.0784                 
                
  23620249.266   126219443.425                    98170683.756    23620255.016  
  23620249.387  
  19567294.922   104745321.417                    81468602.513    19567299.551  
  19567293.367  
  22629470.586   120882580.808                    94019812.934    22629474.004  
  22629469.711  
  22230980.648   116824630.270    22230990.043    91032235.6074   22230990.082  
                
  21900607.859   117194591.074                    91151355.534    21900612.906  
  21900606.121  
  19630167.266   104787218.334                    81501190.761    19630170.105  
  19630165.566  
  24513851.742   128821133.846    24513864.133   100380153.5724   24513864.637  
                
  21029226.023   112216017.479                                                  
  21029223.574  
  22096653.398   116118749.213    22096662.707    90482192.1624   22096662.977  
                
 21  8 15 12 42 20.0000000  0 17G 4G17R23R 8G31G 1G22G21R15R 7R16G32
                                R21R22G 8R 6G 3
  24614614.297   129350672.527    24614625.934   100792780.3744   24614625.746  
                
  24322752.023   127816935.500    24322759.965    99597648.3664   24322759.922  
                
  22216746.531   118844636.946                                                  
  22216745.273  
  21914828.859   117352945.653                    91274520.023    21914832.551  
  21914827.859  
  22101321.414   116143279.924    22101328.973    90501314.5164   22101329.062  
                
  20334037.891   106856142.899    20334048.402    83264578.9084   20334047.781  
                
  21146983.719   111128198.484    21146988.039    86593382.6184                 
                
  20921738.500   109944526.603    20921743.820    85671101.9444                 
                
  23622708.469   126232584.686                    98180904.731    23622714.234  
  23622708.551  
  19567107.562   104744318.482                    81467822.458    19567112.219  
  19567106.004  
  22625736.320   120862633.192                    94004298.136    22625739.801  
  22625735.473  
  22235994.586   116850978.641    22236003.980    91052766.7964   22236004.016  
                
  21908539.914   117237035.781                    91184368.081    21908544.695  
  21908538.004  
  19632358.477   104798915.141                    81510288.263    19632361.328  
  19632356.777  
  24520213.273   128854563.975    24520225.742   100406202.9874   24520226.219  
                
  21034335.766   112243283.944                                                  
  21034333.312  
  22092182.422   116095254.088    22092191.711    90463884.2894   22092192.004  
                
 21  8 15 12 42 30.0000000  0 17G 4G17R23R 8G31G 1G22G21R15R 7R16G32
                                R21R22G 8R 6G 3
  24607916.219   129315474.493    24607927.922   100765353.3954   24607927.758  
                
  24319617.672   127800464.404    24319625.586    99584813.7684   24319625.535  
                
  22210000.609   118808550.801                                                  
  22209999.305  
  21909766.297   117325836.023                    91253434.782    21909769.996  
  21909765.297  
  22096938.422   116120247.192    22096946.016    90483366.9454   22096946.066  
                
  20332047.336   106845682.465    20332057.836    83256427.9234   20332057.219  
                
  21144370.320   111114464.997    21144374.637    86582681.2024                 
                
  20922177.711   109946834.699    20922183.059    85672900.4614                 
                
  23625182.266   126245803.960                    98191186.355    23625188.035  
  23625182.301  
  19566928.727   104743361.215                    81467077.917    19566933.398  
  19566927.164  
  22622014.875   120842753.988                    93988836.558    22622018.355  
  22622014.020  
  22241013.727   116877354.362    22241023.105    91073319.3104   22241023.133  
                
  21916478.539   117279516.509                    91217408.658    21916483.211  
  21916476.559  
  19634566.602   104810702.307                    81519456.058    19634569.465  
  19634564.871  
  24526575.195   128887995.814    24526587.680   100432253.7224   24526588.129  
                
  21039448.977   112270568.955                                                  
  21039446.531  
  22087715.180   116071778.654    22087724.441    90445591.7514   22087724.746  
                
 21  8 15 12 42 40.0000000  0 17G 4G17R23R 8G31G 1G22G21R15R 7R16G32
                                R21R22G 8R 6G 3
  24601220.867   129280290.346    24601232.547   100737937.2324   24601232.395  
                
  24316493.172   127784045.104    24316501.074    99572019.5354   24316500.984  
                
  22203263.805   118772513.661                                                  
  22203262.488  
  21904709.406   117298756.699                    91232373.074    21904713.109  
  21904708.410  
  22092565.273   116097266.172    22092572.855    90465459.6754   22092572.906  
                
  20330068.156   106835281.791    20330078.641    83248323.5094   20330078.020  
                
  21141762.141   111100758.922    21141766.465    86572001.1554                 
                
  20922626.422   109949192.680    20922631.801    85674737.8474                 
                
  23627670.742   126259101.630                    98201528.993    23627676.523  
  23627670.797  
  19566758.453   104742449.770                    81466369.031    19566763.141  
  19566756.875  
  22618306.281   120822943.389                    93973428.324    22618309.754  
  22618305.406  
  22246038.125   116903757.664    22246047.465    91093893.3024   22246047.504  
                
  21924423.734   117322033.514                    91250477.420    21924428.531  
  21924421.836  
  19636791.680   104822579.861                    81528694.160    19636794.562  
  19636789.945  
  24532937.438   128921429.497    24532949.941   100458305.9054   24532950.371  
                
  21044565.742   112297873.020                                                  
  21044563.277  
  22083251.758   116048323.224    22083260.988    90427314.8044   22083261.320  
                
 21  8 15 12 42 50.0000000  0 17G 4G17R23R 8G31G 1G22G21R15R 7R16G32
                                R21R22G 8R 6G 3
  24594528.203   129245119.914    24594539.781   100710531.7344   24594539.590  
                
  24313378.516   127767677.548    24313386.387    99559265.6074   24313386.297  
                
  22196536.172   118736525.497                                                  
  22196534.875  
  21899658.172   117271707.652                    91211334.938    21899661.883  
  21899657.195  
  22088201.945   116074336.766    22088209.461    90447592.6074   22088209.551  
                
  20328100.305   106824940.686    20328110.762    83240265.5034   20328110.137  
                
  21139159.141   111087080.090    21139163.469    86561342.3324                 
                
  20923084.586   109951600.390    20923089.988    85676613.9844                 
                
  23630173.766   126272477.035                    98211932.081    23630179.562  
  23630173.840  
  19566596.719   104741584.043                    81465695.689    19566601.418  
  19566595.145  
  22614610.570   120803201.594                    93958073.609    22614614.031  
  22614609.703  
  22251067.695   116930188.198    22251076.980    91114488.5214   22251077.039  
                
  21932375.633   117364586.223                    91283573.936    21932380.551  
  21932373.828  
  19639033.664   104834547.771                    81538002.516    19639036.516  
  19639031.941  
  24539300.000   128954864.794    24539312.465   100484359.3514   24539312.891  
                
  21049685.945   112325195.418                                                  
  21049683.465  
  22078792.094   116024887.581    22078801.316    90409053.2684   22078801.641  
                
 21  8 15 12 43  0.0000000  0 17G 4G17R23R 8G31G 1G22G21R15R 7R16G32
                                R21R22G 8R 6G 3
  24587838.234   129209963.181    24587849.598   100683136.9124   24587849.414  
                
  24310273.719   127751361.742    24310281.562    99546551.9954   24310281.480  
                
  22189817.734   118700586.415                                                  
  22189816.434  
  21894612.570   117244688.758                    91190320.262    21894616.301  
  21894611.586  
  22083848.445   116051459.021    22083855.922    90429765.8124   22083856.031  
                
  20326143.789   106814659.129    20326154.227    83232253.9034   20326153.617  
                
  21136561.320   111073428.443    21136565.656    86550704.6944                 
                
  20923552.203   109954057.737    20923557.625    85678528.8024                 
                
  23632691.383   126285930.371                    98222395.786    23632697.184  
  23632691.461  
  19566443.477   104740763.726                    81465057.659    19566448.180  
  19566441.902  
  22610927.688   120783528.397                    93942772.281    22610931.148  
  22610926.789  
  22256102.422   116956645.828    22256111.684    91135104.8534   22256111.758  
                
  21940334.281   117407174.552                    91316698.164    21940339.227  
  21940332.457  
  19641292.555   104846605.857                    81547381.031    19641295.391  
  19641290.828  
  24545662.836   128988301.686    24545675.277   100510414.0324   24545675.699  
                
  21054809.578   112352536.204                                                  
  21054807.113  
  22074336.188   116001471.661    22074345.406    90390807.1144   22074345.730  
                
 21  8 15 12 43 10.0000000  0 17G 4G17R23R 8G31G 1G22G21R15R 7R16G32
                                R21R22G 8R 6G 3
  24581150.797   129174820.239    24581162.074   100655752.8524   24581161.910  
                
  24307178.781   127735097.831    24307186.629    99533878.8144   24307186.559  
                
  22183108.508   118664696.594                                                  
  22183107.227  
  21889572.570   117217699.862                    91169328.925    21889576.348  
  21889571.566  
  22079504.805   116028633.073    22079512.277    90411979.3784   22079512.371  
                
  20324198.633   106804437.251    20324209.039    83224288.8034   20324208.445  
                
  21133968.672   111059804.024    21133973.008    86540088.2664                 
                
  20924029.273   109956564.755    20924034.711    85680482.3184                 
                
  23635223.555   126299461.490                    98232919.992    23635229.332  
  23635223.676  
  19566298.719   104739988.868                    81464454.986    19566303.438  
  19566297.148  
  22607257.742   120763924.285                    93927524.675    22607261.195  
  22607256.805  
  22261142.297   116983130.520    22261151.543    91155742.2754   22261151.625  
                
  21948299.555   117449798.329                    91349849.967    21948304.527  
  21948297.727  
  19643568.305   104858753.989                    81556829.573    19643571.145  
  19643566.574  
  24552025.891   129021739.882    24552038.340   100536469.7134   24552038.797  
                
  21059936.703   112379895.593                                                  
  21059934.230  
  22069884.055   115978075.586    22069893.289    90372576.4134   22069893.629  
                
 21  8 15 12 43 20.0000000  0 16G 4G17R23R 8G31G 1G22G21R 7R16G32R21
                                R22G 8R 6G 3
  24574465.953   129139691.666    24574477.312   100628379.9864   24574477.168  
                
  24304093.844   127718886.442    24304101.730    99521246.5884   24304101.641  
                
  22176408.648   118628856.810                                                  
  22176407.371  
  21884538.297   117190741.629                    91148361.434    21884542.102  
  21884537.242  
  22075171.164   116005859.573    22075178.621    90394233.8074   22075178.715  
                
  20322264.938   106794275.603    20322275.324    83216370.6444   20322274.727  
                
  21131381.328   111046207.470    21131385.664    86529493.5544                 
                
  20924515.898   109959121.993    20924521.355    85682474.9734                 
                
  19566162.547   104739259.916                    81463888.035    19566167.266  
  19566160.988  
  22603600.781   120744389.530                    93912330.990    22603604.207  
  22603599.820  
  22266187.414   117009642.750    22266196.613    91176401.1544   22266196.727  
                
  21956271.500   117492458.075                    91383029.743    21956276.551  
  21956269.691  
  19645861.055   104870992.809                    81566348.654    19645863.879  
  19645859.324  
  24558389.289   129055179.865    24558401.789   100562526.8074   24558402.277  
                
  21065067.391   112407273.878                                                  
  21065064.863  
  22065435.797   115954699.880    22065445.090    90354361.6004   22065445.406  
                
 21  8 15 12 43 30.0000000  0 16G 4G17R23R 8G31G 1G22G21R 7R16G32R21
                                R22G 8R 6G 3
  24567783.711   129104576.866    24567795.188   100601017.8734   24567795.043  
                
  24301018.766   127702726.929    24301026.676    99508654.7444   24301026.570  
                
  22169718.000   118593066.398                                                  
  22169716.715  
  21879509.641   117163813.678                    91127417.495    21879513.484  
  21879508.578  
  22070847.391   115983138.009    22070854.836    90376528.7014   22070854.926  
                
  20320342.594   106784173.651    20320352.957    83208498.9864   20320352.371  
                
  21128799.156   111032638.092    21128803.496    86518920.0214                 
                
  20925011.953   109961728.794    20925017.430    85684506.2464                 
                
  19566034.836   104738576.279                    81463356.329    19566039.559  
  19566033.281  
  22599956.727   120724923.788                    93897191.021    22599960.152  
  22599955.781  
  22271237.633   117036181.781    22271246.781    91197080.9144   22271246.918  
                
  21964250.039   117535152.772                    91416236.683    21964255.141  
  21964248.238  
  19648170.602   104883321.324                    81575937.486    19648173.445  
  19648168.867  
  24564752.875   129088620.866    24564765.434   100588584.6784   24564765.953  
                
  21070201.469   112434670.314                                                  
  21070198.953  
  22060991.297   115931343.911    22061000.641    90336162.1584   22061000.938  
                
 21  8 15 12 43 40.0000000  0 16G 4G17R23R 8G31G 1G22G21R 7R16G32R21
                                R22G 8R 6G 3
  24561104.180   129069475.955    24561115.676   100573666.5584   24561115.535  
                
  24297953.555   127686619.319    24297961.492    99496103.3704   24297961.391  
                
  22163036.633   118557325.690                                                  
  22163035.332  
  21874486.570   117136915.649                    91106496.828    21874490.449  
  21874485.523  
  22066533.516   115960468.452    22066540.969    90358864.1254   22066541.062  
                
  20318431.617   106774131.413    20318441.961    83200673.8734   20318441.391  
                
  21126222.164   111019095.943    21126226.508    86508367.7004                 
                
  20925517.453   109964385.241    20925522.957    85686576.1974                 
                
  19565915.562   104737937.853                    81462859.768    19565920.262  
  19565914.008  
  22596325.695   120705527.529                    93882105.048    22596329.066  
  22596324.734  
  22276292.938   117062747.561    22276302.051    91217781.5104   22276302.211  
                
  21972235.234   117577882.564                    91449470.924    21972240.289  
  21972233.371  
  19650497.016   104895739.803                    81585596.299    19650499.863  
  19650495.277  
  24571116.656   129122062.747    24571129.262   100614643.2444   24571129.797  
                
  21075338.938   112462084.887                                                  
  21075336.375  
  22056550.570   115908007.772    22056559.934    90317978.1594   22056560.207  
                
 21  8 15 12 43 50.0000000  0 16G 4G17R23R 8G31G 1G22G21R 7R16G32R21
                                R22G 8R 6G 3
  24554427.367   129034389.153    24554438.848   100546326.2324   24554438.730  
                
  24294898.273   127670563.870    24294906.254    99483592.6404   24294906.141  
                
  22156364.617   118521634.953                                                  
  22156363.316  
  21869469.164   117110047.900                    91085599.724    21869473.090  
  21869468.066  
  22062229.602   115937851.221    22062237.062    90341240.3194   22062237.148  
                
  20316532.070   106764149.191    20316542.387    83192895.5224   20316541.820  
                
  21123650.406   111005581.258    21123654.754    86497836.7804                 
                
  20926032.445   109967091.545    20926037.992    85688685.0124                 
                
  19565804.789   104737344.843                    81462398.557    19565809.484  
  19565803.242  
  22592707.648   120686200.490                    93867072.927    22592710.934  
  22592706.688  
  22281353.359   117089340.217    22281362.453    91238503.0544   22281362.617  
                
  21980226.961   117620647.189                    91482732.279    21980231.934  
  21980225.039  
  19652840.281   104908248.238                    81595325.078    19652843.160  
  19652838.547  
  24577480.625   129155505.564    24577493.273   100640702.5344   24577493.793  
                
  21080479.844   112489517.744                                                  
  21080477.285  
  22052113.664   115884691.655    22052123.016    90299809.7694   22052123.297  
                
 21  8 15 12 44  0.0000000  0 16G 4G17R23R 8G31G 1G22G21R 7R16G32R21
                                R22G 8R 6G 3
  24547753.266   128999316.319    24547764.668   100518996.7914   24547764.578  
                
  24291852.906   127654560.452    24291860.922    99471122.4964   24291860.801  
                
  22149701.945   118485994.201                                                  
  22149700.625  
  21864457.438   117083210.434                    91064726.135    21864461.348  
  21864456.277  
  22057935.625   115915286.202    22057943.059    90323657.1934   22057943.148  
                
  20314643.891   106754226.789    20314654.184    83185163.7844   20314653.625  
                
  21121083.828   110992093.841    21121088.172    86487327.1184                 
                
  20926556.875   109969847.482    20926562.465    85690832.4904                 
                
  19565702.453   104736797.071                    81461972.499    19565707.145  
  19565700.914  
  22589102.555   120666942.936                    93852094.869    22589105.801  
  22589101.602  
  22286418.828   117115959.414    22286427.895    91259245.2884   22286428.059  
                
  21988225.188   117663446.595                    91516020.694    21988230.039  
  21988223.223  
  19655200.398   104920846.689                    81605123.879    19655203.277  
  19655198.645  
  24583844.680   129188949.139    24583857.426   100666762.4094   24583857.891  
                
  21085624.094   112516968.482                                                  
  21085621.492  
  22047680.516   115861395.377    22047689.859    90281656.8364   22047690.141  
                
 21  8 15 12 44 10.0000000  0 16G 4G17R23R 8G31G 1G22G21R 7R16G32R21
                                R22G 8R 6G 3
  24541081.867   128964257.699    24541093.184   100491678.4474   24541093.102  
                
  24288817.508   127638609.390    24288825.488    99458693.0964   24288825.375  
                
  22143048.695   118450403.780                                                  
  22143047.359  
  21859451.328   117056403.086                    91043875.998    21859455.219  
  21859450.156  
  22053651.625   115892773.656    22053659.012    90306114.9704   22053659.121  
                
  20312767.156   106744364.488    20312777.418    83177478.8674   20312776.883  
                
  21118522.484   110978633.929    21118526.809    86476838.8794                 
                
  20927090.797   109972653.257    20927096.426    85693018.7994                 
                
  19565608.578   104736294.574                    81461581.659    19565613.250  
  19565607.055  
  22585510.555   120647755.140                    93837171.050    22585513.684  
  22585509.602  
  22291489.391   117142605.306    22291498.402    91280008.3194   22291498.598  
                
  21996229.992   117706280.547                    91549335.990    21996234.562  
  21996227.875  
  19657577.336   104933534.918                    81614992.488    19657580.215  
  19657575.582  
  24590208.898   129222393.507    24590221.707   100692822.9124   24590222.152  
                
  21090771.781   112544437.605                                                  
  21090769.184  
  22043251.195   115838119.154    22043260.520    90263519.5294   22043260.805  
                
 21  8 15 12 44 20.0000000  0 16G 4G17R23R 8G31G 1G22G21R 7R16G32R21
                                R22G 8R 6G 3
  24534413.055   128929213.464    24534424.434   100464371.2854   24534424.371  
                
  24285792.094   127622710.756    24285800.039    99446304.5594   24285799.934  
                
  22136404.906   118414863.939                                                  
  22136403.559  
  21854450.930   117029626.352                    91023049.650    21854454.797  
  21854449.770  
  22049377.672   115870313.915    22049384.984    90288613.8774   22049385.141  
                
  20310901.891   106734562.441    20310912.129    83169840.9184   20310911.605  
                
  21115966.406   110965201.659    21115970.703    86466372.1804                 
                
  20927634.234   109975509.054    20927639.898    85695244.0994                 
                
  19565523.203   104735837.542                    81461226.201    19565527.867  
  19565521.680  
  22581931.656   120628637.336                    93822301.630    22581934.703  
  22581930.730  
  22296565.039   117169277.932    22296574.008    91300792.1864   22296574.234  
                
  22004241.125   117749149.205                    91582678.276    22004245.547  
  22004238.945  
  19659971.133   104946313.160                    81624931.123    19659974.008  
  19659969.418  
  24596573.328   129255838.780    24596586.148   100718884.1234   24596586.602  
                
  21095922.852   112571924.726                                                  
  21095920.258  
  22038825.719   115814863.169    22038835.031    90245397.9934   22038835.316  
                
 21  8 15 12 44 30.0000000  0 16G 4G17R23R 8G31G 1G22G21R 7R16G32R21
                                R22G 8R 6G 3
  24527746.961   128894183.524    24527758.445   100437075.3114   24527758.363  
                
  24282776.641   127606864.474    24282784.543    99433956.8354   24282784.457  
                
  22129770.547   118379374.671                                                  
  22129769.160  
  21849456.188   117002879.939                    91002246.910    21849460.027  
  21849455.059  
  22045113.758   115847906.838    22045121.027    90271153.8194   22045121.203  
                
  20309048.070   106724820.588    20309058.293    83162249.8664   20309057.773  
                
  21113415.555   110951796.859    21113419.809    86455926.8884                 
                
  20928187.148   109978414.687    20928192.840    85697508.2284                 
                
  19565446.227   104735425.491                    81460905.725    19565450.875  
  19565444.707  
  22578365.852   120609589.502                    93807486.678    22578368.836  
  22578364.934  
  22301645.734   117195977.078    22301654.691    91321596.7164   22301654.922  
                
  22012258.391   117792052.205                    91616047.271    22012262.945  
  22012256.348  
  19662381.758   104959181.251                    81634939.640    19662384.590  
  19662380.031  
  24602937.875   129289284.529    24602950.715   100744945.6964   24602951.188  
                
  21101077.281   112599429.751                                                  
  21101074.719  
  22034404.062   115791627.268    22034413.391    90227292.1104   22034413.688  
                
 21  8 15 12 44 40.0000000  0 16G 4G17R23R 8G31G 1G22G21R 7R16G32R21
                                R22G 8R 6G 3
  24521083.719   128859167.889    24521095.188   100409790.4344   24521095.070  
                
  24279771.164   127591070.565    24279778.992    99421649.8914   24279778.949  
                
  22123145.625   118343935.957                                                  
  22123144.211  
  21844467.117   116976163.791                    90981467.695    21844470.914  
  21844466.023  
  22040859.852   115825552.450    22040867.133    90253734.8184   22040867.281  
                
  20307205.703   106715138.887    20307215.910    83154705.6894   20307215.410  
                
  21110869.938   110938419.548    21110874.160    86445503.0144                 
                
  20928749.539   109981370.062    20928755.258    85699811.1164                 
                
  19565377.695   104735058.646                    81460620.410    19565382.340  
  19565376.172  
  22574813.156   120590611.733                    93792726.206    22574816.133  
  22574812.219  
  22306731.438   117222702.581    22306740.371    91342421.7734   22306740.605  
                
  22020282.023   117834989.276                    91649442.748    22020286.727  
  22020280.098  
  19664809.164   104972138.895                    81645017.802    19664812.000  
  19664807.445  
  24609302.633   129322730.672    24609315.336   100771007.5894   24609315.805  
                
  21106235.062   112626952.659                                                  
  21106232.523  
  22029986.219   115768411.424    22029995.566    90209201.8494   22029995.855  
                
 21  8 15 12 44 50.0000000  0 16G 4G17R23R 8G31G 1G22G21R 7R16G32R21
                                R22G 8R 6G 3
  24514423.297   128824167.403    24514434.773   100382517.4054   24514434.652  
                
  24276775.820   127575329.930    24276783.613    99409384.4744   24276783.609  
                
  22116530.406   118308548.999                                                  
  22116528.941  
  21839483.922   116949478.950                    90960712.827    21839487.652  
  21839482.863  
  22036616.156   115803251.680    22036623.465    90236357.6124   22036623.586  
                
  20305374.961   106705518.251    20305385.160    83147209.0944   20305384.672  
                
  21108329.711   110925070.574    21108333.914    86435101.2234                 
                
  20929321.570   109984376.124    20929327.320    85702153.5034                 
                
  19565317.750   104734737.756                    81460370.835    19565322.375  
  19565316.230  
  22571273.734   120571704.942                    93778020.948    22571276.699  
  22571272.836  
  22311822.305   117249455.234    22311831.180    91363267.9884   22311831.457  
                
  22028312.227   117877961.187                    91682865.314    22028317.047  
  22028310.332  
  19667253.516   104985187.051                    81655166.358    19667256.281  
  19667251.773  
  24615667.531   129356177.874    24615680.141   100797070.3144   24615680.629  
                
  21111396.328   112654494.188                                                  
  21111393.809  
  22025572.352   115745216.474    22025581.688    90191127.8964   22025581.988  
                
 21  8 15 12 45  0.0000000  0 16G 4G17R23R 8G31G 1G22G21R 7R16G32R21
                                R22G 8R 6G 3
  24507765.469   128789180.916    24507776.992   100355255.2614   24507776.891  
                
  24273790.375   127559641.365    24273798.184    99397159.6304   24273798.160  
                
  22109924.602   118273212.650                                                  
  22109923.129  
  21834506.289   116922823.856                    90939981.085    21834509.969  
  21834505.273  
  22032382.445   115781003.471    22032389.770    90219021.3604   22032389.883  
                
  20303555.602   106695957.499    20303565.797    83139759.1574   20303565.316  
                
  21105794.633   110911748.711    21105798.832    86424720.5544                 
                
  20929903.016   109987431.693    20929908.801    85704534.4594                 
                
  19565266.148   104734461.535                    81460155.995    19565270.754  
  19565264.645  
  22567747.438   120552868.214                    93763370.184    22567750.391  
  22567746.504  
  22316918.078   117276233.695    22316926.883    91384134.3164   22316927.207  
                
  22036348.703   117920966.626                    91716313.949    22036353.695  
  22036346.879  
  19669714.570   104998324.350                    81665384.257    19669717.328  
  19669712.836  
  24622032.305   129389624.880    24622044.914   100823132.8774   24622045.422  
                
  21116560.852   112682053.067                                                  
  21116558.344  
  22021162.250   115722041.260    22021171.562    90173069.2924   22021171.867  
                
 21  8 15 12 45 10.0000000  0 16G 4G17R23R 8G31G 1G22G21R 7R16G32R21
                                R22G 8R 6G 3
  24501110.383   128754208.782    24501121.957   100328004.3004   24501121.879  
                
  24270814.891   127544005.228    24270822.723    99384975.6424   24270822.738  
                
  22103328.375   118237927.398                                                  
  22103326.906  
  21829534.281   116896199.001                    90919272.893    21829537.941  
  21829533.281  
  22028158.820   115758808.280    22028166.164    90201726.4064   22028166.285  
                
  20301747.711   106686456.976    20301757.895    83132356.1554   20301757.410  
                
  21103264.797   110898454.330    21103269.000    86414361.2994                 
                
  20930493.938   109990537.030    20930499.758    85706954.1964                 
                
  19565222.898   104734230.042                    81459975.943    19565227.496  
  19565221.406  
  22564234.258   120534101.570                    93748773.913    22564237.152  
  22564233.324  
  22322018.805   117303038.203    22322027.547    91405020.9484   22322027.902  
                
  22044391.539   117964005.667                    91749788.713    22044396.648  
  22044389.766  
  19672192.406   105011551.165                    81675671.777    19672195.168  
  19672190.688  
  24628397.062   129423072.127    24628409.750   100849195.6164   24628410.266  
                
  21121728.688   112709629.530                                                  
  21121726.188  
  22016755.953   115698886.098    22016765.254    90155026.3204   22016765.559  
                
 21  8 15 12 45 20.0000000  0 16G 4G17R23R 8G31G 1G22G21R 7R16G32R21
                                R22G 8R 6G 3
  24494458.148   128719251.213    24494469.691   100300764.6684   24494469.617  
                
  24267849.414   127528421.654    24267857.297    99372832.5864   24267857.301  
                
  22096741.750   118202693.374                                                  
  22096740.211  
  21824567.953   116869604.577                    90898588.347    21824571.598  
  21824566.977  
  22023945.312   115736666.243    22023952.672    90184472.8904   22023952.801  
                
  20299951.328   106677016.908    20299961.496    83125000.2574   20299961.020  
                
  21100740.203   110885187.500    21100744.414    86404023.5174                 
                
  20931094.359   109993692.273    20931100.223    85709412.8254                 
                
  19565188.078   104734043.638                    81459830.972    19565192.672  
  19565186.578  
  22560734.352   120515405.715                    93734232.718    22560737.238  
  22560733.473  
  22327124.500   117329868.805    22327133.191    91425927.9034   22327133.582  
                
  22052440.688   118007078.268                    91783289.579    22052445.879  
  22052438.965  
  19674687.016   105024867.510                    81686028.924    19674689.777  
  19674685.293  
  24634761.898   129456519.156    24634774.566   100875258.1894   24634775.070  
                
  21126899.828   112737223.596                                                  
  21126897.348  
  22012353.523   115675751.123    22012362.805    90136999.0744   22012363.109  
                
 21  8 15 12 45 30.0000000  0 16G 4G17R23R 8G31G 1G22G21R 7R16G32R21
                                R22G 8R 6G 3
  24487808.664   128684308.088    24487820.168   100273536.3144   24487820.125  
                
  24264893.938   127512890.611    24264901.875    99360730.4794   24264901.871  
                
  22090164.695   118167510.653                                                  
  22090163.137  
  21819607.273   116843040.449                    90877927.384    21819610.922  
  21819606.316  
  22019741.914   115714577.327    22019749.262    90167260.7614   22019749.414  
                
  20298166.406   106667637.141    20298176.555    83117691.3524   20298176.098  
                
  21098220.836   110871948.165    21098225.055    86393707.1584                 
                
  20931704.242   109996897.269    20931710.160    85711910.2244                 
                
  19565161.586   104733901.869                    81459720.708    19565166.168  
  19565160.086  
  22557247.633   120496780.277                    93719746.301    22557250.512  
  22557246.762  
  22332235.117   117356725.287    22332243.770    91446855.0334   22332244.184  
                
  22060496.281   118050184.198                    91816816.391    22060501.348  
  22060494.422  
  19677198.344   105038273.110                    81696455.507    19677201.090  
  19677196.645  
  24641126.719   129489965.932    24641139.340   100901320.5744   24641139.852  
                
  21132074.234   112764835.198                                                  
  21132071.777  
  22007954.898   115652636.254    22007964.145    90118987.4924   22007964.453  
                
 21  8 15 12 45 40.0000000  0 16G 4G17R23R 8G31G 1G22G21R 7R16G32R21
                                R22G 8R 6G 3
  24481161.969   128649379.622    24481173.426   100246319.3534   24481173.418  
                
  24261948.500   127497412.294    24261956.500    99348669.4694   24261956.492  
                
  22083597.312   118132379.631                                                  
  22083595.766  
  21814652.273   116816506.738                    90857290.049    21814655.918  
  21814651.328  
  22015548.680   115692541.790    22015555.992    90150090.2214   22015556.172  
                
  20296393.016   106658317.919    20296403.137    83110429.6254   20296402.699  
                
  21095706.750   110858736.543    21095710.973    86383412.3964                 
                
  20932323.641   110000152.255    20932329.613    85714446.5714                 
                
  19565143.500   104733805.061                    81459645.424    19565148.059  
  19565141.992  
  22553774.148   120478225.575                    93705314.880    22553777.020  
  22553773.301  
  22337350.672   117383607.718    22337359.293    91467802.3774   22337359.727  
                
  22068558.031   118093323.345                    91850369.052    22068563.020  
  22068556.094  
  19679726.398   105051768.041                    81706951.562    19679729.141  
  19679724.699  
  24647491.453   129523412.559    24647504.086   100927382.8414   24647504.602  
                
  21137251.898   112792464.202                                                  
  21137249.434  
  22003560.125   115629541.622    22003569.344    90100991.6784   22003569.664  
                
 21  8 15 12 45 50.0000000  0 16G 4G17R23R 8G31G 1G22G21R 7R16G32R21
                                R22G 8R 6G 3
  24474518.016   128614465.979    24474529.508   100219113.9764   24474529.531  
                
  24259013.117   127481986.806    24259021.172    99336649.6364   24259021.160  
                
  22077039.664   118097300.576                                                  
  22077038.113  
  21809702.992   116790003.487                    90836676.433    21809706.594  
  21809702.031  
  22011365.641   115670559.901    22011372.957    90132961.4854   22011373.156  
                
  20294631.180   106649059.395    20294641.277    83103215.1984   20294640.855  
                
  21093197.969   110845552.792    21093202.195    86373139.3424                 
                
  20932952.562   110003457.295    20932958.578    85717021.9274                 
                
  19565133.789   104733753.105                    81459605.009    19565138.344  
  19565132.281  
  22550313.969   120459741.939                    93690938.721    22550316.801  
  22550313.133  
  22342471.180   117410516.122    22342479.766    91488769.9614   22342480.227  
                
  22076626.023   118136495.785                    91883947.592    22076630.875  
  22076623.973  
  19682271.195   105065352.326                    81717517.112    19682273.906  
  19682269.516  
  24653856.070   129556858.991    24653868.785   100953444.9234   24653869.305  
                
  21142432.852   112820110.740                                                  
  21142430.391  
  21999169.242   115606467.395    21999178.461    90083011.7794   21999178.766  
                
 21  8 15 12 46  0.0000000  0 16G 4G17R23R 8G31G 1G22G21R 7R16G32R21
                                R22G 8R 6G 3
  24467877.000   128579567.245    24467888.430   100191920.2104   24467888.492  
                
  24256087.844   127466614.327    24256095.887    99324671.0734   24256095.852  
                
  22070491.719   118062273.517                                                  
  22070490.156  
  21804759.422   116763530.822                    90816086.609    21804763.000  
  21804758.465  
  22007192.828   115648631.713    22007200.191    90115874.6084   22007200.387  
                
  20292880.906   106639861.681    20292890.977    83096048.1484   20292890.570  
                
  21090694.477   110832396.902    21090698.699    86362888.0094                 
                
  20933591.008   110006812.393    20933597.055    85719636.2874                 
                
  19565132.484   104733746.123                    81459599.582    19565137.043  
  19565130.961  
  22546867.102   120441329.368                    93676617.837    22546869.891  
  22546866.281  
  22347596.617   117437450.466    22347605.160    91509757.7624   22347605.664  
                
  22084700.148   118179701.375                    91917551.921    22084704.930  
  22084698.004  
  19684832.766   105079026.178                    81728152.329    19684835.465  
  19684831.098  
  24660220.711   129590305.267    24660233.449   100979506.9014   24660233.961  
                
  21147617.086   112847774.851                                                  
  21147614.613  
  21994782.227   115583413.610    21994791.445    90065047.8074   21994791.789  
                
 21  8 15 12 46 10.0000000  0 16G 4G17R23R 8G31G 1G22G21R 7R16G32R21
                                R22G 8R 6G 3
  24461238.719   128544683.220    24461250.180   100164737.9184   24461250.250  
                
  24253172.594   127451294.601    24253180.605    99312733.6224   24253180.566  
                
  22063953.523   118027298.579                                                  
  22063951.941  
  21799821.516   116737088.504                    90795520.376    21799825.102  
  21799820.586  
  22003030.203   115626757.080    22003037.613    90098829.4494   22003037.801  
                
  20291142.164   106630724.541    20291152.215    83088928.3054   20291151.820  
                
  21088196.250   110819268.623    21088200.469    86352658.1844                 
                
  20934238.945   110010217.371    20934245.016    85722289.5154                 
                
  19565139.500   104733783.703                    81459628.820    19565144.070  
  19565137.973  
  22543433.562   120422988.037                    93662352.377    22543436.379  
  22543432.758  
  22352726.922   117464410.420    22352735.461    91530765.5104   22352735.996  
                
  22092780.117   118222939.684                    91951181.681    22092785.074  
  22092778.055  
  19687411.039   105092789.134                    81738856.849    19687413.715  
  19687409.367  
  24666585.258   129623750.850    24666597.977   101005568.3554   24666598.488  
                
  21152804.531   112875456.063                                                  
  21152802.055  
  21990399.086   115560380.074    21990408.281    90047099.6054   21990408.625  
                
 21  8 15 12 46 20.0000000  0 16G 4G17R23R 8G31G 1G22G21R 7R16G32R21
                                R22G 8R 6G 3
  24454603.438   128509814.080    24454614.766   100137567.1894   24454614.824  
                
  24250267.422   127436027.792    24250275.391    99300837.3984   24250275.371  
                
  22057425.094   117992375.794                                                  
  22057423.504  
  21794889.297   116710676.577                    90774977.786    21794892.875  
  21794888.383  
  21998877.820   115604936.269    21998885.246    90081826.2244   21998885.430  
                
  20289414.984   106621648.153    20289425.008    83081855.7934   20289424.629  
                
  21085703.297   110806168.048    21085707.512    86342449.9434                 
                
  20934896.414   110013672.391    20934902.508    85724981.7274                 
                
  19565154.883   104733866.025                    81459692.846    19565159.461  
  19565153.359  
  22540013.352   120404717.834                    93648142.256    22540016.246  
  22540012.570  
  22357862.117   117491396.021    22357870.680    91551793.2424   22357871.203  
                
  22100866.094   118266210.708                    91984836.882    22100871.273  
  22100864.180  
  19690006.008   105106641.224                    81749630.681    19690008.680  
  19690004.332  
  24672949.742   129657196.002    24672962.406   101031629.4634   24672962.930  
                
  21157995.234   112903154.677                                                  
  21157992.754  
  21986019.812   115537366.891    21986029.031    90029167.2794   21986029.367  
                
 21  8 15 12 46 30.0000000  0 16G 4G17R23R 8G31G 1G22G21R 7R16G32R21
                                R22G 8R 6G 3
  24447970.852   128474959.809    24447982.145   100110408.0664   24447982.211  
                
  24247372.305   127420813.979    24247380.277    99288982.4944   24247380.270  
                
  22050906.438   117957505.403                                                  
  22050904.840  
  21789962.727   116684294.964                    90754458.772    21789966.305  
  21789961.840  
  21994735.672   115583169.248    21994743.113    90064864.9234   21994743.301  
                
  20287699.359   106612632.513    20287709.359    83074830.6204   20287708.996  
                
  21083215.602   110793095.176    21083219.820    86332263.3014                 
                
  20935563.367   110017177.313    20935569.488    85727712.8404                 
                
  19565178.594   104733992.996                    81459791.614    19565183.188  
  19565177.059  
  22536606.516   120386519.113                    93633987.710    22536609.414  
  22536605.781  
  22363002.156   117518407.124    22363010.730    91572840.8544   22363011.270  
                
  22108958.258   118309514.238                    92018517.379    22108963.535  
  22108956.445  
  19692617.625   105120582.274                    81760473.714    19692620.320  
  19692615.973  
  24679314.031   129690640.386    24679326.695   101057689.9844   24679327.227  
                
  21163189.133   112930870.357                                                  
  21163186.625  
  21981644.414   115514374.054    21981653.641    90011250.7944   21981653.980  
                
 21  8 15 12 46 40.0000000  0 16G 4G17R23R 8G31G 1G22G21R 7R16G32R21
                                R22G 8R 6G 3
  24441341.133   128440120.710    24441352.387   100083260.7584   24441352.480  
                
  24244487.320   127405653.312    24244495.309    99277168.9954   24244495.266  
                
  22044397.656   117922687.809                                                  
  22044396.059  
  21785041.891   116657944.088                    90733963.672    21785045.477  
  21785041.012  
  21990603.844   115561456.424    21990611.320    90047945.8524   21990611.504  
                
  20285995.352   106603677.927    20286005.324    83067853.0234   20286004.973  
                
  21080733.234   110780050.249    21080737.473    86322098.4294                 
                
  20936239.883   110020732.424    20936246.039    85730483.0484                 
                
  19565210.711   104734164.928                    81459925.344    19565215.316  
  19565209.168  
  22533213.086   120368391.999                    93619888.863    22533215.969  
  22533212.406  
  22368147.086   117545443.892    22368155.688    91593908.4624   22368156.250  
                
  22117056.719   118352850.324                    92052223.216    22117061.891  
  22117054.867  
  19695245.969   105134612.538                    81771386.137    19695248.703  
  19695244.324  
  24685678.164   129724084.012    24685690.867   101083749.9064   24685691.391  
                
  21168386.281   112958603.346                                                  
  21168383.754  
  21977272.938   115491401.838    21977282.152    89993350.3774   21977282.492  
                
 21  8 15 12 46 50.0000000  0 16G 4G17R23R 8G31G 1G22G21R 7R16G32R21
                                R22G 8R 6G 3
  24434714.328   128405296.740    24434725.508   100056125.2174   24434725.594  
                
  24241612.445   127390545.813    24241620.430    99265396.9174   24241620.383  
                
  22037898.750   117887923.026                                                  
  22037897.152  
  21780126.742   116631623.803                    90713492.369    21780130.340  
  21780125.883  
  21986482.328   115539797.831    21986489.840    90031069.0444   21986490.000  
                
  20284302.961   106594784.339    20284312.914    83060922.9554   20284312.570  
                
  21078256.180   110767033.271    21078260.441    86311955.3364                 
                
  20936925.922   110024337.609    20936932.109    85733292.2814                 
                
  19565251.148   104734381.414                    81460093.717    19565255.766  
  19565249.582  
  22529833.094   120350336.602                    93605845.814    22529835.949  
  22529832.398  
  22373296.875   117572506.178    22373305.539    91614995.9504   22373306.082  
                
  22125161.203   118396218.718                    92085954.183    22125166.297  
  22125159.336  
  19697891.008   105148731.932                    81782367.879    19697893.742  
  19697889.348  
  24692042.086   129757526.796    24692054.895   101109809.1754   24692055.395  
                
  21173586.664   112986353.576                                                  
  21173584.145  
  21972905.375   115468450.155    21972914.590    89975465.9544   21972914.941  
                
 21  8 15 12 47  0.0000000  0 16G 4G17R23R 8G31G 1G22G21R 7R16G32R21
                                R22G 8R 6G 3
  24428090.453   128370487.826    24428101.520   100029001.4494   24428101.594  
                
  24238747.688   127375491.383    24238755.668    99253666.1974   24238755.617  
                
  22031409.727   117853211.135                                                  
  22031408.121  
  21775217.258   116605333.849                    90693044.643    21775220.867  
  21775216.375  
  21982371.141   115518193.455    21982378.648    90014234.4704   21982378.820  
                
  20282622.156   106585951.660    20282632.078    83054040.3494   20282631.742  
                
  21075784.445   110754044.181    21075788.723    86301833.9724                 
                
  20937621.477   110027992.777    20937627.699    85736140.4604                 
                
  19565299.914   104734642.487                    81460296.778    19565304.535  
  19565298.340  
  22526466.523   120332352.992                    93591858.568    22526469.344  
  22526465.824  
  22378451.461   117599593.737    22378460.215    91636103.1344   22378460.727  
                
  22133271.711   118439619.186                    92119710.097    22133276.688  
  22133269.809  
  19700552.695   105162940.203                    81793418.761    19700555.422  
  19700551.039  
  24698405.836   129790968.554    24698418.730   101135867.6194   24698419.215  
                
  21178790.195   113014120.587                                                  
  21178787.629  
  21968541.680   115445518.894    21968550.910    89957597.4624   21968551.246  
                
 21  8 15 12 47 10.0000000  0 16G 4G17R23R 8G31G 1G22G21R 7R16G32R21
                                R22G 8R 6G 3
  24421469.430   128335694.168    24421480.414   100001889.5444   24421480.496  
                
  24235893.047   127360490.190    24235901.012    99241976.9794   24235900.961  
                
  22024930.625   117818552.343                                                  
  22024929.023  
  21770313.523   116579074.759                    90672620.962    21770317.152  
  21770312.617  
  21978270.289   115496643.412    21978277.762    89997442.2234   21978277.961  
                
  20280952.984   106577180.125    20280962.875    83047205.3824   20280962.555  
                
  21073318.039   110741083.120    21073322.336    86291734.4574                 
                
  20938326.570   110031698.097    20938332.824    85739027.7204                 
                
  19565356.984   104734948.028                    81460534.425    19565361.613  
  19565355.410  
  22523113.398   120314441.204                    93577927.186    22523116.199  
  22523112.715  
  22383610.867   117626706.648    22383619.707    91657230.0674   22383620.191  
                
  22141388.180   118483051.701                    92153490.918    22141393.102  
  22141386.219  
  19703231.062   105177237.520                    81804538.889    19703233.816  
  19703229.395  
  24704769.359   129824409.195    24704782.312   101161925.2184   24704782.828  
                
  21183996.945   113041904.845                                                  
  21183994.367  
  21964181.922   115422608.259    21964191.152    89939745.0284   21964191.496  
                
 21  8 15 12 47 20.0000000  0 16G 4G17R23R 8G31G 1G22G21R 7R16G32R21
                                R22G 8R 6G 3
  24414851.367   128300915.686    24414862.254    99974789.4784   24414862.324  
                
  24233048.547   127345542.212    24233056.508    99230329.2254   24233056.438  
                
  22018461.461   117783946.775                                                  
  22018459.875  
  21765415.453   116552845.991                    90652220.824    21765419.070  
  21765414.543  
  21974179.766   115475147.685    21974187.230    89980692.3144   21974187.438  
                
  20279295.430   106568469.633    20279305.301    83040417.9904   20279304.984  
                
  21070856.922   110728149.900    21070861.238    86281656.6224                 
                
  20939041.180   110035453.423    20939047.457    85741953.9394                 
                
  19565422.352   104735297.964                    81460806.606    19565426.977  
  19565420.773  
  22519773.750   120296601.461                    93564051.853    22519776.531  
  22519773.082  
  22388775.070   117653844.739    22388783.961    91678376.6164   22388784.441  
                
  22149510.562   118526515.974                    92187296.431    22149515.500  
  22149508.566  
  19705926.047   105191623.537                    81815727.995    19705928.797  
  19705924.379  
  24711132.695   129857848.529    24711145.625   101187981.7914   24711146.160  
                
  21189206.852   113069706.045                                                  
  21189204.254  
  21959826.070   115399718.143    21959835.301    89921908.5814   21959835.641  
                
 21  8 15 12 47 30.0000000  0 16G 4G17R23R 8G31G 1G22G21R 7R16G32R21
                                R22G 8R 6G 3
  24408236.133   128266152.502    24408246.969    99947701.3114   24408247.027  
                
  24230214.195   127330647.510    24230222.160    99218722.9814   24230222.078  
                
  22012002.266   117749394.572                                                  
  22012000.656  
  21760523.133   116526647.833                    90631844.485    21760526.703  
  21760522.195  
  21970099.617   115453706.455    21970107.109    89963984.8784   21970107.305  
                
  20277649.508   106559820.296    20277659.363    83033678.2484   20277659.039  
                
  21068401.133   110715244.673    21068405.473    86271600.6104                 
                
  20939765.328   110039258.870    20939771.633    85744919.2184                 
                
  19565496.039   104735692.464                    81461113.444    19565500.660  
  19565494.457  
  22516447.586   120278833.802                    93550232.567    22516450.383  
  22516446.906  
  22393944.047   117681007.975    22393952.984    91699542.7634   22393953.469  
                
  22157638.867   118570011.949                    92221126.593    22157643.832  
  22157636.848  
  19708637.688   105206098.474                    81826986.270    19708640.449  
  19708636.020  
  24717495.898   129891286.620    24717508.688   101214037.4104   24717509.258  
                
  21194419.914   113097524.016                                                  
  21194417.277  
  21955474.133   115376848.629    21955483.367    89904088.1904   21955483.711  
                
 21  8 15 12 47 40.0000000  0 16G 4G17R23R 8G31G 1G22G21R 7R16G32R21
                                R22G 8R 6G 3
  24401623.828   128231404.586    24401634.590    99920625.0484   24401634.633  
                
  24227389.969   127315806.132    24227397.957    99207158.2714   24227397.859  
                
  22005553.062   117714895.837                                                  
  22005551.445  
  21755636.500   116500480.178                    90611491.870    21755640.031  
  21755635.555  
  21966029.852   115432319.756    21966037.383    89947319.9294   21966037.547  
                
  20276015.227   106551232.074    20276025.070    83026986.1274   20276024.750  
                
  21065950.664   110702367.363    21065955.016    86261566.3474                 
                
  20940498.992   110043114.312    20940505.320    85747923.4584                 
                
  19565578.023   104736131.349                    81461454.804    19565582.645  
  19565576.445  
  22513134.969   120261138.436                    93536469.523    22513137.781  
  22513134.254  
  22399117.789   117708196.169    22399126.797    91720728.3664   22399127.266  
                
  22165773.008   118613539.367                    92254981.230    22165778.039  
  22165771.016  
  19711365.914   105220661.914                    81838313.395    19711368.691  
  19711364.230  
  24723858.805   129924723.324    24723871.484   101240091.9544   24723872.082  
                
  21199636.125   113125358.760                                                  
  21199633.480  
  21951126.102   115353999.641    21951135.328    89886283.8044   21951135.676  
                
 21  8 15 12 47 50.0000000  0 16G 4G17R23R 8G31G 1G22G21R 7R16G32R21
                                R22G 8R 6G 3
  24395014.453   128196672.106    24395025.199    99893560.8354   24395025.242  
                
  24224575.906   127301018.252    24224583.898    99195635.2674   24224583.809  
                
  21999113.898   117680450.785                                                  
  21999112.277  
  21750755.547   116474343.108                    90591163.049    21750759.074  
  21750754.609  
  21961970.508   115410987.776    21961978.074    89930697.6194   21961978.199  
                
  20274392.602   106542705.154    20274402.438    83020341.7794   20274402.113  
                
  21063505.523   110689518.070    21063509.887    86251553.9184                 
                
  20941242.195   110047019.894    20941248.555    85750966.7664                 
                
  19565668.305   104736614.625                    81461830.686    19565672.941  
  19565666.723  
  22509835.883   120243515.280                    93522762.654    22509838.719  
  22509835.141  
  22404296.281   117735409.378    22404305.371    91741933.4634   22404305.805  
                
  22173912.961   118657098.133                    92288860.237    22173918.102  
  22173910.953  
  19714110.789   105235314.229                    81849709.631    19714113.559  
  19714109.078  
  24730221.414   129958158.426    24730234.008   101266145.2404   24730234.602  
                
  21204855.492   113153210.362                                                  
  21204852.859  
  21946782.008   115331171.357    21946791.211    89868495.5334   21946791.566  
                
 21  8 15 12 48  0.0000000  0 16G 4G17R23R 8G31G 1G22G21R 7R16G32R21
                                R22G 8R 6G 3
  24388408.008   128161955.121    24388418.719    99866508.6734   24388418.773  
                
  24221772.055   127286283.964    24221780.047    99184154.0164   24221779.938  
                
  21992684.797   117646059.656                                                  
  21992683.160  
  21745880.336   116448236.599                    90570857.998    21745883.855  
  21745879.402  
  21957921.602   115389710.666    21957929.180    89914118.0594   21957929.281  
                
  20272781.656   106534239.600    20272791.496    83013745.2444   20272791.160  
                
  21061065.719   110676696.859    21061070.086    86241563.3694                 
                
  20941994.945   110050975.665    20942001.332    85754049.1834                 
                
  19565766.867   104737142.281                    81462241.089    19565771.508  
  19565765.273  
  22506550.375   120225964.814                    93509112.296    22506553.191  
  22506549.641  
  22409479.539   117762647.540    22409488.715    91763157.9954   22409489.090  
                
  22182058.594   118700688.308                    92322763.666    22182064.020  
  22182056.758  
  19716872.250   105250055.077                    81861174.728    19716875.047  
  19716870.520  
  24736583.648   129991591.940    24736596.246   101292197.2804   24736596.848  
                
  21210077.930   113181078.336                                                  
  21210075.324  
  21942441.852   115308363.766    21942451.031    89850723.3984   21942451.398  
                
 21  8 15 12 48 10.0000000  0 16G 4G17R23R 8G31G 1G22G21R 7R16G32R21
                                R22G 8R 6G 3
  24381804.484   128127253.699    24381815.211    99839468.6644   24381815.277  
                
  24218978.367   127271603.179    24218986.359    99172714.4454   24218986.242  
                
  21986265.805   117611722.525                                                  
  21986264.152  
  21741010.859   116422160.771                    90550576.818    21741014.367  
  21741009.922  
  21953883.148   115368488.525    21953890.719    89897581.3304   21953890.820  
                
  20271182.398   106525835.445    20271192.242    83007196.5514   20271191.902  
                
  21058631.258   110663903.717    21058635.621    86231594.6884                 
                
  20942757.258   110054981.627    20942763.676    85757170.7064                 
                
  19565873.727   104737714.365                    81462686.043    19565878.383  
  19565872.129  
  22503278.477   120208486.965                    93495518.416    22503281.277  
  22503277.727  
  22414667.516   117789910.602    22414676.770    91784401.9324   22414677.117  
                
  22190210.195   118744309.498                    92356691.206    22190215.742  
  22190208.395  
  19719650.289   105264884.368                    81872708.617    19719653.113  
  19719648.590  
  24742945.578   130025023.959    24742958.230   101318248.1364   24742958.824  
                
  21215303.531   113208963.153                                                  
  21215300.934  
  21938105.664   115285576.958    21938114.824    89832967.4544   21938115.188  
                
 21  8 15 12 48 20.0000000  0 16G 4G17R23R 8G31G 1G22G21R 7R16G32R21
                                R22G 8R 6G 3
  24375204.000   128092567.958    24375214.672    99812440.8714   24375214.773  
                
  24216194.891   127256975.995    24216202.895    99161316.6574   24216202.781  
                
  21979856.969   117577439.698                                                  
  21979855.293  
  21736147.148   116396115.926                    90530319.742    21736150.664  
  21736146.199  
  21949855.219   115347321.634    21949862.789    89881087.6584   21949862.895  
                
  20269594.852   106517492.826    20269604.699    83000695.8074   20269604.352  
                
  21056202.164   110651138.781    21056206.523    86221647.9814                 
                
  20943529.141   110059037.895    20943535.582    85760331.4294                 
                
  19565988.844   104738330.618                    81463165.365    19565993.512  
  19565987.262  
  22500020.203   120191081.940                    93481981.207    22500022.957  
  22500019.438  
  22419860.234   117817198.530    22419869.539    91805665.2484   22419869.883  
                
  22198367.688   118787961.784                    92390642.951    22198373.254  
  22198365.844  
  19722444.953   105279802.413                    81884311.528    19722447.809  
  19722443.246  
  24749307.117   130058454.100    24749319.848   101344297.5474   24749320.434  
                
  21220532.289   113236864.851                                                  
  21220529.727  
  21933773.445   115262811.016    21933782.582    89815227.7624   21933782.949  
                
 21  8 15 12 48 30.0000000  0 16G 4G17R23R 8G31G 1G22G21R 7R16G32R21
                                R22G 8R 6G 3
  24368606.516   128057897.819    24368617.059    99785425.2244   24368617.176  
                
  24213421.609   127242402.371    24213429.625    99149960.5714   24213429.512  
                
  21973458.297   117543211.178                                                  
  21973456.602  
  21731289.148   116370101.656                    90510086.419    21731292.656  
  21731288.180  
  21945837.773   115326209.838    21945845.363    89864636.9334   21945845.477  
                
  20268018.992   106509211.652    20268028.848    82994242.9434   20268028.488  
                
  21053778.422   110638401.919    21053782.773    86211723.1614                 
                
  20944310.562   110063144.281    20944317.020    85763531.2074                 
                
  19566112.203   104738990.950                    81463678.953    19566116.871  
  19566110.641  
  22496775.586   120173749.874                    93468500.738    22496778.332  
  22496774.809  
  22425057.641   117844511.120    22425066.980    91826947.7864   22425067.324  
                
  22206530.992   118831644.809                    92424618.616    22206536.477  
  22206529.090  
  19725256.156   105294808.729                    81895983.102    19725259.031  
  19725254.449  
  24755668.297   130091882.322    24755681.102   101370345.4584   24755681.680  
                
  21225764.102   113264782.874                                                  
  21225761.566  
  21929445.172   115240065.817    21929454.289    89797504.2384   21929454.656  
                
 21  8 15 12 48 40.0000000  0 16G 4G17R23R 8G31G 1G22G21R 7R16G32R21
                                R22G 8R 6G 3
  24362012.055   128023243.342    24362022.469    99758421.7694   24362022.598  
                
  24210658.531   127227882.341    24210666.555    99138646.2764   24210666.430  
                
  21967069.812   117509037.092                                                  
  21967068.113  
  21726436.836   116344117.880                    90489876.853    21726440.387  
  21726435.902  
  21941830.836   115305153.247    21941838.453    89848229.1954   21941838.551  
                
  20266454.836   106500991.945    20266464.711    82987837.9824   20266464.348  
                
  21051360.023   110625693.165    21051364.363    86201820.2394                 
                
  20945101.531   110067300.843    20945107.992    85766770.0844                 
                
  19566243.805   104739695.407                    81464226.866    19566248.492  
  19566242.250  
  22493544.617   120156490.618                    93455076.881    22493547.367  
  22493543.859  
  22430259.727   117871848.295    22430269.109    91848249.4664   22430269.441  
                
  22214700.094   118875358.487                    92458618.139    22214705.406  
  22214698.078  
  19728083.898   105309903.352                    81907723.342    19728086.785  
  19728082.203  
  24762029.070   130125308.377    24762041.938   101396391.6844   24762042.512  
                
  21230999.000   113292717.324                                                  
  21230996.457  
  21925120.852   115217341.367    21925129.977    89779796.8744   21925130.344  
                
 21  8 15 12 48 50.0000000  0 16G 4G17R23R 8G31G 1G22G21R 7R16G32R21
                                R22G 8R 6G 3
  24355420.484   127988604.482    24355430.910    99731430.5034   24355431.023  
                
  24207905.656   127213415.952    24207913.680    99127373.7844   24207913.562  
                
  21960691.484   117474917.511                                                  
  21960689.766  
  21721590.234   116318164.691                    90469691.055    21721593.809  
  21721589.320  
  21937834.398   115284151.853    21937842.035    89831864.4854   21937842.121  
                
  20264902.367   106492833.727    20264912.262    82981480.9284   20264911.887  
                
  21048946.969   110613012.557    21048951.281    86191939.2514                 
                
  20945902.039   110071507.514    20945908.504    85770048.0134                 
                
  19566383.609   104740443.798                    81464808.936    19566388.301  
  19566382.055  
  22490327.305   120139304.357                    93441709.807    22490330.031  
  22490326.570  
  22435466.453   117899209.897    22435475.875    91869570.1864   22435476.195  
                
  22222874.898   118919102.688                    92492641.381    22222880.047  
  22222872.777  
  19730928.164   105325086.269                    81919532.280    19730931.109  
  19730926.477  
  24768389.500   130158732.378    24768402.395   101422436.3074   24768402.957  
                
  21236236.930   113320668.004                                                  
  21236234.406  
  21920800.469   115194637.633    21920809.629    89762105.6714   21920809.977  
                
 21  8 15 12 49  0.0000000  0 16G 4G17R23R 8G31G 1G22G21R 7R16G32R21
                                R22G 8R 6G 3
  24348831.938   127953981.444    24348842.344    99704451.5484   24348842.414  
                
  24205163.039   127199003.384    24205171.055    99116143.2504   24205170.953  
                
  21954323.438   117440852.812                                                  
  21954321.699  
  21716749.438   116292242.498                    90449529.378    21716753.047  
  21716748.527  
  21933848.516   115263205.857    21933856.164    89815542.9444   21933856.238  
                
  20263361.641   106484737.163    20263371.566    82975171.9204   20263371.164  
                
  21046539.312   110600360.208    21046543.594    86182080.2834                 
                
  20946712.094   110075764.385    20946718.566    85773365.0524                 
                
  19566531.672   104741236.376                    81465425.397    19566536.375  
  19566530.141  
  22487123.703   120122191.403                    93428399.752    22487126.375  
  22487122.965  
  22440677.844   117926595.987    22440687.320    91890909.9904   22440687.617  
                
  22231055.234   118962877.164                    92526688.168    22231060.375  
  22231053.117  
  19733788.961   105340357.331                    81931409.767    19733791.879  
  19733787.297  
  24774749.492   130192154.290    24774762.473   101448479.3054   24774763.004  
                
  21241477.969   113348635.102                                                  
  21241475.445  
  21916484.062   115171954.804    21916493.254    89744430.7504   21916493.590  
                
 21  8 15 12 49 10.0000000  0 16G 4G17R23R 8G31G 1G22G21R 7R16G32R21
                                R22G 8R 6G 3
  24342246.344   127919374.214    24342256.750    99677484.8974   24342256.773  
                
  24202430.641   127184644.508    24202438.633    99104954.5264   24202438.527  
                
  21947965.625   117406842.955                                                  
  21947963.918  
  21711914.344   116266350.865                    90429391.453    21711917.969  
  21711913.398  
  21929873.188   115242315.376    21929880.879    89799264.6494   21929880.922  
                
  20261832.641   106476702.238    20261842.594    82968910.9444   20261842.168  
                
  21044137.008   110587736.054    21044141.266    86172243.2794                 
                
  20947531.695   110080071.388    20947538.172    85776721.1544                 
                
  19566687.938   104742072.876                    81466076.016    19566692.641  
  19566686.430  
  22483933.812   120105151.588                    93415146.564    22483936.414  
  22483933.074  
  22445893.875   117954006.429    22445903.383    91912268.7694   22445903.668  
                
  22239241.250   119006681.870                    92560758.463    22239246.379  
  22239239.113  
  19736666.266   105355716.493                    81943355.774    19736669.164  
  19736664.613  
  24781109.070   130225573.798    24781122.074   101474520.4264   24781122.609  
                
  21246722.008   113376618.339                                                  
  21246719.484  
  21912171.633   115149292.831    21912180.848    89726772.0734   21912181.172  
                
 21  8 15 12 49 20.0000000  0 16G 4G17R23R 8G31G 1G22G21R 7R16G32R21
                                R22G 8R 6G 3
  24335663.805   127884783.018    24335674.176    99650530.7374   24335674.176  
                
  24199708.508   127170339.667    24199716.461    99093807.9064   24199716.383  
                
  21941618.141   117372888.401                                                  
  21941616.453  
  21707084.992   116240490.019                    90409277.463    21707088.633  
  21707084.059  
  21925908.461   115221480.607    21925916.195    89783029.7794   21925916.199  
                
  20260315.414   106468729.184    20260325.398    82962698.1724   20260324.949  
                
  21041740.117   110575140.307    21041744.363    86162428.4164                 
                
  20948360.891   110084428.785    20948367.371    85780116.5284                 
                
  19566852.469   104742953.603                    81466761.021    19566857.180  
  19566850.980  
  22480757.688   120088185.443                    93401950.707    22480760.277  
  22480756.945  
  22451114.562   117981441.321    22451124.070    91933646.6004   22451124.348  
                
  22247432.781   119050516.701                    92594852.191    22247437.996  
  22247430.738  
  19739560.094   105371163.904                    81955370.422    19739562.988  
  19739558.449  
  24787468.195   130258990.988    24787481.207   101500559.7434   24787481.742  
                
  21251969.141   113404618.053                                                  
  21251966.629  
  21907863.203   115126651.895    21907872.449    89709129.8014   21907872.766  
                
 21  8 15 12 49 30.0000000  0 16G 4G17R23R 8G31G 1G22G21R 7R16G32R21
                                R22G 8R 6G 3
  24329084.344   127850207.844    24329094.660    99623589.1034   24329094.691  
                
  24196996.641   127156088.741    24197004.551    99082703.3094   24197004.469  
                
  21935281.008   117338989.118                                                  
  21935279.316  
  21702261.375   116214659.929                    90389187.427    21702265.039  
  21702260.422  
  21921954.352   115200701.678    21921962.102    89766838.4144   21921962.109  
                
  20258809.953   106460817.962    20258819.977    82956533.5884   20258819.504  
                
  21039348.602   110562572.883    21039352.844    86152635.6234                 
                
  20949199.641   110088836.435    20949206.121    85783551.0594                 
                
  19567025.227   104743878.347                    81467480.283    19567029.938  
  19567023.754  
  22477595.367   120071292.951                    93388812.125    22477597.938  
  22477594.578  
  22456339.867   118008900.527    22456349.379    91955043.3804   22456349.648  
                
  22255629.930   119094381.523                    92628969.239    22255635.227  
  22255627.973  
  19742470.445   105386699.499                    81967453.662    19742473.332  
  19742468.824  
  24793826.789   130292405.483    24793839.766   101526596.9754   24793840.301  
                
  21257219.320   113432634.058                                                  
  21257216.832  
  21903558.766   115104031.991    21903568.066    89691503.9084   21903568.344  
                
 21  8 15 12 49 40.0000000  0 16G 4G17R23R 8G31G 1G22G21R 7R16G32R21
                                R22G 8R 6G 3
  24322507.922   127815648.652    24322518.258    99596659.8944   24322518.258  
                
  24194295.023   127141891.687    24194302.895    99071640.6554   24194302.797  
                
  21928954.242   117305145.234                                                  
  21928952.539  
  21697443.477   116188860.411                    90369121.169    21697447.184  
  21697442.520  
  21918010.852   115179978.476    21918018.590    89750690.4814   21918018.605  
                
  20257316.258   106452968.533    20257326.309    82950417.1494   20257325.812  
                
  21036962.469   110550033.663    21036966.703    86142864.8094                 
                
  20950047.945   110093294.259    20950054.410    85787024.6894                 
                
  19567206.180   104744846.930                    81468233.616    19567210.891  
  19567204.730  
  22474446.828   120054474.020                    93375730.724    22474449.363  
  22474446.082  
  22461569.781   118036383.849    22461579.266    91976458.9494   22461579.551  
                
  22263832.820   119138276.054                    92663109.405    22263837.996  
  22263830.781  
  19745397.242   105402322.858                    81979605.145    19745400.156  
  19745395.625  
  24800184.859   130325817.334    24800197.816   101552632.1434   24800198.383  
                
  21262472.469   113460665.855                                                  
  21262470.012  
  21899258.320   115081433.002    21899267.676    89673894.3274   21899267.938  
                
 21  8 15 12 49 50.0000000  0 16G 4G17R23R 8G31G 1G22G21R 7R16G32R21
                                R22G 8R 6G 3
  24315934.516   127781105.422    24315944.895    99569743.1464   24315944.875  
                
  24191603.633   127127748.529    24191611.512    99060620.0224   24191611.402  
                
  21922637.852   117271356.813                                                  
  21922636.125  
  21692631.312   116163091.695                    90349078.859    21692635.039  
  21692630.305  
  21914077.984   115159311.157    21914085.699    89734586.0854   21914085.723  
                
  20255834.312   106445180.873    20255844.395    82944348.8534   20255843.891  
                
  21034581.703   110537522.696    21034585.934    86133116.0054                 
                
  20950905.789   110097802.237    20950912.242    85790537.3954                 
                
  19567395.289   104745859.250                    81469020.986    19567399.992  
  19567393.836  
  22471312.086   120037728.751                    93362706.625    22471314.621  
  22471311.312  
  22466804.250   118063891.157    22466813.707    91997893.2154   22466814.016  
                
  22272041.203   119182200.050                    92697272.492    22272046.250  
  22272039.066  
  19748340.484   105418033.989                    81991824.907    19748343.395  
  19748338.875  
  24806542.500   130359226.452    24806555.371   101578665.1864   24806555.969  
                
  21267728.641   113488713.789                                                  
  21267726.195  
  21894961.844   115058854.930    21894971.227    89656301.0354   21894971.469  
                
 21  8 15 12 50  0.0000000  0 16G 4G17R23R 8G31G 1G22G21R 7R16G32R21
                                R22G 8R 6G 3
  24309364.188   127746578.356    24309374.582    99542838.9634   24309374.562  
                
  24188922.555   127113659.529    24188930.438    99049641.5614   24188930.328  
                
  21916331.859   117237624.076                                                  
  21916330.141  
  21687824.906   116137353.770                    90329060.484    21687828.637  
  21687823.883  
  21910155.773   115138699.863    21910163.453    89718525.3394   21910163.508  
                
  20254364.156   106437455.215    20254374.266    82938328.8564   20254373.750  
                
  21032206.383   110525040.328    21032210.617    86123389.4934                 
                
  20951773.203   110102360.477    20951779.652    85794089.2704                 
                
  19567592.602   104746915.490                    81469842.504    19567597.305  
  19567591.160  
  22468191.125   120021057.216                    93349739.921    22468193.688  
  22468190.367  
  22472043.312   118091422.539    22472052.730    92019346.2334   22472053.043  
                
  22280254.977   119226153.639                    92731458.578    22280260.035  
  22280252.836  
  19751300.180   105433833.032                    82004113.054    19751303.121  
  19751298.586  
  24812899.547   130392632.696    24812912.414   101604695.9744   24812913.051  
                
  21272987.797   113516777.563                                                  
  21272985.359  
  21890669.383   115036297.954    21890678.777    89638724.1774   21890679.027  
                
 21  8 15 12 50 10.0000000  0 16G 4G17R23R 8G31G 1G22G21R 7R16G32R21
                                R22G 8R 6G 3
  24302796.945   127712067.334    24302807.328    99515947.2914   24302807.277  
                
  24186251.766   127099624.466    24186259.668    99038705.1744   24186259.562  
                
  21910036.312   117203947.124                                                  
  21910034.586  
  21683024.242   116111646.398                    90309065.861    21683027.934  
  21683023.230  
  21906244.203   115118144.489    21906251.867    89702508.1784   21906251.934  
                
  20252905.773   106429791.373    20252915.902    82932357.0354   20252915.371  
                
  21029836.430   110512586.151    21029840.668    86113684.9374                 
                
  20952650.156   110106968.849    20952656.598    85797680.2064                 
                
  19567798.070   104748015.318                    81470697.937    19567802.773  
  19567796.621  
  22465084.008   120004459.608                    93336830.684    22465086.566  
  22465083.215  
  22477286.891   118118977.713    22477296.266    92040817.7924   22477296.605  
                
  22288474.148   119270136.359                    92765667.327    22288479.289  
  22288472.027  
  19754276.297   105449719.700                    82016469.341    19754279.285  
  19754274.695  
  24819255.984   130426036.109    24819268.953   101630724.5504   24819269.605  
                
  21278249.969   113544857.463                                                  
  21278247.566  
  21886380.914   115013761.884    21886390.316    89621163.6184   21886390.555  
                
 21  8 15 12 50 20.0000000  0 16G 4G17R23R 8G31G 1G22G21R 7R16G32R21
                                R22G 8R 6G 3
  24296232.766   127677572.699    24296243.195    99489068.3924   24296243.137  
                
  24183591.297   127085643.693    24183599.203    99027811.0624   24183599.113  
                
  21903751.258   117170326.316                                                  
  21903749.539  
  21678229.375   116085970.066                    90289095.396    21678233.043  
  21678228.383  
  21902343.359   115097645.489    21902351.031    89686534.9434   21902351.094  
                
  20251459.227   106422189.735    20251469.379    82926433.6834   20251468.844  
                
  21027471.898   110500160.497    21027476.156    86104002.6234                 
                
  20953536.695   110111627.630    20953543.129    85801310.4244                 
                
  19568011.734   104749159.094                    81471587.549    19568016.426  
  19568010.289  
  22461990.773   119987936.263                    93323979.205    22461993.367  
  22461989.953  
  22482535.047   118146556.920    22482544.422    92062308.0744   22482544.758  
                
  22296698.828   119314148.424                    92799898.898    22296703.992  
  22296696.695  
  19757268.875   105465694.252                    82028893.979    19757271.855  
  19757267.266  
  24825611.852   130459436.458    24825624.895   101656750.7334   24825625.535  
                
  21283515.078   113572953.103                                                  
  21283512.703  
  21882096.492   114991247.097    21882105.898    89603619.6344   21882106.145  
                
 21  8 15 12 50 30.0000000  0 16G 4G17R23R 8G31G 1G22G21R 7R16G32R21
                                R22G 8R 6G 3
  24289671.734   127643094.301    24289682.180    99462202.1554   24289682.098  
                
  24180941.141   127071717.049    24180949.082    99016959.1444   24180948.988  
                
  21897476.680   117136761.638                                                  
  21897474.996  
  21673440.227   116060324.419                    90269148.800    21673443.906  
  21673439.258  
  21898453.227   115077202.755    21898460.906    89670605.5624   21898460.965  
                
  20250024.484   106414650.101    20250034.652    82920558.6444   20250034.109  
                
  21025112.797   110487763.401    21025117.062    86094342.5514                 
                
  20954432.789   110116336.599    20954439.215    85804979.7494                 
                
  19568233.539   104750346.475                    81472511.063    19568238.242  
  19568232.078  
  22458911.422   119971487.038                    93311185.397    22458914.031  
  22458910.547  
  22487787.727   118174159.840    22487797.121    92083816.8444   22487797.434  
                
  22304929.000   119358189.507                    92834153.042    22304934.090  
  22304926.820  
  19760277.852   105481756.333                    82041386.707    19760280.781  
  19760276.254  
  24831967.109   130492833.711    24831980.230   101682774.5044   24831980.852  
                
  21288783.141   113601064.410                                                  
  21288780.742  
  21877816.070   114968753.358    21877825.500    89586092.0514   21877825.730  
                
 21  8 15 12 50 40.0000000  0 16G 4G17R23R 8G31G 1G22G21R 7R16G32R21
                                R22G 8R 6G 3
  24283113.852   127608632.193    24283124.258    99435348.6024   24283124.195  
                
  24178301.305   127057844.607    24178309.297    99006149.4784   24178309.168  
                
  21891212.641   117103253.272                                                  
  21891210.965  
  21668656.812   116034709.403                    90249226.049    21668660.504  
  21668655.840  
  21894573.867   115056816.562    21894581.512    89654720.2314   21894581.590  
                
  20248601.555   106407172.552    20248611.734    82914731.9904   20248611.184  
                
  21022759.086   110475394.583    21022763.363    86084704.5204                 
                
  20955338.438   110121095.768    20955344.848    85808688.1934                 
                
  19568463.484   104751577.376                    81473468.437    19568468.191  
  19568462.012  
  22455845.953   119955112.017                    93298449.329    22455848.574  
  22455845.027  
  22493044.906   118201786.473    22493054.316    92105344.0724   22493054.617  
                
  22313164.570   119402259.311                    92868429.540    22313169.566  
  22313162.348  
  19763303.211   105497905.828                    82053947.426    19763306.164  
  19763301.621  
  24838321.797   130526227.731    24838334.945   101708795.7814   24838335.559  
                
  21294054.195   113629191.580                                                  
  21294051.789  
  21873539.680   114946280.754    21873549.113    89568580.9294   21873549.336  
                
 21  8 15 12 50 50.0000000  0 16G 4G17R23R 8G31G 1G22G21R 7R16G32R21
                                R22G 8R 6G 3
  24276559.016   127574186.417    24276569.414    99408507.7634   24276569.367  
                
  24175671.789   127044026.400    24175679.754    98995382.0384   24175679.617  
                
  21884959.148   117069801.329                                                  
  21884957.512  
  21663879.156   116009125.305                    90229327.309    21663882.871  
  21663878.199  
  21890705.219   115036486.712    21890712.820    89638878.7844   21890712.926  
                
  20247190.438   106399757.131    20247200.617    82908953.7414   20247200.082  
                
  21020410.781   110463054.183    21020415.070    86075088.6224                 
                
  20956253.648   110125905.210    20956260.035    85812435.8084                 
                
  19568701.547   104752851.798                    81474459.663    19568706.258  
  19568700.055  
  22452794.469   119938811.613                    93285771.216    22452797.074  
  22452793.527  
  22498306.562   118229436.665    22498315.996    92126889.6664   22498316.273  
                
  22321405.461   119446357.813                    92902728.349    22321410.434  
  22321403.262  
  19766344.961   105514142.933                    82066576.280    19766347.922  
  19766343.371  
  24844675.805   130559618.289    24844688.969   101734814.3464   24844689.594  
                
  21299328.125   113657334.332                                                  
  21299325.754  
  21869267.289   114923829.250    21869276.699    89551086.2634   21869276.922  
                
 21  8 15 12 51  0.0000000  0 16G 4G17R23R 8G31G 1G22G21R 7R16G32R21
                                R22G 8R 6G 3
  24270007.273   127539757.197    24270017.762    99381679.8604   24270017.738  
                
  24173052.625   127030262.668    24173060.535    98984657.0714   24173060.422  
                
  21878716.242   117036406.073                                                  
  21878714.645  
  21659107.273   115983572.086                    90209452.594    21659110.996  
  21659106.316  
  21886847.344   115016213.463    21886854.898    89623081.4604   21886855.023  
                
  20245791.188   106392404.025    20245801.367    82903224.0534   20245800.844  
                
  21018067.914   110450742.357    21018072.227    86065495.0054                 
                
  20957178.453   110130765.067    20957184.812    85816222.7114                 
                
  19568947.789   104754169.998                    81475484.928    19568952.500  
  19568946.281  
  22449756.906   119922585.568                    93273150.960    22449759.480  
  22449755.965  
  22503572.711   118257110.547    22503582.164    92148453.7224   22503582.414  
                
  22329651.664   119490484.964                    92937049.442    22329656.664  
  22329649.496  
  19769403.078   105530467.331                    82079273.024    19769406.012  
  19769401.477  
  24851029.234   130593005.427    24851042.379   101760830.2554   24851043.008  
                
  21304605.070   113685493.031                                                  
  21304602.691  
  21864998.961   114901399.065    21865008.336    89533608.2044   21865008.582  
                
 21  8 15 12 51 10.0000000  0 16G 4G17R23R 8G31G 1G22G21R 7R16G32R21
                                R22G 8R 6G 3
  24263458.680   127505344.376    24263469.203    99354864.7174   24263469.180  
                
  24170443.797   127016553.210    24170451.711    98973974.3854   24170451.582  
                
  21872483.984   117003067.637                                                  
  21872482.426  
  21654341.156   115958049.747                    90189601.909    21654344.891  
  21654340.219  
  21883000.242   114995996.791    21883007.746    89607328.2144   21883007.883  
                
  20244403.773   106385113.105    20244413.953    82897542.8144   20244413.441  
                
  21015730.453   110438458.939    21015734.793    86055923.5154                 
                
  20958112.820   110135675.117    20958119.156    85820048.7204                 
                
  19569202.125   104755531.492                    81476543.872    19569206.836  
  19569200.617  
  22446733.344   119906434.193                    93260588.774    22446735.879  
  22446732.434  
  22508843.336   118284807.835    22508852.758    92170036.0104   22508853.027  
                
  22337903.227   119534640.435                    92971392.564    22337908.188  
  22337901.035  
  19772477.547   105546879.097                    82092037.723    19772480.484  
  19772475.902  
  24857382.023   130626388.924    24857395.113   101786843.3294   24857395.742  
                
  21309884.891   113713667.119                                                  
  21309882.516  
  21860734.664   114878990.051    21860744.039    89516146.6444   21860744.277  
                
 21  8 15 12 51 20.0000000  0 16G 4G17R23R 8G31G 1G22G21R 7R16G32R21
                                R22G 8R 6G 3
  24256913.250   127470948.073    24256923.758    99328062.4224   24256923.754  
                
  24167845.305   127002898.115    24167853.223    98963334.0594   24167853.113  
                
  21866262.367   116969786.135                                                  
  21866260.828  
  21649580.742   115932558.050                    90169775.067    21649584.488  
  21649579.840  
  21879163.938   114975836.849    21879171.391    89591619.1734   21879171.543  
                
  20243028.203   106377884.466    20243038.379    82891910.1104   20243037.887  
                
  21013398.422   110426204.046    21013402.777    86046374.2554                 
                
  20959056.750   110140635.482    20959063.055    85823913.9374                 
                
  19569464.586   104756936.514                    81477636.663    19569469.293  
  19569463.059  
  22443723.758   119890357.516                    93248084.688    22443726.230  
  22443722.844  
  22514118.406   118312528.502    22514127.805    92191636.5224   22514128.102  
                
  22346160.031   119578824.213                    93005757.691    22346165.012  
  22346157.883  
  19775568.352   105563378.059                    82104870.232    19775571.234  
  19775566.684  
  24863734.156   130659768.762    24863747.160   101812853.5294   24863747.809  
                
  21315167.609   113741856.658                                                  
  21315165.203  
  21856474.406   114856602.252    21856483.785    89498701.6174   21856484.008  
                
 21  8 15 12 51 30.0000000  0 16G 4G17R23R 8G31G 1G22G21R 7R16G32R21
                                R22G 8R 6G 3
  24250370.992   127436568.490    24250381.504    99301273.1764   24250381.465  
                
  24165257.195   126989297.568    24165265.121    98952736.2304   24165265.047  
                
  21860051.406   116936561.715                                                  
  21860049.902  
  21644826.109   115907097.327                    90149972.317    21644829.852  
  21644825.230  
  21875338.477   114955733.971    21875345.859    89575954.5964   21875346.031  
                
  20241664.523   106370718.292    20241674.699    82886326.0824   20241674.211  
                
  21011071.859   110413977.918    21011076.219    86036847.4124                 
                
  20960010.273   110145646.259    20960016.559    85827818.4414                 
                
  19569735.188   104758385.102                    81478763.329    19569739.879  
  19569733.664  
  22440728.188   119874355.806                    93235638.957    22440730.625  
  22440727.246  
  22519397.930   118340272.598    22519407.316    92213255.2844   22519407.625  
                
  22354422.031   119623036.146                    93040144.714    22354427.090  
  22354419.992  
  19778675.516   105579964.231                    82117770.594    19778678.375  
  19778673.840  
  24870085.453   130693144.902    24870098.492   101838860.8524   24870099.160  
                
  21320453.195   113770061.604                                                  
  21320450.820  
  21852218.211   114834235.853    21852227.609    89481273.2634   21852227.809  
                
 21  8 15 12 51 40.0000000  0 15G 4G17R23R 8G31G 1G22G21R 7R16G32R21
                                R22R 6G 3
  24243832.141   127402206.636    24243842.594    99274497.7414   24243842.570  
                
  24162679.664   126975752.593    24162687.594    98942181.7144   24162687.527  
                
  21853851.352   116903395.666                                                  
  21853849.887  
  21640077.461   115881668.530                    90130194.355    21640081.176  
  21640076.598  
  21871524.078   114935689.205    21871531.395    89560335.2974   21871531.590  
                
  20240312.930   106363615.591    20240323.109    82880791.5094   20240322.625  
                
  21008750.953   110401781.490    21008755.309    86027343.7024                 
                
  20960973.586   110150708.451    20960979.844    85831762.9994                 
                
  19570014.094   104759878.126                    81479924.577    19570018.781  
  19570012.562  
  22437746.859   119858430.156                    93223252.370    22437749.285  
  22437745.902  
  22524682.086   118368041.052    22524691.461    92234893.0234   22524691.770  
                
  22362689.570   119667277.183                    93074554.372    22362694.637  
  22362687.535  
  19781799.219   105596638.773                    82130739.668    19781802.086  
  19781797.551  
  21325741.875   113798283.044                                                  
  21325739.512  
  21847966.281   114811891.858    21847975.715    89463862.3724   21847975.902  
                
 21  8 15 12 51 50.0000000  0 15G 4G17R23R 8G31G 1G22G21R 7R16G32R21
                                R22R 6G 3
  24237296.352   127367860.782    24237306.723    99247734.7674   24237306.711  
                
  24160112.391   126962261.448    24160120.316    98931669.1324   24160120.234  
                
  21847661.938   116870286.394                                                  
  21847660.453  
  21635334.461   115856269.973                    90110439.939    21635338.129  
  21635333.598  
  21867720.375   114915700.669    21867727.660    89544759.8304   21867727.859  
                
  20238973.078   106356574.652    20238983.270    82875305.0694   20238982.777  
                
  21006435.359   110389613.003    21006439.715    86017861.7694                 
                
  20961946.312   110155820.180    20961952.531    85835746.1654                 
                
  19570300.961   104761413.755                    81481118.960    19570305.648  
  19570299.449  
  22434779.430   119842578.867                    93210923.620    22434781.898  
  22434778.473  
  22529970.531   118395831.971    22529979.879    92256548.2814   22529980.184  
                
  22370962.227   119711545.294                    93108985.107    22370967.203  
  22370960.156  
  19784939.086   105613399.580                    82143775.854    19784941.938  
  19784937.414  
  21331033.344   113826519.281                                                  
  21331030.980  
  21843718.289   114789568.521    21843727.719    89446467.5704   21843727.891  
                
 21  8 15 12 52  0.0000000  0 15G 4G17R23R 8G31G 1G22G21R 7R16G32R21
                                R22R 6G 3
  24230763.695   127333531.402    24230774.055    99220984.6274   24230774.031  
                
  24157555.430   126948824.524    24157563.367    98921198.8124   24157563.285  
                
  21841483.211   116837234.266                                                  
  21841481.699  
  21630597.125   115830901.795                    90090709.145    21630600.746  
  21630596.223  
  21863927.492   114895768.969    21863934.770    89529228.6464   21863934.961  
                
  20237645.062   106349595.892    20237655.266    82869867.0744   20237654.781  
                
  21004125.156   110377472.824    21004129.508    86008401.8924                 
                
  20962928.562   110160981.915    20962934.730    85839768.2984                 
                
  19570595.859   104762992.379                    81482346.783    19570600.535  
  19570594.340  
  22431826.031   119826802.468                    93198653.082    22431828.574  
  22431825.090  
  22535263.312   118423645.693    22535272.637    92278221.3144   22535272.949  
                
  22379240.023   119755840.714                    93143437.090    22379244.883  
  22379237.891  
  19788095.156   105630247.004                    82156879.395    19788098.004  
  19788093.469  
  21336327.555   113854770.300                                                  
  21336325.176  
  21839474.297   114767266.262    21839483.695    89429089.1984   21839483.902  
                
 21  8 15 12 52 10.0000000  0 15G 4G17R23R 8G31G 1G22G21R 7R16G32R21
                                R22R 6G 3
  24224234.070   127299218.653    24224244.566    99194247.4724   24224244.504  
                
  24155008.867   126935442.212    24155016.797    98910771.0504   24155016.734  
                
  21835315.219   116804239.745                                                  
  21835313.688  
  21625865.555   115805564.520                    90071002.366    21625869.121  
  21625864.621  
  21860145.469   114875894.393    21860152.711    89513741.9724   21860152.918  
                
  20236328.922   106342679.539    20236339.141    82864477.7104   20236338.652  
                
  21001820.383   110365361.161    21001824.734    85998964.2444                 
                
  20963920.367   110166193.866    20963926.480    85843829.5574                 
                
  19570898.789   104764613.978                    81483608.030    19570903.457  
  19570897.258  
  22428886.719   119811101.310                    93186441.094    22428889.320  
  22428885.762  
  22540560.453   118451482.310    22540569.746    92299912.1824   22540570.074  
                
  22387522.898   119800163.468                    93177910.321    22387527.711  
  22387520.711  
  19791267.492   105647181.207                    82170050.429    19791270.367  
  19791265.789  
  21341624.656   113883036.576                                                  
  21341622.266  
  21835234.352   114744985.256    21835243.762    89411727.3844   21835243.949  
                
 21  8 15 12 52 20.0000000  0 15G 4G17R23R 8G31G 1G22G21R 7R16G32R21
                                R22R 6G 3
  24217707.773   127264922.907    24217718.266    99167523.5624   24217718.152  
                
  24152472.734   126922114.688    24152480.668    98900385.9784   24152480.586  
                
  21829158.086   116771303.236                                                  
  21829156.543  
  21621139.750   115780258.221                    90051319.735    21621143.305  
  21621138.809  
  21856374.406   114856077.339    21856381.590    89498300.1184   21856381.820  
                
  20235024.719   106335825.891    20235034.941    82859137.2104   20235034.445  
                
  20999521.102   110353278.383    20999525.461    85989549.0894                 
                
  20964921.781   110171456.297    20964927.844    85847930.1504                 
                
  19571209.836   104766279.030                    81484903.073    19571214.512  
  19571208.285  
  22425961.562   119795475.642                    93174287.802    22425964.230  
  22425960.598  
  22545862.000   118479342.020    22545871.262    92321621.0444   22545871.617  
                
  22395810.758   119844513.824                    93212405.004    22395815.723  
  22395808.672  
  19794456.133   105664202.368                    82183289.103    19794459.039  
  19794454.422  
  21346924.602   113911318.039                                                  
  21346922.191  
  21830998.523   114722725.843    21831007.945    89394382.3964   21831008.133  
                
 21  8 15 12 52 30.0000000  0 16G 4G17R23R 8G31G 1G22G21R 7R16G32R21
                                R22R 6G 3R 9
  24211184.773   127230644.244    24211195.199    99140812.9344   24211195.047  
                
  24149947.031   126908841.983    24149954.977    98890043.6124   24149954.875  
                
  21823011.828   116738424.898                                                  
  21823010.273  
  21616419.742   115754983.018                    90031661.247    21616423.270  
  21616418.820  
  21852614.281   114836317.790    21852621.453    89482903.0804   21852621.695  
                
  20233732.461   106329035.027    20233742.680    82853845.6264   20233742.180  
                
  20997227.328   110341224.528    20997231.684    85980156.4774                 
                
  20965932.805   110176769.213    20965938.824    85852070.0804                 
                
  19571528.977   104767987.435                    81486231.828    19571533.648  
  19571527.422  
  22423050.539   119779925.540                    93162193.284    22423053.199  
  22423049.602  
  22551167.930   118507224.758    22551177.195    92343347.8394   22551177.531  
                
  22404103.727   119888891.563                    93246920.983    22404108.816  
  22404101.715  
  19797661.031   105681310.348                    82196595.313    19797663.969  
  19797659.328  
  21352227.438   113939614.914                                                  
  21352224.992  
  21826766.797   114700488.019    21826776.211    89377054.2294   21826776.410  
                
  23626300.367   126163117.267                    98126887.361    23626304.926  
  23626299.711  
 21  8 15 12 52 40.0000000  0 16G 4G17R23R 8G31G 1G22G21R 7R16G32R21
                                R22R 6G 3R 9
  24204664.938   127196382.548    24204675.367    99114115.5344   24204675.203  
                
  24147431.742   126895623.975    24147439.727    98879743.8864   24147439.555  
                
  21816876.422   116705604.633                                                  
  21816874.871  
  21611705.523   115729738.653                    90012026.752    21611709.020  
  21611704.602  
  21848865.086   114816615.738    21848872.270    89467550.8404   21848872.488  
                
  20232452.117   106322306.826    20232462.328    82848602.8714   20232461.828  
                
  20994939.023   110329199.430    20994943.375    85970786.2744                 
                
  20966953.383   110182132.438    20966959.383    85856249.2194                 
                
  19571856.156   104769738.864                    81487594.053    19571860.812  
  19571854.609  
  22420153.695   119764451.179                    93150157.651    22420156.367  
  22420152.785  
  22556478.188   118535130.278    22556487.457    92365092.3964   22556487.793  
                
  22412401.781   119933296.355                    93281457.998    22412406.949  
  22412399.828  
  19800882.172   105698504.983                    82209968.907    19800885.145  
  19800880.469  
  21357533.102   113967926.873                                                  
  21357530.633  
  21822539.164   114678271.687    21822548.582    89359742.8124   21822548.777  
                
  23619416.930   126126371.408                                                  
  23619415.121  
 21  8 15 12 52 50.0000000  0 16G 4G17R23R 8G31G 1G22G21R 7R16G32R21
                                R22R 6G 3R 9
  24198148.312   127162138.010    24198158.781    99087431.5084   24198158.625  
                
  24144926.906   126882460.901    24144934.875    98869486.9384   24144934.684  
                
  21810751.953   116672842.782                                                  
  21810750.410  
  21606997.125   115704525.392                    89992416.454    21607000.605  
  21606996.164  
  21845126.898   114796971.447    21845134.078    89452243.6084   21845134.293  
                
  20231183.750   106315641.501    20231193.949    82843409.1094   20231193.453  
                
  20992656.234   110317203.291    20992660.570    85961438.6334                 
                
  20967983.594   110187546.205    20967989.578    85860467.7404                 
                
  19572191.422   104771533.547                    81488989.926    19572196.066  
  19572189.883  
  22417271.047   119749052.536                    93138180.973    22417273.715  
  22417270.125  
  22561792.820   118563058.719    22561802.090    92386854.8044   22561802.426  
                
  22420704.977   119977728.146                    93316016.033    22420710.125  
  22420703.035  
  19804119.578   105715786.361                    82223409.969    19804122.543  
  19804117.867  
  21362841.602   113996253.879                                                  
  21362839.156  
  21818315.648   114656077.033    21818325.074    89342448.2804   21818325.250  
                
  23612535.180   126089627.013                    98069706.677    23612540.094  
  23612533.969  
 21  8 15 12 53  0.0000000  0 16G 4G17R23R 8G31G 1G22G21R 7R16G32R21
                                R22R 6G 3R 9
  24191634.953   127127910.335    24191645.410    99060760.6534   24191645.270  
                
  24142432.445   126869352.443    24142440.379    98859272.5474   24142440.215  
                
  21804638.367   116640139.273                                                  
  21804636.828  
  21602294.469   115679342.979                    89972830.173    21602297.953  
  21602293.477  
  21841399.641   114777384.613    21841406.816    89436981.1534   21841407.039  
                
  20229927.281   106309038.732    20229937.473    82838264.0974   20229936.988  
                
  20990378.875   110305235.716    20990383.191    85952113.2564                 
                
  20969023.328   110193010.080    20969029.289    85864725.3024                 
                
  19572534.664   104773370.950                    81490419.013    19572539.309  
  19572533.141  
  22414402.547   119733729.675                    93126263.202    22414405.227  
  22414401.645  
  22567111.703   118591009.596    22567120.957    92408634.7034   22567121.301  
                
  22429013.148   120022186.467                    93350594.691    22429018.273  
  22429011.219  
  19807373.141   105733154.046                    82236918.147    19807376.129  
  19807371.418  
  21368152.852   114024595.716                                                  
  21368150.438  
  21814096.203   114633903.714    21814105.637    89325170.3834   21814105.805  
                
  23605657.047   126052898.740                    98041140.272    23605662.094  
  23605655.988  
 21  8 15 12 53 10.0000000  0 16G 4G17R23R 8G31G 1G22G21R 7R16G32R21
                                R22R 6G 3R 9
  24185124.898   127093699.697    24185135.246    99034103.0314   24185135.145  
                
  24139948.422   126856298.831    24139956.309    98849100.9124   24139956.156  
                
  21798535.719   116607494.193                                                  
  21798534.160  
  21597597.531   115654191.238                    89953267.740    21597601.039  
  21597596.516  
  21837683.359   114757855.469    21837690.555    89421763.6374   21837690.766  
                
  20228682.750   106302498.660    20228692.941    82833167.9384   20228692.453  
                
  20988106.984   110293296.853    20988111.277    85942810.2454                 
                
  20970072.648   110198524.235    20970078.598    85869022.0484                 
                
  19572885.930   104775251.286                    81491881.496    19572890.574  
  19572884.434  
  22411548.250   119718482.670                    93114404.454    22411550.953  
  22411547.336  
  22572434.883   118618982.958    22572444.105    92430432.1134   22572444.453  
                
  22437326.258   120066671.353                    93385194.026    22437331.348  
  22437324.352  
  19810642.859   105750607.944                    82250493.400    19810645.883  
  19810641.156  
  21373466.891   114052952.311                                                  
  21373464.492  
  21809880.844   114611751.885    21809890.301    89307909.2304   21809890.457  
                
  23598782.117   126016186.896                    98012586.647    23598787.074  
  23598780.977  
 21  8 15 12 53 20.0000000  0 16G 4G17R23R 8G31G 1G22G21R 7R16G32R21
                                R22R 6G 3R 9
  24178618.039   127059506.159    24178628.398    99007458.7634   24178628.297  
                
  24137474.828   126843300.030    24137482.699    98838971.9794   24137482.527  
                
  21792444.031   116574907.864                                                  
  21792442.492  
  21592906.383   115629070.512                    89933729.389    21592909.891  
  21592905.324  
  21833978.078   114738384.177    21833985.328    89406591.2124   21833985.523  
                
  20227450.156   106296021.363    20227460.348    82828120.6954   20227459.852  
                
  20985840.570   110281386.780    20985844.840    85933529.6734                 
                
  20971131.531   110204088.733    20971137.457    85873358.0124                 
                
  19573245.195   104777174.439                    81493377.283    19573249.832  
  19573243.715  
  22408708.172   119703311.486                    93102604.645    22408710.836  
  22408707.223  
  22577762.320   118646978.748    22577771.516    92452247.0154   22577771.875  
                
  22445644.266   120111182.688                    93419813.927    22445649.363  
  22445642.348  
  19813928.734   105768148.189                    82264135.811    19813931.797  
  19813927.023  
  21378783.664   114081323.721                                                  
  21378781.293  
  21805669.578   114589621.557    21805679.051    89290664.8334   21805679.203  
                
  23591910.281   125979491.737                    97984045.975    23591915.125  
  23591909.203  
 21  8 15 12 53 30.0000000  0 16G 4G17R23R 8G31G 1G22G21R 7R16G32R21
                                R22R 6G 3R 9
  24172114.445   127025330.029    24172124.879    98980828.0624   24172124.785  
                
  24135011.742   126830356.457    24135019.629    98828886.0894   24135019.422  
                
  21786363.414   116542380.745                                                  
  21786361.898  
  21588221.023   115603980.753                    89914215.138    21588224.531  
  21588219.941  
  21830283.875   114718971.085    21830291.164    89391464.1514   21830291.344  
                
  20226229.578   106289607.182    20226239.758    82823122.6324   20226239.262  
                
  20983579.703   110269505.886    20983583.945    85924271.8364                 
                
  20972200.047   110209703.862    20972205.965    85877733.4334                 
                
  19573612.500   104779140.606                    81494906.533    19573617.141  
  19573611.023  
  22405882.367   119688216.595                    93090864.177    22405884.992  
  22405881.430  
  22583094.062   118674997.169    22583103.238    92474079.5424   22583103.590  
                
  22453967.312   120155720.390                    93454454.325    22453972.309  
  22453965.262  
  19817230.797   105785774.856                    82277845.440    19817233.863  
  19817229.109  
  21384103.211   114109709.944                                                  
  21384100.848  
  21801462.469   114567513.098    21801471.934    89273437.4724   21801472.086  
                
  23585041.562   125942813.678                    97955518.637    23585046.605  
  23585040.590  
 21  8 15 12 53 40.0000000  0 16G 4G17R23R 8G31G 1G22G21R 7R16G32R21
                                R22R 6G 3R 9
  24165614.219   126991171.166    24165624.652    98954210.8074   24165624.527  
                
  24132559.117   126817467.814    24132567.035    98818843.0204   24132566.781  
                
  21780293.844   116509912.647                                                  
  21780292.332  
  21583541.508   115578922.214                    89894725.184    21583544.988  
  21583540.422  
  21826600.734   114699616.057    21826608.047    89376382.3194   21826608.207  
                
  20225020.969   106283255.889    20225031.137    82818173.5714   20225030.648  
                
  20981324.336   110257653.833    20981328.559    85915036.4734                 
                
  20973278.141   110215369.288    20973284.043    85882148.0554                 
                
  19573987.797   104781149.619                    81496469.098    19573992.430  
  19573986.324  
  22403070.852   119673198.018                    93079183.085    22403073.473  
  22403069.926  
  22588430.062   118703037.921    22588439.207    92495929.4684   22588439.551  
                
  22462295.180   120200284.434                    93489115.218    22462300.168  
  22462293.137  
  19820549.031   105803487.770                    82291622.145    19820552.062  
  19820547.352  
  21389425.500   114138110.639                                                  
  21389423.160  
  21797259.477   114545426.256    21797268.934    89256226.9584   21797269.117  
                
  23578176.109   125906152.619                    97927004.532    23578181.207  
  23578175.102  
 21  8 15 12 53 50.0000000  0 16G 4G17R23R 8G31G 1G22G21R 7R16G32R21
                                R22R 6G 3R 9
  24159117.258   126957029.705    24159127.648    98927607.0774   24159127.555  
                
  24130116.961   126804634.248    24130124.855    98808842.8504   24130124.570  
                
  21774235.344   116477503.774                                                  
  21774233.828  
  21578867.773   115553894.614                    89875259.282    21578871.227  
  21578866.688  
  21822928.664   114680319.256    21822936.020    89361345.8654   21822936.160  
                
  20223824.352   106276967.638    20223834.504    82813273.6334   20223834.020  
                
  20979074.477   110245830.754    20979078.688    85905823.6894                 
                
  20974365.836   110221085.159    20974371.723    85886601.9734                 
                
  19574371.117   104783201.534                    81498065.036    19574375.742  
  19574369.652  
  22400273.594   119658255.661                    93067561.275    22400276.223  
  22400272.648  
  22593770.320   118731101.004    22593779.418    92517796.8044   22593779.785  
                
  22470627.938   120244874.404                    93523796.275    22470632.898  
  22470625.863  
  19823883.375   105821286.739                    82305465.789    19823886.379  
  19823881.719  
  21394750.578   114166526.232                                                  
  21394748.270  
  21793060.625   114523361.183    21793070.059    89239033.4024   21793070.254  
                
  23571313.844   125869508.858                    97898503.871    23571318.969  
  23571312.879  
 21  8 15 12 54  0.0000000  0 16G 4G17R23R 8G31G 1G22G21R 7R16G32R21
                                R22R 6G 3R 9
  24152623.586   126922905.637    24152633.992    98901016.9304   24152633.910  
                
  24127685.312   126791855.811    24127693.109    98798885.6144   24127692.879  
                
  21768187.953   116445154.382                                                  
  21768186.445  
  21574199.797   115528897.854                    89855817.370    21574203.238  
  21574198.734  
  21819267.688   114661080.727    21819275.070    89346354.8094   21819275.184  
                
  20222639.727   106270742.432    20222649.875    82808422.8264   20222649.395  
                
  20976830.141   110234036.673    20976834.340    85896633.4914                 
                
  20975463.109   110226851.372    20975468.973    85891095.1284                 
                
  19574762.406   104785296.153                    81499694.191    19574767.027  
  19574760.953  
  22397490.695   119643389.947                    93055999.017    22397493.297  
  22397489.738  
  22599114.789   118759186.322    22599123.887    92539681.4584   22599124.254  
                
  22478965.484   120289490.309                    93558497.500    22478970.496  
  22478963.414  
  19827233.859   105839171.812                    82319376.402    19827236.867  
  19827232.207  
  21400078.430   114194956.615                                                  
  21400076.133  
  21788865.922   114501317.860    21788875.336    89221856.7884   21788875.555  
                
  23564454.844   125832882.444                    97870016.692    23564460.000  
  23564453.898  
 21  8 15 12 54 10.0000000  0 16G 4G17R23R 8G31G 1G22G21R 7R16G32R21
                                R22R 6G 3R 9
  24146133.242   126888799.113    24146143.648    98874440.4814   24146143.578  
                
  24125264.156   126779132.600    24125271.867    98788971.4444   24125271.676  
                
  21762151.703   116412864.539                                                  
  21762150.215  
  21569537.664   115503932.339                    89836399.762    21569541.113  
  21569536.621  
  21815617.844   114641900.669    21815625.270    89331409.3204   21815625.355  
                
  20221467.133   106264580.406    20221477.285    82803621.2484   20221476.805  
                
  20974591.336   110222271.710    20974595.531    85887465.9994                 
                
  20976569.992   110232668.118    20976575.855    85895627.6564                 
                
  19575161.695   104787433.630                    81501356.663    19575166.305  
  19575160.246  
  22394722.133   119628600.755                    93044496.330    22394724.750  
  22394721.160  
  22604463.500   118787293.892    22604472.586    92561583.4574   22604472.945  
                
  22487307.844   120334132.010                    93593218.788    22487312.855  
  22487305.785  
  19830600.430   105857142.847                    82333353.866    19830603.426  
  19830598.793  
  21405408.969   114223401.465                                                  
  21405406.699  
  21784675.367   114479296.393    21784684.762    89204697.2194   21784685.008  
                
  23557599.148   125796273.547                    97841543.152    23557604.277  
  23557598.176  
 21  8 15 12 54 20.0000000  0 16G 4G17R23R 8G31G 1G22G21R 7R16G32R21
                                R22R 6G 3R 9
  24139646.242   126854709.981    24139656.625    98847877.5204   24139656.516  
                
  24122853.508   126766464.581    24122861.176    98779100.2584   24122861.004  
                
  21756126.594   116380634.265                                                  
  21756125.113  
  21564881.266   115478997.630                    89817006.123    21564884.719  
  21564880.242  
  21811979.102   114622778.953    21811986.582    89316509.2974   21811986.645  
                
  20220306.531   106258481.393    20220316.695    82798868.7694   20220316.211  
                
  20972358.047   110210535.694    20972362.230    85878321.0514                 
                
  20977686.438   110238535.090    20977692.305    85900199.3174                 
                
  19575568.961   104789613.726                    81503052.295    19575573.559  
  19575567.527  
  22391967.891   119613888.202                    93033053.259    22391970.539  
  22391966.914  
  22609816.398   118815423.438    22609825.449    92583502.5764   22609825.820  
                
  22495655.078   120378799.186                    93627959.904    22495659.984  
  22495652.938  
  19833983.109   105875199.707                    82347398.081    19833986.086  
  19833981.469  
  21410742.219   114251860.681                                                  
  21410739.930  
  21780488.953   114457296.621    21780498.336    89187554.5464   21780498.578  
                
  23550746.773   125759682.274                    97813083.312    23550751.887  
  23550745.801  
 21  8 15 12 54 30.0000000  0 16G 4G17R23R 8G31G 1G22G21R 7R16G32R21
                                R22R 6G 3R 9
  24133162.547   126820638.283    24133172.918    98821328.1784   24133172.789  
                
  24120453.344   126753851.695    24120461.016    98769272.0454   24120460.809  
                
  21750112.672   116348463.801                                                  
  21750111.199  
  21560230.625   115454093.754                    89797636.466    21560234.090  
  21560229.617  
  21808351.469   114603715.634    21808358.969    89301654.7794   21808359.016  
                
  20219157.914   106252445.417    20219168.098    82794165.4114   20219167.582  
                
  20970130.258   110198828.609    20970134.434    85869198.6534                 
                
  20978812.438   110244452.287    20978818.305    85904810.1164                 
                
  19575984.141   104791836.238                    81504780.922    19575988.719  
  19575982.707  
  22389227.961   119599252.138                    93021669.682    22389230.609  
  22389226.977  
  22615173.445   118843574.847    22615182.473    92605438.7254   22615182.840  
                
  22504007.016   120423491.674                    93662720.709    22504011.836  
  22504004.840  
  19837381.812   105893342.213                    82361508.910    19837384.809  
  19837380.172  
  21416078.148   114280334.160                                                  
  21416075.867  
  21776306.648   114435318.531    21776316.035    89170428.7644   21776316.285  
                
  23543897.648   125723108.684                    97784637.213    23543902.828  
  23543896.770  
 21  8 15 12 54 40.0000000  0 16G 4G17R23R 8G31G 1G22G21R 7R16G32R21
                                R22R 6G 3R 9
  24126682.164   126786584.326    24126692.645    98794792.6714   24126692.504  
                
  24118063.719   126741294.191    24118071.391    98759486.9944   24118071.211  
                
  21744109.984   116316353.489                                                  
  21744108.543  
  21555585.852   115429221.238                    89778291.208    21555589.320  
  21555584.867  
  21804735.039   114584711.141    21804742.520    89286846.1014   21804742.586  
                
  20218021.367   106246472.791    20218031.566    82789511.4184   20218031.035  
                
  20967908.047   110187150.809    20967912.211    85860099.0704                 
                
  20979948.055   110250419.998    20979953.934    85909460.2784                 
                
  19576407.320   104794101.509                    81506542.802    19576411.883  
  19576405.895  
  22386502.500   119584693.305                    93010346.164    22386505.098  
  22386501.504  
  22620534.703   118871748.340    22620543.719    92627392.0894   22620544.066  
                
  22512363.766   120468209.540                    93697501.246    22512368.445  
  22512361.496  
  19840796.617   105911570.684                    82375686.599    19840799.645  
  19840794.977  
  21421416.844   114308822.299                                                  
  21421414.539  
  21772128.555   114413362.465    21772137.926    89153320.1544   21772138.172  
                
  23537051.766   125686553.303                    97756205.312    23537057.176  
  23537051.051  
 21  8 15 12 54 50.0000000  0 16G 4G17R23R 8G31G 1G22G21R 7R16G32R21
                                R22R 6G 3R 9
  24120205.281   126752548.010    24120215.707    98768270.9154   24120215.594  
                
  24115684.586   126728791.923    24115692.254    98749744.9464   24115692.105  
                
  21738118.516   116284303.220                                                  
  21738117.082  
  21550946.906   115404379.822                    89758970.099    21550950.340  
  21550945.922  
  21801129.766   114565765.330    21801137.219    89272083.1394   21801137.301  
                
  20216896.836   106240563.387    20216907.051    82784906.6904   20216906.500  
                
  20965691.359   110175502.040    20965695.516    85851022.1074                 
                
  20981093.250   110256438.091    20981099.141    85914149.7034                 
                
  19576838.414   104796409.202                    81508337.673    19576842.969  
  19576836.996  
  22383791.391   119570211.141                    92999082.255    22383793.941  
  22383790.391  
  22625900.102   118899943.628    22625909.082    92649362.4454   22625909.430  
                
  22520725.039   120512952.558                    93732301.349    22520729.770  
  22520722.824  
  19844227.430   105929884.566                    82389930.720    19844230.461  
  19844225.773  
  21426758.148   114337324.577                                                  
  21426755.832  
  21767954.602   114391428.245    21767963.945    89136228.5594   21767964.199  
                
  23530209.492   125650016.054                    97727787.482    23530214.879  
  23530208.781  
 21  8 15 12 55  0.0000000  0 16G 4G17R23R 8G31G 1G22G21R 7R16G32R21
                                R22R 6G 3R 9
  24113731.719   126718529.374    24113742.148    98741762.9154   24113742.059  
                
  24113315.969   126716344.877    24113323.637    98740045.9774   24113323.520  
                
  21732138.344   116252313.262                                                  
  21732136.898  
  21546313.719   115379569.214                    89739672.975    21546317.125  
  21546312.734  
  21797535.680   114546878.261    21797543.109    89257365.9454   21797543.195  
                
  20215784.359   106234717.263    20215794.586    82780351.2704   20215794.020  
                
  20963480.211   110163882.403    20963484.375    85841967.8494                 
                
  20982248.047   110262506.607    20982253.945    85918878.4114                 
                
  19577277.445   104798759.380                    81510165.591    19577281.988  
  19577276.031  
  22381094.742   119555806.236                    92987878.469    22381097.309  
  22381093.781  
  22631269.641   118928160.674    22631278.555    92671349.7514   22631278.938  
                
  22529090.945   120557720.514                    93767120.837    22529095.770  
  22529088.820  
  19847674.297   105948284.128                    82404241.486    19847677.301  
  19847672.609  
  21432102.203   114365841.498                                                  
  21432099.883  
  21763784.828   114369515.928    21763794.145    89119154.0364   21763794.398  
                
  23523370.609   125613497.206                    97699383.994    23523376.043  
  23523369.961  
 21  8 15 12 55 10.0000000  0 16G 4G17R23R 8G31G 1G22G21R 7R16G32R21
                                R22R 6G 3R 9
  24107261.578   126684528.473    24107271.984    98715268.7484   24107271.914  
                
  24110957.883   126703953.152    24110965.598    98730390.0974   24110965.488  
                
  21726169.430   116220383.642                                                  
  21726168.004  
  21541686.305   115354789.622                    89720399.967    21541689.688  
  21541685.320  
  21793952.781   114528050.007    21793960.168    89242694.5934   21793960.266  
                
  20214683.906   106228934.392    20214694.145    82775845.1414   20214693.574  
                
  20961274.594   110152291.842    20961278.766    85832936.2454                 
                
  20983412.422   110268625.479    20983418.344    85923646.3614                 
                
  19577724.406   104801151.986                    81512026.510    19577728.945  
  19577722.988  
  22378412.547   119541478.505                    92976734.670    22378415.121  
  22378411.613  
  22636643.305   118956399.376    22636652.176    92693353.9294   22636652.555  
                
  22537461.477   120602513.190                    93801959.558    22537466.379  
  22537459.406  
  19851137.141   105966768.988                    82418618.601    19851140.113  
  19851135.465  
  21437448.859   114394372.391                                                  
  21437446.520  
  21759619.211   114347625.502    21759628.500    89102096.5624   21759628.758  
                
  23516535.289   125576996.762                    97670994.803    23516540.660  
  23516534.605  
 21  8 15 12 55 20.0000000  0 16G 4G17R23R 8G31G 1G22G21R 7R16G32R21
                                R22R 6G 3R 9
  24100794.805   126650545.378    24100805.223    98688788.4644   24100805.160  
                
  24108610.367   126691616.921    24108618.113    98720777.4464   24108617.992  
                
  21720211.867   116188514.650                                                  
  21720210.430  
  21537064.703   115330041.239                    89701151.225    21537068.074  
  21537063.746  
  21790381.117   114509280.746    21790388.426    89228069.1974   21790388.566  
                
  20213595.531   106223214.933    20213605.777    82771388.4194   20213605.199  
                
  20959074.539   110140730.457    20959078.727    85823927.3824                 
                
  20984586.398   110274794.749    20984592.355    85928453.5784                 
                
  19578179.297   104803587.038                    81513920.439    19578183.836  
  19578177.859  
  22375744.766   119527227.670                    92965650.695    22375747.363  
  22375743.863  
  22642021.078   118984659.733    22642029.953    92715374.9774   22642030.289  
                
  22545836.516   120647330.627                    93836817.532    22545841.668  
  22545834.605  
  19854615.953   105985339.135                    82433062.032    19854618.902  
  19854614.297  
  21442798.156   114422917.389                                                  
  21442795.820  
  21755457.773   114325757.057    21755467.035    89085056.2254   21755467.289  
                
  23509703.375   125540514.972                    97642620.092    23509708.770  
  23509702.703  
 21  8 15 12 55 30.0000000  0 16G 4G17R23R 8G31G 1G22G21R 7R16G32R21
                                R22R 6G 3R 9
  24094331.422   126616580.312    24094341.910    98662322.2124   24094341.840  
                
  24106273.422   126679336.245    24106281.180    98711208.0794   24106281.074  
                
  21714265.672   116156706.538                                                  
  21714264.238  
  21532448.961   115305324.190                    89681926.910    21532452.359  
  21532447.988  
  21786820.711   114490570.711    21786827.965    89213489.9574   21786828.141  
                
  20212519.250   106217559.056    20212529.508    82766981.2504   20212528.922  
                
  20956880.062   110129198.437    20956884.281    85814941.4004                 
                
  20985769.992   110281014.612    20985775.988    85933300.2284                 
                
  19578642.133   104806064.632                    81515847.455    19578646.668  
  19578640.703  
  22373091.547   119513054.628                    92954627.232    22373094.211  
  22373090.641  
  22647402.984   119012941.818    22647411.848    92737412.9524   22647412.176  
                
  22554216.242   120692172.809                    93871694.729    22554221.566  
  22554214.457  
  19858110.797   106003994.818                    82447572.006    19858113.738  
  19858109.133  
  21448150.172   114451476.900                                                  
  21448147.824  
  21751300.555   114303910.787    21751309.785    89068033.1694   21751310.066  
                
  23502874.945   125504052.174                    97614260.179    23502880.449  
  23502874.352  
 21  8 15 12 55 40.0000000  0 16G 4G17R23R 8G31G 1G22G21R 7R16G32R21
                                R22R 6G 3R 9
  24087871.406   126582633.099    24087881.973    98635869.9004   24087881.902  
                
  24103947.023   126667110.980    24103954.789    98701681.9164   24103954.699  
                
  21708330.836   116124959.276                                                  
  21708329.398  
  21527838.945   115280637.840                    89662726.431    21527842.355  
  21527837.957  
  21783271.555   114471919.769    21783278.758    89198956.7754   21783278.961  
                
  20211455.031   106211966.558    20211465.289    82762623.4554   20211464.695  
                
  20954691.148   110117695.595    20954695.395    85805978.1564                 
                
  20986963.172   110287284.803    20986969.211    85938186.0904                 
                
  19579112.844   104808584.387                    81517807.274    19579117.387  
  19579111.422  
  22370452.758   119498958.762                    92943663.797    22370455.461  
  22370451.875  
  22652788.961   119041245.299    22652797.816    92759467.6044   22652798.145  
                
  22562600.664   120737039.237                    93906590.797    22562605.980  
  22562598.875  
  19861621.602   106022735.705                    82462148.230    19861624.543  
  19861619.902  
  21453504.805   114480050.216                                                  
  21453502.430  
  21747147.516   114282086.476    21747156.730    89051027.2214   21747157.012  
                
  23496050.125   125467608.225                    97585914.924    23496055.621  
  23496049.535  
 21  8 15 12 55 50.0000000  0 16G 4G17R23R 8G31G 1G22G21R 7R16G32R21
                                R22R 6G 3R 9
  24081414.906   126548704.055    24081425.477    98609431.7234   24081425.414  
                
  24101631.227   126654941.434    24101639.004    98692199.1784   24101638.906  
                
  21702407.430   116093273.200                                                  
  21702405.996  
  21523234.805   115255982.958                    89643550.396    21523238.223  
  21523233.797  
  21779733.719   114453328.316    21779740.859    89184469.9354   21779741.090  
                
  20210402.938   106206437.735    20210413.191    82758315.2834   20210412.598  
                
  20952507.836   110106222.227    20952512.098    85797037.8704                 
                
  20988165.977   110293605.595    20988172.051    85943111.3754                 
                
  19579591.516   104811146.695                    81519800.182    19579596.066  
  19579590.078  
  22367828.555   119484940.763                    92932760.927    22367831.238  
  22367827.645  
  22658179.039   119069570.382    22658187.883    92781539.0834   22658188.242  
                
  22570989.773   120781930.102                    93941505.876    22570994.969  
  22570987.863  
  19865148.414   106041561.960                    82476790.869    19865151.348  
  19865146.734  
  21458862.078   114508637.654                                                  
  21458859.719  
  21742998.719   114260284.423    21743007.930    89034038.6194   21743008.203  
                
  23489228.984   125431183.785                    97557584.837    23489234.453  
  23489228.387  
 21  8 15 12 56  0.0000000  0 16G 4G17R23R 8G31G 1G22G21R 7R16G32R21
                                R22R 6G 3R 9
  24074961.797   126514792.840    24074972.359    98583007.4374   24074972.297  
                
  24099325.961   126642827.262    24099333.770    98682759.5604   24099333.656  
                
  21696495.438   116061648.187                                                  
  21696494.004  
  21518636.453   115231358.969                    89624398.466    21518639.879  
  21518635.426  
  21776207.133   114434796.013    21776214.227    89170029.1924   21776214.469  
                
  20209362.891   106200972.280    20209373.133    82754056.4894   20209372.551  
                
  20950330.070   110094778.001    20950334.340    85788120.2924                 
                
  20989378.352   110299976.677    20989384.465    85948075.8544                 
                
  19580078.047   104813751.170                    81521825.891    19580082.609  
  19580076.598  
  22365218.898   119471000.400                    92921918.436    22365221.562  
  22365217.969  
  22663573.141   119097916.620    22663581.988    92803627.0554   22663582.344  
                
  22579383.227   120826844.883                    93976439.571    22579388.414  
  22579381.352  
  19868691.094   106060472.969                    82491499.420    19868694.055  
  19868689.406  
  21464221.953   114537238.995                                                  
  21464219.590  
  21738854.094   114238504.292    21738863.336    89017067.1034   21738863.582  
                
  23482411.445   125394778.564                    97529269.679    23482416.879  
  23482410.859  
 21  8 15 12 56 10.0000000  0 16G 4G17R23R 8G31G 1G22G21R 7R16G32R21
                                R22R 6G 3R 9
  24068512.109   126480899.757    24068522.695    98556597.2924   24068522.637  
                
  24097031.289   126630768.765    24097039.098    98673363.3374   24097038.988  
                
  21690594.938   116030084.631                                                  
  21690593.504  
  21514043.906   115206766.164                    89605270.717    21514047.312  
  21514042.906  
  21772691.875   114416323.214    21772698.918    89155634.8104   21772699.172  
                
  20208334.961   106195570.468    20208345.188    82749847.2864   20208344.617  
                
  20948157.898   110083363.164    20948162.168    85779225.6164                 
                
  20990600.328   110306398.216    20990606.473    85953079.6494                 
                
  19580572.453   104816397.806                    81523884.390    19580577.035  
  19580570.988  
  22362623.727   119457137.599                    92911136.262    22362626.391  
  22362622.789  
  22668971.312   119126284.170    22668980.160    92825731.6384   22668980.496  
                
  22587781.164   120871783.652                    94011391.927    22587786.336  
  22587779.297  
  19872249.719   106079469.122                    82506274.192    19872252.652  
  19872248.031  
  21469584.414   114565854.125                                                  
  21469582.070  
  21734713.680   114216746.350    21734722.977    89000112.8744   21734723.199  
                
  23475597.586   125358392.791                    97500969.679    23475603.008  
  23475597.023  
 21  8 15 12 56 20.0000000  0 16G 4G17R23R 8G31G 1G22G21R 7R16G32R21
                                R22R 6G 3R 9
  24062065.906   126447024.842    24062076.469    98530201.2774   24062076.445  
                
  24094747.227   126618765.937    24094755.012    98664010.4814   24094754.895  
                
  21684705.953   115998582.581                                                  
  21684704.504  
  21509457.195   115182204.515                    89586167.242    21509460.609  
  21509456.234  
  21769187.945   114397909.990    21769194.938    89141286.8504   21769195.211  
                
  20207319.141   106190232.297    20207329.344    82745687.6674   20207328.801  
                
  20945991.305   110071977.662    20945995.566    85770353.8044                 
                
  20991831.898   110312870.170    20991838.070    85958122.7264                 
                
  19581074.719   104819086.499                    81525975.587    19581079.305  
  19581073.246  
  22360043.125   119443352.680                    92900414.668    22360045.809  
  22360042.184  
  22674373.516   119154672.946    22674382.344    92847852.7594   22674382.684  
                
  22596183.492   120916746.287                    94046362.826    22596188.715  
  22596181.664  
  19875824.234   106098550.116                    82521114.960    19875827.160  
  19875822.531  
  21474949.508   114594483.313                                                  
  21474947.168  
  21730577.492   114195010.573    21730586.828    88983175.9154   21730587.035  
                
  23468787.352   125322026.616                    97472684.920    23468792.738  
  23468786.770  
 21  8 15 12 56 30.0000000  0 16G 4G17R23R 8G31G 1G22G21R 7R16G32R21
                                R22R 6G 3R 9
  24055623.172   126413168.195    24055633.770    98503819.5124   24055633.738  
                
  24092473.773   126606818.882    24092481.527    98654701.0954   24092481.422  
                
  21678828.492   115967142.143                                                  
  21678827.004  
  21504876.297   115157674.007                    89567087.988    21504879.676  
  21504875.324  
  21765695.375   114379556.489    21765702.359    89126985.4354   21765702.621  
                
  20206315.453   106184957.885    20206325.637    82741577.7334   20206325.113  
                
  20943830.320   110060621.651    20943834.566    85761504.9664                 
                
  20993073.094   110319392.701    20993079.285    85963205.2194                 
                
  19581584.867   104821817.408                    81528099.638    19581589.465  
  19581583.391  
  22357477.133   119429645.725                    92889753.722    22357479.828  
  22357476.184  
  22679779.758   119183082.931    22679788.582    92869990.4014   22679788.922  
                
  22604590.258   120961732.622                    94081352.170    22604595.504  
  22604588.461  
  19879414.641   106117715.927                    82536021.692    19879417.586  
  19879412.922  
  21480317.172   114623126.137                                                  
  21480314.852  
  21726445.539   114173297.090    21726454.906    88966256.3254   21726455.090  
                
  23461980.914   125285680.379                    97444415.640    23461986.223  
  23461980.227  
 21  8 15 12 56 40.0000000  0 16G 4G17R23R 8G31G 1G22G21R 7R16G32R21
                                R22R 6G 3R 9
  24049183.859   126379329.639    24049194.520    98477451.8574   24049194.457  
                
  24090210.883   126594927.370    24090218.594    98645434.9804   24090218.516  
                
  21672962.570   115935763.528                                                  
  21672961.062  
  21500301.195   115133174.602                    89548032.854    21500304.516  
  21500300.219  
  21762214.133   114361262.485    21762221.121    89112730.3814   21762221.367  
                
  20205323.859   106179747.039    20205334.023    82737517.3394   20205333.523  
                
  20941674.898   110049294.868    20941679.129    85752678.9054                 
                
  20994323.859   110325965.510    20994330.074    85968326.8884                 
                
  19582102.875   104824590.349                    81530256.368    19582107.473  
  19582101.387  
  22354925.750   119416016.858                    92879153.526    22354928.480  
  22354924.781  
  22685189.984   119211513.821    22685198.832    92892144.3424   22685199.160  
                
  22613001.500   121006742.332                    94116359.695    22613006.680  
  22612999.660  
  19883020.914   106136966.378                    82550994.252    19883023.848  
  19883019.207  
  21485687.422   114651782.789                                                  
  21485685.117  
  21722317.797   114151605.680    21722327.168    88949353.9404   21722327.336  
                
  23455178.195   125249354.023                    97416161.849    23455183.418  
  23455177.461  
 21  8 15 12 56 50.0000000  0 16G 4G17R23R 8G31G 1G22G21R 7R16G32R21
                                R22R 6G 3R 9
  24042748.141   126345509.881    24042758.824    98451098.8224   24042758.746  
                
  24087958.719   126583092.146    24087966.414    98636212.7334   24087966.363  
                
  21667108.312   115904447.312                                                  
  21667106.805  
  21495731.984   115108706.738                    89529002.362    21495735.301  
  21495731.020  
  21758744.344   114343028.715    21758751.316    89098522.2594   21758751.555  
                
  20204344.500   106174600.463    20204354.645    82733507.0104   20204354.160  
                
  20939525.172   110037997.986    20939529.371    85743876.1464                 
                
  20995584.312   110332589.216    20995590.547    85973488.2154                 
                
  19582628.797   104827405.663                    81532446.067    19582633.387  
  19582627.297  
  22352389.070   119402466.528                    92868614.376    22352391.789  
  22352388.074  
  22690604.297   119239966.200    22690613.176    92914315.0204   22690613.516  
                
  22621417.180   121051775.906                    94151385.792    22621422.305  
  22621415.363  
  19886643.125   106156301.923                    82566033.017    19886646.039  
  19886641.395  
  21491060.328   114680453.537                                                  
  21491058.020  
  21718194.375   114129937.035    21718203.742    88932469.2914   21718203.914  
                
  23448379.312   125213048.210                    97387924.038    23448384.488  
  23448378.559  
 21  8 15 12 57  0.0000000  0 16G 4G17R23R 8G31G 1G22G21R 7R16G32R21
                                R22R 6G 3R 9
  24036315.773   126311707.503    24036326.453    98424759.3564   24036326.371  
                
  24085716.984   126571311.819    24085724.637    98627033.2444   24085724.613  
                
  21661265.484   115873192.205                                                  
  21661263.926  
  21491168.430   115084269.150                    89509995.325    21491171.723  
  21491167.477  
  21755285.773   114324853.860    21755292.715    89084360.0374   21755292.957  
                
  20203377.086   106169516.674    20203387.211    82729545.6234   20203386.750  
                
  20937380.875   110026729.601    20937385.047    85735095.5864                 
                
  20996854.172   110339262.354    20996860.426    85978688.0604                 
                
  19583162.398   104830262.076                    81534667.729    19583167.004  
  19583160.855  
  22349866.883   119388993.555                    92858135.416    22349869.633  
  22349865.859  
  22696022.398   119268438.528    22696031.301    92936501.2364   22696031.637  
                
  22629837.016   121096831.725                    94186429.171    22629842.102  
  22629835.184  
  19890280.969   106175720.997                    82581136.719    19890283.871  
  19890279.238  
  21496435.648   114709137.103                                                  
  21496433.324  
  21714075.023   114108289.717    21714084.398    88915601.2634   21714084.586  
                
  23441584.109   125176761.817                    97359701.331    23441589.184  
  23441583.285  
 21  8 15 12 57 10.0000000  0 16G 4G17R23R 8G31G 1G22G21R 7R16G32R21
                                R22R 6G 3R 9
  24029886.969   126277923.878    24029897.656    98398434.5144   24029897.543  
                
  24083485.953   126559587.740    24083493.574    98617897.6054   24083493.574  
                
  21655434.352   115841999.715                                                  
  21655432.742  
  21486610.742   115059862.958                    89491012.777    21486614.055  
  21486609.805  
  21751838.680   114306739.329    21751845.590    89070244.8354   21751845.863  
                
  20202421.891   106164497.098    20202431.992    82725634.2614   20202431.559  
                
  20935242.258   110015491.086    20935246.410    85726338.3084                 
                
  20998133.695   110345986.305    20998139.965    85983927.5064                 
                
  19583703.867   104833160.663                    81536922.192    19583708.492  
  19583702.301  
  22347359.453   119375599.313                    92847717.720    22347362.254  
  22347358.457  
  22701444.547   119296932.079    22701453.453    92958703.9984   22701453.785  
                
  22638261.227   121141910.994                    94221490.784    22638266.312  
  22638259.379  
  19893934.734   106195224.994                    82596306.504    19893937.629  
  19893933.012  
  21501813.500   114737834.406                                                  
  21501811.156  
  21709959.984   114086665.107    21709969.383    88898750.9224   21709969.559  
                
  23434792.680   125140496.230                    97331494.806    23434797.746  
  23434791.898  
 21  8 15 12 57 20.0000000  0 16G 4G17R23R 8G31G 1G22G21R 7R16G32R21
                                R22R 6G 3R 9
  24023461.570   126244158.639    24023472.293    98372123.9684   24023472.191  
                
  24081265.570   126547919.510    24081273.199    98608805.4994   24081273.191  
                
  21649614.914   115810869.693                                                  
  21649613.301  
  21482058.898   115035488.039                    89472054.503    21482062.207  
  21482057.961  
  21748403.000   114288684.814    21748409.898    89056176.3964   21748410.180  
                
  20201478.844   106159541.328    20201488.922    82721772.6264   20201488.508  
                
  20933109.242   110004282.036    20933113.379    85717603.9834                 
                
  20999422.805   110352760.590    20999429.090    85989206.1684                 
                
  19584253.148   104836101.026                    81539209.134    19584257.777  
  19584251.562  
  22344866.656   119362283.345                    92837360.877    22344869.453  
  22344865.668  
  22706870.617   119325446.317    22706879.535    92980922.8734   22706879.852  
                
  22646689.688   121187013.035                    94256570.105    22646694.777  
  22646687.836  
  19897604.242   106214813.057                    82611541.662    19897607.141  
  19897602.508  
  21507193.938   114766545.308                                                  
  21507191.594  
  21705849.195   114065062.778    21705858.625    88881917.9544   21705858.789  
                
  23428005.047   125104251.244                    97303304.296    23428010.160  
  23428004.363  
 21  8 15 12 57 30.0000000  0 16G 4G17R23R 8G31G 1G22G21R 7R16G32R21
                                R22R 6G 3R 9
  24017039.797   126210411.997    24017050.523    98345827.9124   24017050.410  
                
  24079055.828   126536307.236    24079063.508    98599756.9984   24079063.484  
                
  21643807.188   115779802.250                                                  
  21643805.574  
  21477512.844   115011144.190                    89453120.420    21477516.156  
  21477511.938  
  21744978.789   114270690.531    21744985.715    89042154.8874   21744985.961  
                
  20200547.961   106154649.545    20200558.016    82717960.8494   20200557.621  
                
  20930981.859   109993102.595    20930985.984    85708892.7334                 
                
  21000721.523   110359585.420    21000727.832    85994524.2184                 
                
  19584810.273   104839083.419                    81541528.785    19584814.926  
  19584808.660  
  22342388.578   119349046.006                    92827065.182    22342391.395  
  22342387.590  
  22712300.648   119353981.337    22712309.559    93003157.9564   22712309.871  
                
  22655122.477   121232138.022                    94291667.265    22655127.535  
  22655120.586  
  19901289.586   106234485.659                    82626842.560    19901292.445  
  19901287.859  
  21512576.898   114795269.836                                                  
  21512574.562  
  21701742.672   114043482.920    21701752.121    88865102.4844   21701752.262  
                
  23421221.516   125068027.156                    97275130.037    23421226.512  
  23421220.719  
 21  8 15 12 57 40.0000000  0 16G 4G17R23R 8G31G 1G22G21R 7R16G32R21
                                R22R 6G 3R 9
  24010621.492   126176683.889    24010632.285    98319546.3114   24010632.152  
                
  24076856.750   126524750.900    24076864.461    98590752.0734   24076864.410  
                
  21638011.172   115748797.495                                                  
  21638009.547  
  21472972.648   114986831.657                    89434210.698    21472975.957  
  21472971.734  
  21741566.047   114252756.476    21741573.004    89028180.3144   21741573.234  
                
  20199629.266   106149821.723    20199639.305    82714198.9104   20199638.918  
                
  20928860.117   109981952.723    20928864.242    85700204.5274                 
                
  21002029.852   110366460.645    21002036.188    85999881.5324                 
                
  19585375.258   104842107.827                    81543881.107    19585379.906  
  19585373.625  
  22339925.227   119335887.285                    92816830.637    22339928.078  
  22339924.270  
  22717734.617   119382536.969    22717743.520    93025409.0924   22717743.840  
                
  22663559.609   121277285.593                    94326782.000    22663564.492  
  22663557.555  
  19904990.703   106254242.401                    82642208.899    19904993.555  
  19904988.969  
  21517962.375   114824007.682                                                  
  21517960.059  
  21697640.430   114021925.480    21697649.895    88848304.4984   21697650.035  
                
  23414441.852   125031824.001                    97246972.047    23414446.820  
  23414441.020  
 21  8 15 12 57 50.0000000  0 16G 4G17R23R 8G31G 1G22G21R 7R16G32R21
                                R22R 6G 3R 9
  24004206.773   126142974.324    24004217.547    98293279.1674   24004217.391  
                
  24074668.289   126513250.485    24074676.000    98581790.7214   24074675.934  
                
  21632226.867   115717855.485                                                  
  21632225.262  
  21468438.211   114962550.074                    89415325.033    21468441.508  
  21468437.316  
  21738164.750   114234882.621    21738171.672    89014252.6434   21738171.930  
                
  20198722.711   106145057.789    20198732.738    82710486.7544   20198732.367  
                
  20926743.984   109970832.408    20926748.094    85691539.3494                 
                
  21003347.742   110373386.210    21003354.098    86005278.0784                 
                
  19585947.977   104845173.714                    81546265.680    19585952.625  
  19585946.328  
  22337476.609   119322807.364                    92806657.385    22337479.492  
  22337475.621  
  22723172.484   119411113.092    22723181.387    93047676.1974   22723181.691  
                
  22672000.883   121322455.537                    94361914.141    22672005.625  
  22671998.688  
  19908707.523   106274082.978                    82657640.457    19908710.371  
  19908705.781  
  21523350.352   114852758.987                                                  
  21523348.023  
  21693542.430   114000390.404    21693551.914    88831523.9304   21693552.051  
                
  23407666.203   124995641.809                    97218830.364    23407671.016  
  23407665.242  
 21  8 15 12 58  0.0000000  0 16G 4G17R23R 8G31G 1G22G21R 7R16G32R21
                                R22R 6G 3R 9
  23997795.695   126109283.411    23997806.336    98267026.5314   23997806.184  
                
  24072490.484   126501806.093    24072498.191    98572873.0124   24072498.137  
                
  21626454.344   115686976.424                                                  
  21626452.719  
  21463909.664   114938299.976                    89396463.842    21463912.949  
  21463908.770  
  21734774.961   114217069.165    21734781.832    89000372.0364   21734782.137  
                
  20197828.352   106140357.878    20197838.383    82706824.4904   20197838.008  
                
  20924633.492   109959741.681    20924637.582    85682897.2344                 
                
  21004675.242   110380362.237    21004681.613    86010713.9434                 
                
  19586528.477   104848281.190                    81548682.621    19586533.141  
  19586526.812  
  22335042.727   119309806.154                    92796545.332    22335045.652  
  22335041.742  
  22728614.242   119439709.679    22728623.141    93069959.2474   22728623.434  
                
  22680446.180   121367647.802                    94397063.650    22680450.914  
  22680443.953  
  19912440.078   106294007.601                    82673137.389    19912442.922  
  19912438.332  
  21528740.812   114881523.444                                                  
  21528738.461  
  21689448.711   113978877.800    21689458.203    88814760.8744   21689458.348  
                
  23400894.383   124959480.935                    97190705.285    23400899.238  
  23400893.469  
 21  8 15 12 58 10.0000000  0 16G 4G17R23R 8G31G 1G22G21R 7R16G32R21
                                R22R 6G 3R 9
  23991388.055   126075611.299    23991398.711    98240788.5584   23991398.555  
                
  24070323.367   126490417.881    24070331.102    98563999.1004   24070331.035  
                
  21620693.648   115656160.704                                                  
  21620691.996  
  21459386.953   114914081.133                    89377626.992    21459390.215  
  21459386.078  
  21731396.695   114199316.302    21731403.582    88986538.6424   21731403.875  
                
  20196946.195   106135722.108    20196956.234    82703212.2064   20196955.840  
                
  20922528.656   109948680.746    20922532.723    85674278.3214                 
                
  21006012.383   110387388.919    21006018.777    86016189.2784                 
                
  19587116.781   104851430.536                    81551132.107    19587121.461  
  19587115.105  
  22332623.609   119296883.836                    92786494.669    22332626.582  
  22332622.613  
  22734059.883   119468326.771    22734068.789    93092258.2714   22734069.086  
                
  22688895.523   121412862.202                    94432230.376    22688900.324  
  22688893.344  
  19916188.391   106314016.308                    82688699.703    19916191.234  
  19916186.660  
  21534133.812   114910301.388                                                  
  21534131.469  
  21685359.289   113957387.812    21685368.773    88798015.4334   21685368.910  
                
  23394126.633   124923341.661                    97162596.966    23394131.477  
  23394125.746  
 21  8 15 12 58 20.0000000  0 16G 4G17R23R 8G31G 1G22G21R 7R16G32R21
                                R22R 6G 3R 9
  23984984.047   126041957.948    23984994.652    98214565.1974   23984994.500  
                
  24068166.930   126479085.768    24068174.734    98555168.8994   24068174.629  
                
  21614944.789   115625408.239                                                  
  21614943.129  
  21454870.062   114889893.434                    89358814.334    21454873.309  
  21454869.180  
  21728029.961   114181624.044    21728036.879    88972752.4774   21728037.148  
                
  20196076.234   106131150.470    20196086.277    82699649.8824   20196085.879  
                
  20920429.477   109937649.475    20920433.520    85665682.5324                 
                
  21007359.094   110394465.944    21007365.504    86021703.8434                 
                
  19587712.875   104854621.551                    81553614.023    19587717.578  
  19587711.180  
  22330219.281   119284040.362                    92776505.318    22330222.254  
  22330218.297  
  22739509.414   119496964.194    22739518.336    93114573.1444   22739518.637  
                
  22697349.023   121458098.780                    94467414.361    22697353.859  
  22697346.887  
  19919952.398   106334108.821                    82704327.204    19919955.219  
  19919950.664  
  21539529.289   114939092.520                                                  
  21539526.891  
  21681274.172   113935920.370    21681283.637    88781287.5654   21681283.781  
                
  23387362.938   124887224.053                    97134505.522    23387367.750  
  23387362.078  
 21  8 15 12 58 30.0000000  0 16G 4G17R23R 8G31G 1G22G21R 7R16G32R21
                                R22R 6G 3R 9
  23978583.664   126008323.415    23978594.180    98188356.4944   23978594.008  
                
  24066021.203   126467809.846    24066029.070    98546382.4704   24066028.898  
                
  21609207.812   115594719.350                                                  
  21609206.141  
  21450359.000   114865736.885                    89340025.942    21450362.250  
  21450358.113  
  21724674.773   114163992.434    21724681.719    88959013.5704   21724681.965  
                
  20195218.492   106126642.955    20195228.539    82696137.5344   20195228.133  
                
  20918335.953   109926647.934    20918339.973    85657109.8974                 
                
  21008715.414   110401593.390    21008721.840    86027257.6934                 
                
  19588316.742   104857854.138                    81556128.251    19588321.469  
  19588315.039  
  22327829.820   119271276.321                    92766577.758    22327832.816  
  22327828.832  
  22744962.797   119525621.866    22744971.781    93136903.7904   22744972.082  
                
  22705806.648   121503357.164                    94502615.296    22705811.492  
  22705804.500  
  19923732.078   106354284.946                    82720019.736    19923734.949  
  19923730.352  
  21544927.266   114967896.963                                                  
  21544924.852  
  21677193.344   113914475.494    21677202.785    88764577.2874   21677202.941  
                
  23380603.336   124851128.103                    97106430.902    23380608.105  
  23380602.449  
