     2.11           OBSERVATION DATA    M (MIXED)           RINEX VERSION / TYPE
EFT-CORS.RU                             20210817 150713 UTC PGM / RUN BY / DATE 
MDNG                                                        MARKER NAME         
                                                            MARKER NUMBER       
MDNG                EFT-CORS.RU                             OBSERVER / AGENCY   
0                   TRIMBLE BD970       2.0                 REC # / TYPE / VERS 
0                   UNKNOWN EXT NONE                        ANT # / TYPE        
  3463911.2830  3030468.2400  4402179.3760                  APPROX POSITION XYZ 
        0.0000        0.0000        0.0000                  ANTENNA: DELTA H/E/N
     1     1                                                WAVELENGTH FACT L1/2
     6    C1    L1    P2    L2    C2    P1                  # / TYPES OF OBSERV 
    10.000                                                  INTERVAL            
  2021     8    14    21    30    0.0000000     GPS         TIME OF FIRST OBS   
  2021     8    14    22    30    0.0000000     GPS         TIME OF LAST OBS    
     0                                                      RCV CLOCK OFFS APPL 
                                                            END OF HEADER       
 21  8 14 21 30  0.0000000  0 14G17G15R21R 3G14G 7G 5G13R13G30R 2R22
                                R12G19
  22124052.016   116262680.728    22124058.453    90594326.1104   22124058.293  
                
  22180208.102   116557792.967    22180214.148    90824287.3174   22180214.070  
                
  22256314.328   119098044.979                    92631814.283    22256317.500  
  22256312.488  
  20549307.391   110002078.253                    85557170.937    20549311.348  
  20549306.125  
  20209774.953   106203106.224    20209781.285    82755713.8584   20209781.195  
                
  23239912.414   122126606.182    23239919.566    95163635.8334   23239919.434  
                
  24037790.805   126319440.972    24037797.078    98430773.2004   24037797.172  
                
  20552842.086   108005928.810    20552847.852    84160499.5934                 
                
  20683994.750   110451419.548                    85906662.830    20683997.621  
  20683992.957  
  21074599.516   110747816.200    21074608.117    86297054.3254   21074608.262  
                
  20448353.711   109116352.302                    84868271.351    20448356.805  
  20448351.570  
  22272734.719   118893384.366                    92472644.054    22272737.992  
  22272733.023  
  19775265.781   105635948.224                    82161287.157    19775269.160  
  19775265.242  
  24159192.594   126957422.022    24159197.375    98927875.8984                 
                
 21  8 14 21 30 10.0000000  0 14G17G15R21R 3G14G 7G 5G13R13G30R 2R22
                                R12G19
  22119035.695   116236319.752    22119042.125    90573785.0974   22119041.965  
                
  22176101.797   116536214.188    22176107.867    90807472.6834   22176107.758  
                
  22256431.359   119098671.223                    92632301.364    22256434.531  
  22256429.469  
  20547313.531   109991404.978                    85548869.510    20547317.500  
  20547312.277  
  20210286.570   106205794.755    20210292.891    82757808.8274   20210292.812  
                
  23244776.500   122152166.857    23244783.605    95183553.2514   23244783.480  
                
  24042701.461   126345246.689    24042707.746    98450881.5504   24042707.840  
                
  20551018.438   107996345.431    20551024.207    84153032.0244                 
                
  20680475.227   110432625.481                    85892045.225    20680478.086  
  20680473.406  
  21077282.625   110761916.021    21077291.227    86308041.1974   21077291.367  
                
  20454018.328   109146579.770                    84891781.600    20454021.430  
  20454016.172  
  22266929.164   118862393.872                    92448540.326    22266932.457  
  22266927.469  
  19777429.266   105647505.137                    82170275.869    19777432.641  
  19777428.727  
  24151895.109   126919073.733    24151899.938    98897994.1324                 
                
 21  8 14 21 30 20.0000000  0 14G17G15R21R 3G14G 7G 5G13R13G30R 2R22
                                R12G19
  22114027.039   116209999.054    22114033.441    90553275.4564   22114033.289  
                
  22172005.656   116514688.824    22172011.738    90790699.6724   22172011.629  
                
  22256565.094   119099387.011                    92632858.121    22256568.281  
  22256563.160  
  20545336.328   109980820.873                    85540637.410    20545340.301  
  20545335.109  
  20210807.648   106208533.036    20210813.941    82759942.5634   20210813.883  
                
  23249644.367   122177747.439    23249651.453    95203486.1844   23249651.316  
                
  24047617.539   126371080.766    24047623.793    98471011.9964   24047623.898  
                
  20549206.258   107986822.342    20549212.031    84145611.4364                 
                
  20676961.734   110413863.673                    85877452.713    20676964.590  
  20676959.891  
  21079972.078   110776049.193    21079980.672    86319054.0544   21079980.812  
                
  20459695.328   109176873.381                    84915343.286    20459698.445  
  20459693.164  
  22261133.875   118831457.969                    92424479.080    22261137.152  
  22261132.188  
  19779598.844   105659094.662                    82179289.946    19779602.223  
  19779598.297  
  24144598.555   126880730.238    24144603.414    98868116.1074                 
                
 21  8 14 21 30 30.0000000  0 14G17G15R21R 3G14G 7G 5G13R13G30R 2R22
                                R12G19
  22109026.109   116183718.974    22109032.477    90532797.4824   22109032.344  
                
  22167919.672   116493216.859    22167925.770    90773968.2774   22167925.660  
                
  22256715.602   119100192.542                    92633484.670    22256718.801  
  22256713.605  
  20543375.852   109970326.271                    85532474.945    20543379.805  
  20543374.664  
  20211338.219   106211321.213    20211344.473    82762115.1784   20211344.445  
                
  23254515.945   122203348.122    23254523.105    95223434.7624   23254522.961  
                
  24052538.953   126396943.238    24052545.254    98491164.5804   24052545.367  
                
  20547405.602   107977359.831    20547411.379    84138238.0524                 
                
  20673454.234   110395133.802                    85862885.056    20673457.074  
  20673452.348  
  21082667.906   110790215.899    21082676.492    86330093.0434   21082676.641  
                
  20465384.703   109207232.959                    84938956.302    20465387.855  
  20465382.547  
  22255348.820   118800576.859                    92400460.434    22255352.094  
  22255347.109  
  19781774.578   105670717.068                    82188329.583    19781777.957  
  19781774.020  
  24137302.992   126842391.829    24137307.887    98838242.0344                 
                
 21  8 14 21 30 40.0000000  0 14G17G15R21R 3G14G 7G 5G13R13G30R 2R22
                                R12G19
  22104032.945   116157479.749    22104039.285    90512351.3304   22104039.164  
                
  22163843.906   116471798.612    22163850.004    90757278.7394   22163849.914  
                
  22256882.914   119101088.004                    92634181.143    22256886.105  
  22256880.809  
  20541432.102   109959921.270                    85524382.182    20541436.051  
  20541430.926  
  20211878.312   106214159.421    20211884.531    82764326.7624   20211884.527  
                
  23259391.398   122228969.020    23259398.605    95243399.0644   23259398.473  
                
  24057465.812   126422834.220    24057472.121    98511339.3664   24057472.238  
                
  20545616.500   107967958.025    20545622.273    84130911.9694                 
                
  20669952.781   110376436.390                    85848342.646    20669955.625  
  20669950.938  
  21085370.148   110804416.285    21085378.723    86341158.2704   21085378.875  
                
  20471086.523   109237659.013                    84962621.013    20471089.699  
  20471084.363  
  22249574.102   118769751.096                    92376484.853    22249577.348  
  22249572.449  
  19783956.484   105682372.471                    82197394.910    19783959.863  
  19783955.926  
  24130008.430   126804058.807    24130013.336    98808372.1544                 
                
 21  8 14 21 30 50.0000000  0 14G17G15R21R 3G14G 7G 5G13R13G30R 2R22
                                R12G19
  22099047.477   116131280.863    22099053.793    90491936.6114   22099053.684  
                
  22159778.320   116450433.790    22159784.414    90740630.8314   22159784.328  
                
  22257066.938   119102072.831                    92634947.094    22257070.102  
  22257064.742  
  20539505.047   109949605.537                    85516358.825    20539508.984  
  20539503.867  
  20212427.805   106217047.016    20212434.000    82766576.8374   20212434.008  
                
  23264270.656   122254609.424    23264277.875    95263378.6024   23264277.719  
                
  24062398.000   126448753.052    24062404.312    98531535.8584   24062404.426  
                
  20543838.867   107958616.462    20543844.629    84123632.8224                 
                
  20666457.320   110357770.839                    85833824.969    20666460.160  
  20666455.461  
  21088078.695   110818649.753    21088087.262    86352249.2844   21088087.406  
                
  20476800.648   109268150.705                    84986336.754    20476803.824  
  20476798.492  
  22243809.664   118738979.953                    92352551.759    22243812.852  
  22243807.973  
  19786144.453   105694060.188                    82206485.351    19786147.824  
  19786143.875  
  24122714.797   126765730.707    24122719.738    98778506.1114                 
                
 21  8 14 21 31  0.0000000  0 14G17G15R21R 3G14G 7G 5G13R13G30R 2R22
                                R12G19
  22094069.742   116105122.732    22094076.070    90471553.6564   22094075.973  
                
  22155722.875   116429122.280    22155728.969    90724024.4664   22155728.891  
                
  22257267.664   119103147.123                    92635782.656    22257270.836  
  22257265.395  
  20537594.703   109939379.295                    85508405.086    20537598.629  
  20537593.527  
  20212986.719   106219984.159    20212992.902    82768865.5214   20212992.914  
                
  23269153.688   122280269.519    23269160.910    95283373.4994   23269160.719  
                
  24067335.477   126474699.783    24067341.820    98551754.0854   24067341.938  
                
  20542072.734   107949335.364    20542078.480    84116400.7974                 
                
  20662967.844   110339137.296                    85819332.232    20662970.695  
  20662965.977  
  21090793.555   110832916.480    21090802.121    86363366.2124   21090802.254  
                
  20482527.055   109298707.923                    85010103.483    20482530.242  
  20482524.883  
  22238055.508   118708263.938                    92328661.518    22238058.656  
  22238053.848  
  19788338.484   105705780.319                    82215601.004    19788341.855  
  19788337.906  
  24115422.133   126727407.754    24115427.156    98748644.0974                 
                
 21  8 14 21 31 10.0000000  0 14G17G15R21R 3G14G 7G 5G13R13G30R 2R22
                                R12G19
  22089099.781   116079005.391    22089106.156    90451202.4864   22089106.027  
                
  22151677.633   116407864.370    22151683.742    90707459.8684   22151683.664  
                
  22257485.172   119104311.189                    92636688.036    22257488.340  
  22257482.871  
  20535701.102   109929242.646                    85500521.017    20535705.027  
  20535699.953  
  20213555.078   106222970.915    20213561.270    82771192.8644   20213561.270  
                
  23274040.406   122305949.428    23274047.711    95303383.8154   23274047.477  
                
  24072278.305   126500674.451    24072284.621    98571994.0834   24072284.758  
                
  20540318.148   107940114.942    20540323.887    84109216.0544                 
                
  20659484.344   110320535.631                    85804864.292    20659487.164  
  20659482.445  
  21093514.773   110847216.605    21093523.344    86374509.1574   21093523.465  
                
  20488265.844   109329331.141                    85033921.530    20488269.012  
  20488263.660  
  22232311.789   118677603.304                    92304814.375    22232314.934  
  22232310.070  
  19790538.617   105717533.072                    82224742.041    19790541.988  
  19790538.023  
  24108130.531   126689090.261    24108135.617    98718786.3314                 
                
 21  8 14 21 31 20.0000000  0 14G17G15R21R 3G14G 7G 5G13R13G30R 2R22
                                R12G19
  22084137.602   116052929.026    22084144.020    90430883.2414   22084143.863  
                
  22147642.641   116386660.303    22147648.773    90690937.2114   22147648.688  
                
  22257719.461   119105564.967                    92637663.209    22257722.625  
  22257717.133  
  20533824.258   109919195.707                    85492706.739    20533828.191  
  20533823.137  
  20214132.883   106226007.285    20214139.082    82773558.8664   20214139.078  
                
  23278930.859   122331649.177    23278938.262    95323409.5794   23278938.004  
                
  24077226.367   126526676.882    24077232.691    98592255.7124   24077232.844  
                
  20538575.133   107930955.351    20538580.863    84102078.7064                 
                
  20656006.859   110301966.125                    85790421.336    20656009.652  
  20656004.973  
  21096242.352   110861550.136    21096250.930    86385678.1394   21096251.035  
                
  20494016.828   109360019.500                    85057790.265    20494019.996  
  20494014.660  
  22226578.570   118646998.199                    92281010.400    22226581.543  
  22226576.789  
  19792744.844   105729318.340                    82233908.364    19792748.223  
  19792744.250  
  24100840.070   126650778.382    24100845.117    98688932.9194                 
                
 21  8 14 21 31 30.0000000  0 14G17G15R21R 3G14G 7G 5G13R13G30R 2R22
                                R12G19
  22079183.250   116026893.798    22079189.676    90410596.0514   22079189.527  
                
  22143617.898   116365510.159    22143624.055    90674456.5734   22143623.965  
                
  22257970.508   119106908.446                    92638708.140    22257973.680  
  22257968.195  
  20531964.188   109909238.551                    85484962.287    20531968.121  
  20531963.098  
  20214720.109   106229093.202    20214726.324    82775963.4764   20214726.312  
                
  23283825.117   122357368.842    23283832.570    95343450.8614   23283832.289  
                
  24082179.727   126552706.964    24082186.055    98612538.8934   24082186.215  
                
  20536843.680   107921856.457    20536849.398    84094988.6574                 
                
  20652535.406   110283428.799                    85776003.404    20652538.188  
  20652533.531  
  21098976.289   110875917.070    21098984.867    86396873.1484   21098984.973  
                
  20499780.047   109390773.128                    85081709.754    20499783.219  
  20499777.891  
  22220855.727   118616448.909                    92257249.842    22220858.633  
  22220853.902  
  19794957.141   105741136.064                    82243099.929    19794960.531  
  19794956.539  
  24093550.664   126612472.195    24093555.691    98659083.9494                 
                
 21  8 14 21 31 40.0000000  0 14G17G15R21R 3G14G 7G 5G13R13G30R 2R22
                                R12G19
  22074236.727   116000899.675    22074243.145    90390340.8904   22074243.012  
                
  22139603.422   116344413.991    22139609.590    90658018.0064   22139609.492  
                
  22258238.305   119108341.552                    92639822.769    22258241.492  
  22258235.980  
  20530120.852   109899371.052                    85477287.566    20530124.812  
  20530119.770  
  20215316.750   106232228.561    20215322.977    82778406.6134   20215322.953  
                
  23288723.164   122383108.266    23288730.594    95363507.5634   23288730.312  
                
  24087138.281   126578764.521    24087144.645    98632843.4794   24087144.816  
                
  20535123.766   107912818.275    20535129.480    84087945.9174                 
                
  20649069.961   110264923.612                    85761610.489    20649072.754  
  20649068.086  
  21101716.562   110890317.282    21101725.152    86408094.0924   21101725.246  
                
  20505555.477   109421591.939                    85105679.919    20505558.621  
  20505553.305  
  22215143.227   118585955.448                    92233532.730    22215146.160  
  22215141.457  
  19797175.477   105752986.030                    82252316.556    19797178.855  
  19797174.879  
  24086262.383   126574171.827    24086267.363    98629239.5054                 
                
 21  8 14 21 31 50.0000000  0 14G17G15R21R 3G14G 7G 5G13R13G30R 2R22
                                R12G19
  22069298.070   115974946.864    22069304.473    90370117.9194   22069304.355  
                
  22135599.273   116323371.986    22135605.465    90641621.6464   22135605.344  
                
  22258522.906   119109864.572                    92641007.322    22258526.105  
  22258520.582  
  20528294.344   109889593.555                    85469682.847    20528298.309  
  20528293.273  
  20215922.828   106235413.540    20215929.062    82780888.4204   20215929.035  
                
  23293625.039   122408867.656    23293632.371    95383579.8164   23293632.102  
                
  24092102.047   126604849.563    24092108.445    98653169.4744   24092108.625  
                
  20533415.477   107903841.137    20533421.184    84080950.7434                 
                
  20645610.562   110246450.675                    85747242.666    20645613.371  
  20645608.715  
  21104463.219   110904751.049    21104471.812    86419341.1734   21104471.902  
                
  20511343.125   109452475.911                    85129700.785    20511346.266  
  20511340.953  
  22209441.359   118555518.206                    92209859.296    22209444.223  
  22209439.559  
  19799399.930   105764868.614                    82261558.571    19799403.309  
  19799399.344  
  24078975.258   126535877.465    24078980.203    98599399.7484                 
                
 21  8 14 21 32  0.0000000  0 14G17G15R21R 3G14G 7G 5G13R13G30R 2R22
                                R12G19
  22064367.219   115949035.072    22064373.629    90349926.9194   22064373.523  
                
  22131605.367   116302383.868    22131611.574    90625267.2674   22131611.422  
                
  22258824.211   119111476.944                    92642261.408    22258827.406  
  22258821.895  
  20526484.578   109879905.676                    85462147.830    20526488.551  
  20526483.523  
  20216538.266   106238647.663    20216544.496    82783408.5174   20216544.461  
                
  23298530.656   122434646.640    23298537.887    95403667.3344   23298537.613  
                
  24097070.992   126630961.643    24097077.398    98673516.5414   24097077.586  
                
  20531718.719   107894924.592    20531724.410    84074002.7804                 
                
  20642157.141   110228009.627                    85732899.627    20642159.961  
  20642155.281  
  21107216.172   110919217.902    21107224.773    86430614.0434   21107224.871  
                
  20517142.875   109483424.493                    85153771.900    20517145.996  
  20517140.715  
  22203749.891   118525136.865                    92186229.371    22203752.793  
  22203748.160  
  19801630.383   105776783.266                    82270825.519    19801633.758  
  19801629.805  
  24071689.164   126497588.776    24071694.113    98569564.4034                 
                
 21  8 14 21 32 10.0000000  0 14G17G15R21R 3G14G 7G 5G13R13G30R 2R22
                                R12G19
  22059444.273   115923164.930    22059450.730    90329768.3824   22059450.641  
                
  22127621.797   116281450.121    22127628.004    90608955.2644   22127627.848  
                
  22259142.305   119113179.202                    92643585.378    22259145.480  
  22259139.984  
  20524691.656   109870308.053                    85454683.021    20524695.648  
  20524690.594  
  20217163.141   106241931.402    20217169.352    82785967.2774   20217169.332  
                
  23303440.023   122460445.630    23303447.238    95423770.4554   23303446.957  
                
  24102045.203   126657101.135    24102051.527    98693884.9844   24102051.758  
                
  20530033.602   107886069.255    20530039.277    84067102.5164                 
                
  20638709.750   110209600.851                    85718581.715    20638712.559  
  20638707.859  
  21109975.508   110933718.321    21109984.117    86441913.0644   21109984.195  
                
  20522954.812   109514438.110                    85177893.608    20522957.898  
  20522952.633  
  22198069.094   118494812.228                    92162643.586    22198072.000  
  22198067.328  
  19803866.914   105788730.411                    82280117.746    19803870.285  
  19803866.355  
  24064404.297   126459306.334    24064409.211    98539733.9424                 
                
 21  8 14 21 32 20.0000000  0 14G17G15R21R 3G14G 7G 5G13R13G30R 2R22
                                R12G19
  22054529.227   115897336.233    22054535.730    90309642.1244   22054535.621  
                
  22123648.562   116260570.647    22123654.766    90592685.5534   22123654.617  
                
  22259477.195   119114971.332                    92644979.256    22259480.348  
  22259474.879  
  20522915.570   109860800.502                    85447288.252    20522919.586  
  20522914.496  
  20217797.422   106245264.561    20217803.617    82788564.5414   20217803.605  
                
  23308353.227   122486264.399    23308360.383    95443888.9824   23308360.102  
                
  24107024.562   126683267.806    24107030.824    98714274.6004   24107031.109  
                
  20528360.102   107877274.943    20528365.770    84060249.8054                 
                
  20635268.430   110191224.379                    85704288.899    20635271.238  
  20635266.547  
  21112741.219   110948252.183    21112749.828    86453238.1444   21112749.902  
                
  20528778.883   109545516.510                    85202065.696    20528781.945  
  20528776.680  
  22192398.945   118464544.307                    92139101.854    22192401.832  
  22192397.195  
  19806109.500   105800709.886                    82289435.117    19806112.859  
  19806108.953  
  24057120.617   126421030.196    24057125.547    98509908.3794                 
                
 21  8 14 21 32 30.0000000  0 14G17G15R21R 3G14G 7G 5G13R13G30R 2R22
                                R12G19
  22049622.133   115871549.291    22049628.660    90289548.4044   22049628.523  
                
  22119685.688   116239745.573    22119691.883    90576458.2224   22119691.727  
                
  22259828.859   119116853.224                    92646442.973    22259831.984  
  22259826.547  
  20521156.305   109851383.005                    85439963.533    20521160.312  
  20521155.215  
  20218441.094   106248647.084    20218447.277    82791200.2774   20218447.266  
                
  23313270.180   122512102.983    23313277.348    95464022.9474   23313277.066  
                
  24112009.086   126709461.617    24112015.309    98734685.3584   24112015.621  
                
  20526698.234   107868541.769    20526703.898    84053444.7294                 
                
  20631833.094   110172879.872                    85690020.929    20631835.871  
  20631831.215  
  21115513.289   110962819.469    21115521.902    86464589.2664   21115521.965  
                
  20534614.977   109576659.011                    85226287.636    20534617.996  
  20534612.781  
  22186739.344   118434332.951                    92115604.144    22186742.348  
  22186737.602  
  19808358.117   105812721.576                    82298777.537    19808361.480  
  19808357.582  
  24049838.141   126382760.435    24049843.086    98480087.7904                 
                
 21  8 14 21 32 40.0000000  0 14G17G15R21R 3G14G 7G 5G13R13G30R 2R22
                                R12G19
  22044722.945   115845803.994    22044729.484    90269487.1314   22044729.340  
                
  22115733.141   116218974.812    22115739.336    90560273.2204   22115739.172  
                
  22260197.273   119118824.735                    92647976.358    22260200.379  
  22260194.969  
  20519413.844   109842055.575                    85432708.861    20519417.863  
  20519412.723  
  20219094.109   106252078.743    20219100.285    82793874.3044   20219100.285  
                
  23318190.852   122537961.198    23318198.008    95484172.1964   23318197.730  
                
  24116998.625   126735682.170    24117004.914    98755116.9574   24117005.184  
                
  20525047.961   107859869.555    20525053.629    84046687.1574                 
                
  20628403.758   110154567.499                    85675777.989    20628406.539  
  20628401.879  
  21118291.664   110977419.940    21118300.285    86475966.2574   21118300.348  
                
  20540463.086   109607865.648                    85250559.472    20540466.078  
  20540460.891  
  22181090.422   118404178.541                    92092150.736    22181093.406  
  22181088.656  
  19810612.734   105824765.388                    82308144.940    19810616.098  
  19810612.195  
  24042556.867   126344496.932    24042561.809    98450272.0724                 
                
 21  8 14 21 32 50.0000000  0 14G17G15R21R 3G14G 7G 5G13R13G30R 2R22
                                R12G19
  22039831.734   115820100.549    22039838.250    90249458.4744   22039838.113  
                
  22111791.039   116198258.869    22111797.246    90544130.9324   22111797.086  
                
  22260582.461   119120886.009                    92649579.609    22260585.551  
  22260580.195  
  20517688.266   109832818.382                    85425524.377    20517692.297  
  20517687.129  
  20219756.531   106255559.757    20219762.695    82796586.7814   20219762.695  
                
  23323115.289   122563839.235    23323122.426    95504336.8784   23323122.184  
                
  24121993.344   126761929.529    24121999.652    98775569.4394   24121999.895  
                
  20523409.367   107851258.670    20523415.047    84039977.3824                 
                
  20624980.508   110136287.476                    85661560.221    20624983.297  
  20624978.629  
  21121076.430   110992053.901    21121085.051    86487369.3394   21121085.125  
                
  20546323.297   109639136.832                    85274881.502    20546326.273  
  20546321.129  
  22175452.211   118374081.096                    92068741.593    22175455.188  
  22175450.465  
  19812873.367   105836841.281                    82317537.305    19812876.719  
  19812872.816  
  24035276.891   126306240.050    24035281.781    98420461.5254                 
                
 21  8 14 21 33  0.0000000  0 14G17G15R21R 3G14G 7G 5G13R13G30R 2R22
                                R12G19
  22034948.398   115794438.578    22034954.883    90229462.1314   22034954.770  
                
  22107859.258   116177597.240    22107865.477    90528030.9664   22107865.316  
                
  22260984.375   119123036.831                    92651252.454    22260987.457  
  22260982.102  
  20515979.492   109823671.223                    85418409.929    20515983.539  
  20515978.344  
  20220428.258   106259089.762    20220434.418    82799337.4354   20220434.418  
                
  23328043.445   122589736.714    23328050.535    95524516.7354   23328050.320  
                
  24126993.055   126788203.218    24126999.359    98796042.4464   24126999.609  
                
  20521782.375   107842708.803    20521788.062    84033315.1434                 
                
  20621563.188   110118039.239                    85647367.133    20621565.984  
  20621561.320  
  21123867.484   111006720.986    21123876.102    86498798.2374   21123876.176  
                
  20552195.438   109670471.756                    85299253.105    20552198.391  
  20552193.266  
  22169824.656   118344040.780                    92045376.924    22169827.621  
  22169822.906  
  19815139.969   105848949.128                    82326954.519    19815143.324  
  19815139.418  
  24027998.102   126267989.613    24028002.980    98390655.9894                 
                
 21  8 14 21 33 10.0000000  0 14G17G15R21R 3G14G 7G 5G13R13G30R 2R22
                                R12G19
  22030073.133   115768818.975    22030079.613    90209498.8094   22030079.504  
                
  22103937.906   116156990.377    22103944.121    90511973.6744   22103943.980  
                
  22261403.133   119125277.717                    92652995.364    22261406.219  
  22261400.871  
  20514287.633   109814614.612                    85411365.908    20514291.715  
  20514286.465  
  20221109.391   106262669.103    20221115.547    82802126.5334   20221115.555  
                
  23332975.438   122615654.062    23332982.418    95544712.0894   23332982.223  
                
  24131997.828   126814503.544    24132004.141    98816536.2104   24132004.391  
                
  20520167.117   107834220.531    20520172.809    84026700.9094                 
                
  20618151.914   110099823.188                    85633199.102    20618154.707  
  20618150.027  
  21126664.930   111021421.583    21126673.543    86510253.2424   21126673.621  
                
  20558079.594   109701870.741                    85323674.537    20558082.547  
  20558077.402  
  22164207.945   118314058.064                    92022057.029    22164210.859  
  22164206.172  
  19817412.617   105861089.193                    82336396.786    19817415.961  
  19817412.059  
  24020720.602   126229746.098    24020725.527    98360855.8444                 
                
 21  8 14 21 33 20.0000000  0 14G17G15R21R 3G14G 7G 5G13R13G30R 2R22
                                R12G19
  22025205.828   115743241.279    22025212.332    90189568.1504   22025212.219  
                
  22100026.898   116136437.952    22100033.113    90495958.8054   22100032.980  
                
  22261838.578   119127607.964                    92654807.810    22261841.676  
  22261836.309  
  20512612.586   109805648.048                    85404391.906    20512616.703  
  20512611.410  
  20221799.797   106266297.268    20221805.953    82804953.6764   20221805.965  
                
  23337911.109   122641590.857    23337917.980    95564922.5814   23337917.793  
                
  24137007.508   126840830.009    24137013.891    98837050.3244   24137014.145  
                
  20518563.477   107825793.362    20518569.156    84020134.2774                 
                
  20614746.633   110081639.215                    85619056.022    20614749.430  
  20614744.738  
  21129468.648   111036155.252    21129477.250    86521734.0134   21129477.320  
                
  20563975.602   109733333.087                    85348145.241    20563978.566  
  20563973.422  
  22158601.891   118284132.606                    91998781.673    22158604.809  
  22158600.113  
  19819691.195   105873260.965                    82345863.714    19819694.535  
  19819690.645  
  24013444.312   126191509.106    24013449.293    98331060.7944                 
                
 21  8 14 21 33 30.0000000  0 14G17G15R21R 3G14G 7G 5G13R13G30R 2R22
                                R12G19
  22020346.641   115717706.174    22020353.164    90169670.6724   22020353.059  
                
  22096126.414   116115940.701    22096132.645    90479986.9294   22096132.496  
                
  22262290.875   119130028.350                    92656690.338    22262293.969  
  22262288.605  
  20510954.492   109796772.148                    85397488.428    20510958.617  
  20510953.305  
  20222499.625   106269974.839    20222505.777    82807819.3194   20222505.789  
                
  23342850.594   122667547.685    23342857.391    95585148.6864   23342857.191  
                
  24142022.320   126867183.095    24142028.723    98857585.1874   24142028.973  
                
  20516971.562   107817427.802    20516977.246    84013615.6564                 
                
  20611347.438   110063487.672                    85604938.170    20611350.234  
  20611345.543  
  21132278.789   111050922.591    21132287.387    86533241.0254   21132287.453  
                
  20569883.664   109764859.642                    85372665.892    20569886.648  
  20569881.492  
  22153006.680   118254265.100                    91975551.380    22153009.586  
  22153004.926  
  19821975.836   105885465.102                    82355355.820    19821979.176  
  19821975.281  
  24006169.430   126153279.379    24006174.438    98301271.3894                 
                
 21  8 14 21 33 40.0000000  0 14G17G15R21R 3G14G 7G 5G13R13G30R 2R22
                                R12G19
  22015495.461   115692213.169    22015502.004    90149806.0004   22015501.898  
                
  22092236.336   116095498.226    22092242.574    90464057.7294   22092242.410  
                
  22262759.930   119132538.393                    92658642.594    22262763.023  
  22262757.645  
  20509313.273   109787986.637                    85390655.255    20509317.414  
  20509312.059  
  20223208.742   106273701.309    20223214.895    82810723.0664   20223214.910  
                
  23347793.773   122693524.053    23347800.496    95605390.0164   23347800.320  
                
  24147042.102   126893562.130    24147048.496    98878140.2894   24147048.734  
                
  20515391.297   107809123.449    20515396.980    84007144.7374                 
                
  20607954.227   110045368.096                    85590845.160    20607957.004  
  20607952.355  
  21135095.234   111065723.090    21135103.832    86544773.8814   21135103.887  
                
  20575803.516   109796449.184                    85397235.523    20575806.551  
  20575801.332  
  22147422.312   118224455.424                    91952366.095    22147425.207  
  22147420.566  
  19824266.406   105897700.925                    82364872.582    19824269.754  
  19824265.871  
  23998895.773   126115056.588    23998900.887    98271487.4044                 
                
 21  8 14 21 33 50.0000000  0 14G17G15R21R 3G14G 7G 5G13R13G30R 2R22
                                R12G19
  22010652.359   115666762.529    22010658.887    90129974.3434   22010658.781  
                
  22088356.742   116075110.836    22088362.988    90448171.4514   22088362.801  
                
  22263245.727   119135138.091                    92660664.615    22263248.852  
  22263243.465  
  20507688.969   109779291.605                    85383892.453    20507693.121  
  20507687.730  
  20223927.188   106277476.746    20223933.340    82813664.9664   20223933.359  
                
  23352740.695   122719520.037    23352747.375    95625646.6244   23352747.203  
                
  24152066.961   126919967.239    24152073.223    98898715.7014   24152073.445  
                
  20513822.734   107800880.578    20513828.426    84000721.7204                 
                
  20604567.070   110027280.823                    85576777.296    20604569.832  
  20604565.207  
  21137918.023   111080556.914    21137926.609    86556332.6964   21137926.676  
                
  20581735.227   109828101.967                    85421854.338    20581738.289  
  20581733.027  
  22141848.828   118194703.788                    91929225.971    22141851.707  
  22141847.066  
  19826562.953   105909968.660                    82374414.130    19826566.293  
  19826562.410  
  23991623.508   126076840.920    23991628.695    98241708.9564                 
                
 21  8 14 21 34  0.0000000  0 14G17G15R21R 3G14G 7G 5G13R13G30R 2R22
                                R12G19
  22005817.305   115641354.164    22005823.781    90110175.6144   22005823.703  
                
  22084487.594   116054778.311    22084493.844    90432327.9304   22084493.645  
                
  22263748.289   119137827.395                    92662756.293    22263751.406  
  22263746.062  
  20506081.516   109770686.828                    85377199.850    20506085.676  
  20506080.273  
  20224654.906   106281300.932    20224661.059    82816644.8574   20224661.078  
                
  23357691.281   122745535.477    23357697.930    95645918.3914   23357697.754  
                
  24157096.586   126946398.037    24157102.824    98919311.1304   24157103.020  
                
  20512265.844   107792699.037    20512271.543    83994346.4954                 
                
  20601185.867   110009225.369                    85562734.167    20601188.645  
  20601184.004  
  21140747.109   111095423.837    21140755.672    86567917.3074   21140755.746  
                
  20587678.758   109859817.763                    85446522.184    20587681.844  
  20587676.578  
  22136286.141   118165010.160                    91906130.928    22136289.074  
  22136284.422  
  19828865.414   105922267.986                    82383980.291    19828868.758  
  19828864.887  
  23984352.641   126038632.359    23984357.844    98211936.0474                 
                
 21  8 14 21 34 10.0000000  0 14G17G15R21R 3G14G 7G 5G13R13G30R 2R22
                                R12G19
  22000990.391   115615988.672    22000996.844    90090410.2894   22000996.797  
                
  22080628.969   116034501.129    22080635.242    90416527.5474   22080635.012  
                
  22264267.656   119140606.647                    92664917.939    22264270.789  
  22264265.492  
  20504491.039   109762172.926                    85370577.929    20504495.211  
  20504489.789  
  20225391.977   106285174.299    20225398.129    82819663.0624   20225398.152  
                
  23362645.609   122771570.823    23362652.211    95666205.6524   23362652.062  
                
  24162131.047   126972854.973    24162137.391    98939926.9314   24162137.578  
                
  20510720.703   107784579.322    20510726.406    83988019.4444                 
                
  20597810.703   109991202.238                    85548716.189    20597813.500  
  20597808.855  
  21143582.586   111110324.359    21143591.125    86579528.1044   21143591.223  
                
  20593634.188   109891597.070                    85471239.426    20593637.289  
  20593632.047  
  22130734.477   118135375.141                    91883081.444    22130737.457  
  22130732.781  
  19831173.875   105934599.402                    82393571.387    19831177.219  
  19831173.355  
  23977083.219   126000431.373    23977088.402    98182169.0384                 
                
 21  8 14 21 34 20.0000000  0 14G17G15R21R 3G14G 7G 5G13R13G30R 2R22
                                R12G19
  21996171.594   115590665.772    21996178.082    90070678.1654   21996178.027  
                
  22076780.836   116014279.108    22076787.137    90400770.1324   22076786.906  
                
  22264803.789   119143475.574                    92667149.348    22264806.910  
  22264801.676  
  20502917.492   109753749.656                    85364026.494    20502921.660  
  20502916.227  
  20226138.344   106289096.494    20226144.492    82822719.3194   20226144.516  
                
  23367603.711   122797625.762    23367610.211    95686508.1964   23367610.121  
                
  24167170.445   126999337.565    24167176.859    98960562.6954   24167177.051  
                
  20509187.289   107776521.174    20509192.996    83981740.3674                 
                
  20594441.523   109973211.081                    85534723.079    20594444.355  
  20594439.688  
  21146424.383   111125258.130    21146432.895    86591164.8004   21146433.008  
                
  20599601.367   109923439.047                    85496005.411    20599604.453  
  20599599.234  
  22125193.789   118105798.812                    91860077.643    22125196.828  
  22125192.098  
  19833488.281   105946962.519                    82403187.137    19833491.625  
  19833487.777  
  23969815.273   125962237.803    23969820.363    98152407.8174                 
                
 21  8 14 21 34 30.0000000  0 14G17G15R21R 3G14G 7G 5G13R13G30R 2R22
                                R12G19
  21991360.930   115565385.646    21991367.457    90050979.3774   21991367.379  
                
  22072943.250   115994112.449    22072949.562    90385055.8584   22072949.312  
                
  22265356.719   119146434.352                    92669450.638    22265359.836  
  22265354.660  
  20501360.930   109745417.279                    85357545.747    20501365.090  
  20501359.668  
  20226894.016   106293067.580    20226900.164    82825813.6704   20226900.188  
                
  23372565.562   122823700.350    23372571.934    95706826.0654   23372571.898  
                
  24172214.766   127025845.738    24172221.223    98981218.4014   24172221.395  
                
  20507665.617   107768524.720    20507671.320    83975509.3614                 
                
  20591078.398   109955252.187                    85520755.050    20591081.238  
  20591076.551  
  21149272.539   111140225.279    21149281.020    86602827.5054   21149281.152  
                
  20605580.266   109955343.541                    85520820.030    20605583.344  
  20605578.152  
  22119664.117   118076281.097                    91837119.443    22119667.160  
  22119662.445  
  19835808.617   105959357.333                    82412827.545    19835811.969  
  19835808.117  
  23962548.766   125924051.821    23962553.738    98122652.5134                 
                
 21  8 14 21 34 40.0000000  0 14G17G15R21R 3G14G 7G 5G13R13G30R 2R22
                                R12G19
  21986558.344   115540147.937    21986564.871    90031313.6434   21986564.812  
                
  22069116.172   115974001.013    22069122.480    90369384.6104   22069122.219  
                
  22265926.383   119149482.665                    92671821.557    22265929.496  
  22265924.391  
  20499821.273   109737175.383                    85351135.392    20499825.414  
  20499820.000  
  20227658.922   106297087.215    20227665.055    82828945.8554   20227665.086  
                
  23377531.078   122849794.256    23377537.363    95727158.9884   23377537.359  
                
  24177263.977   127052379.098    24177270.391    99001893.7414   24177270.539  
                
  20506155.641   107760589.754    20506161.336    83969326.2744                 
                
  20587721.281   109937325.391                    85506811.974    20587724.113  
  20587719.441  
  21152126.969   111155225.470    21152135.418    86614515.9654   21152135.574  
                
  20611570.852   109987310.468                    85545683.188    20611573.914  
  20611568.734  
  22114145.469   118046822.125                    91814206.884    22114148.496  
  22114143.801  
  19838134.852   105971783.666                    82422492.468    19838138.203  
  19838134.340  
  23955283.711   125885873.313    23955288.535    98092903.0224                 
                
 21  8 14 21 34 50.0000000  0 14G17G15R21R 3G14G 7G 5G13R13G30R 2R22
                                R12G19
  21981763.977   115514953.370    21981770.492    90011681.5194   21981770.445  
                
  22065299.688   115953945.277    22065305.984    90353756.7694   22065305.723  
                
  22266512.875   119152620.954                    92674262.447    22266516.000  
  22266510.977  
  20498298.586   109729024.347                    85344795.697    20498302.715  
  20498297.293  
  20228433.156   106301155.805    20228439.270    82832116.1894   20228439.309  
                
  23382500.367   122875908.027    23382506.672    95747507.3714   23382506.656  
                
  24182318.047   127078938.039    24182324.410    99022589.0284   24182324.555  
                
  20504657.461   107752716.777    20504663.148    83963191.4884                 
                
  20584370.195   109919430.700                    85492893.902    20584373.004  
  20584368.375  
  21154987.789   111170259.178    21154996.211    86626230.5274   21154996.387  
                
  20617573.125   110019339.818                    85570594.904    20617576.184  
  20617571.016  
  22108637.945   118017422.464                    91791340.499    22108640.918  
  22108636.285  
  19840467.039   105984241.747                    82432182.084    19840470.391  
  19840466.512  
  23948020.188   125847702.857    23948024.891    98063159.7964                 
                
 21  8 14 21 35  0.0000000  0 15G17G15R21R 3G14G 7G 5G13R13R 4G30R 2
                                R22R12G19
  21976977.773   115489801.671    21976984.266    89992082.7774   21976984.219  
                
  22061493.742   115933944.898    22061500.008    90338172.0574   22061499.770  
                
  22267116.094   119155848.778                    92676772.973    22267119.238  
  22267114.281  
  20496792.867   109720964.089                    85338526.596    20496796.984  
  20496791.582  
  20229216.617   106305272.952    20229222.703    82835324.3604   20229222.758  
                
  23387473.352   122902041.206    23387479.699    95767870.8714   23387479.652  
                
  24187376.867   127105522.100    24187383.184    99043303.8624   24187383.344  
                
  20503171.031   107744905.534    20503176.707    83957104.7994                 
                
  20581025.086   109901567.882                    85479000.605    20581027.844  
  20581023.262  
  23601949.750   126387363.774                    98301276.381    23601951.000  
  23601948.500  
  21157854.922   111185326.026    21157863.324    86637970.9244   21157863.508  
                
  20623587.102   110051431.644                    85595555.212    20623590.168  
  20623585.000  
  22103141.445   117988081.826                    91768520.015    22103144.477  
  22103139.812  
  19842805.133   105996731.403                    82441896.266    19842808.480  
  19842804.594  
  23940758.102   125809540.187    23940762.762    98033422.6474                 
                
 21  8 14 21 35 10.0000000  0 15G17G15R21R 3G14G 7G 5G13R13R 4G30R 2
                                R22R12G19
  21972199.766   115464693.171    21972206.246    89972517.7184   21972206.203  
                
  22057698.391   115914000.212    22057704.621    90322630.7434   22057704.418  
                
  22267736.109   119159166.515                    92679353.448    22267739.262  
  22267734.320  
  20495304.117   109712994.724                    85332328.200    20495308.215  
  20495302.852  
  20230009.367   106309438.880    20230015.426    82838570.5434   20230015.500  
                
  23392450.102   122928194.020    23392456.488    95788249.6814   23392456.410  
                
  24192440.430   127132131.322    24192446.750    99064038.3104   24192446.883  
                
  20501696.391   107737156.270    20501702.055    83951066.4124                 
                
  20577686.039   109883737.605                    85465132.596    20577688.789  
  20577684.223  
  23594910.125   126349666.991                    98271956.702    23594911.547  
  23594908.887  
  21160728.391   111200426.272    21160736.781    86649737.3504   21160736.977  
                
  20629612.750   110083585.697                    85620563.928    20629615.816  
  20629610.641  
  22097656.133   117958800.716                    91745745.822    22097659.180  
  22097654.496  
  19845149.133   106009252.644                    82451635.011    19845152.473  
  19845148.605  
  23933497.586   125771385.729    23933502.191    98003691.8934                 
                
 21  8 14 21 35 20.0000000  0 15G17G15R21R 3G14G 7G 5G13R13R 4G30R 2
                                R22R12G19
  21967430.047   115439628.202    21967436.516    89952986.5814   21967436.473  
                
  22053913.672   115894111.375    22053919.867    90307132.9604   22053919.680  
                
  22268372.914   119162574.116                    92682003.811    22268376.070  
  22268371.160  
  20493832.406   109705116.500                    85326200.701    20493836.480  
  20493831.152  
  20230811.406   106313653.616    20230817.445    82841854.7624   20230817.527  
                
  23397430.625   122954366.511    23397437.000    95808643.8334   23397436.906  
                
  24197508.703   127158765.859    24197515.141    99084792.4824   24197515.273  
                
  20500233.578   107729469.138    20500239.223    83945076.4374                 
                
  20574353.062   109865939.703                    85451289.791    20574355.797  
  20574351.242  
  23587878.133   126312011.330                    98242668.967    23587879.684  
  23587877.027  
  21163608.242   111215559.971    21163616.625    86661529.8374   21163616.820  
                
  20635649.977   110115801.533                    85645620.675    20635653.047  
  20635647.848  
  22092182.055   117929579.374                    91723018.118    22092185.020  
  22092180.363  
  19847499.047   106021805.477                    82461398.330    19847502.383  
  19847498.516  
  23926238.633   125733239.552    23926243.203    97973967.5904                 
                
 21  8 14 21 35 30.0000000  0 15G17G15R21R 3G14G 7G 5G13R13R 4G30R 2
                                R22R12G19
  21962668.570   115414606.518    21962675.039    89933489.1754   21962674.988  
                
  22050139.547   115874278.290    22050145.730    90291678.6144   22050145.562  
                
  22269026.484   119166071.403                    92684723.904    22269029.605  
  22269024.781  
  20492377.680   109697329.206                    85320143.909    20492381.730  
  20492376.438  
  20231622.680   106317916.879    20231628.707    82845176.7914   20231628.797  
                
  23402414.852   122980558.371    23402421.199    95829053.0704   23402421.086  
                
  24202581.797   127185425.194    24202588.250    99105565.9804   24202588.371  
                
  20498782.555   107721843.944    20498788.180    83939134.7294                 
                
  20571026.070   109848173.781                    85437471.871    20571028.789  
  20571024.258  
  23580853.836   126274396.848                    98213413.267    23580855.492  
  23580852.797  
  21166494.414   111230726.889    21166502.781    86673348.2094   21166502.984  
                
  20641698.836   110148079.449                    85670725.718    20641701.887  
  20641696.691  
  22086719.094   117900417.613                    91700336.742    22086721.973  
  22086717.391  
  19849854.852   106034389.765                    82471186.114    19849858.180  
  19849854.324  
  23918981.195   125695101.497    23918985.777    97944249.6124                 
                
 21  8 14 21 35 40.0000000  0 15G17G15R21R 3G14G 7G 5G13R13R 4G30R 2
                                R22R12G19
  21957915.289   115389627.980    21957921.762    89914025.3824   21957921.711  
                
  22046376.016   115854500.884    22046382.195    90276267.6484   22046382.020  
                
  22269696.773   119169658.174                    92687513.642    22269699.859  
  22269695.102  
  20490939.938   109689632.797                    85314157.816    20490943.965  
  20490938.699  
  20232443.148   106322228.530    20232449.172    82848536.5204   20232449.270  
                
  23407402.703   123006769.651    23407409.086    95849477.4334   23407408.945  
                
  24207659.609   127212109.043    24207665.996    99126358.6014   24207666.133  
                
  20497343.281   107714280.536    20497348.887    83933241.1674                 
                
  20567705.047   109830439.759                    85423678.732    20567707.758  
  20567703.246  
  23573837.164   126236823.479                    98184189.565    23573838.930  
  23573836.176  
  21169386.875   111245926.895    21169395.223    86685192.3754   21169395.426  
                
  20647759.180   110180418.610                    85695878.406    20647762.242  
  20647757.020  
  22081267.258   117871315.492                    91677701.765    22081270.160  
  22081265.570  
  19852216.531   106047005.461                    82480998.311    19852219.848  
  19852215.984  
  23911725.336   125656971.634    23911729.918    97914538.0224                 
                
 21  8 14 21 35 50.0000000  0 15G17G15R21R 3G14G 7G 5G13R13R 4G30R 2
                                R22R12G19
  21953170.312   115364693.015    21953176.789    89894595.5444   21953176.746  
                
  22042623.133   115834779.411    22042629.309    90260900.2784   22042629.148  
                
  22270383.859   119173334.825                    92690373.238    22270386.922  
  22270382.199  
  20489519.203   109682027.476                    85308242.565    20489523.215  
  20489517.977  
  20233272.859   106326588.695    20233278.895    82851934.0514   20233278.977  
                
  23412394.297   123033000.430    23412400.641    95869916.9994   23412400.496  
                
  24212742.133   127238817.546    24212748.441    99147170.4284   24212748.594  
                
  20495915.828   107706779.214    20495921.410    83927395.9764                 
                
  20564390.047   109812737.873                    85409910.590    20564392.742  
  20564388.254  
  23566828.242   126199291.669                    98154998.148    23566830.125  
  23566827.367  
  21172285.688   111261160.220    21172294.000    86697062.4824   21172294.215  
                
  20653831.094   110212819.481                    85721079.081    20653834.168  
  20653828.938  
  22075826.672   117842273.428                    91655113.510    22075829.625  
  22075824.969  
  19854584.070   106059652.398                    82490834.803    19854587.383  
  19854583.539  
  23904471.062   125618850.168    23904475.633    97884832.9794                 
                
 21  8 14 21 36  0.0000000  0 15G17G15R21R 3G14G 7G 5G13R13R 4G30R 2
                                R22R12G19
  21948433.656   115339801.782    21948440.156    89875199.7894   21948440.117  
                
  22038880.930   115815114.025    22038887.086    90245576.6104   22038886.945  
                
  22271087.711   119177101.162                    92693302.645    22271090.770  
  22271086.051  
  20488115.508   109674513.392                    85302398.278    20488119.477  
  20488114.297  
  20234111.805   106330997.398    20234117.855    82855369.4014   20234117.938  
                
  23417389.625   123059250.727    23417395.891    95890371.7904   23417395.754  
                
  24217829.281   127265550.709    24217835.582    99168001.4534   24217835.773  
                
  20494500.219   107699340.137    20494505.777    83921599.2844                 
                
  20561081.125   109795068.379                    85396167.682    20561083.816  
  20561079.320  
  23559827.125   126161801.495                    98125839.163    23559829.066  
  23559826.297  
  21175190.836   111276426.843    21175199.109    86708958.5564   21175199.340  
                
  20659914.508   110245281.758                    85746327.508    20659917.598  
  20659912.352  
  22070397.375   117813291.679                    91632572.143    22070400.363  
  22070395.703  
  19856957.492   106072330.746                    82500695.743    19856960.789  
  19856956.953  
  23897218.406   125580737.350    23897223.031    97855134.6714                 
                
 21  8 14 21 36 10.0000000  0 15G17G15R21R 3G14G 7G 5G13R13R 4G30R 2
                                R22R12G19
  21943705.289   115314954.119    21943711.801    89855837.9784   21943711.754  
                
  22035149.406   115795504.760    22035155.551    90230296.6644   22035155.410  
                
  22271808.273   119180957.088                    92696301.701    22271811.332  
  22271806.566  
  20486728.805   109667090.245                    85296624.715    20486732.758  
  20486727.586  
  20234959.945   106335454.427    20234966.012    82858842.4184   20234966.086  
                
  23422388.617   123085520.451    23422394.844    95910841.7104   23422394.695  
                
  24222921.031   127292308.171    24222927.324    99188851.4374   24222927.555  
                
  20493096.406   107691963.083    20493101.949    83915850.9314                 
                
  20557778.258   109777431.249                    85382449.919    20557780.965  
  20557776.410  
  23552833.789   126124353.053                    98096712.608    23552835.852  
  23552833.012  
  21178102.305   111291726.660    21178110.535    86720880.4914   21178110.789  
                
  20666009.359   110277805.108                    85771623.441    20666012.469  
  20666007.203  
  22064979.391   117784370.294                    91610077.764    22064982.398  
  22064977.738  
  19859336.758   106085040.356                    82510581.004    19859340.051  
  19859336.234  
  23889967.352   125542633.163    23889972.059    97825443.0994                 
                
 21  8 14 21 36 20.0000000  0 15G17G15R21R 3G14G 7G 5G13R13R 4G30R 2
                                R22R12G19
  21938985.227   115290150.073    21938991.742    89836510.1594   21938991.695  
                
  22031428.586   115775951.745    22031434.715    90215060.5564   22031434.566  
                
  22272545.641   119184902.908                    92699370.661    22272548.719  
  22272543.887  
  20485359.180   109659758.516                    85290922.266    20485363.090  
  20485357.973  
  20235817.312   106339959.958    20235823.383    82862353.2224   20235823.453  
                
  23427391.305   123111809.749    23427397.480    95931326.8704   23427397.355  
                
  24228017.453   127319090.019    24228023.719    99209720.4164   24228023.961  
                
  20491704.453   107684648.333    20491709.984    83910151.1304                 
                
  20554481.383   109759826.168                    85368757.076    20554484.078  
  20554479.523  
  23545848.250   126086946.689                    98067618.782    23545850.488  
  23545847.488  
  21181020.125   111307059.858    21181028.316    86732828.4394   21181028.602  
                
  20672115.719   110310389.866                    85796967.134    20672118.859  
  20672113.531  
  22059572.766   117755509.417                    91587630.421    22059575.746  
  22059571.113  
  19861721.914   106097781.397                    82520490.709    19861725.207  
  19861721.406  
  23882718.078   125504537.948    23882722.809    97795758.5054                 
                
 21  8 14 21 36 30.0000000  0 15G17G15R21R 3G14G 7G 5G13R13R 4G30R 2
                                R22R12G19
  21934273.555   115265390.108    21934280.086    89817216.6904   21934280.043  
                
  22027718.484   115756455.025    22027724.590    90199868.3074   22027724.457  
                
  22273299.781   119188938.421                    92702509.391    22273302.852  
  22273298.016  
  20484006.609   109652518.073                    85285290.805    20484010.508  
  20484005.402  
  20236683.891   106344513.820    20236689.953    82865901.6924   20236690.020  
                
  23432397.680   123138118.472    23432403.828    95951827.1754   23432403.715  
                
  24233118.453   127345896.163    24233124.727    99230608.3184   24233124.992  
                
  20490324.352   107677395.852    20490329.863    83904499.8404                 
                
  20551190.516   109742253.153                    85355089.166    20551193.195  
  20551188.680  
  23538870.625   126049582.510                    98038557.759    23538872.996  
  23538869.828  
  21183944.273   111322426.313    21183952.426    86744802.2934   21183952.723  
                
  20678233.484   110343035.377                    85822358.091    20678236.641  
  20678231.301  
  22054177.484   117726709.221                    91565230.268    22054180.484  
  22054175.855  
  19864112.906   106110553.599                    82530424.647    19864116.199  
  19864112.418  
  23875470.539   125466451.609    23875475.215    97766080.8364                 
                
 21  8 14 21 36 40.0000000  0 15G17G15R21R 3G14G 7G 5G13R13R 4G30R 2
                                R22R12G19
  21929570.273   115240674.249    21929576.793    89797957.5894   21929576.734  
                
  22024019.086   115737014.588    22024025.156    90184719.9154   22024025.027  
                
  22274070.664   119193063.625                    92705717.885    22274073.754  
  22274068.863  
  20482671.062   109645368.777                    85279730.240    20482674.941  
  20482669.867  
  20237559.648   106349115.996    20237565.695    82869487.8074   20237565.785  
                
  23437407.750   123164446.690    23437413.887    95972342.6674   23437413.773  
                
  24238224.039   127372726.459    24238230.305    99251515.0254   24238230.590  
                
  20488956.109   107670205.693    20488961.617    83898897.1164                 
                
  20547905.680   109724712.281                    85341446.281    20547908.328  
  20547903.840  
  23531900.852   126012260.459                    98009529.526    23531903.379  
  23531900.039  
  21186874.742   111337826.008    21186882.867    86756802.0584   21186883.172  
                
  20684362.695   110375742.061                    85847796.618    20684365.855  
  20684360.551  
  22048793.672   117697969.948                    91542877.497    22048796.625  
  22048792.051  
  19866509.734   106123357.010                    82540382.856    19866513.016  
  19866509.262  
  23868224.648   125428374.190    23868229.289    97736410.1064                 
                
 21  8 14 21 36 50.0000000  0 15G17G15R21R 3G14G 7G 5G13R13R 4G30R 2
                                R22R12G19
  21924875.359   115216002.360    21924881.812    89778732.7404   21924881.785  
                
  22020330.391   115717630.366    22020336.422    90169615.3244   22020336.312  
                
  22274858.305   119197278.451                    92708996.097    22274861.371  
  22274856.500  
  20481352.570   109638310.774                    85274240.686    20481356.438  
  20481351.418  
  20238444.578   106353766.317    20238450.609    82873111.4424   20238450.707  
                
  23442421.453   123190794.175    23442427.598    95992873.1584   23442427.500  
                
  24243334.219   127399580.488    24243340.449    99272440.2404   24243340.746  
                
  20487599.719   107663077.818    20487605.230    83893342.9214                 
                
  20544626.867   109707203.707                    85327828.502    20544629.543  
  20544625.004  
  23524939.008   125974980.830                    97980534.266    23524941.695  
  23524938.176  
  21189811.523   111353258.836    21189819.641    86768827.6354   21189819.953  
                
  20690503.242   110408509.212                    85873282.169    20690506.398  
  20690501.117  
  22043421.258   117669291.574                    91520572.077    22043424.133  
  22043419.625  
  19868912.375   106136191.428                    82550365.181    19868915.648  
  19868911.910  
  23860980.484   125390305.782    23860985.090    97706746.4074                 
                
 21  8 14 21 37  0.0000000  0 15G17G15R21R 3G14G 7G 5G13R13R 4G30R 2
                                R22R12G19
  21920188.820   115191374.472    21920195.191    89759542.1814   21920195.203  
                
  22016652.430   115698302.588    22016658.441    90154554.7234   22016658.332  
                
  22275662.680   119201582.866                    92712343.981    22275665.758  
  22275660.832  
  20480051.156   109631344.227                    85268822.264    20480055.004  
  20480050.023  
  20239338.672   106358464.849    20239344.684    82876772.6344   20239344.801  
                
  23447438.906   123217161.033    23447445.004    96013418.7704   23447444.918  
                
  24248448.867   127426458.342    24248455.094    99293384.0214   24248455.414  
                
  20486255.203   107656012.386    20486260.719    83887837.3924                 
                
  20541354.070   109689727.163                    85314235.635    20541356.750  
  20541352.184  
  23517985.094   125937743.600                    97951572.001    23517987.930  
  23517984.219  
  21192754.625   111368724.900    21192762.738    86780879.1154   21192763.031  
                
  20696655.070   110441336.531                    85898814.545    20696658.242  
  20696652.926  
  22038060.281   117640674.291                    91498314.203    22038063.121  
  22038058.621  
  19871320.820   106149056.938                    82560371.701    19871324.098  
  19871320.367  
  23853738.109   125352246.611    23853742.672    97677089.9044                 
                
 21  8 14 21 37 10.0000000  0 15G17G15R21R 3G14G 7G 5G13R13R 4G30R 2
                                R22R12G19
  21915510.719   115166790.855    21915517.035    89740386.1234   21915517.074  
                
  22012985.258   115679031.449    22012991.262    90139538.2444   22012991.145  
                
  22276483.828   119205977.066                    92715761.705    22276486.914  
  22276481.938  
  20478766.844   109624469.119                    85263474.952    20478770.676  
  20478765.715  
  20240241.961   106363211.642    20240247.957    82880471.4354   20240248.086  
                
  23452460.109   123243547.440    23452466.164    96033979.5994   23452466.074  
                
  24253568.062   127453360.106    24253574.285    99314346.4374   24253574.613  
                
  20484922.586   107649009.395    20484928.113    83882380.5154                 
                
  20538087.305   109672282.845                    85300667.847    20538090.012  
  20538085.422  
  23511039.156   125900549.129                    97922642.987    23511042.152  
  23511038.246  
  21195704.070   111384224.297    21195712.180    86792956.5614   21195712.473  
                
  20702818.258   110474224.525                    85924394.088    20702821.426  
  20702816.109  
  22032710.828   117612118.494                    91476104.129    22032713.629  
  22032709.160  
  19873735.117   106161953.641                    82570402.475    19873738.395  
  19873734.668  
  23846497.531   125314196.842    23846502.043    97647440.7284                 
                
 21  8 14 21 37 20.0000000  0 15G17G15R21R 3G14G 7G 5G13R13R 4G30R 2
                                R22R12G19
  21910840.992   115142251.270    21910847.312    89721264.3664   21910847.344  
                
  22009328.812   115659816.698    22009334.809    90124565.7144   22009334.672  
                
  22277321.695   119210460.631                    92719248.926    22277324.781  
  22277319.809  
  20477499.555   109617685.195                    85258198.564    20477503.379  
  20477498.434  
  20241154.352   106368006.327    20241160.348    82884207.5574   20241160.480  
                
  23457484.953   123269953.016    23457490.938    96054555.3704   23457490.859  
                
  24258691.750   127480285.227    24258697.961    99335327.0474   24258698.289  
                
  20483601.805   107642068.633    20483607.336    83876972.1244                 
                
  20534826.492   109654870.295                    85287124.765    20534829.211  
  20534824.602  
  23504101.203   125863397.229                    97893747.052    23504104.301  
  23504100.297  
  21198659.789   111399756.651    21198667.902    86805059.6904   21198668.188  
                
  20708992.664   110507172.315                    85950020.134    20708995.828  
  20708990.535  
  22027372.828   117583623.862                    91453941.661    22027375.664  
  22027371.164  
  19876155.172   106174881.113                    82580457.175    19876158.438  
  19876154.711  
  23839258.656   125276156.199    23839263.141    97617798.6584                 
                
 21  8 14 21 37 30.0000000  0 15G17G15R21R 3G14G 7G 5G13R13R 4G30R 2
                                R22R12G19
  21906179.750   115117756.255    21906186.105    89702177.3574   21906186.090  
                
  22005683.164   115640658.733    22005689.133    90109637.4384   22005688.996  
                
  22278176.328   119215033.984                    92722805.996    22278179.426  
  22278174.395  
  20476249.391   109610992.944                    85252993.476    20476253.203  
  20476248.289  
  20242075.914   106372849.169    20242081.914    82887981.2024   20242082.055  
                
  23462513.508   123296378.004    23462519.426    96075146.2824   23462519.348  
                
  24263819.938   127507233.982    24263826.145    99356326.0754   24263826.484  
                
  20482292.930   107635190.469    20482298.469    83871612.5204                 
                
  20531571.742   109637490.192                    85273606.900    20531574.492  
  20531569.840  
  23497171.305   125826288.415                    97864884.640    23497174.473  
  23497170.371  
  21201621.852   111415322.345    21201629.965    86817188.8044   21201630.242  
                
  20715178.344   110540180.275                    85975693.000    20715181.523  
  20715176.211  
  22022046.461   117555191.085                    91431827.277    22022049.324  
  22022044.781  
  19878581.047   106187839.745                    82590536.100    19878584.305  
  19878580.578  
  23832021.656   125238125.271    23832026.086    97588164.1674                 
                
 21  8 14 21 37 40.0000000  0 15G17G15R21R 3G14G 7G 5G13R13R 4G30R 2
                                R22R12G19
  21901526.945   115093305.601    21901533.309    89683124.9034   21901533.258  
                
  22002048.305   115621557.408    22002054.227    90094753.2794   22002054.086  
                
  22279047.664   119219696.735                    92726432.568    22279050.789  
  22279045.676  
  20475016.297   109604392.042                    85247859.447    20475020.105  
  20475015.215  
  20243006.578   106377739.869    20243012.586    82891792.1384   20243012.727  
                
  23467545.727   123322822.184    23467551.562    96095752.1444   23467551.457  
                
  24268952.570   127534205.955    24268958.773    99377343.1864   24268959.098  
                
  20480995.930   107628374.680    20481001.488    83866301.5144                 
                
  20528323.016   109620142.125                    85260113.945    20528325.742  
  20528321.129  
  23490249.461   125789222.646                    97836055.701    23490252.676  
  23490248.504  
  21204590.195   111430921.038    21204598.312    86829343.6264   21204598.590  
                
  20721375.172   110573247.774                    86001412.164    20721378.359  
  20721373.023  
  22016731.570   117526819.833                    91409760.758    22016734.457  
  22016729.824  
  19881012.664   106200829.029                    82600638.879    19881015.926  
  19881012.188  
  23824786.461   125200103.827    23824790.871    97558537.0574                 
                
 21  8 14 21 37 50.0000000  0 15G17G15R21R 3G14G 7G 5G13R13R 4G30R 2
                                R22R12G19
  21896882.672   115068899.705    21896889.020    89664107.3254   21896888.957  
                
  21998424.273   115602512.981    21998430.191    90079913.4674   21998430.051  
                
  22279935.773   119224449.223                    92730128.960    22279938.898  
  22279933.766  
  20473800.312   109597882.743                    85242796.663    20473804.121  
  20473799.246  
  20243946.398   106382678.657    20243952.426    82895640.5474   20243952.562  
                
  23472581.617   123349285.798    23472587.426    96116373.1424   23472587.273  
                
  24274089.656   127561201.323    24274095.855    99398378.5364   24274096.148  
                
  20479710.867   107621621.605    20479716.445    83861039.3764                 
                
  20525080.344   109602826.453                    85246646.205    20525083.062  
  20525078.453  
  23483335.703   125752200.194                    97807260.476    23483338.992  
  23483334.734  
  21207564.867   111446553.047    21207572.996    86841524.4114   21207573.289  
                
  20727583.273   110606375.391                    86027178.085    20727586.457  
  20727581.141  
  22011428.312   117498510.726                    91387742.567    22011431.176  
  22011426.535  
  19883450.109   106213849.398                    82610765.824    19883453.375  
  19883449.621  
  23817553.156   125162092.243    23817557.512    97528917.6454                 
                
 21  8 14 21 38  0.0000000  0 15G17G15R21R 3G14G 7G 5G13R13R 4G30R 2
                                R22R12G19
  21892246.875   115044538.409    21892253.191    89645124.5024   21892253.141  
                
  21994811.070   115583525.492    21994817.012    90065118.0274   21994816.828  
                
  22280840.609   119229291.236                    92733894.978    22280843.715  
  22280838.594  
  20472601.445   109591465.096                    85237805.158    20472605.262  
  20472600.398  
  20244895.344   106387665.400    20244901.391    82899526.3164   20244901.512  
                
  23477621.156   123375768.700    23477626.938    96137009.1664   23477626.762  
                
  24279231.055   127588219.785    24279237.305    99419431.8824   24279237.605  
                
  20478437.727   107614931.236    20478443.340    83855826.1064                 
                
  20521843.664   109585542.800                    85233203.374    20521846.398  
  20521841.777  
  23476430.086   125715221.161                    97778498.989    23476433.371  
  23476429.098  
  21210545.859   111462218.254    21210554.012    86853731.0664   21210554.309  
                
  20733802.477   110639562.303                    86052990.124    20733805.645  
  20733800.344  
  22006136.680   117470263.791                    91365772.744    22006139.531  
  22006134.922  
  19885893.305   106226900.573                    82620916.732    19885896.578  
  19885892.812  
  23810321.758   125124090.567    23810326.031    97499305.9254                 
                
 21  8 14 21 38 10.0000000  0 15G17G15R21R 3G14G 7G 5G13R13R 4G30R 2
                                R22R12G19
  21887619.578   115020221.785    21887625.863    89626176.4794   21887625.812  
                
  21991208.711   115564594.960    21991214.656    90050366.9624   21991214.453  
                
  22281762.188   119234222.881                    92737730.712    22281765.281  
  22281760.160  
  20471419.672   109585138.992                    85232884.835    20471423.492  
  20471418.621  
  20245853.391   106392700.006    20245859.453    82903449.3864   20245859.566  
                
  23482664.344   123402270.832    23482670.070    96157660.1874   23482669.914  
                
  24284376.820   127615261.236    24284383.141    99440503.1284   24284383.445  
                
  20477176.516   107608303.491    20477182.160    83850661.6254                 
                
  20518613.023   109568291.359                    85219785.602    20518615.742  
  20518611.113  
  23469532.656   125678285.745                    97749771.409    23469535.875  
  23469531.613  
  21213533.156   111477916.595    21213541.336    86865963.5374   21213541.621  
                
  20740032.844   110672808.760                    86078848.476    20740036.027  
  20740030.715  
  22000856.750   117442079.091                    91343851.330    22000859.598  
  22000854.988  
  19888342.266   106239982.508                    82631091.578    19888345.543  
  19888341.758  
  23803092.219   125086098.772    23803096.445    97469701.9244                 
                
 21  8 14 21 38 20.0000000  0 15G17G15R21R 3G14G 7G 5G13R13R 4G30R 2
                                R22R12G19
  21883000.836   114995950.112    21883007.105    89607263.4934   21883007.066  
                
  21987617.234   115545721.563    21987623.180    90035660.4234   21987622.961  
                
  22282700.547   119239244.235                    92741636.202    22282703.617  
  22282698.516  
  20470255.055   109578904.686                    85228035.942    20470258.875  
  20470254.008  
  20246820.578   106397782.561    20246826.645    82907409.8214   20246826.762  
                
  23487711.195   123428792.343    23487716.906    96178326.3054   23487716.766  
                
  24289527.062   127642325.686    24289533.383    99461592.3164   24289533.652  
                
  20475927.250   107601738.599    20475932.926    83845546.1274                 
                
  20515388.398   109551072.110                    85206392.837    20515391.133  
  20515386.477  
  23462643.414   125641394.196                    97721077.962    23462646.590  
  23462642.316  
  21216526.797   111493648.226    21216535.004    86878221.9444   21216535.289  
                
  20746274.320   110706114.429                    86104752.898    20746277.504  
  20746272.184  
  21995588.531   117413956.895                    91321978.503    21995591.348  
  21995586.793  
  19890797.023   106253095.361                    82641290.465    19890800.312  
  19890796.512  
  23795864.500   125048117.130    23795868.789    97440105.8514                 
                
 21  8 14 21 38 30.0000000  0 15G17G15R21R 3G14G 7G 5G13R13R 4G30R 2
                                R22R12G19
  21878390.633   114971723.336    21878396.926    89588385.4954   21878396.863  
                
  21984036.633   115526905.328    21984042.578    90020998.4204   21984042.363  
                
  22283655.648   119244355.157                    92745611.371    22283658.734  
  22283653.633  
  20469107.586   109572762.225                    85223258.477    20469111.414  
  20469106.523  
  20247796.875   106402913.023    20247802.934    82911407.5884   20247803.055  
                
  23492761.758   123455333.274    23492767.492    96199007.5384   23492767.332  
                
  24294681.656   127669412.955    24294687.977    99482699.2714   24294688.223  
                
  20474689.969   107595236.605    20474695.664    83840479.6324                 
                
  20512169.781   109533884.829                    85193024.968    20512172.543  
  20512167.863  
  23455762.367   125604546.570                    97692418.706    23455765.543  
  23455761.238  
  21219526.758   111509413.125    21219535.000    86890506.2794   21219535.285  
                
  20752526.906   110739479.415                    86130703.434    20752530.098  
  20752524.785  
  21990332.039   117385897.454                    91300154.505    21990334.863  
  21990330.328  
  19893257.547   106266239.021                    82651513.316    19893260.832  
  19893257.020  
  23788638.797   125010145.776    23788643.090    97410517.7844                 
                
 21  8 14 21 38 40.0000000  0 15G17G15R21R 3G14G 7G 5G13R13R 4G30R 2
                                R22R12G19
  21873789.008   114947541.606    21873795.367    89569542.5954   21873795.285  
                
  21980466.914   115508146.303    21980472.852    90006381.0094   21980472.652  
                
  22284627.469   119249555.581                    92749656.149    22284630.570  
  22284625.457  
  20467977.242   109566711.413                    85218552.283    20467981.078  
  20467976.180  
  20248782.258   106408091.262    20248788.301    82915442.5784   20248788.438  
                
  23497815.984   123481893.512    23497821.758    96219703.8174   23497821.609  
                
  24299840.539   127696522.930    24299846.895    99503823.9174   24299847.094  
                
  20473464.648   107588797.496    20473470.363    83835462.1434                 
                
  20508957.219   109516729.945                    85179682.289    20508960.000  
  20508955.285  
  23448889.539   125567742.963                    97663793.697    23448892.742  
  23448888.383  
  21222533.023   111525211.194    21222541.301    86902816.4544   21222541.574  
                
  20758790.500   110772903.179                    86156699.685    20758793.695  
  20758788.395  
  21985087.336   117357900.703                    91278379.230    21985090.094  
  21985085.621  
  19895723.820   106279413.422                    82661760.079    19895727.113  
  19895723.293  
  23781415.070   124972184.644    23781419.324    97380937.6784                 
                
 21  8 14 21 38 50.0000000  0 15G17G15R21R 3G14G 7G 5G13R13R 4G30R 2
                                R22R12G19
  21869195.984   114923405.090    21869202.387    89550734.9234   21869202.281  
                
  21976908.125   115489444.715    21976914.047    89991808.3384   21976913.848  
                
  22285616.055   119254845.728                    92753770.711    22285619.156  
  22285614.035  
  20466864.102   109560752.692                    85213917.729    20466867.957  
  20466863.027  
  20249776.758   106413317.385    20249782.789    82919514.8854   20249782.938  
                
  23502873.891   123508473.091    23502879.672    96240415.1624   23502879.527  
                
  24305003.648   127723655.626    24305010.145    99524966.2564   24305010.309  
                
  20472251.328   107582421.492    20472257.055    83830493.8294                 
                
  20505750.766   109499607.607                    85166364.913    20505753.527  
  20505748.816  
  23442025.031   125530983.727                    97635203.151    23442028.211  
  23442023.883  
  21225545.633   111541042.598    21225553.934    86915152.6074   21225554.219  
                
  20765065.195   110806386.173                    86182742.009    20765068.414  
  20765063.109  
  21979854.469   117329967.261                    91256653.216    21979857.234  
  21979852.781  
  19898195.852   106292618.575                    82672030.741    19898199.160  
  19898195.324  
  23774193.375   124934234.068    23774197.570    97351365.7944                 
                
 21  8 14 21 39  0.0000000  0 15G17G15R21R 3G14G 7G 5G13R13R 4G30R 2
                                R22R12G19
  21864611.594   114899313.958    21864618.016    89531962.6254   21864617.895  
                
  21973360.242   115470800.457    21973366.156    89977280.3434   21973365.953  
                
  22286621.375   119260225.419                    92757954.922    22286624.500  
  22286619.344  
  20465768.102   109554885.715                    85209354.504    20465771.961  
  20465767.020  
  20250780.328   106418591.197    20250786.344    82923624.3574   20250786.508  
                
  23507935.508   123535071.821    23507941.203    96261141.4544   23507941.090  
                
  24310171.078   127750810.777    24310177.676    99546126.0924   24310177.820  
                
  20471049.984   107576108.390    20471055.730    83825574.5294                 
                
  20502550.281   109482517.203                    85153072.372    20502553.031  
  20502548.328  
  23435168.805   125494268.865                    97606647.138    23435171.988  
  23435167.715  
  21228564.555   111556907.169    21228572.887    86927514.6024   21228573.180  
                
  20771350.852   110839927.698                    86208829.862    20771354.105  
  20771348.777  
  21974633.391   117302096.832                    91234976.239    21974636.180  
  21974631.707  
  19900673.617   106305854.361                    82682325.245    19900676.922  
  19900673.109  
  23766973.672   124896294.052    23766977.805    97321802.1294                 
                
 21  8 14 21 39 10.0000000  0 15G17G15R21R 3G14G 7G 5G13R13R 4G30R 2
                                R22R12G19
  21860035.852   114875268.258    21860042.301    89513225.7204   21860042.180  
                
  21969823.281   115452213.625    21969829.203    89962797.1004   21969829.020  
                
  22287643.406   119265694.541                    92762208.673    22287646.496  
  22287641.363  
  20464689.273   109549110.646                    85204862.780    20464693.137  
  20464688.184  
  20251792.977   106423912.689    20251798.980    82927770.9784   20251799.156  
                
  23513000.781   123561689.818    23513006.391    96281882.7584   23513006.328  
                
  24315342.852   127777988.312    24315349.453    99567303.3944   24315349.582  
                
  20469860.602   107569858.171    20469866.359    83820704.2274                 
                
  20499355.820   109465459.048                    85139804.933    20499358.566  
  20499353.871  
  23428320.906   125457598.537                    97578125.755    23428324.039  
  23428319.906  
  21231589.789   111572804.929    21231598.145    86939902.4624   21231598.418  
                
  20777647.430   110873527.494                    86234963.044    20777650.703  
  20777645.379  
  21969424.102   117274289.432                    91213348.259    21969426.887  
  21969422.414  
  19903157.109   106319120.714                    82692643.520    19903160.418  
  19903156.605  
  23759755.906   124858364.657    23759760.043    97292246.7574                 
                
 21  8 14 21 39 20.0000000  0 15G17G15R21R 3G14G 7G 5G13R13R 4G30R 2
                                R22R12G19
  21855468.766   114851268.019    21855475.223    89494524.2434   21855475.082  
                
  21966297.273   115433684.327    21966303.215    89948358.6944   21966303.027  
                
  22288682.180   119271253.147                    92766532.036    22288685.234  
  22288680.141  
  20463627.617   109543427.459                    85200442.525    20463631.496  
  20463626.520  
  20252814.680   106429281.787    20252820.680    82931954.6934   20252820.859  
                
  23518069.703   123588327.057    23518075.301    96302639.0494   23518075.230  
                
  24320518.750   127805188.048    24320525.430    99588498.0034   24320525.566  
                
  20468683.211   107563670.932    20468688.988    83815883.0014                 
                
  20496167.414   109448433.134                    85126562.551    20496170.125  
  20496165.465  
  23421481.375   125420972.906                    97549639.136    23421484.438  
  23421480.465  
  21234621.336   111588735.827    21234629.723    86952316.1464   21234629.992  
                
  20783955.016   110907185.971                    86261141.852    20783958.285  
  20783952.949  
  21964226.703   117246545.561                    91191769.693    21964229.539  
  21964225.004  
  19905646.336   106332417.708                    82702985.632    19905649.633  
  19905645.832  
  23752540.195   124820446.035    23752544.363    97262699.7664                 
                
 21  8 14 21 39 30.0000000  0 15G17G15R21R 3G14G 7G 5G13R13R 4G30R 2
                                R22R12G19
  21850910.273   114827312.963    21850916.703    89475857.9764   21850916.562  
                
  21962782.234   115415212.651    21962788.203    89933965.1864   21962788.012  
                
  22289737.664   119276901.230                    92770924.999    22289740.695  
  22289735.664  
  20462583.102   109537836.128                    85196093.711    20462587.000  
  20462582.039  
  20253845.430   106434698.426    20253851.434    82936175.4484   20253851.609  
                
  23523142.289   123614983.450    23523147.859    96323410.2864   23523147.781  
                
  24325698.820   127832409.797    24325705.609    99609709.7414   24325705.734  
                
  20467517.812   107557546.722    20467523.609    83811110.8934                 
                
  20492985.016   109431439.312                    85113345.133    20492987.703  
  20492983.059  
  23414650.195   125384391.942                    97521187.277    23414653.199  
  23414649.367  
  21237659.188   111604699.874    21237667.609    86964755.6534   21237667.867  
                
  20790273.484   110940902.516                    86287365.821    20790276.773  
  20790271.398  
  21959041.242   117218865.264                    91170240.585    21959044.055  
  21959039.566  
  19908141.258   106345745.137                    82713351.413    19908144.559  
  19908140.766  
  23745326.641   124782538.249    23745330.750    97233161.2314                 
                
 21  8 14 21 39 40.0000000  0 15G17G15R21R 3G14G 7G 5G13R13R 4G30R 2
                                R22R12G19
  21846360.445   114803403.440    21846366.840    89457227.1874   21846366.703  
                
  21959278.133   115396798.504    21959284.145    89919616.5014   21959283.949  
                
  22290809.844   119282638.604                    92775387.378    22290812.820  
  22290807.875  
  20461555.766   109532336.708                    85191816.393    20461559.676  
  20461554.699  
  20254885.188   106440162.424    20254891.199    82940433.1084   20254891.375  
                
  23528218.438   123641658.851    23528224.086    96344196.3034   23528223.965  
                
  24330883.094   127859653.456    24330889.949    99630938.5584   24330890.062  
                
  20466364.391   107551485.442    20466370.211    83806387.8154                 
                
  20489808.648   109414477.688                    85100152.773    20489811.320  
  20489806.703  
  23407827.383   125347855.811                    97492770.290    23407830.316  
  23407826.621  
  21240703.320   111620696.886    21240711.766    86977220.8564   21240712.016  
                
  20796602.797   110974676.954                    86313634.813    20796606.098  
  20796600.703  
  21953867.711   117191248.477                    91148760.860    21953870.492  
  21953866.047  
  19910641.844   106359102.825                    82723740.737    19910645.148  
  19910641.352  
  23738115.070   124744641.344    23738119.188    97203631.1654                 
                
 21  8 14 21 39 50.0000000  0 15G17G15R21R 3G14G 7G 5G13R13R 4G30R 2
                                R22R12G19
  21841819.320   114779539.629    21841825.711    89438632.0124   21841825.562  
                
  21955785.016   115378442.059    21955791.074    89905312.7924   21955790.855  
                
  22291898.703   119288465.341                    92779919.318    22291901.652  
  22291896.773  
  20460545.594   109526929.203                    85187610.551    20460549.508  
  20460544.496  
  20255933.977   106445673.829    20255940.000    82944727.7124   20255940.152  
                
  23533298.211   123668353.368    23533303.934    96364997.2144   23533303.805  
                
  24336071.594   127886918.978    24336078.465    99652184.4264   24336078.590  
                
  20465222.969   107545487.236    20465228.820    83801713.8804                 
                
  20486638.273   109397548.027                    85086985.260    20486640.922  
  20486636.355  
  23401012.977   125311364.648                    97464388.293    23401015.836  
  23401012.273  
  21243753.742   111636726.995    21243762.219    86989711.8514   21243762.449  
                
  20802942.938   111008509.186                    86339948.783    20802946.270  
  20802940.840  
  21948706.164   117163695.615                    91127330.844    21948708.914  
  21948704.484  
  19913148.109   106372490.880                    82734153.659    19913151.410  
  19913147.609  
  23730905.602   124706755.474    23730909.719    97174109.6894                 
                
 21  8 14 21 40  0.0000000  0 15G17G15R21R 3G14G 7G 5G13R13R 4G30R 2
                                R22R12G19
  21837286.891   114755721.489    21837293.289    89420072.4224   21837293.125  
                
  21952302.867   115360143.286    21952308.949    89891054.0164   21952308.719  
                
  22293004.242   119294381.293                    92784520.595    22293007.180  
  22293002.332  
  20459552.594   109521613.607                    85183476.201    20459556.508  
  20459551.465  
  20256991.766   106451232.554    20256997.801    82949059.1934   20256997.945  
                
  23538381.609   123695067.033    23538387.336    96385813.0414   23538387.234  
                
  24341264.180   127914206.148    24341271.059    99673447.1554   24341271.188  
                
  20464093.547   107539552.109    20464099.426    83797089.1124                 
                
  20483473.922   109380650.572                    85073842.792    20483476.574  
  20483472.020  
  23394207.047   125274918.777                    97436041.499    23394209.820  
  23394206.348  
  21246810.453   111652790.120    21246818.957    87002228.5624   21246819.164  
                
  20809293.922   111042399.245                    86366307.717    20809297.250  
  20809291.805  
  21943556.562   117136206.635                    91105950.555    21943559.305  
  21943554.875  
  19915660.070   106385909.299                    82744590.205    19915663.383  
  19915659.570  
  23723698.227   124668880.633    23723702.359    97144596.8304                 
                
 21  8 14 21 40 10.0000000  0 15G17G15R21R 3G14G 7G 5G13R13R 4G30R 2
                                R22R12G19
  21832763.203   114731949.300    21832769.570    89401548.6354   21832769.387  
                
  21948831.742   115341902.434    21948837.809    89876840.3564   21948837.582  
                
  22294126.531   119300386.858                    92789191.583    22294129.445  
  22294124.645  
  20458576.805   109516390.126                    85179413.473    20458580.723  
  20458575.656  
  20258058.594   106456838.761    20258064.645    82953427.6704   20258064.781  
                
  23543468.688   123721799.866    23543474.371    96406643.8424   23543474.309  
                
  24346460.891   127941515.047    24346467.777    99694726.8214   24346467.895  
                
  20462976.172   107533680.277    20462982.059    83792513.6534                 
                
  20480315.617   109363785.392                    85060725.433    20480318.242  
  20480313.707  
  23387409.562   125238518.333                    97407730.034    23387412.324  
  23387408.887  
  21249873.484   111668886.449    21249882.000    87014771.1554   21249882.195  
                
  20815655.641   111076346.615                    86392711.229    20815658.961  
  20815653.520  
  21938419.031   117108781.995                    91084620.292    21938421.758  
  21938417.371  
  19918177.742   106399358.236                    82755050.482    19918181.066  
  19918177.246  
  23716492.977   124631017.096    23716497.160    97115092.7864                 
                
 21  8 14 21 40 20.0000000  0 15G17G15R21R 3G14G 7G 5G13R13R 4G30R 2
                                R22R12G19
  21828248.242   114708222.930    21828254.574    89383060.5644   21828254.402  
                
  21945371.648   115323719.559    21945377.703    89862671.8934   21945377.504  
                
  22295265.523   119306481.864                    92793932.160    22295268.410  
  22295263.668  
  20457618.250   109511258.902                    85175422.530    20457622.180  
  20457617.082  
  20259134.445   106462492.390    20259140.508    82957833.1004   20259140.633  
                
  23548559.359   123748551.837    23548565.039    96427489.5354   23548565.016  
                
  24351661.734   127968845.583    24351668.594    99716023.3444   24351668.727  
                
  20461870.852   107527871.770    20461876.734    83787987.5454                 
                
  20477163.312   109346952.242                    85047632.990    20477165.953  
  20477161.441  
  23380620.602   125202163.571                    97379454.098    23380623.309  
  23380619.941  
  21252942.844   111685015.992    21252951.371    87027339.6354   21252951.570  
                
  20822028.180   111110351.620                    86419159.574    20822031.473  
  20822026.066  
  21933293.562   117081421.780                    91063340.145    21933296.293  
  21933291.867  
  19920701.078   106412837.420                    82765534.294    19920704.406  
  19920700.586  
  23709290.000   124593165.034    23709294.168    97085597.6754                 
                
 21  8 14 21 40 30.0000000  0 15G17G15R21R 3G14G 7G 5G13R13R 4G30R 2
                                R22R12G19
  21823742.008   114684542.516    21823748.312    89364608.2984   21823748.148  
                
  21941922.578   115305594.621    21941928.637    89848548.5704   21941928.469  
                
  22296421.188   119312666.028                    92798742.062    22296424.059  
  22296419.332  
  20456676.844   109506219.471                    85171502.970    20456680.789  
  20456675.672  
  20260219.273   106468193.200    20260225.340    82962275.2914   20260225.457  
                
  23553653.648   123775322.744    23553659.359    96448349.9684   23553659.336  
                
  24356866.578   127996197.424    24356873.473    99737336.4624   24356873.617  
                
  20460777.555   107522126.467    20460783.430    83783510.6834                 
                
  20474017.000   109330151.134                    85034565.457    20474019.617  
  20474015.121  
  23373840.133   125165854.330                    97351213.586    23373842.797  
  23373839.465  
  21256018.477   111701178.545    21256027.000    87039933.8274   21256027.195  
                
  20828411.461   111144413.915                    86445652.469    20828414.715  
  20828409.352  
  21928180.148   117054126.081                    91042110.156    21928182.922  
  21928178.426  
  19923230.062   106426346.823                    82776041.610    19923233.391  
  19923229.578  
  23702089.125   124555324.296    23702093.328    97056111.3844                 
                
 21  8 14 21 40 40.0000000  0 15G17G15R21R 3G14G 7G 5G13R13R 4G30R 2
                                R22R12G19
  21819244.555   114660908.219    21819250.832    89346191.9674   21819250.656  
                
  21938484.562   115287527.788    21938490.648    89834470.5284   21938490.492  
                
  22297593.531   119318939.504                    92803621.448    22297596.398  
  22297591.656  
  20455752.672   109501272.344                    85167655.209    20455756.629  
  20455751.504  
  20261313.086   106473941.259    20261319.148    82966754.2964   20261319.270  
                
  23558751.602   123802112.783    23558757.328    96469225.3224   23558757.320  
                
  24362075.523   128023570.610    24362082.438    99758666.2174   24362082.586  
                
  20459696.320   107516444.539    20459702.188    83779083.2004                 
                
  20470876.742   109313382.401                    85021523.111    20470879.367  
  20470874.871  
  23367068.188   125129590.944                    97323008.765    23367070.883  
  23367067.508  
  21259100.414   111717374.176    21259108.922    87052553.8044   21259109.125  
                
  20834805.438   111178533.449                    86472189.884    20834808.684  
  20834803.332  
  21923078.836   117026894.898                    91020930.352    21923081.621  
  21923077.145  
  19925764.703   106439886.442                    82786572.424    19925768.043  
  19925764.215  
  23694890.500   124517495.120    23694894.695    97026634.1054                 
                
 21  8 14 21 40 50.0000000  0 15G17G15R21R 3G14G 7G 5G13R13R 4G30R 2
                                R22R12G19
  21814755.883   114637320.025    21814762.125    89327811.5654   21814761.973  
                
  21935057.602   115269519.057    21935063.715    89820437.7474   21935063.566  
                
  22298782.555   119325302.191                    92808570.232    22298785.449  
  22298780.637  
  20454845.703   109496417.255                    85163879.019    20454849.656  
  20454844.527  
  20262415.883   106479736.461    20262421.941    82971270.0384   20262422.059  
                
  23563853.227   123828921.915    23563858.922    96490115.5744   23563858.945  
                
  24367288.477   128050964.938    24367295.414    99780012.4364   24367295.562  
                
  20458627.133   107510825.934    20458632.996    83774705.0704                 
                
  20467742.484   109296645.616                    85008505.626    20467745.105  
  20467740.602  
  23360304.836   125093373.587                    97294839.689    23360307.594  
  23360304.188  
  21262188.641   111733602.867    21262197.137    87065199.5364   21262197.332  
                
  20841210.039   111212709.665                    86498771.375    20841213.273  
  20841207.934  
  21917989.711   116999728.668                    90999801.057    21917992.453  
  21917988.000  
  19928304.984   106453456.179                    82797126.656    19928308.316  
  19928304.500  
  23687694.078   124479677.657    23687698.258    96997165.9454                 
                
 21  8 14 21 41  0.0000000  0 15G17G15R21R 3G14G 7G 5G13R13R 4G30R 2
                                R22R12G19
  21810275.969   114613777.880    21810282.195    89309467.0424   21810282.055  
                
  21931641.727   115251568.559    21931647.871    89806450.3554   21931647.734  
                
  22299988.250   119331754.173                    92813588.443    22299991.176  
  22299986.277  
  20453955.977   109491654.463                    85160174.633    20453959.957  
  20453954.793  
  20263527.648   106485578.839    20263533.695    82975822.5434   20263533.816  
                
  23568958.484   123855750.181    23568964.176    96511020.7074   23568964.199  
                
  24372505.477   128078380.369    24372512.398    99801375.1124   24372512.555  
                
  20457570.031   107505270.794    20457575.891    83770376.3884                 
                
  20464614.250   109279941.051                    84995513.193    20464616.875  
  20464612.371  
  23353550.102   125057202.347                    97266706.517    23353552.926  
  23353549.461  
  21265283.172   111749864.672    21265291.664    87077871.0674   21265291.859  
                
  20847625.320   111246942.842                    86525397.187    20847628.562  
  20847623.230  
  21912912.727   116972627.409                    90978722.308    21912915.426  
  21912911.035  
  19930850.922   106467056.067                    82807704.350    19930854.246  
  19930850.441  
  23680499.945   124441872.083    23680504.070    96967707.0464                 
                
 21  8 14 21 41 10.0000000  0 15G17G15R21R 3G14G 7G 5G13R13R 4G30R 2
                                R22R12G19
  21805804.977   114590282.527    21805811.215    89291158.9724   21805811.066  
                
  21928237.000   115233676.633    21928243.172    89792508.6074   21928243.020  
                
  22301210.688   119338295.690                    92818676.274    22301213.633  
  22301208.715  
  20453083.539   109486984.207                    85156542.198    20453087.531  
  20453082.348  
  20264648.438   106491468.616    20264654.480    82980411.9774   20264654.613  
                
  23574067.414   123882597.705    23574073.129    96531940.8704   23574073.125  
                
  24377726.531   128105816.992    24377733.453    99822754.3034   24377733.602  
                
  20456525.055   107499779.362    20456530.906    83766097.3484                 
                
  20461492.109   109263268.890                    84982545.951    20461494.723  
  20461490.246  
  23346804.031   125021077.698                    97238609.562    23346806.949  
  23346803.430  
  21268384.055   111766159.855    21268392.551    87090568.6084   21268392.746  
                
  20854051.242   111281232.758                    86552067.124    20854054.469  
  20854049.145  
  21907847.977   116945591.459                    90957694.358    21907850.660  
  21907846.273  
  19933402.555   106480686.407                    82818305.740    19933405.875  
  19933402.086  
  23673308.094   124404078.744    23673312.191    96938257.6854                 
                
 21  8 14 21 41 20.0000000  0 15G17G15R21R 3G14G 7G 5G13R13R 4G30R 2
                                R22R12G19
  21801342.758   114566833.404    21801349.016    89272886.9324   21801348.871  
                
  21924843.320   115215842.798    21924849.504    89778612.1174   21924849.355  
                
  22302449.727   119344926.078                    92823833.248    22302452.680  
  22302447.770  
  20452228.258   109482405.880                    85152981.267    20452232.254  
  20452227.062  
  20265778.117   106497405.146    20265784.164    82985037.8484   20265784.289  
                
  23579179.898   123909463.976    23579185.637    96552875.6214   23579185.625  
                
  24382951.531   128133274.187    24382958.398    99844149.5154   24382958.520  
                
  20455492.086   107494351.092    20455497.926    83761867.5254                 
                
  20458375.945   109246628.846                    84969603.703    20458378.551  
  20458374.051  
  23340066.602   124984999.212                    97210548.522    23340069.578  
  23340065.996  
  21271491.164   111782487.796    21271499.668    87103291.6874   21271499.859  
                
  20860487.758   111315579.255                    86578781.063    20860490.969  
  20860485.680  
  21902795.375   116918620.520                    90936716.963    21902798.059  
  21902793.656  
  19935959.758   106494346.563                    82828930.302    19935963.074  
  19935959.305  
  23666118.453   124366297.141    23666122.543    96908817.4584                 
                
 21  8 14 21 41 30.0000000  0 15G17G15R21R 3G14G 7G 5G13R13R 4G30R 2
                                R22R12G19
  21796889.453   114543431.085    21796895.727    89254651.3604   21796895.578  
                
  21921460.781   115198067.516    21921466.969    89764761.2514   21921466.820  
                
  22303705.492   119351645.875                    92829059.793    22303708.461  
  22303703.547  
  20451390.258   109477919.972                    85149492.218    20451394.242  
  20451389.078  
  20266916.789   106503388.898    20266922.840    82989700.5154   20266922.953  
                
  23584295.992   123936349.505    23584301.738    96573825.3784   23584301.738  
                
  24388180.516   128160752.296    24388187.301    99865561.0234   24388187.438  
                
  20454471.258   107488986.562    20454477.086    83757687.3654                 
                
  20455265.812   109230020.938                    84956686.431    20455268.387  
  20455263.945  
  23333337.898   124948967.499                    97182523.875    23333340.973  
  23333337.242  
  21274604.602   111798849.021    21274613.105    87116040.6844   21274613.301  
                
  20866934.828   111349981.982                    86605538.735    20866938.020  
  20866932.738  
  21897755.094   116891715.213                    90915790.594    21897757.730  
  21897753.359  
  19938522.648   106508037.012                    82839578.432    19938525.957  
  19938522.191  
  23658931.148   124328527.851    23658935.230    96879386.8344                 
                
 21  8 14 21 41 40.0000000  0 15G17G15R21R 3G14G 7G 5G13R13R 4G30R 2
                                R22R12G19
  21792445.031   114520075.441    21792451.297    89236452.1614   21792451.133  
                
  21918089.383   115180350.748    21918095.562    89750955.9804   21918095.438  
                
  22304977.914   119358454.908                    92834355.710    22304980.887  
  22304976.000  
  20450569.523   109473526.483                    85146075.063    20450573.504  
  20450568.344  
  20268064.398   106509419.649    20268070.469    82994399.8064   20268070.562  
                
  23589415.727   123963254.030    23589421.426    96594789.9434   23589421.465  
                
  24393413.281   128188250.900    24393420.090    99886988.5184   24393420.250  
                
  20453462.516   107483685.584    20453468.332    83753556.7364                 
                
  20452161.750   109213445.383                    84943794.340    20452164.320  
  20452159.855  
  23326617.891   124912982.531                    97154535.592    23326621.059  
  23326617.148  
  21277724.352   111815243.319    21277732.844    87128815.4704   21277733.031  
                
  20873392.477   111384441.168                    86632340.332    20873395.695  
  20873390.387  
  21892727.133   116864875.572                    90894915.324    21892729.707  
  21892725.398  
  19941091.133   106521757.380                    82850249.823    19941094.430  
  19941090.676  
  23651746.141   124290770.836    23651750.254    96849965.7814                 
                
 21  8 14 21 41 50.0000000  0 15G17G15R21R 3G14G 7G 5G13R13R 4G30R 2
                                R22R12G19
  21788009.523   114496766.612    21788015.762    89218289.4324   21788015.586  
                
  21914729.172   115162692.720    21914735.336    89737196.4894   21914735.223  
                
  22306267.023   119365353.208                    92839721.061    22306269.992  
  22306265.109  
  20449766.047   109469225.369                    85142729.757    20449770.023  
  20449764.883  
  20269220.977   106515497.460    20269227.066    82999135.7634   20269227.137  
                
  23594539.102   123990177.698    23594544.820    96615769.4244   23594544.840  
                
  24398650.000   128215770.152    24398656.809    99908432.0854   24398657.016  
                
  20452465.914   107478448.411    20452471.719    83749475.8144                 
                
  20449063.719   109196902.201                    84930927.426    20449066.301  
  20449061.828  
  23319906.664   124877044.645                    97126583.904    23319909.938  
  23319905.844  
  21280850.406   111831670.808    21280858.883    87141616.1064   21280859.090  
                
  20879860.648   111418956.551                    86659185.608    20879863.887  
  20879858.562  
  21887711.523   116838101.721                    90874091.221    21887714.074  
  21887709.781  
  19943665.250   106535507.844                    82860944.636    19943668.559  
  19943664.789  
  23644563.484   124253026.309    23644567.684    96820554.4594                 
                
 21  8 14 21 42  0.0000000  0 15G17G15R21R 3G14G 7G 5G13R13R 4G30R 2
                                R22R12G19
  21783582.875   114473504.431    21783589.078    89200163.0514   21783588.910  
                
  21911380.086   115145093.178    21911386.246    89723482.5624   21911386.145  
                
  22307572.766   119372340.554                    92845155.666    22307575.727  
  22307570.828  
  20448979.828   109465016.624                    85139456.284    20448983.797  
  20448978.684  
  20270386.438   106521622.019    20270392.551    83003908.1484   20270392.609  
                
  23599666.117   124017120.156    23599671.805    96636763.5554   23599671.816  
                
  24403890.617   128243309.720    24403897.414    99929891.4914   24403897.617  
                
  20451481.398   107473274.734    20451487.188    83745444.3854                 
                
  20445971.719   109180391.164                    84918085.516    20445974.332  
  20445969.828  
  23313204.195   124841153.704                    97098668.731    23313207.574  
  23313203.332  
  21283982.727   111848131.205    21283991.176    87154442.3864   21283991.398  
                
  20886339.250   111453527.583                    86686074.202    20886342.500  
  20886337.195  
  21882708.250   116811393.813                    90853318.409    21882710.770  
  21882706.535  
  19946244.953   106549288.124                    82871662.621    19946248.258  
  19946244.484  
  23637383.164   124215294.137    23637387.508    96791152.7804                 
                
 21  8 14 21 42 10.0000000  0 15G17G15R21R 3G14G 7G 5G13R13R 4G30R 2
                                R22R12G19
  21779165.141   114450289.092    21779171.289    89182073.1814   21779171.156  
                
  21908042.188   115127552.423    21908048.355    89709814.4334   21908048.250  
                
  22308895.156   119379417.011                    92850659.593    22308898.090  
  22308893.152  
  20448210.836   109460900.145                    85136254.574    20448214.797  
  20448209.723  
  20271560.820   106527793.429    20271566.945    83008717.0404   20271566.996  
                
  23604796.727   124044081.569    23604802.391    96657772.4424   23604802.422  
                
  24409135.031   128270869.542    24409141.887    99951366.6664   24409142.098  
                
  20450509.000   107468164.741    20450514.773    83741462.5694                 
                
  20442885.711   109163912.108                    84905268.466    20442888.320  
  20442883.812  
  23306510.555   124805309.999                    97070790.281    23306514.035  
  23306509.656  
  21287121.336   111864624.676    21287129.762    87167294.4434   21287130.008  
                
  20892828.281   111488154.176                    86713005.991    20892831.535  
  20892826.230  
  21877717.266   116784751.837                    90832596.884    21877719.770  
  21877715.570  
  19948830.234   106563098.238                    82882403.819    19948833.547  
  19948829.770  
  23630205.320   124177574.571    23630209.758    96761760.9244                 
                
 21  8 14 21 42 20.0000000  0 15G17G15R21R 3G14G 7G 5G13R13R 4G30R 2
                                R22R12G19
  21774756.359   114427120.779    21774762.465    89164019.9484   21774762.371  
                
  21904715.484   115110070.477    21904721.680    89696192.1414   21904721.562  
                
  22310234.203   119386582.549                    92856232.798    22310237.098  
  22310232.129  
  20447459.133   109456876.127                    85133124.784    20447463.102  
  20447458.031  
  20272744.109   106534011.685    20272750.254    83013562.4384   20272750.293  
                
  23609930.961   124071061.972    23609936.539    96678796.1504   23609936.645  
                
  24414383.352   128298449.515    24414390.180    99972857.5504   24414390.406  
                
  20449548.750   107463118.547    20449554.512    83737530.4694                 
                
  20439805.773   109147465.432                    84892476.622    20439808.375  
  20439803.887  
  23299825.797   124769513.735                    97042948.749    23299829.355  
  23299824.902  
  21290266.242   111881151.246    21290274.648    87180172.2854   21290274.914  
                
  20899327.742   111522836.562                    86739981.164    20899331.031  
  20899325.680  
  21872738.734   116758176.193                    90811926.941    21872741.223  
  21872736.980  
  19951421.125   106576938.297                    82893168.309    19951424.449  
  19951420.660  
  23623029.969   124139867.716    23623034.387    96732378.9544                 
                
 21  8 14 21 42 30.0000000  0 15G17G15R21R 3G14G 7G 5G13R13R 4G30R 2
                                R22R12G19
  21770356.516   114403999.522    21770362.602    89146003.3844   21770362.531  
                
  21901399.969   115092647.323    21901406.180    89682615.6684   21901406.043  
                
  22311589.867   119393837.091                    92861875.217    22311592.750  
  22311587.727  
  20446724.672   109452944.487                    85130066.840    20446728.660  
  20446723.602  
  20273936.289   106540276.626    20273942.445    83018444.2104   20273942.477  
                
  23615068.742   124098061.270    23615074.312    96699834.5624   23615074.453  
                
  24419635.430   128326049.488    24419642.270    99994364.0154   24419642.496  
                
  20448600.617   107458136.113    20448606.359    83733648.0504                 
                
  20436731.820   109131050.725                    84879709.635    20436734.438  
  20436729.926  
  23293149.898   124733764.893                    97015144.084    23293153.516  
  23293149.035  
  21293417.414   111897710.783    21293425.797    87193075.8154   21293426.086  
                
  20905837.523   111557573.948                    86766999.137    20905840.828  
  20905835.484  
  21867772.609   116731666.791                    90791308.520    21867775.160  
  21867770.805  
  19954017.578   106590808.114                    82903955.946    19954020.914  
  19954017.117  
  23615857.062   124102173.603    23615861.441    96703006.9074                 
                
 21  8 14 21 42 40.0000000  0 15G17G15R21R 3G14G 7G 5G13R13R 4G30R 2
                                R22R12G19
  21765965.656   114380925.424    21765971.738    89128023.5804   21765971.672  
                
  21898095.672   115075283.150    21898101.879    89669085.1404   21898101.738  
                
  22312962.180   119401180.719                    92867586.912    22312965.039  
  22312960.008  
  20446007.508   109449105.393                    85127080.876    20446011.504  
  20446006.453  
  20275137.359   106546588.309    20275143.527    83023362.4064   20275143.547  
                
  23620210.109   124125079.493    23620215.695    96720887.7314   23620215.859  
                
  24424891.273   128353669.401    24424898.145   100015886.0064   24424898.410  
                
  20447664.641   107453217.496    20447670.371    83729815.3604                 
                
  20433663.945   109114668.499                    84866967.900    20433666.578  
  20433662.062  
  23286482.930   124698063.693                    96987376.480    23286486.578  
  23286482.086  
  21296574.891   111914303.383    21296583.270    87206005.1154   21296583.562  
                
  20912357.742   111592366.977                    86794060.380    20912361.043  
  20912355.695  
  21862818.930   116705223.978                    90770741.889    21862821.570  
  21862817.137  
  19956619.609   106604707.730                    82914766.757    19956622.969  
  19956619.145  
  23608686.562   124064492.417    23608690.965    96673644.9574                 
                
 21  8 14 21 42 50.0000000  0 15G17G15R21R 3G14G 7G 5G13R13R 4G30R 2
                                R22R12G19
  21761583.773   114357898.543    21761589.887    89110080.5624   21761589.805  
                
  21894802.617   115057977.997    21894808.820    89655600.6064   21894808.688  
                
  22314351.125   119408613.346                    92873367.870    22314354.000  
  22314348.934  
  20445307.594   109445358.694                    85124166.771    20445311.590  
  20445306.535  
  20276347.312   106552946.655    20276353.500    83028316.9614   20276353.512  
                
  23625355.055   124152116.537    23625360.688    96741955.5484   23625360.859  
                
  24430150.930   128381309.061    24430157.805   100037423.4074   24430158.105  
                
  20446740.812   107448362.743    20446746.531    83726032.4374                 
                
  20430602.133   109098318.651                    84854251.354    20430604.758  
  20430600.250  
  23279824.898   124662410.313                    96959646.076    23279828.578  
  23279824.074  
  21299738.633   111930929.007    21299747.039    87218960.1484   21299747.328  
                
  20918888.234   111627214.902                    86821164.309    20918891.531  
  20918886.172  
  21857877.750   116678847.767                    90750227.086    21857880.387  
  21857875.949  
  19959227.203   106618637.093                    82925600.705    19959230.578  
  19959226.715  
  23601518.609   124026824.327    23601523.016    96644293.2094                 
                
 21  8 14 21 43  0.0000000  0 15G17G15R21R 3G14G 7G 5G13R13R 4G30R 2
                                R22R12G19
  21757210.875   114334918.864    21757217.023    89092174.3194   21757216.922  
                
  21891520.781   115040731.820    21891527.000    89642162.0284   21891526.844  
                
  22315756.688   119416134.802                    92879217.882    22315759.559  
  22315754.488  
  20444624.969   109441704.462                    85121324.575    20444628.969  
  20444623.922  
  20277566.109   106559351.501    20277572.320    83033307.7554   20277572.316  
                
  23630503.625   124179172.214    23630509.223    96763037.8944   23630509.414  
                
  24435414.305   128408968.255    24435421.188   100058976.0294   24435421.492  
                
  20445829.117   107443571.770    20445834.828    83722299.2144                 
                
  20427546.297   109082000.653                    84841559.586    20427548.910  
  20427544.430  
  23273175.828   124626804.720                    96931952.841    23273179.504  
  23273175.012  
  21302908.648   111947587.556    21302917.078    87231940.8184   21302917.359  
                
  20925429.070   111662117.971                    86848311.154    20925432.344  
  20925427.008  
  21852949.133   116652538.525                    90729764.321    21852951.789  
  21852947.336  
  19961840.336   106632595.983                    82936457.612    19961843.727  
  19961839.824  
  23594353.094   123989169.259    23594357.562    96614951.6014                 
                
 21  8 14 21 43 10.0000000  0 15G17G15R21R 3G14G 7G 5G13R13R 4G30R 2
                                R22R12G19
  21752846.984   114311986.517    21752853.113    89074304.9654   21752853.016  
                
  21888250.180   115023544.672    21888256.414    89628769.4454   21888256.258  
                
  22317178.859   119423745.154                    92885137.043    22317181.711  
  22317176.680  
  20443959.594   109438142.616                    85118554.256    20443963.605  
  20443958.566  
  20278793.758   106565802.863    20278799.988    83038334.7844   20278799.973  
                
  23635655.758   124206246.747    23635661.340    96784134.9324   23635661.535  
                
  24440681.391   128436646.939    24440688.297   100080543.8394   24440688.578  
                
  20444929.570   107438844.634    20444935.277    83718615.7264                 
                
  20424496.484   109065714.863                    84828892.854    20424499.125  
  20424494.629  
  23266535.742   124591247.273                    96904297.056    23266539.395  
  23266534.992  
  21306084.930   111964279.049    21306093.391    87244947.1784   21306093.656  
                
  20931980.125   111697075.520                    86875500.359    20931983.375  
  20931978.078  
  21848033.039   116626296.184                    90709353.624    21848035.738  
  21848031.262  
  19964459.016   106646584.488                    82947337.558    19964462.406  
  19964458.477  
  23587190.195   123951527.435    23587194.617    96585620.3054                 
                
 21  8 14 21 43 20.0000000  0 15G17G15R21R 3G14G 7G 5G13R13R 4G30R 2
                                R22R12G19
  21748492.125   114289101.615    21748498.203    89056472.5754   21748498.133  
                
  21884990.828   115006416.647    21884997.066    89615422.9334   21884996.906  
                
  22318617.648   119431444.380                    92891125.326    22318620.516  
  22318615.531  
  20443311.500   109434673.262                    85115855.871    20443315.516  
  20443310.477  
  20280030.258   106572300.691    20280036.504    83043398.0304   20280036.477  
                
  23640811.430   124233340.147    23640817.055    96805246.6744   23640817.258  
                
  24445952.227   128464345.024    24445959.137   100102126.7614   24445959.391  
                
  20444042.188   107434181.400    20444047.891    83714982.0364                 
                
  20421452.703   109049461.222                    84816251.135    20421455.344  
  20421450.859  
  23259904.656   124555737.992                    96876678.714    23259908.262  
  23259903.902  
  21309267.484   111981003.485    21309275.977    87257979.2034   21309276.219  
                
  20938541.422   111732087.789                    86902732.114    20938544.672  
  20938539.391  
  21843129.492   116600120.822                    90688995.011    21843132.195  
  21843127.750  
  19967083.242   106660602.630                    82958240.543    19967086.633  
  19967082.691  
  23580029.805   123913898.893    23580034.148    96556299.3534                 
                
 21  8 14 21 43 30.0000000  0 15G17G15R21R 3G14G 7G 5G13R13R 4G30R 2
                                R22R12G19
  21744146.172   114266263.519    21744152.195    89038676.6484   21744152.156  
                
  21881742.648   114989347.342    21881748.871    89602122.1734   21881748.699  
                
  22320072.953   119439231.932                    92897182.301    22320075.812  
  22320070.863  
  20442680.586   109431295.943                    85113229.065    20442684.602  
  20442679.590  
  20281275.492   106578844.419    20281281.746    83048497.0384   20281281.719  
                
  23645970.609   124260451.833    23645976.285    96826372.6604   23645976.445  
                
  24451226.680   128492061.866    24451233.516   100123724.3024   24451233.754  
                
  20443166.875   107429581.603    20443172.578    83711397.7764                 
                
  20418414.820   109033239.091                    84803633.930    20418417.457  
  20418412.949  
  23253282.523   124520276.508                    96849097.583    23253286.109  
  23253281.777  
  21312456.211   111997760.354    21312464.719    87271036.4924   21312464.965  
                
  20945112.773   111767153.752                    86930005.636    20945116.020  
  20945110.762  
  21838238.500   116574012.325                    90668688.421    21838241.238  
  21838236.762  
  19969712.898   106674649.771                    82969166.104    19969716.301  
  19969712.340  
  23572871.789   123876283.238    23572876.090    96526988.4304                 
                
 21  8 14 21 43 40.0000000  0 15G17G15R21R 3G14G 7G 5G13R13R 4G30R 2
                                R22R12G19
  21739809.297   114243473.092    21739815.289    89020917.8654   21739815.273  
                
  21878505.766   114972337.411    21878511.961    89588867.6704   21878511.793  
                
  22321544.836   119447108.208                    92903308.297    22321547.676  
  22321542.785  
  20442066.977   109428011.189                    85110674.247    20442070.984  
  20442065.988  
  20282529.539   106585434.541    20282535.789    83053632.1994   20282535.766  
                
  23651133.367   124287582.322    23651139.043    96847513.3114   23651139.188  
                
  24456504.766   128519797.864    24456511.547   100145336.7874   24456511.770  
                
  20442303.727   107425045.805    20442309.426    83707863.3874                 
                
  20415382.945   109017049.098                    84791041.706    20415385.586  
  20415381.098  
  23246669.422   124484863.552                    96821554.189    23246672.977  
  23246668.684  
  21315651.195   112014550.159    21315659.734    87284119.4624   21315659.969  
                
  20951694.344   111802274.270                    86957321.590    20951697.586  
  20951692.324  
  21833360.062   116547971.161                    90648434.195    21833362.836  
  21833358.332  
  19972348.078   106688726.444                    82980114.627    19972351.480  
  19972347.520  
  23565716.328   123838681.133    23565720.598    96497688.0804                 
                
 21  8 14 21 43 50.0000000  0 15G17G15R21R 3G14G 7G 5G13R13R 4G30R 2
                                R22R12G19
  21735481.609   114220731.011    21735487.598    89003196.7654   21735487.586  
                
  21875280.258   114955387.285    21875286.426    89575659.7834   21875286.289  
                
  22323033.398   119455073.829                    92909503.788    22323036.242  
  22323031.363  
  20441470.727   109424819.384                    85108191.731    20441474.727  
  20441469.758  
  20283792.516   106592071.497    20283798.770    83058803.8564   20283798.746  
                
  23656299.758   124314732.067    23656305.480    96868668.9554   23656305.574  
                
  24461786.516   128547553.470    24461793.324   100166964.5244   24461793.535  
                
  20441452.875   107420574.515    20441458.570    83704379.2614                 
                
  20412357.258   109000892.095                    84778475.157    20412359.906  
  20412355.430  
  23240065.508   124449499.778                    96794049.057    23240069.023  
  23240064.777  
  21318852.547   112031373.409    21318861.113    87297228.4824   21318861.340  
                
  20958286.164   111837449.478                    86984680.092    20958289.406  
  20958284.145  
  21828494.398   116521998.074                    90628232.904    21828497.141  
  21828492.680  
  19974988.859   106702833.032                    82991086.415    19974992.277  
  19974988.309  
  23558563.477   123801093.170    23558567.816    96468398.7584                 
                
 21  8 14 21 44  0.0000000  0 15G17G15R21R 3G14G 7G 5G13R13R 4G30R 2
                                R22R12G19
  21731163.078   114198037.029    21731169.070    88985513.1464   21731169.055  
                
  21872066.117   114938496.831    21872072.266    89562498.3994   21872072.145  
                
  22324538.609   119463128.452                    92915768.488    22324541.426  
  22324536.582  
  20440891.828   109421720.465                    85105781.454    20440895.836  
  20440890.859  
  20285064.352   106598755.020    20285070.609    83064011.7994   20285070.586  
                
  23661469.773   124341900.874    23661475.516    96889839.4634   23661475.605  
                
  24467071.922   128575328.252    24467078.734   100188607.2184   24467078.938  
                
  20440614.258   107416167.550    20440619.949    83700945.2634                 
                
  20409337.602   108984767.310                    84765933.663    20409340.270  
  20409335.770  
  23233470.773   124414185.126                    96766582.126    23233474.246  
  23233470.051  
  21322060.234   112048229.877    21322068.820    87310363.3934   21322069.031  
                
  20964888.125   111872678.769                    87012080.660    20964891.348  
  20964886.102  
  21823641.484   116496092.961                    90608084.491    21823644.180  
  21823639.777  
  19977635.195   106716969.257                    83002081.255    19977638.621  
  19977634.629  
  23551413.273   123763519.239    23551417.727    96439120.3834                 
                
 21  8 14 21 44 10.0000000  0 15G17G15R21R 3G14G 7G 5G13R13R 4G30R 2
                                R22R12G19
  21726853.664   114175390.979    21726859.676    88967866.8784   21726859.664  
                
  21868863.297   114921665.914    21868869.418    89549383.3954   21868869.305  
                
  22326060.391   119471271.761                    92922102.167    22326063.148  
  22326058.398  
  20440330.227   109418714.143                    85103443.204    20440334.223  
  20440329.254  
  20286344.984   106605484.796    20286351.246    83069255.7834   20286351.223  
                
  23666643.461   124369088.464    23666649.105    96911024.6004   23666649.199  
                
  24472360.867   128603121.891    24472367.742   100210264.5914   24472367.949  
                
  20439787.836   107411824.666    20439793.523    83697561.1974                 
                
  20406323.977   108968674.704                    84753417.195    20406326.629  
  20406322.148  
  23226885.164   124378919.396                    96739153.242    23226888.566  
  23226884.469  
  21325274.172   112065119.252    21325282.777    87323523.9474   21325282.996  
                
  20971500.188   111907962.009                    87039523.160    20971503.402  
  20971498.152  
  21818801.312   116470255.718                    90587988.851    21818803.949  
  21818799.629  
  19980287.039   106731134.939                    83013099.004    19980290.469  
  19980286.465  
  23544265.742   123725959.161    23544270.262    96409852.7844                 
                
 21  8 14 21 44 20.0000000  0 15G17G15R21R 3G14G 7G 5G13R13R 4G30R 2
                                R22R12G19
  21722553.391   114152792.972    21722559.418    88950258.0494   21722559.410  
                
  21865671.836   114904894.665    21865677.914    89536314.8914   21865677.832  
                
  22327598.766   119479503.858                    92928504.901    22327601.477  
  22327596.801  
  20439785.953   109415800.581                    85101177.098    20439789.938  
  20439784.965  
  20287634.422   106612260.853    20287640.695    83074535.8314   20287640.652  
                
  23671820.617   124396294.770    23671826.250    96932224.3354   23671826.375  
                
  24477653.383   128630934.353    24477660.309   100231936.6374   24477660.504  
                
  20438973.633   107407546.024    20438979.305    83694227.1854                 
                
  20403316.375   108952614.308                    84740925.775    20403319.023  
  20403314.551  
  23220308.781   124343702.957                    96711762.699    23220312.090  
  23220308.066  
  21328494.398   112082041.656    21328503.027    87336710.2244   21328503.234  
                
  20978122.336   111943299.074                    87067007.545    20978125.562  
  20978120.305  
  21813973.891   116444486.560                    90567946.177    21813976.480  
  21813972.211  
  19982944.414   106745330.161                    83024139.726    19982947.840  
  19982943.844  
  23537120.914   123688413.178    23537125.441    96380596.1764                 
                
 21  8 14 21 44 30.0000000  0 15G17G15R21R 3G14G 7G 5G13R13R 4G30R 2
                                R22R12G19
  21718262.516   114130244.333    21718268.535    88932687.6844   21718268.543  
                
  21862492.016   114888184.575    21862498.051    89523294.0434   21862498.000  
                
  22329153.977   119487826.041                    92934977.714    22329156.656  
  22329152.074  
  20439259.273   109412981.188                    85098984.231    20439263.266  
  20439258.285  
  20288932.938   106619084.567    20288939.234    83079853.0134   20288939.168  
                
  23677001.578   124423521.248    23677007.266    96953439.7814   23677007.414  
                
  24482949.750   128658766.902    24482956.645   100253624.3454   24482956.859  
                
  20438171.930   107403333.040    20438177.582    83690944.3414                 
                
  20400315.086   108936587.671                    84728460.611    20400317.719  
  20400313.277  
  23213741.852   124308537.306                    96684411.666    23213745.086  
  23213741.125  
  21331721.172   112098998.469    21331729.809    87349923.3194   21331730.000  
                
  20984754.742   111978690.903                    87094534.514    20984757.953  
  20984752.711  
  21809159.508   116418787.069                    90547957.692    21809162.070  
  21809157.816  
  19985607.539   106759556.120                    83035204.370    19985610.969  
  19985606.973  
  23529979.109   123650882.779    23529983.586    96351351.7154                 
                
 21  8 14 21 44 40.0000000  0 15G17G15R21R 3G14G 7G 5G13R13R 4G30R 2
                                R22R12G19
  21713980.352   114107741.514    21713986.355    88915153.0234   21713986.383  
                
  21859323.102   114871531.853    21859329.121    89510317.8904   21859329.082  
                
  22330725.312   119496234.488                    92941517.624    22330727.934  
  22330723.438  
  20438749.422   109410251.904                    85096861.454    20438753.395  
  20438748.430  
  20290239.766   106625952.004    20290246.082    83085204.2634   20290245.992  
                
  23682185.703   124450764.071    23682191.430    96974667.9634   23682191.566  
                
  24488249.156   128686615.509    24488256.047   100275324.5494   24488256.281  
                
  20437382.000   107399181.939    20437387.648    83687709.7134                 
                
  20397319.375   108920590.687                    84716018.513    20397322.004  
  20397317.574  
  23207183.688   124273418.686                    96657097.210    23207186.891  
  23207182.973  
  21334953.758   112115985.792    21334962.383    87363160.1914   21334962.578  
                
  20991396.664   112014133.488                    87122100.971    20991399.895  
  20991394.602  
  21804357.453   116393153.511                    90528020.493    21804360.047  
  21804355.785  
  19988275.703   106773808.999                    83046289.940    19988279.141  
  19988275.133  
  23522839.648   123613364.190    23522844.008    96322116.4424                 
                
 21  8 14 21 44 50.0000000  0 15G17G15R21R 3G14G 7G 5G13R13R 4G30R 2
                                R22R12G19
  21709707.531   114085287.714    21709713.543    88897656.5614   21709713.582  
                
  21856165.719   114854939.676    21856171.723    89497388.9204   21856171.680  
                
  22332313.336   119504732.231                    92948126.999    22332315.934  
  22332311.492  
  20438257.039   109407616.150                    85094811.435    20438261.012  
  20438256.027  
  20291555.508   106632866.235    20291561.840    83090591.9804   20291561.730  
                
  23687373.625   124478026.304    23687379.340    96995911.2614   23687379.453  
                
  24493552.297   128714483.263    24493559.117   100297039.6874   24493559.352  
                
  20436604.445   107395095.844    20436610.086    83684525.7434                 
                
  20394329.828   108904626.689                    84703602.069    20394332.465  
  20394328.023  
  23200634.922   124238350.257                    96629821.779    23200638.070  
  23200634.223  
  21338192.742   112133006.778    21338201.352    87376423.2914   21338201.555  
                
  20998048.766   112049630.403                    87149709.664    20998052.008  
  20998046.703  
  21799568.414   116367589.323                    90508137.244    21799571.062  
  21799566.750  
  19990949.500   106788091.919                    83057398.883    19990952.934  
  19990948.934  
  23515703.078   123575860.738    23515707.285    96292892.9594                 
                
 21  8 14 21 45  0.0000000  0 15G17G15R21R 3G14G 7G 5G13R13R 4G30R 2
                                R22R12G19
  21705443.914   114062882.307    21705449.957    88880197.8094   21705450.000  
                
  21853019.773   114838407.609    21853025.773    89484506.7904   21853025.711  
                
  22333917.945   119513318.759                    92954805.417    22333920.516  
  22333916.129  
  20437781.969   109405073.083                    85092833.494    20437785.938  
  20437780.949  
  20292880.031   106639826.688    20292886.371    83096015.7094   20292886.258  
                
  23692565.078   124505307.470    23692570.805    97017169.3144   23692570.914  
                
  24498858.797   128742369.479    24498865.695   100318769.2014   24498865.922  
                
  20435839.133   107391074.109    20435844.770    83681391.9204                 
                
  20391346.359   108888695.077                    84691210.832    20391348.988  
  20391344.547  
  23194095.477   124203331.816                    96602585.243    23194098.598  
  23194094.750  
  21341438.023   112150060.837    21341446.609    87389712.1764   21341446.816  
                
  21004710.852   112085180.521                    87177359.752    21004714.062  
  21004708.793  
  21794792.258   116342093.898                    90488307.484    21794794.926  
  21794790.574  
  19993628.797   106802404.286                    83068530.710    19993632.238  
  19993628.230  
  23508569.305   123538371.967    23508573.398    96263680.9214                 
                
 21  8 14 21 45 10.0000000  0 15G17G15R21R 3G14G 7G 5G13R13R 4G30R 2
                                R22R12G19
  21701189.523   114040525.363    21701195.609    88862776.8154   21701195.637  
                
  21849885.273   114821935.683    21849891.281    89471671.5324   21849891.211  
                
  22335539.125   119521993.934                    92961552.775    22335541.684  
  22335537.320  
  20437324.281   109402622.988                    85090927.859    20437328.250  
  20437323.242  
  20294213.352   106646833.291    20294219.691    83101475.4044   20294219.574  
                
  23697760.078   124532607.390    23697765.855    97038441.9674   23697765.941  
                
  24504168.891   128770273.994    24504175.770   100340512.9864   24504176.004  
                
  20435086.086   107387116.834    20435091.727    83678308.3284                 
                
  20388368.922   108872795.774                    84678844.708    20388371.566  
  20388367.117  
  23187565.383   124168363.406                    96575387.600    23187568.438  
  23187564.648  
  21344689.609   112167147.972    21344698.168    87403026.8234   21344698.375  
                
  21011382.938   112120783.966                    87205051.327    21011386.141  
  21011380.898  
  21790029.000   116316667.386                    90468531.333    21790031.742  
  21790027.281  
  19996313.594   106816745.948                    83079685.343    19996317.043  
  19996313.031  
  23501438.336   123500898.016    23501442.352    96234480.4414                 
                
 21  8 14 21 45 20.0000000  0 15G17G15R21R 3G14G 7G 5G13R13R 4G30R 2
                                R22R12G19
  21696944.359   114018216.997    21696950.461    88845393.6754   21696950.484  
                
  21846762.172   114805523.678    21846768.184    89458882.9544   21846768.105  
                
  22337176.852   119530757.684                    92968369.024    22337179.406  
  22337174.992  
  20436883.906   109400265.679                    85089094.390    20436887.875  
  20436882.863  
  20295555.406   106653885.836    20295561.742    83106970.8904   20295561.625  
                
  23702958.602   124559925.985    23702964.449    97059729.1974   23702964.531  
                
  24509482.383   128798196.578    24509489.281   100362270.8374   24509489.512  
                
  20434345.297   107383223.968    20434350.934    83675274.9204                 
                
  20385397.523   108856928.685                    84666503.646    20385400.172  
  20385395.699  
  23181044.594   124133445.049                    96548228.905    23181047.660  
  23181043.871  
  21347947.445   112184268.003    21347955.973    87416367.1114   21347956.184  
                
  21018064.797   112156439.596                    87232783.485    21018067.992  
  21018062.770  
  21785278.688   116291309.962                    90448808.882    21785281.461  
  21785276.984  
  19999003.844   106831116.797                    83090862.657    19999007.297  
  19999003.273  
  23494310.086   123463438.563    23494314.102    96205291.2524                 
                
 21  8 14 21 45 30.0000000  0 15G17G15R21R 3G14G 7G 5G13R13R 4G30R 2
                                R22R12G19
  21692708.539   113995957.619    21692714.645    88828048.7064   21692714.676  
                
  21843650.547   114789172.017    21843656.551    89446141.3924   21843656.473  
                
  22338831.172   119539610.249                    92975254.350    22338833.723  
  22338829.312  
  20436460.953   109398001.586                    85087333.424    20436464.914  
  20436459.883  
  20296906.266   106660984.653    20296912.594    83112502.4394   20296912.488  
                
  23708160.742   124587263.597    23708166.648    97081031.2424   23708166.727  
                
  24514799.367   128826137.553    24514806.301   100384043.0164   24514806.527  
                
  20433616.859   107379395.878    20433622.488    83672291.9944                 
                
  20382432.234   108841094.243                    84654187.967    20382434.902  
  20382430.387  
  23174533.227   124098577.149                    96521109.464    23174536.289  
  23174532.516  
  21351211.625   112201421.287    21351220.121    87429733.3064   21351220.344  
                
  21024756.617   112192148.349                    87260556.952    21024759.793  
  21024754.570  
  21780541.383   116266021.877                    90429140.364    21780544.164  
  21780539.695  
  20001699.609   106845517.100                    83102062.897    20001703.066  
  20001699.035  
  23487184.609   123425994.185    23487188.758    96176113.8214                 
                
 21  8 14 21 45 40.0000000  0 15G17G15R21R 3G14G 7G 5G13R13R 4G30R 2
                                R22R12G19
  21688481.961   113973746.885    21688488.078    88810741.6424   21688488.117  
                
  21840550.367   114772880.457    21840556.359    89433446.6704   21840556.277  
                
  22340501.992   119548551.138                    92982208.367    22340504.527  
  22340500.129  
  20436055.312   109395830.159                    85085644.549    20436059.273  
  20436054.238  
  20298265.852   106668129.316    20298272.172    83118069.7094   20298272.074  
                
  23713366.383   124614619.775    23713372.367    97102347.7384   23713372.453  
                
  24520119.734   128854096.327    24520126.719   100405829.0694   24520126.922  
                
  20432900.664   107375632.248    20432906.309    83669359.2934                 
                
  20379472.992   108825292.123                    84641897.438    20379475.660  
  20379471.141  
  23168031.266   124063759.615                    96494029.186    23168034.328  
  23168030.523  
  21354482.055   112218607.485    21354490.527    87443125.1474   21354490.758  
                
  21031458.281   112227909.616                    87288371.268    21031461.441  
  21031456.242  
  21775817.047   116240803.071                    90409525.741    21775819.852  
  21775815.375  
  20004400.844   106859946.576                    83113285.816    20004404.309  
  20004400.258  
  23480061.859   123388564.682    23480066.246    96146947.9864                 
                
 21  8 14 21 45 50.0000000  0 15G17G15R21R 3G14G 7G 5G13R13R 4G30R 2
                                R22R12G19
  21684264.648   113951584.785    21684270.789    88793472.4744   21684270.828  
                
  21837461.617   114756648.970    21837467.602    89420798.7594   21837467.508  
                
  22342189.320   119557580.372                    92989231.122    22342191.836  
  22342187.426  
  20435666.969   109393751.360                    85084027.704    20435670.922  
  20435665.875  
  20299634.141   106675319.700    20299640.461    83123672.6094   20299640.355  
                
  23718575.570   124641994.449    23718581.562    97123678.6594   23718581.672  
                
  24525443.422   128882072.706    24525450.465   100427628.8424   24525450.629  
                
  20432196.719   107371932.995    20432202.379    83666476.7524                 
                
  20376519.781   108809522.107                    84629631.872    20376522.434  
  20376517.918  
  23161538.711   124028992.520                    96466988.126    23161541.789  
  23161537.973  
  21357758.727   112235826.458    21357767.172    87456542.5274   21357767.410  
                
  21038169.656   112263722.833                    87316225.982    21038172.828  
  21038167.617  
  21771105.672   116215653.522                    90389964.995    21771108.520  
  21771104.020  
  20007107.477   106874404.929                    83124531.193    20007110.938  
  20007106.895  
  23472941.930   123351150.104    23472946.551    96117793.7814                 
                
 21  8 14 21 46  0.0000000  0 15G17G15R21R 3G14G 7G 5G13R13R 4G30R 2
                                R22R12G19
  21680056.578   113929471.268    21680062.730    88776241.1594   21680062.762  
                
  21834384.336   114740477.725    21834390.316    89408197.7874   21834390.219  
                
  22343893.133   119566697.864                    92996322.495    22343895.652  
  22343891.223  
  20435295.969   109391765.360                    85082483.026    20435299.910  
  20435294.852  
  20301011.125   106682555.820    20301017.449    83129311.1454   20301017.348  
                
  23723788.234   124669387.494    23723794.258    97145023.8914   23723794.387  
                
  24530770.477   128910066.554    24530777.492   100449442.2344   24530777.668  
                
  20431505.047   107368298.216    20431510.730    83663644.4554                 
                
  20373572.602   108793784.310                    84617391.365    20373575.270  
  20373570.730  
  23155055.609   123994275.991                    96439986.379    23155058.684  
  23155054.859  
  21361041.641   112253078.274    21361050.066    87469985.4974   21361050.297  
                
  21044890.859   112299588.492                    87344121.500    21044894.031  
  21044888.812  
  21766407.312   116190573.429                    90370458.275    21766410.215  
  21766405.625  
  20009819.562   106888892.403                    83135799.236    20009823.031  
  20009818.980  
  23465824.961   123313750.615    23465829.707    96088651.3394                 
                
 21  8 14 21 46 10.0000000  0 15G17G15R21R 3G14G 7G 5G13R13R 4G30R 2
                                R22R12G19
  21675857.820   113907406.710    21675863.965    88759048.0054   21675864.000  
                
  21831318.531   114724366.813    21831324.492    89395643.8234   21831324.383  
                
  22345613.453   119575903.632                    93003482.542    22345615.996  
  22345611.559  
  20434942.328   109389872.303                    85081010.637    20434946.262  
  20434941.199  
  20302396.805   106689837.620    20302403.141    83134985.2744   20302403.027  
                
  23729004.375   124696799.102    23729010.527    97166383.5844   23729010.633  
                
  24536100.898   128938077.839    24536107.832   100471269.2054   24536108.012  
                
  20430825.633   107364727.932    20430831.340    83660862.4104                 
                
  20370631.414   108778078.550                    84605175.801    20370634.121  
  20370629.582  
  23148582.016   123959610.200                    96413024.104    23148585.078  
  23148581.277  
  21364330.820   112270362.971    21364339.238    87483454.0934   21364339.473  
                
  21051621.758   112335505.963                    87372057.314    21051624.926  
  21051619.727  
  21761721.961   116165563.160                    90351005.864    21761724.898  
  21761720.297  
  20012537.055   106903408.771                    83147089.742    20012540.508  
  20012536.461  
  23458710.844   123276366.279    23458715.738    96059520.7174                 
                
 21  8 14 21 46 20.0000000  0 15G17G15R21R 3G14G 7G 5G13R13R 4G30R 2
                                R22R12G19
  21671668.383   113885391.148    21671674.500    88741893.0294   21671674.559  
                
  21828264.203   114708316.232    21828270.148    89383136.8734   21828270.047  
                
  22347350.281   119585197.743                    93010711.304    22347352.840  
  22347348.367  
  20434605.992   109388071.873                    85079610.288    20434609.930  
  20434604.887  
  20303791.164   106697165.027    20303797.504    83140694.9424   20303797.391  
                
  23734224.156   124724229.268    23734230.383    97187757.7514   23734230.457  
                
  24541434.570   128966106.396    24541441.523   100493109.6454   24541441.680  
                
  20430158.492   107361222.129    20430164.219    83658130.6194                 
                
  20367696.211   108762404.712                    84592985.025    20367698.926  
  20367694.418  
  23142117.953   123924995.449                    96386101.534    23142120.992  
  23142117.238  
  21367626.234   112287680.478    21367634.645    87496948.2514   21367634.871  
                
  21058362.352   112371475.067                    87400033.285    21058365.512  
  21058360.324  
  21757049.734   116140622.525                    90331607.578    21757052.695  
  21757048.047  
  20015259.953   106917954.028                    83158402.723    20015263.398  
  20015259.367  
  23451599.680   123238997.239    23451604.645    96030401.9894                 
                
 21  8 14 21 46 30.0000000  0 15G17G15R21R 3G14G 7G 5G13R13R 4G30R 2
                                R22R12G19
  21667488.344   113863424.844    21667494.445    88724776.4264   21667494.504  
                
  21825221.430   114692326.326    21825227.391    89370677.2084   21825227.273  
                
  22349103.609   119594580.232                    93018008.777    22349106.207  
  22349101.625  
  20434287.047   109386364.445                    85078282.298    20434290.984  
  20434285.980  
  20305194.250   106704538.255    20305200.598    83146440.3174   20305200.488  
                
  23739447.422   124751678.210    23739453.809    97209146.5244   23739453.855  
                
  24546771.539   128994152.405    24546778.570   100514963.6824   24546778.695  
                
  20429503.703   107357781.145    20429509.438    83655449.3354                 
                
  20364767.117   108746763.552                    84580819.677    20364769.848  
  20364765.340  
  23135663.438   123890431.844                    96359218.749    23135666.488  
  23135662.773  
  21370927.938   112305031.031    21370936.332    87510468.1634   21370936.578  
                
  21065112.625   112407495.808                    87428049.406    21065115.785  
  21065110.590  
  21752390.703   116115752.268                    90312264.069    21752393.688  
  21752389.012  
  20017988.320   106932528.455                    83169738.380    20017991.750  
  20017987.730  
  23444491.602   123201643.950    23444496.531    96001295.5464                 
                
 21  8 14 21 46 40.0000000  0 15G17G15R21R 3G14G 7G 5G13R13R 4G30R 2
                                R22R12G19
  21663317.602   113841507.469    21663323.730    88707697.9454   21663323.785  
                
  21822190.164   114676396.945    21822196.141    89358264.7014   21822196.004  
                
  22350873.398   119604050.767                    93025374.750    22350876.023  
  22350871.383  
  20433985.398   109384749.649                    85077026.347    20433989.340  
  20433984.332  
  20306605.969   106711956.872    20306612.312    83152221.0564   20306612.203  
                
  23744674.148   124779145.564    23744680.691    97230549.6444   23744680.684  
                
  24552111.750   129022215.293    24552118.762   100536830.8654   24552118.891  
                
  20428861.148   107354404.592    20428866.902    83652818.2544                 
                
  20361844.016   108731154.414                    84568679.247    20361846.762  
  20361842.219  
  23129218.453   123855919.329                    96332375.704    23129221.520  
  23129217.793  
  21374235.852   112322414.244    21374244.223    87524013.5214   21374244.488  
                
  21071872.523   112443568.087                    87456105.614    21071875.715  
  21071870.484  
  21747744.703   116090951.856                    90292974.877    21747747.746  
  21747743.004  
  20020722.047   106947131.542                    83181096.334    20020725.480  
  20020721.449  
  23437386.508   123164306.012    23437391.309    95972201.0514                 
                
 21  8 14 21 46 50.0000000  0 15G17G15R21R 3G14G 7G 5G13R13R 4G30R 2
                                R22R12G19
  21659156.195   113819639.136    21659162.383    88690657.6984   21659162.410  
                
  21819170.430   114660528.109    21819176.422    89345899.3754   21819176.301  
                
  22352659.664   119613609.480                    93032809.329    22352662.328  
  22352657.652  
  20433701.125   109383227.820                    85075842.682    20433705.066  
  20433700.062  
  20308026.359   106719421.051    20308032.703    83158037.3024   20308032.602  
                
  23749904.578   124806631.475    23749911.031    97251967.2554   23749911.031  
                
  24557455.188   129050295.238    24557462.223   100558711.3344   24557462.344  
                
  20428230.922   107351092.708    20428236.676    83650237.5584                 
                
  20358926.977   108715577.557                    84556563.925    20358929.730  
  20358925.199  
  23122783.047   123821458.173                    96305572.585    23122786.129  
  23122782.352  
  21377550.023   112339830.351    21377558.395    87537584.5114   21377558.668  
                
  21078642.047   112479691.546                    87484201.637    21078645.254  
  21078639.996  
  21743111.922   116066221.766                    90273740.387    21743114.973  
  21743110.199  
  20023461.211   106961763.618                    83192476.834    20023464.637  
  20023460.633  
  23430284.500   123126983.780    23430289.027    95943118.7714                 
                
 21  8 14 21 47  0.0000000  0 15G17G15R21R 3G14G 7G 5G13R13R 4G30R 2
                                R22R12G19
  21655004.141   113797820.013    21655010.391    88673655.7834   21655010.383  
                
  21816162.180   114644719.682    21816168.191    89333581.1184   21816168.070  
                
  22354462.344   119623255.992                    93040312.158    22354465.023  
  22354460.277  
  20433434.141   109381798.597                    85074731.059    20433438.062  
  20433433.109  
  20309455.352   106726930.474    20309461.691    83163888.8004   20309461.582  
                
  23755138.398   124834135.605    23755144.840    97273399.0414   23755144.852  
                
  24562801.820   129078391.849    24562808.832   100580604.7964   24562808.965  
                
  20427612.961   107347845.274    20427618.703    83647707.0934                 
                
  20356015.930   108700032.680                    84544473.460    20356018.676  
  20356014.168  
  23116357.211   123787048.343                    96278809.405    23116360.309  
  23116356.480  
  21380870.391   112357279.045    21380878.758    87551180.8854   21380879.031  
                
  21085421.148   112515866.200                    87512337.484    21085424.383  
  21085419.074  
  21738492.305   116041561.976                    90254560.547    21738495.320  
  21738490.574  
  20026205.680   106976424.113                    83203879.452    20026209.098  
  20026205.098  
  23423185.438   123089677.058    23423189.695    95914048.5804                 
                
 21  8 14 21 47 10.0000000  0 15G17G15R21R 3G14G 7G 5G13R13R 4G30R 2
                                R22R12G19
  21650861.547   113776050.517    21650867.832    88656692.5454   21650867.797  
                
  21813165.523   114628972.143    21813171.547    89321310.3074   21813171.438  
                
  22356281.523   119632990.848                    93047883.716    22356284.238  
  22356279.445  
  20433184.547   109380462.399                    85073691.787    20433188.449  
  20433183.551  
  20310893.023   106734485.475    20310899.371    83169775.8154   20310899.258  
                
  23760375.797   124861658.364    23760382.254    97294845.3454   23760382.234  
                
  24568151.617   129106505.424    24568158.664   100602511.4834   24568158.785  
                
  20427007.344   107344662.685    20427013.062    83645227.1534                 
                
  20353110.930   108684520.056                    84532408.093    20353113.691  
  20353109.184  
  23109941.062   123752690.363                    96252086.532    23109944.172  
  23109940.277  
  21384197.031   112374760.710    21384205.398    87564802.9654   21384205.668  
                
  21092209.805   112552091.807                    87540512.943    21092213.039  
  21092207.703  
  21733885.953   116016972.846                    90235435.679    21733888.926  
  21733884.199  
  20028955.578   106991113.569                    83215304.572    20028958.980  
  20028955.012  
  23416089.391   123052386.391    23416093.461    95884990.9134                 
                
 21  8 14 21 47 20.0000000  0 15G17G15R21R 3G14G 7G 5G13R13R 4G30R 2
                                R22R12G19
  21646728.344   113754330.459    21646734.656    88639767.8294   21646734.609  
                
  21810180.398   114613285.220    21810186.461    89309086.7304   21810186.324  
                
  22358117.109   119642813.524                    93055523.572    22358119.852  
  22358115.031  
  20432952.258   109379218.899                    85072724.612    20432956.137  
  20432951.277  
  20312339.312   106742085.769    20312345.660    83175698.1194   20312345.539  
                
  23765616.773   124889199.560    23765623.172    97316306.0194   23765623.141  
                
  24573504.562   129134635.563    24573511.656   100624431.0674   24573511.762  
                
  20426414.016   107341544.761    20426419.715    83642797.5964                 
                
  20350211.953   108669039.695                    84520367.818    20350214.695  
  20350210.254  
  23103534.539   123718384.002                    96225403.814    23103537.660  
  23103533.711  
  21387529.906   112392275.129    21387538.281    87578450.5634   21387538.562  
                
  21099007.961   112588368.118                    87568727.845    21099011.195  
  21099005.871  
  21729292.820   115992454.372                    90216365.752    21729295.777  
  21729291.098  
  20031710.828   107005831.653                    83226751.972    20031714.207  
  20031710.270  
  23408996.266   123015111.627    23409000.289    95855945.6274                 
                
 21  8 14 21 47 30.0000000  0 15G17G15R21R 3G14G 7G 5G13R13R 4G30R 2
                                R22R12G19
  21642604.617   113732660.176    21642610.980    88622881.9034   21642610.914  
                
  21807206.875   114597659.301    21807212.973    89296910.6994   21807212.809  
                
  22359969.203   119652724.461                    93063232.074    22359971.980  
  22359967.168  
  20432737.359   109378068.464                    85071829.824    20432741.246  
  20432736.387  
  20313794.258   106749731.551    20313800.609    83181655.8714   20313800.473  
                
  23770861.352   124916759.282    23770867.609    97337781.1364   23770867.602  
                
  24578860.766   129162782.482    24578867.852   100646363.7284   24578867.934  
                
  20425833.062   107338491.825    20425838.742    83640418.6874                 
                
  20347319.008   108653591.531                    84508352.598    20347321.742  
  20347317.309  
  23097137.781   123684129.822                    96198761.676    23097140.887  
  23097136.898  
  21390869.062   112409822.508    21390877.449    87592123.8494   21390877.723  
                
  21105815.656   112624695.449                    87596982.434    21105818.922  
  21105813.570  
  21724713.000   115968006.953                    90197351.091    21724715.953  
  21724711.273  
  20034471.492   107020578.639                    83238221.858    20034474.855  
  20034470.930  
  23401906.180   122977853.163    23401910.289    95826913.0734                 
                
 21  8 14 21 47 40.0000000  0 15G17G15R21R 3G14G 7G 5G13R13R 4G30R 2
                                R22R12G19
  21638490.312   113711039.408    21638496.727    88606034.5504   21638496.633  
                
  21804244.938   114582094.246    21804251.062    89284782.0904   21804250.863  
                
  22361837.695   119662723.148                    93071008.843    22361840.516  
  22361835.660  
  20432539.781   109377010.810                    85071007.204    20432543.652  
  20432538.785  
  20315257.797   106757422.534    20315264.148    83187648.8404   20315264.012  
                
  23776109.406   124944337.321    23776115.527    97359270.5394   23776115.551  
                
  24584220.031   129190945.786    24584227.164   100668309.1534   24584227.230  
                
  20425264.438   107335503.678    20425270.105    83638090.2564                 
                
  20344432.117   108638175.650                    84496362.461    20344434.855  
  20344430.398  
  23090750.742   123649927.711                    96172160.037    23090753.867  
  23090749.832  
  21394214.438   112427402.614    21394222.836    87605822.6314   21394223.113  
                
  21112632.766   112661072.998                    87625276.076    21112636.082  
  21112630.684  
  21720146.406   115943630.360                    90178391.557    21720149.348  
  21720144.688  
  20037237.500   107035354.206                    83249713.961    20037240.859  
  20037236.938  
  23394819.109   122940610.843    23394823.398    95797893.1024                 
                
 21  8 14 21 47 50.0000000  0 15G17G15R21R 3G14G 7G 5G13R13R 4G30R 2
                                R22R12G19
  21634385.492   113689468.372    21634391.930    88589225.9624   21634391.816  
                
  21801294.617   114566590.216    21801300.770    89272701.0244   21801300.562  
                
  22363722.641   119672809.894                    93078854.086    22363725.484  
  22363720.594  
  20432359.578   109376046.155                    85070256.919    20432363.473  
  20432358.562  
  20316729.969   106765158.827    20316736.328    83193677.1254   20316736.172  
                
  23781360.859   124971933.898    23781367.004    97380774.3684   23781367.039  
                
  24589582.445   129219125.487    24589589.609   100690267.3784   24589589.660  
                
  20424708.164   107332580.434    20424713.816    83635812.4024                 
                
  20341551.289   108622792.187                    84484397.543    20341554.000  
  20341549.566  
  23084373.508   123615777.969                    96145599.127    23084376.629  
  23084372.586  
  21397566.078   112445015.594    21397574.477    87619547.0354   21397574.766  
                
  21119459.336   112697500.980                    87653608.951    21119462.695  
  21119457.262  
  21715593.188   115919325.082                    90159487.443    21715596.098  
  21715591.496  
  20040008.898   107050158.511                    83261228.409    20040012.258  
  20040008.324  
  23387735.031   122903384.897    23387739.652    95768885.9134                 
                
 21  8 14 21 48  0.0000000  0 15G17G15R21R 3G14G 7G 5G13R13R 4G30R 2
                                R22R12G19
  21630290.133   113667947.108    21630296.566    88572456.1384   21630296.457  
                
  21798355.945   114551147.340    21798362.121    89260667.6144   21798361.895  
                
  22365624.039   119682984.656                    93086767.793    22365626.906  
  22365622.012  
  20432196.750   109375174.497                    85069578.958    20432200.637  
  20432195.688  
  20318210.766   106772940.455    20318217.121    83199740.7324   20318216.957  
                
  23786615.820   124999548.925    23786622.039    97402292.5874   23786622.074  
                
  24594947.945   129247321.498    24594955.168   100712238.2864   24594955.207  
                
  20424164.250   107329722.156    20424169.895    83633585.1684                 
                
  20338676.477   108607440.828                    84472457.606    20338679.148  
  20338674.750  
  23078006.102   123581680.798                    96119079.102    23078009.211  
  23078005.219  
  21400923.984   112462661.508    21400932.375    87633297.0934   21400932.668  
                
  21126295.383   112733979.405                    87681981.051    21126298.762  
  21126293.312  
  21711053.398   115895091.242                    90140638.925    21711056.316  
  21711051.742  
  20042785.680   107064991.588                    83272765.244    20042789.023  
  20042785.113  
  23380654.094   122866175.545    23380659.062    95739891.6484                 
                
 21  8 14 21 48 10.0000000  0 15G17G15R21R 3G14G 7G 5G13R13R 4G30R 2
                                R22R12G19
  21626204.273   113646475.817    21626210.711    88555725.2774   21626210.609  
                
  21795428.891   114535765.557    21795435.098    89248681.8114   21795434.859  
                
  22367541.836   119693247.177                    93094749.755    22367544.695  
  22367539.762  
  20432051.273   109374395.767                    85068973.272    20432055.152  
  20432050.184  
  20319700.148   106780767.216    20319706.496    83205839.5094   20319706.336  
                
  23791874.109   125027182.361    23791880.613    97423825.1194   23791880.602  
                
  24600316.516   129275533.542    24600323.738   100734221.7074   24600323.781  
                
  20423632.695   107326928.786    20423638.332    83631408.5114                 
                
  20335807.719   108592121.863                    84460542.861    20335810.391  
  20335806.004  
  23071648.508   123547636.212                    96092600.003    23071651.648  
  23071647.637  
  21404288.117   112480340.197    21404296.492    87647072.6944   21404296.797  
                
  21133140.773   112770507.764                    87710391.987    21133144.184  
  21133138.723  
  21706526.984   115870928.928                    90121846.010    21706529.918  
  21706525.367  
  20045567.812   107079853.303                    83284324.362    20045571.152  
  20045567.250  
  23373576.500   122828982.762    23373581.602    95710910.3054                 
                
 21  8 14 21 48 20.0000000  0 15G17G15R21R 3G14G 7G 5G13R13R 4G30R 2
                                R22R12G19
  21622127.945   113625054.566    21622134.391    88539033.3894   21622134.285  
                
  21792513.477   114520444.967    21792519.715    89236743.6834   21792519.477  
                
  22369476.047   119703597.533                    93102800.036    22369478.906  
  22369473.980  
  20431923.172   109373710.003                    85068439.914    20431927.051  
  20431922.082  
  20321198.117   106788639.109    20321204.461    83211973.4554   20321204.316  
                
  23797135.992   125054834.171    23797142.633    97445371.9804   23797142.602  
                
  24605688.180   129303761.611    24605695.352   100756217.6194   24605695.398  
                
  20423113.516   107324200.446    20423119.168    83629282.5324                 
                
  20332945.078   108576835.457                    84448653.436    20332947.727  
  20332943.352  
  23065300.781   123513644.348                    96066161.875    23065303.918  
  23065299.918  
  21407658.500   112498051.691    21407666.883    87660873.8554   21407667.207  
                
  21139995.500   112807085.915                    87738841.663    21139998.914  
  21139993.484  
  21702013.938   115846838.102                    90103108.708    21702016.836  
  21702012.355  
  20048355.289   107094743.454                    83295905.598    20048358.625  
  20048354.719  
  23366502.273   122791806.695    23366507.309    95681941.9624                 
                
 21  8 14 21 48 30.0000000  0 15G17G15R21R 3G14G 7G 5G13R13R 4G30R 2
                                R22R12G19
  21618061.094   113603683.124    21618067.562    88522380.3204   21618067.426  
                
  21789609.672   114505185.355    21789615.922    89224853.0794   21789615.680  
                
  22371426.609   119714035.448                    93110918.426    22371429.434  
  22371424.539  
  20431812.359   109373116.868                    85067978.589    20431816.238  
  20431811.270  
  20322704.617   106796555.831    20322710.961    83218142.3294   20322710.832  
                
  23802401.352   125082504.112    23802408.090    97466932.9714   23802408.078  
                
  24611062.781   129332005.324    24611069.926   100778225.7074   24611070.012  
                
  20422606.633   107321536.775    20422612.312    83627206.9434                 
                
  20330088.383   108561580.822                    84436788.724    20330091.008  
  20330086.633  
  23058962.891   123479705.095                    96039764.671    23058966.000  
  23058962.090  
  21411035.070   112515795.729    21411043.473    87674700.3824   21411043.809  
                
  21146859.602   112843714.041                    87767330.212    21146863.004  
  21146857.582  
  21697514.367   115822818.918                    90084427.124    21697517.176  
  21697512.750  
  20051148.055   107109661.962                    83307508.868    20051151.410  
  20051147.477  
  23359431.203   122754647.189    23359436.121    95652986.5104                 
                
 21  8 14 21 48 40.0000000  0 15G17G15R21R 3G14G 7G 5G13R13R 4G30R 2
                                R22R12G19
  21614003.820   113582362.008    21614010.316    88505766.4704   21614010.156  
                
  21786717.562   114489987.233    21786723.816    89213010.3844   21786723.582  
                
  22373393.562   119724561.052                    93119105.010    22373396.398  
  22373391.484  
  20431718.961   109372616.907                    85067589.734    20431722.855  
  20431717.867  
  20324219.711   106804517.705    20324226.051    83224346.3884   20324225.918  
                
  23807670.188   125110192.559    23807677.070    97488508.3634   23807677.066  
                
  24616440.391   129360264.991    24616447.547   100800246.2214   24616447.652  
                
  20422112.156   107318938.235    20422117.879    83625182.1064                 
                
  20327237.727   108546358.513                    84424949.153    20327240.312  
  20327235.977  
  23052634.938   123445819.054                    96013408.874    23052638.039  
  23052634.199  
  21414417.906   112533572.695    21414426.320    87688552.5524   21414426.664  
                
  21153732.945   112880391.443                    87795857.066    21153736.320  
  21153730.922  
  21693028.242   115798871.700                    90065801.512    21693030.992  
  21693026.633  
  20053946.188   107124609.074                    83319134.394    20053949.535  
  20053945.609  
  23352363.383   122717504.741    23352368.164    95624044.3544                 
                
 21  8 14 21 48 50.0000000  0 15G17G15R21R 3G14G 7G 5G13R13R 4G30R 2
                                R22R12G19
  21609956.109   113561091.117    21609962.598    88489191.7564   21609962.418  
                
  21783837.148   114474850.569    21783843.410    89201215.5874   21783843.191  
                
  22375376.914   119735174.397                    93127359.824    22375379.773  
  22375374.844  
  20431642.938   109372209.934                    85067273.206    20431646.836  
  20431641.816  
  20325743.367   106812524.547    20325749.715    83230585.4934   20325749.570  
                
  23812942.578   125137899.373    23812949.570    97510098.0844   23812949.551  
                
  24621821.000   129388540.295    24621828.156   100822278.9224   24621828.238  
                
  20421630.062   107316404.800    20421635.836    83623208.0054                 
                
  20324393.109   108531168.451                    84413134.672    20324395.672  
  20324391.344  
  23046316.945   123411986.175                    95987094.404    23046320.023  
  23046316.203  
  21417806.984   112551382.416    21417815.414    87702430.2614   21417815.762  
                
  21160615.555   112917118.315                    87824422.418    21160618.898  
  21160613.539  
  21688555.617   115774996.611                    90047231.995    21688558.371  
  21688554.000  
  20056749.633   107139584.549                    83330781.989    20056752.980  
  20056749.055  
  23345298.758   122680379.341    23345303.363    95595115.4704                 
                
 21  8 14 21 49  0.0000000  0 15G17G15R21R 3G14G 7G 5G13R13R 4G30R 2
                                R22R12G19
  21605917.930   113539870.382    21605924.383    88472656.1144   21605924.203  
                
  21780968.406   114459775.252    21780974.648    89189468.5824   21780974.426  
                
  22377376.594   119745875.116                    93135682.618    22377379.504  
  22377374.527  
  20431584.188   109371895.528                    85067028.645    20431588.094  
  20431583.031  
  20327275.523   106820576.130    20327281.875    83236859.4534   20327281.723  
                
  23818218.492   125165624.318    23818225.527    97531701.9504   23818225.492  
                
  24627204.484   129416830.937    24627211.695   100844323.5844   24627211.746  
                
  20421160.312   107313936.237    20421166.141    83621284.4444                 
                
  20321554.539   108516010.673                    84401345.285    20321557.078  
  20321552.793  
  23040008.852   123378206.468                    95960821.312    23040011.898  
  23040008.094  
  21421202.266   112569224.752    21421210.734    87716333.3754   21421211.078  
                
  21167507.414   112953894.521                    87853026.135    21167510.715  
  21167505.387  
  21684096.508   115751193.631                    90028718.575    21684099.262  
  21684094.875  
  20059558.359   107154588.299                    83342451.576    20059561.723  
  20059557.785  
  23338237.359   122643270.855    23338241.695    95566199.7544                 
                
 21  8 14 21 49 10.0000000  0 15G17G15R21R 3G14G 7G 5G13R13R 4G30R 2
                                R22R12G19
  21601889.336   113518699.953    21601895.758    88456159.6844   21601895.613  
                
  21778111.359   114444761.377    21778117.578    89177769.4584   21778117.375  
                
  22379392.664   119756663.514                    93144073.592    22379395.609  
  22379390.590  
  20431542.844   109371674.209                    85066856.508    20431546.742  
  20431541.664  
  20328816.242   106828672.632    20328822.590    83243168.4104   20328822.430  
                
  23823497.852   125193367.595    23823504.992    97553320.0604   23823504.930  
                
  24632590.891   129445136.977    24632598.160   100866380.2284   24632598.199  
                
  20420702.938   107311532.736    20420708.816    83619411.5834                 
                
  20318722.000   108500885.166                    84389581.010    20318724.551  
  20318720.238  
  23033710.727   123344480.267                    95934589.834    23033713.785  
  23033709.961  
  21424603.781   112587099.862    21424612.309    87730262.0284   21424612.617  
                
  21174408.469   112990719.793                    87881668.013    21174411.750  
  21174406.445  
  21679650.977   115727463.000                    90010261.422    21679653.664  
  21679649.359  
  20062372.430   107169620.529                    83354143.303    20062375.805  
  20062371.867  
  23331179.297   122606179.675    23331183.352    95537297.5104                 
                
 21  8 14 21 49 20.0000000  0 15G17G15R21R 3G14G 7G 5G13R13R 4G30R 2
                                R22R12G19
  21597870.305   113497579.829    21597876.723    88439702.4464   21597876.582  
                
  21775265.984   114429808.839    21775272.188    89166118.1424   21775272.004  
                
  22381425.055   119767539.312                    93152532.555    22381428.055  
  22381422.965  
  20431518.844   109371545.703                    85066756.559    20431522.734  
  20431517.676  
  20330365.469   106836813.828    20330371.801    83249512.2004   20330371.645  
                
  23828780.680   125221129.044    23828787.871    97574952.3584   23828787.816  
                
  24637980.320   129473458.210    24637987.492   100888448.7304   24637987.543  
                
  20420257.945   107309194.233    20420263.867    83617589.3774                 
                
  20315895.461   108485791.652                    84377841.601    20315898.020  
  20315893.715  
  23027422.547   123310807.492                    95908399.904    23027425.652  
  23027421.801  
  21428011.523   112605007.603    21428020.098    87744216.1104   21428020.371  
                
  21181318.641   113027593.755                    87910347.769    21181321.914  
  21181316.605  
  21675218.984   115703804.679                    89991860.520    21675221.633  
  21675217.367  
  20065191.766   107184680.911                    83365856.936    20065195.156  
  20065191.219  
  23324124.430   122569105.711    23324128.316    95508408.7024                 
                
 21  8 14 21 49 30.0000000  0 15G17G15R21R 3G14G 7G 5G13R13R 4G30R 2
                                R22R12G19
  21593860.797   113476509.732    21593867.215    88423284.1934   21593867.078  
                
  21772432.312   114414917.783    21772438.512    89154514.7174   21772438.328  
                
  22383473.750   119778502.455                    93161059.434    22383476.789  
  22383471.633  
  20431512.164   109371509.938                    85066728.732    20431516.059  
  20431511.008  
  20331923.172   106844999.639    20331929.484    83255890.7624   20331929.340  
                
  23834066.953   125248908.587    23834074.172    97596598.7724   23834074.094  
                
  24643372.555   129501794.462    24643379.676   100910528.9354   24643379.742  
                
  20419825.312   107306920.731    20419831.266    83615817.8114                 
                
  20313074.914   108470730.150                    84366127.107    20313077.457  
  20313073.125  
  23021144.375   123277188.300                    95882251.664    23021147.500  
  23021143.625  
  21431425.445   112622947.924    21431434.070    87758195.5854   21431434.316  
                
  21188237.922   113064516.362                    87939065.342    21188241.176  
  21188235.871  
  21670800.523   115680218.738                    89973515.903    21670803.090  
  21670798.902  
  20068016.383   107199769.528                    83377592.520    20068019.789  
  20068015.848  
  23317072.742   122532049.094    23317076.598    95479533.4024                 
                
 21  8 14 21 49 40.0000000  0 15G17G15R21R 3G14G 7G 5G13R13R 4G30R 2
                                R22R12G19
  21589860.977   113455490.536    21589867.363    88406905.6074   21589867.242  
                
  21769610.375   114400088.399    21769616.582    89142959.3454   21769616.395  
                
  22385538.789   119789552.962                    93169654.299    22385541.852  
  22385536.672  
  20431522.867   109371567.206                    85066773.272    20431526.750  
  20431521.734  
  20333489.398   106853230.200    20333495.676    83262304.1854   20333495.551  
                
  23839356.758   125276706.458    23839363.926    97618259.4374   23839363.840  
                
  24648767.672   129530145.840    24648774.785   100932620.9074   24648774.836  
                
  20419405.094   107304712.446    20419411.078    83614097.0714                 
                
  20310260.438   108455700.957                    84354437.737    20310262.988  
  20310258.629  
  23014876.297   123243623.237                    95856145.501    23014879.453  
  23014875.543  
  21434845.617   112640921.018    21434854.289    87772200.5824   21434854.516  
                
  21195166.320   113101487.602                    87967820.747    21195169.559  
  21195164.266  
  21666395.727   115656705.664                    89955227.972    21666398.309  
  21666394.117  
  20070846.289   107214886.368                    83389350.063    20070849.699  
  20070845.762  
  23310024.375   122495010.053    23310028.230    95450671.8114                 
                
 21  8 14 21 49 50.0000000  0 15G17G15R21R 3G14G 7G 5G13R13R 4G30R 2
                                R22R12G19
  21585870.844   113434522.201    21585877.176    88390566.6454   21585877.074  
                
  21766800.195   114385320.736    21766806.398    89131452.0814   21766806.223  
                
  22387620.172   119800690.946                    93178317.159    22387623.266  
  22387618.012  
  20431550.938   109371717.409                    85066890.102    20431554.820  
  20431549.832  
  20335064.125   106861505.451    20335070.363    83268752.4364   20335070.258  
                
  23844650.078   125304522.583    23844657.145    97639934.3214   23844657.047  
                
  24654165.648   129558512.183    24654172.719   100954724.5604   24654172.777  
                
  20418997.305   107302569.441    20419003.316    83612427.1994                 
                
  20307452.008   108440704.139                    84342773.551    20307454.551  
  20307450.188  
  23008618.297   123210112.146                    95830081.324    23008621.504  
  23008617.531  
  21438272.016   112658926.839    21438280.730    87786231.0944   21438280.926  
                
  21202103.867   113138507.536                    87996614.028    21202107.090  
  21202101.816  
  21662004.602   115633265.590                    89936996.800    21662007.230  
  21662002.977  
  20073681.508   107230031.555                    83401129.652    20073684.941  
  20073680.973  
  23302979.383   122457988.721    23302983.305    95421824.0274                 
                
 21  8 14 21 50  0.0000000  0 15G17G15R21R 3G14G 7G 5G13R13R 4G30R 2
                                R22R12G19
  21581890.320   113413604.368    21581896.617    88374267.0324   21581896.535  
                
  21764001.734   114370614.725    21764007.930    89119992.8534   21764007.750  
                
  22389717.836   119811916.076                    93187047.823    22389720.984  
  22389715.648  
  20431596.328   109371960.345                    85067079.052    20431600.207  
  20431595.246  
  20336647.320   106869825.194    20336653.512    83275235.3524   20336653.434  
                
  23849946.836   125332356.735    23849953.797    97661623.2704   23849953.730  
                
  24659566.336   129586893.248    24659573.426   100976839.6734   24659573.492  
                
  20418601.898   107300491.558    20418607.922    83610808.0624                 
                
  20304649.609   108425739.476                    84331134.386    20304652.148  
  20304647.750  
  23002370.352   123176654.985                    95804059.102    23002373.598  
  23002369.535  
  21441704.609   112676965.218    21441713.359    87800286.9714   21441713.535  
                
  21209050.430   113175575.551                    88025444.710    21209053.633  
  21209048.367  
  21657627.125   115609898.330                    89918822.275    21657629.750  
  21657625.500  
  20076521.961   107245204.773                    83412931.037    20076525.402  
  20076521.418  
  23295937.695   122420984.999    23295941.777    95392989.9734                 
                
 21  8 14 21 50 10.0000000  0 15G17G15R21R 3G14G 7G 5G13R13R 4G30R 2
                                R22R12G19
  21577919.516   113392737.671    21577925.797    88358007.2634   21577925.719  
                
  21761215.070   114355970.702    21761221.258    89108581.9244   21761221.086  
                
  22391831.820   119823228.516                    93195846.379    22391834.992  
  22391829.637  
  20431659.125   109372296.460                    85067340.463    20431662.992  
  20431658.039  
  20338239.023   106878189.655    20338245.184    83281753.1124   20338245.129  
                
  23855247.055   125360209.161    23855253.949    97683326.4474   23855253.883  
                
  24664969.898   129615289.220    24664976.980   100998966.4124   24664977.047  
                
  20418218.938   107298479.069    20418224.961    83609239.8874                 
                
  20301853.281   108410807.328                    84319520.500    20301855.836  
  20301851.426  
  22996132.617   123143252.451                    95778079.338    22996135.906  
  22996131.699  
  21445143.461   112695036.480    21445152.250    87814368.4744   21445152.395  
                
  21216006.031   113212691.909                    88054312.979    21216009.227  
  21216003.949  
  21653263.406   115586604.541                    89900704.900    21653266.008  
  21653261.758  
  20079367.727   107260406.354                    83424754.483    20079371.184  
  20079367.195  
  23288899.414   122383999.337    23288903.664    95364169.9774                 
                
 21  8 14 21 50 20.0000000  0 15G17G15R21R 3G14G 7G 5G13R13R 4G30R 2
                                R22R12G19
  21573958.414   113371921.918    21573964.699    88341787.2114   21573964.609  
                
  21758440.172   114341388.495    21758446.355    89097219.1654   21758446.188  
                
  22393962.109   119834628.167                    93204712.768    22393965.293  
  22393959.910  
  20431739.273   109372725.421                    85067674.109    20431743.137  
  20431738.191  
  20339839.180   106886598.548    20339845.312    83288305.4954   20339845.258  
                
  23860550.766   125388079.720    23860557.527    97705043.7644   23860557.484  
                
  24670376.219   129643699.693    24670383.281   101021104.4374   24670383.355  
                
  20417848.391   107296531.793    20417854.398    83607722.5254                 
                
  20299063.008   108395907.476                    84307931.711    20299065.590  
  20299061.156  
  22989905.078   123109904.373                    95752141.949    22989908.398  
  22989904.125  
  21448588.516   112713140.319    21448597.328    87828475.3584   21448597.449  
                
  21222970.547   113249855.961                    88083218.355    21222973.758  
  21222968.457  
  21648913.383   115563383.850                    89882644.355    21648915.992  
  21648911.734  
  20082218.727   107275635.869                    83436599.650    20082222.195  
  20082218.195  
  23281864.641   122347031.706    23281868.969    95335364.0434                 
                
 21  8 14 21 50 30.0000000  0 15G17G15R21R 3G14G 7G 5G13R13R 4G30R 2
                                R22R12G19
  21570007.023   113351157.244    21570013.316    88325606.9484   21570013.215  
                
  21755677.094   114326868.397    21755683.273    89085904.8014   21755683.098  
                
  22396108.703   119846115.030                    93213646.993    22396111.906  
  22396106.496  
  20431836.766   109373247.276                    85068079.993    20431840.629  
  20431835.680  
  20341447.820   106895052.017    20341453.941    83294892.6114   20341453.895  
                
  23865857.883   125415968.536    23865864.578    97726775.2954   23865864.543  
                
  24675785.344   129672124.769    24675792.359   101043253.8604   24675792.441  
                
  20417490.281   107294649.920    20417496.270    83606256.1244                 
                
  20296278.781   108381039.860                    84296368.020    20296281.367  
  20296276.945  
  22983687.781   123076611.093                    95726247.175    22983691.094  
  22983686.840  
  21452039.805   112731276.945    21452048.617    87842607.7864   21452048.742  
                
  21229944.055   113287067.980                    88112161.040    21229947.273  
  21229941.969  
  21644577.172   115540236.810                    89864641.123    21644579.816  
  21644575.496  
  20085075.023   107290893.647                    83448466.819    20085078.496  
  20085074.520  
  23274833.359   122310082.297    23274837.758    95306572.2984                 
                
 21  8 14 21 50 40.0000000  0 15G17G15R21R 3G14G 7G 5G13R13R 4G30R 2
                                R22R12G19
  21566065.312   113330443.447    21566071.613    88309466.3344   21566071.508  
                
  21752925.812   114312410.291    21752931.973    89074638.7484   21752931.793  
                
  22398271.539   119857688.832                    93222648.836    22398274.754  
  22398269.328  
  20431951.617   109373862.102                    85068558.175    20431955.484  
  20431950.531  
  20343064.898   106903549.853    20343071.020    83301514.3014   20343070.984  
                
  23871168.383   125443875.415    23871175.027    97748520.9204   23871175.023  
                
  24681197.141   129700564.163    24681204.145   101065414.4304   24681204.246  
                
  20417144.586   107292833.280    20417150.551    83604840.5614                 
                
  20293500.602   108366204.624                    84284829.501    20293503.191  
  20293498.770  
  22977480.695   123043372.455                    95700394.906    22977483.996  
  22977479.762  
  21455497.297   112749446.188    21455506.090    87856765.6314   21455506.227  
                
  21236926.531   113324327.852                    88141140.928    21236929.738  
  21236924.461  
  21640254.680   115517163.148                    89846694.962    21640257.359  
  21640252.988  
  20087936.562   107306179.461                    83460355.780    20087940.039  
  20087936.074  
  23267805.594   122273150.998    23267810.020    95277794.6714                 
                
 21  8 14 21 50 50.0000000  0 15G17G15R21R 3G14G 7G 5G13R13R 4G30R 2
                                R22R12G19
  21562133.398   113309781.065    21562139.703    88293365.7754   21562139.590  
                
  21750186.367   114298014.407    21750192.496    89063421.1714   21750192.336  
                
  22400450.695   119869349.932                    93231718.567    22400453.891  
  22400448.496  
  20432083.859   109374569.922                    85069108.712    20432087.727  
  20432082.770  
  20344690.453   106912092.202    20344696.578    83308170.6844   20344696.543  
                
  23876482.391   125471800.560    23876488.961    97770280.7754   23876488.973  
                
  24686611.695   129729017.954    24686618.688   101087586.2144   24686618.797  
                
  20416811.375   107291082.202    20416817.312    83603476.0864                 
                
  20290728.500   108351401.750                    84273316.151    20290731.090  
  20290726.680  
  22971283.891   123010188.903                    95674585.470    22971287.199  
  22971283.012  
  21458961.047   112767648.249    21458969.820    87870949.0594   21458969.957  
                
  21243917.891   113361635.107                    88170157.684    21243921.094  
  21243915.848  
  21635946.094   115494163.593                    89828806.425    21635948.762  
  21635944.379  
  20090803.383   107321493.458                    83472266.659    20090806.848  
  20090802.918  
  23260781.359   122236238.183    23260785.801    95249031.4434                 
                
 21  8 14 21 51  0.0000000  0 15G17G15R21R 3G14G 7G 5G13R13R 4G30R 2
                                R22R12G19
  21558211.195   113289169.741    21558217.512    88277305.0104   21558217.395  
                
  21747458.750   114283680.673    21747464.832    89052252.0184   21747464.691  
                
  22402646.094   119881097.967                    93240855.952    22402649.277  
  22402643.941  
  20432233.430   109375370.624                    85069731.467    20432237.301  
  20432232.332  
  20346324.430   106920678.806    20346330.555    83314861.5514   20346330.516  
                
  23881799.820   125499743.770    23881806.340    97792054.6974   23881806.352  
                
  24692028.867   129757485.782    24692035.910   101109768.9284   24692036.035  
                
  20416490.586   107289396.432    20416496.504    83602162.4974                 
                
  20287962.422   108336631.018                    84261827.817    20287965.031  
  20287960.625  
  22965097.391   122977060.361                    95648818.815    22965100.633  
  22965096.543  
  21462430.992   112785882.901    21462439.730    87885157.8734   21462439.891  
                
  21250918.141   113398989.719                    88199211.280    21250921.328  
  21250916.098  
  21631651.344   115471237.837                    89810975.283    21631654.004  
  21631649.633  
  20093675.422   107336835.364                    83484199.264    20093678.883  
  20093674.949  
  23253760.617   122199343.771    23253765.082    95220282.5494                 
                
 21  8 14 21 51 10.0000000  0 15G17G15R21R 3G14G 7G 5G13R13R 4G30R 2
                                R22R12G19
  21554298.766   113268609.800    21554305.082    88261284.2754   21554304.965  
                
  21744742.969   114269409.133    21744749.031    89041131.3434   21744748.910  
                
  22404857.766   119892932.997                    93250060.970    22404860.906  
  22404855.660  
  20432400.383   109376264.284                    85070426.547    20432404.254  
  20432399.293  
  20347966.844   106929309.725    20347972.969    83321586.9454   20347972.926  
                
  23887120.688   125527705.075    23887127.227    97813842.7304   23887127.215  
                
  24697448.773   129785967.711    24697455.836   101131962.6444   24697455.965  
                
  20416182.250   107287776.060    20416188.172    83600899.8724                 
                
  20285202.414   108321892.671                    84250364.652    20285204.973  
  20285200.633  
  22958921.211   122943987.094                    95623095.176    22958924.418  
  22958920.402  
  21465907.156   112804150.225    21465915.859    87899392.1574   21465916.039  
                
  21257927.227   113436391.525                    88228301.579    21257930.422  
  21257925.180  
  21627370.438   115448386.102                    89793201.735    21627373.125  
  21627368.762  
  20096552.719   107352205.329                    83496153.677    20096556.188  
  20096552.258  
  23246743.438   122162468.011    23246747.910    95191548.1824                 
                
 21  8 14 21 51 20.0000000  0 15G17G15R21R 3G14G 7G 5G13R13R 4G30R 2
                                R22R12G19
  21550396.094   113248101.140    21550402.426    88245303.5014   21550402.309  
                
  21742039.016   114255199.785    21742045.070    89030059.1204   21742044.961  
                
  22407085.656   119904854.928                    93259333.605    22407088.789  
  22407083.570  
  20432584.688   109377250.828                    85071193.854    20432588.547  
  20432583.605  
  20349617.656   106937984.807    20349623.777    83328346.7464   20349623.738  
                
  23892445.023   125555684.386    23892451.543    97835644.7784   23892451.500  
                
  24702871.367   129814463.612    24702878.422   101154167.2554   24702878.543  
                
  20415886.344   107286221.026    20415892.277    83599688.1524                 
                
  20282448.438   108307186.546                    84238926.560    20282450.984  
  20282446.664  
  22952755.367   122910969.182                    95597414.607    22952758.590  
  22952754.609  
  21469389.523   112822450.131    21469398.188    87913651.8294   21469398.379  
                
  21264945.125   113473840.349                    88257428.434    21264948.293  
  21264943.055  
  21623103.430   115425608.537                    89775485.866    21623106.066  
  21623101.762  
  20099435.211   107367603.072                    83508129.700    20099438.672  
  20099434.750  
  23239729.781   122125610.969    23239734.258    95162828.3904                 
                
 21  8 14 21 51 30.0000000  0 15G17G15R21R 3G14G 7G 5G13R13R 4G30R 2
                                R22R12G19
  21546503.156   113227643.697    21546509.539    88229362.6484   21546509.414  
                
  21739346.875   114241052.539    21739352.934    89019035.2964   21739352.828  
                
  22409329.727   119916863.390                    93268673.488    22409332.828  
  22409327.641  
  20432786.281   109378329.992                    85072033.206    20432790.141  
  20432785.184  
  20351276.828   106946703.824    20351282.941    83335140.7824   20351282.902  
                
  23897772.758   125583681.493    23897779.273    97857460.7094   23897779.188  
                
  24708296.570   129842973.015    24708303.582   101176382.3764   24708303.707  
                
  20415602.836   107284731.183    20415608.801    83598527.2394                 
                
  20279700.438   108292512.378                    84227513.308    20279702.980  
  20279698.664  
  22946599.859   122878006.604                    95571777.065    22946603.090  
  22946599.121  
  21472878.055   112840782.456    21472886.691    87927936.7484   21472886.902  
                
  21271971.750   113511335.816                    88286591.566    21271974.895  
  21271969.684  
  21618850.305   115402905.102                    89757827.629    21618852.945  
  21618848.648  
  20102322.883   107383028.482                    83520127.248    20102326.348  
  20102322.441  
  23232719.617   122088772.460    23232724.086    95134123.0364                 
                
 21  8 14 21 51 40.0000000  0 15G17G15R21R 3G14G 7G 5G13R13R 4G30R 2
                                R22R12G19
  21542620.070   113207237.986    21542626.496    88213462.0984   21542626.352  
                
  21736666.664   114226967.962    21736672.727    89008060.3064   21736672.609  
                
  22411590.031   119928958.776                    93278081.024    22411593.129  
  22411587.945  
  20433005.266   109379502.239                    85072944.966    20433009.133  
  20433004.160  
  20352944.422   106955467.106    20352950.531    83341969.3114   20352950.496  
                
  23903103.820   125611696.773    23903110.414    97879290.7834   23903110.320  
                
  24713724.367   129871496.254    24713731.375   101198608.2804   24713731.512  
                
  20415331.812   107283306.937    20415337.820    83597417.4354                 
                
  20276958.508   108277870.637                    84216125.308    20276961.047  
  20276956.723  
  22940454.773   122845099.745                    95546182.837    22940457.969  
  22940454.066  
  21476372.820   112859147.523    21476381.430    87942247.1854   21476381.641  
                
  21279007.172   113548878.021                    88315791.074    21279010.273  
  21279005.109  
  21614611.141   115380276.148                    89740227.342    21614613.727  
  21614609.496  
  20105215.812   107398482.014                    83532146.657    20105219.281  
  20105215.371  
  23225713.070   122051953.020    23225717.473    95105432.5304                 
                
 21  8 14 21 51 50.0000000  0 15G17G15R21R 3G14G 7G 5G13R13R 4G30R 2
                                R22R12G19
  21538746.766   113186883.699    21538753.188    88197601.6224   21538753.047  
                
  21733998.281   114212945.580    21734004.336    88997133.7724   21734004.234  
                
  22413866.531   119941140.810                    93287555.934    22413869.590  
  22413864.477  
  20433241.578   109380767.263                    85073928.866    20433245.461  
  20433240.434  
  20354620.375   106964274.326    20354626.480    83348832.0744   20354626.449  
                
  23908438.320   125639729.894    23908444.965    97901134.7604   23908444.895  
                
  24719154.773   129900032.955    24719161.699   101220844.6854   24719161.832  
                
  20415073.227   107281948.070    20415079.270    83596358.5794                 
                
  20274222.609   108263261.114                    84204762.348    20274225.168  
  20274220.812  
  22934320.062   122812248.568                    95520631.920    22934323.215  
  22934319.387  
  21479873.758   112877545.066    21479882.355    87956582.9334   21479882.559  
                
  21286051.266   113586466.713                    88345026.726    21286054.367  
  21286049.207  
  21610385.914   115357721.597                    89722684.910    21610388.465  
  21610384.266  
  20108113.922   107413963.210                    83544187.589    20108117.402  
  20108113.477  
  23218710.148   122015152.394    23218714.438    95076756.7014                 
                
 21  8 14 21 52  0.0000000  0 15G17G15R21R 3G14G 7G 5G13R13R 4G30R 2
                                R22R12G19
  21534883.344   113166581.229    21534889.734    88181781.5224   21534889.621  
                
  21731341.844   114198985.900    21731347.887    88986256.0914   21731347.793  
                
  22416159.258   119953409.634                    93297098.353    22416162.250  
  22416157.227  
  20433495.258   109382125.234                    85074985.065    20433499.160  
  20433494.113  
  20356304.742   106973125.713    20356310.836    83355729.2594   20356310.812  
                
  23913776.164   125667781.160    23913782.992    97922992.8844   23913782.922  
                
  24724587.734   129928583.280    24724594.656   101243091.6804   24724594.754  
                
  20414827.156   107280654.936    20414833.238    83595350.9414                 
                
  20271492.734   108248683.711                    84193424.379    20271495.301  
  20271490.914  
  22928195.828   122779453.483                    95495124.647    22928198.949  
  22928195.152  
  21483380.938   112895975.365    21483389.523    87970944.1974   21483389.719  
                
  21293104.047   113624101.761                    88374298.421    21293107.184  
  21293101.980  
  21606174.719   115335241.882                    89705200.686    21606177.230  
  21606173.066  
  20111017.266   107429472.274                    83556250.189    20111020.738  
  20111016.816  
  23211710.820   121978370.990    23211715.121    95048095.8544                 
                
 21  8 14 21 52 10.0000000  0 15G17G15R21R 3G14G 7G 5G13R13R 4G30R 2
                                R22R12G19
  21531029.727   113146330.379    21531036.109    88166001.6394   21531036.016  
                
  21728697.289   114185088.720    21728703.324    88975427.1224   21728703.230  
                
  22418468.180   119965765.105                    93306708.152    22418471.121  
  22418466.168  
  20433766.320   109383576.227                    85076113.607    20433770.230  
  20433765.203  
  20357997.477   106982021.130    20358003.559    83362660.7534   20358003.539  
                
  23919117.508   125695850.495    23919124.469    97944865.0774   23919124.398  
                
  24730023.195   129957147.004    24730030.160   101265349.1344   24730030.203  
                
  20414593.555   107279427.354    20414599.676    83594394.3794                 
                
  20268768.984   108234139.042                    84182111.854    20268771.547  
  20268767.145  
  22922082.078   122746714.550                    95469661.055    22922085.223  
  22922081.340  
  21486894.328   112914438.308    21486902.887    87985330.8964   21486903.086  
                
  21300165.453   113661782.820                    88403605.917    21300168.609  
  21300163.383  
  21601977.555   115312837.115                    89687774.758    21601980.047  
  21601975.902  
  20113925.828   107445009.318                    83568334.541    20113929.289  
  20113925.367  
  23204715.070   121941608.872    23204719.531    95019450.0504                 
                
 21  8 14 21 52 20.0000000  0 15G17G15R21R 3G14G 7G 5G13R13R 4G30R 2
                                R22R12G19
  21527185.930   113126131.156    21527192.332    88150261.9924   21527192.238  
                
  21726064.617   114171253.920    21726070.652    88964646.7614   21726070.562  
                
  22420793.227   119978206.863                    93316385.085    22420796.145  
  22420791.262  
  20434054.688   109385119.832                    85077314.196    20434058.598  
  20434053.598  
  20359698.531   106990960.236    20359704.609    83369626.2944   20359704.594  
                
  23924462.320   125723937.588    23924469.332    97966751.1034   23924469.250  
                
  24735461.203   129985723.701    24735468.113   101287616.7034   24735468.141  
                
  20414372.375   107278265.052    20414378.531    83593488.6874                 
                
  20266051.266   108219626.601                    84170824.395    20266053.840  
  20266049.430  
  22915978.711   122714031.560                    95444240.961    22915981.910  
  22915977.957  
  21490413.867   112932933.578    21490422.398    87999742.8034   21490422.602  
                
  21307235.484   113699509.830                    88432949.143    21307238.625  
  21307233.387  
  21597794.359   115290507.044                    89670406.952    21597796.914  
  21597792.703  
  20116839.523   107460573.749                    83580440.208    20116842.977  
  20116839.062  
  23197722.992   121904865.901    23197727.617    94990819.1674                 
                
 21  8 14 21 52 30.0000000  0 15G17G15R21R 3G14G 7G 5G13R13R 4G30R 2
                                R22R12G19
  21523352.031   113105983.888    21523358.449    88134562.8344   21523358.352  
                
  21723443.852   114157481.741    21723449.898    88953915.1984   21723449.793  
                
  22423134.445   119990735.181                    93326129.332    22423137.316  
  22423132.504  
  20434360.414   109386756.299                    85078586.992    20434364.316  
  20434359.352  
  20361407.930   106999943.201    20361414.000    83376626.0124   20361413.988  
                
  23929810.523   125752042.581    23929817.566    97988651.0894   23929817.480  
                
  24740901.727   130014313.500    24740908.566   101309894.4724   24740908.598  
                
  20414163.688   107277168.372    20414169.871    83592634.1244                 
                
  20263339.531   108205146.069                    84159561.765    20263342.098  
  20263337.676  
  22909885.914   122681405.011                    95418864.755    22909889.133  
  22909885.188  
  21493939.609   112951461.433    21493948.117    88014180.0894   21493948.328  
                
  21314314.125   113737282.734                    88462328.059    21314317.234  
  21314312.016  
  21593625.242   115268252.109                    89653097.558    21593627.785  
  21593623.590  
  20119758.398   107476165.846                    83592567.395    20119761.863  
  20119757.930  
  23190734.727   121868142.432    23190739.434    94962203.4774                 
                
 21  8 14 21 52 40.0000000  0 15G17G15R21R 3G14G 7G 5G13R13R 4G30R 2
                                R22R12G19
  21519528.039   113085888.745    21519534.453    88118904.2744   21519534.367  
                
  21720835.039   114143772.344    21720841.086    88943232.5524   21720840.973  
                
  22425491.820   120003349.937                    93335940.836    22425494.656  
  22425489.855  
  20434683.461   109388485.585                    85079931.997    20434687.371  
  20434682.410  
  20363125.688   107008970.074    20363131.750    83383659.9374   20363131.734  
                
  23935162.156   125780165.662    23935169.242    98010565.1374   23935169.133  
                
  24746344.695   130042916.439    24746351.539   101332182.4804   24746351.559  
                
  20413967.500   107276137.384    20413973.703    83591830.7544                 
                
  20260633.867   108190697.939                    84148324.328    20260636.430  
  20260632.008  
  22903803.680   122648835.023                    95393532.552    22903806.934  
  22903802.934  
  21497471.555   112970021.932    21497480.039    88028642.8124   21497480.254  
                
  21321401.305   113775101.305                    88491742.510    21321404.398  
  21321399.199  
  21589470.258   115246072.565                    89635846.799    21589472.742  
  21589468.621  
  20122682.484   107491785.787                    83604716.241    20122685.941  
  20122682.016  
  23183750.164   121831438.635    23183754.926    94933603.1024                 
                
 21  8 14 21 52 50.0000000  0 15G17G15R21R 3G14G 7G 5G13R13R 4G30R 2
                                R22R12G19
  21515713.953   113065845.607    21515720.367    88103286.2504   21515720.285  
                
  21718238.156   114130125.641    21718244.207    88932598.7544   21718244.086  
                
  22427865.320   120016051.034                    93345819.461    22427868.109  
  22427863.387  
  20435023.836   109390307.603                    85081349.124    20435027.742  
  20435022.809  
  20364851.766   107018040.633    20364857.828    83390727.9064   20364857.812  
                
  23940517.281   125808306.560    23940524.266    98032493.0984   23940524.156  
                
  24751790.117   130071532.130    24751796.965   101354480.4114   24751796.973  
                
  20413783.773   107275171.906    20413789.992    83591078.4334                 
                
  20257934.266   108176282.136                    84137112.030    20257936.816  
  20257932.387  
  22897732.023   122616321.762                    95368244.441    22897735.312  
  22897731.277  
  21501009.688   112988614.903    21501018.133    88043130.8414   21501018.359  
                
  21328497.047   113812965.522                    88521192.476    21328500.160  
  21328494.941  
  21585329.391   115223968.426                    89618654.697    21585331.902  
  21585327.742  
  20125611.695   107507433.082                    83616886.352    20125615.164  
  20125611.199  
  23176769.383   121794754.461    23176774.133    94905018.0344                 
                
 21  8 14 21 53  0.0000000  0 15G17G15R21R 3G14G 7G 5G13R13R 4G30R 2
                                R22R12G19
  21511909.797   113045854.675    21511916.227    88087708.9094   21511916.129  
                
  21715653.227   114116541.775    21715659.281    88922013.9264   21715659.176  
                
  22430254.977   120028838.467                    93355765.232    22430257.715  
  22430253.039  
  20435381.562   109392222.525                    85082838.502    20435385.469  
  20435380.539  
  20366586.156   107027154.943    20366592.215    83397829.9684   20366592.203  
                
  23945875.773   125836465.336    23945882.695    98054434.9864   23945882.586  
                
  24757237.891   130100160.597    24757244.777   101376788.3274   24757244.793  
                
  20413612.547   107274272.062    20413618.758    83590377.2554                 
                
  20255240.656   108161898.367                    84125924.680    20255243.219  
  20255238.781  
  22891670.992   122583865.253                    95343000.490    22891674.281  
  22891670.262  
  21504554.016   113007240.455    21504562.426    88057644.2574   21504562.668  
                
  21335601.234   113850874.896                    88550677.536    21335604.375  
  21335599.137  
  21581202.656   115201939.625                    89601521.191    21581205.199  
  21581200.980  
  20128546.094   107523108.126                    83629078.066    20128549.562  
  20128545.605  
  23169792.492   121758090.157    23169797.113    94876448.4354                 
                
 21  8 14 21 53 10.0000000  0 15G17G15R21R 3G14G 7G 5G13R13R 4G30R 2
                                R22R12G19
  21508115.555   113025915.847    21508121.992    88072172.1674   21508121.898  
                
  21713080.242   114103020.733    21713086.305    88911478.0504   21713086.199  
                
  22432660.719   120041712.062                    93365778.056    22432663.445  
  22432658.781  
  20435756.594   109394230.125                    85084399.961    20435760.488  
  20435755.570  
  20368328.836   107036312.788    20368334.906    83404965.9494   20368334.891  
                
  23951237.609   125864641.770    23951244.484    98076390.6554   23951244.371  
                
  24762688.078   130128801.599    24762694.969   101399106.0014   24762694.988  
                
  20413453.797   107273437.841    20413459.996    83589727.2064                 
                
  20252553.078   108147546.873                    84114762.396    20252555.629  
  20252551.188  
  22885620.594   122551465.689                    95317800.817    22885623.867  
  22885619.891  
  21508104.500   113025898.401    21508112.883    88072182.9044   21508113.133  
                
  21342713.906   113888829.498                    88580197.773    21342717.074  
  21342711.828  
  21577090.078   115179986.585                    89584446.631    21577092.668  
  21577088.367  
  20131485.625   107538810.621                    83641291.118    20131489.090  
  20131485.129  
  23162819.414   121721445.628    23162823.879    94847894.2424                 
                
 21  8 14 21 53 20.0000000  0 15G17G15R21R 3G14G 7G 5G13R13R 4G30R 2
                                R22R12G19
  21504331.297   113006029.482    21504337.727    88056676.3074   21504337.645  
                
  21710519.289   114089562.850    21710525.359    88900991.3934   21710525.242  
                
  22435082.602   120054672.083                    93375858.056    22435085.328  
  22435080.672  
  20436148.992   109396330.616                    85086033.677    20436152.875  
  20436147.953  
  20370079.844   107045514.439    20370085.926    83412136.0654   20370085.906  
                
  23956602.859   125892836.304    23956609.754    98098360.4224   23956609.609  
                
  24768140.672   130157455.351    24768147.570   101421433.6114   24768147.574  
                
  20413307.586   107272669.485    20413313.766    83589128.4884                 
                
  20249871.617   108133228.025                    84103625.514    20249874.145  
  20249869.723  
  22879580.859   122519123.327                    95292645.652    22879584.113  
  22879580.145  
  21511661.211   113044589.062    21511669.566    88086747.0554   21511669.820  
                
  21349835.086   113926829.314                    88609753.185    21349838.250  
  21349833.004  
  21572991.734   115158109.357                    89567431.018    21572994.340  
  21572989.957  
  20134430.344   107554540.805                    83653525.687    20134433.812  
  20134429.840  
  23155850.141   121684821.280    23155854.484    94819355.7754                 
                
 21  8 14 21 53 30.0000000  0 15G17G15R21R 3G14G 7G 5G13R13R 4G30R 2
                                R22R12G19
  21500557.016   112986195.476    21500563.441    88041221.2334   21500563.359  
                
  21707970.320   114076167.923    21707976.395    88890553.7864   21707976.289  
                
  22437520.586   120067718.258                    93386005.090    22437523.316  
  22437518.625  
  20436558.734   109398523.937                    85087739.602    20436562.625  
  20436557.691  
  20371839.156   107054759.640    20371845.254    83419340.1204   20371845.223  
                
  23961971.523   125921048.679    23961978.434    98120344.0784   23961978.242  
                
  24773595.656   130186121.462    24773602.531   101443770.8394   24773602.531  
                
  20413173.883   107271966.824    20413180.031    83588580.9614                 
                
  20247196.172   108118941.274                    84092513.603    20247198.676  
  20247194.270  
  22873551.875   122486838.311                    95267535.062    22873555.102  
  22873551.160  
  21515224.117   113063312.232    21515232.434    88101336.5334   21515232.719  
                
  21356964.648   113964873.978                    88639343.471    21356967.852  
  21356962.590  
  21568907.617   115136308.130                    89550474.523    21568910.258  
  21568905.801  
  20137380.219   107570298.432                    83665781.636    20137383.684  
  20137379.703  
  23148884.656   121648216.983    23148888.879    94790832.9214                 
                
 21  8 14 21 53 40.0000000  0 15G17G15R21R 3G14G 7G 5G13R13R 4G30R 2
                                R22R12G19
  21496792.688   112966413.865    21496799.105    88025806.9944   21496799.027  
                
  21705433.352   114062836.086    21705439.438    88880165.3484   21705439.316  
                
  22439974.633   120080850.425                    93396218.982    22439977.363  
  22439972.652  
  20436985.805   109400810.072                    85089517.705    20436989.699  
  20436984.746  
  20373606.727   107064048.358    20373612.840    83426578.0874   20373612.812  
                
  23967343.547   125949278.900    23967350.445    98142341.6684   23967350.234  
                
  24779052.961   130214799.881    24779059.867   101466117.6654   24779059.816  
                
  20413052.680   107271329.941    20413058.797    83588084.6874                 
                
  20244526.773   108104686.878                    84081426.841    20244529.273  
  20244524.832  
  22867533.617   122454610.656                    95242469.098    22867536.805  
  22867532.926  
  21518793.195   113082067.894    21518801.496    88115951.3344   21518801.785  
                
  21364102.586   114002963.359                    88668968.543    21364105.824  
  21364100.559  
  21564837.742   115114583.018                    89533577.223    21564840.387  
  21564835.926  
  20140335.211   107586083.532                    83678058.924    20140338.684  
  20140334.691  
  23141923.008   121611632.972    23141927.145    94762325.8834                 
                
 21  8 14 21 53 50.0000000  0 15G17G15R21R 3G14G 7G 5G13R13R 4G30R 2
                                R22R12G19
  21493038.367   112946684.736    21493044.762    88010433.6554   21493044.691  
                
  21702908.398   114049567.384    21702914.488    88869826.1024   21702914.363  
                
  22442444.781   120094068.686                    93406499.860    22442447.492  
  22442442.785  
  20437430.188   109403188.819                    85091367.845    20437434.078  
  20437429.113  
  20375382.586   107073380.537    20375388.707    83433849.9124   20375388.684  
                
  23972718.984   125977526.901    23972725.852    98164353.1144   23972725.652  
                
  24784512.633   130243490.556    24784519.543   101488474.0314   24784519.469  
                
  20412944.016   107270758.838    20412950.105    83587639.6694                 
                
  20241863.461   108090464.910                    84070365.319    20241865.965  
  20241861.504  
  22861526.070   122422440.500                    95217447.896    22861529.242  
  22861525.410  
  21522368.469   113100856.061    21522376.762    88130591.4664   21522377.055  
                
  21371248.867   114041097.239                    88698628.238    21371252.125  
  21371246.852  
  21560782.180   115092934.110                    89516739.165    21560784.789  
  21560780.316  
  20143295.383   107601896.192                    83690357.659    20143298.859  
  20143294.855  
  23134965.195   121575069.323    23134969.359    94733834.7194                 
                
 21  8 14 21 54  0.0000000  0 15G17G15R21R 3G14G 7G 5G13R13R 4G30R 2
                                R22R12G19
  21489293.984   112927007.878    21489300.363    87995101.0394   21489300.277  
                
  21700395.438   114036361.638    21700401.543    88859535.9114   21700401.395  
                
  22444930.945   120107372.713                    93416847.439    22444933.664  
  22444928.988  
  20437891.867   109405660.281                    85093290.081    20437895.754  
  20437890.781  
  20377166.672   107082755.984    20377172.797    83441155.4554   20377172.766  
                
  23978097.805   126005792.554    23978104.664    98186378.2964   23978104.453  
                
  24789974.570   130272193.180    24789981.457   101510839.7224   24789981.395  
                
  20412847.820   107270253.331    20412853.891    83587245.7724                 
                
  20239206.211   108076275.341                    84059328.990    20239208.715  
  20239204.242  
  22855529.266   122390327.948                    95192471.471    22855532.395  
  22855528.621  
  21525949.883   113119676.540    21525958.180    88145256.7684   21525958.473  
                
  21378403.516   114079275.702                    88728322.595    21378406.758  
  21378401.500  
  21556740.867   115071361.463                    89499960.469    21556743.488  
  21556738.973  
  20146260.633   107617736.035                    83702677.539    20146264.098  
  20146260.125  
  23128011.172   121538525.999    23128015.461    94705359.4064                 
                
 21  8 14 21 54 10.0000000  0 15G17G15R21R 3G14G 7G 5G13R13R 4G30R 2
                                R22R12G19
  21485559.594   112907383.540    21485565.945    87979809.3584   21485565.855  
                
  21697894.469   114023218.951    21697900.594    88849294.8594   21697900.438  
                
  22447433.156   120120762.544                    93427261.767    22447435.891  
  22447431.211  
  20438370.852   109408224.279                    85095284.293    20438374.730  
  20438369.766  
  20378958.992   107092174.679    20378965.109    83448494.6974   20378965.094  
                
  23983479.977   126034075.833    23983486.836    98208417.1914   23983486.602  
                
  24795438.742   130300907.584    24795445.629   101533214.5944   24795445.508  
                
  20412764.133   107269813.503    20412770.199    83586903.0434                 
                
  20236554.906   108062117.570                    84048317.389    20236557.406  
  20236552.941  
  22849543.242   122358273.143                    95167539.958    22849546.344  
  22849542.598  
  21529537.461   113138529.408    21529545.766    88159947.3034   21529546.051  
                
  21385566.383   114117497.945                    88758051.010    21385569.605  
  21385564.348  
  21552713.836   115049865.038                    89483241.031    21552716.535  
  21552711.949  
  20149230.984   107633603.118                    83715018.599    20149234.445  
  20149230.461  
  23121061.016   121502003.203    23121065.484    94676900.0834                 
                
 21  8 14 21 54 20.0000000  0 15G17G15R21R 3G14G 7G 5G13R13R 4G30R 2
                                R22R12G19
  21481835.258   112887812.006    21481841.555    87964558.8084   21481841.480  
                
  21695405.523   114010139.490    21695411.660    88839103.0714   21695411.500  
                
  22449951.359   120134238.070                    93437742.729    22449954.129  
  22449949.422  
  20438867.141   109410880.953                    85097350.596    20438871.016  
  20438866.051  
  20380759.547   107101636.661    20380765.660    83455867.6714   20380765.652  
                
  23988865.531   126062376.782    23988872.359    98230469.8754   23988872.105  
                
  24800905.211   130329633.846    24800912.008   101555598.6964   24800911.883  
                
  20412692.945   107269439.405    20412699.023    83586611.5384                 
                
  20233909.648   108047992.121                    84037330.936    20233912.160  
  20233907.672  
  22843568.023   122326276.137                    95142653.402    22843571.102  
  22843567.379  
  21533131.211   113157414.709    21533139.527    88174663.1284   21533139.812  
                
  21392737.500   114155764.312                    88787813.762    21392740.715  
  21392735.480  
  21548701.156   115028445.100                    89466581.084    21548703.848  
  21548699.246  
  20152206.445   107649497.468                    83727380.869    20152209.891  
  20152205.941  
  23114114.781   121465501.058    23114119.438    94648456.8624                 
                
 21  8 14 21 54 30.0000000  0 15G17G15R21R 3G14G 7G 5G13R13R 4G30R 2
                                R22R12G19
  21478120.984   112868293.294    21478127.238    87949349.4184   21478127.188  
                
  21692928.641   113997123.371    21692934.781    88828960.6384   21692934.605  
                
  22452485.625   120147799.467                    93448290.465    22452488.418  
  22452483.664  
  20439380.758   109413630.311                    85099488.987    20439384.621  
  20439379.660  
  20382568.336   107111141.910    20382574.445    83463274.3584   20382574.449  
                
  23994254.453   126090695.494    23994261.254    98252536.3874   23994260.980  
                
  24806373.859   130358371.842    24806380.660   101577991.9494   24806380.500  
                
  20412634.297   107269131.182    20412640.387    83586371.3614                 
                
  20231270.461   108033898.942                    84026369.575    20231272.980  
  20231268.480  
  22837603.695   122294337.392                    95117812.159    22837606.750  
  22837602.992  
  21536731.148   113176332.476    21536739.488    88189404.2324   21536739.777  
                
  21399916.820   114194074.410                    88817610.518    21399920.008  
  21399914.816  
  21544702.875   115007102.025                    89449980.944    21544705.613  
  21544700.961  
  20155187.016   107665419.118                    83739764.372    20155190.449  
  20155186.539  
  23107172.617   121429019.709    23107177.359    94620029.8494                 
                
 21  8 14 21 54 40.0000000  0 14G17G15R21R 3G14G 7G13R13R 4G30R 2R22
                                R12G19
  21474416.672   112848826.954    21474422.922    87934180.8504   21474422.875  
                
  21690463.711   113984170.041    21690469.867    88818867.1364   21690469.684  
                
  22455035.820   120161446.036                    93458904.485    22455038.625  
  22455033.844  
  20439911.594   109416471.867                    85101699.089    20439915.445  
  20439910.508  
  20384385.250   107120689.830    20384391.363    83470714.3034   20384391.367  
                
  23999646.617   126119031.345    23999653.406    98274616.2864   23999653.156  
                
  20412588.070   107268888.238    20412594.191    83586182.0564                 
                
  20228637.219   108019837.598                    84015432.975    20228639.738  
  20228635.254  
  22831650.125   122262456.360                    95093015.801    22831653.195  
  22831649.398  
  21540337.148   113195282.143    21540345.512    88204170.2134   21540345.797  
                
  21407104.250   114232427.972                    88847441.063    21407107.418  
  21407102.254  
  21540718.898   114985835.141                    89433440.038    21540721.707  
  21540716.980  
  20158172.625   107681367.590                    83752168.753    20158176.043  
  20158172.160  
  23100234.461   121392558.697    23100239.105    94591618.6674                 
                
 21  8 14 21 54 50.0000000  0 14G17G15R21R 3G14G 7G13R13R 4G30R 2R22
                                R12G19
  21470722.383   112829413.344    21470728.617    87919053.3634   21470728.566  
                
  21688010.812   113971279.972    21688016.992    88808822.9174   21688016.797  
                
  22457601.961   120175178.032                    93469584.934    22457604.750  
  22457600.020  
  20440459.695   109419405.848                    85103981.059    20440463.527  
  20440458.613  
  20386210.336   107130280.713    20386216.457    83478187.7194   20386216.449  
                
  24005042.102   126147384.694    24005048.898    98296709.7924   24005048.641  
                
  20412554.352   107268711.013    20412560.508    83586043.9544                 
                
  20226009.969   108005808.198                    84004521.235    20226012.484  
  20226008.016  
  22825707.398   122230633.417                    95068264.628    22825710.488  
  22825706.645  
  21543949.289   113214264.073    21543957.676    88218961.3214   21543957.961  
                
  21414299.773   114270824.927                    88877305.361    21414302.980  
  21414297.781  
  21536749.305   114964645.184                    89416958.969    21536752.094  
  21536747.453  
  20161163.281   107697343.085                    83764594.138    20161166.707  
  20161162.824  
  23093300.250   121356118.520    23093304.781    94563223.7104                 
                
 21  8 14 21 55  0.0000000  0 14G17G15R21R 3G14G 7G13R13R 4G30R 2R22
                                R12G19
  21467038.266   112810053.165    21467044.473    87903967.5114   21467044.434  
                
  21685570.094   113958453.932    21685576.305    88798828.6004   21685576.090  
                
  22460184.203   120188996.124                    93480332.333    22460186.977  
  22460182.219  
  20441025.172   109422432.953                    85106335.476    20441029.012  
  20441024.094  
  20388043.711   107139915.198    20388049.844    83485695.1074   20388049.828  
                
  24010441.031   126175756.221    24010447.801    98318817.4694   24010447.551  
                
  20412533.266   107268600.189    20412539.465    83585957.5884                 
                
  20223388.875   107991811.824                    83993635.156    20223391.398  
  20223386.949  
  22819775.711   122198869.535                    95043559.378    22819778.770  
  22819774.895  
  21547567.703   113233278.907    21547576.121    88233778.0734   21547576.391  
                
  21421503.594   114309266.008                    88907203.985    21421506.805  
  21421501.586  
  21532794.250   114943532.836                    89400538.257    21532797.023  
  21532792.445  
  20164159.102   107713346.193                    83777040.987    20164162.516  
  20164158.656  
  23086370.070   121319700.090    23086374.578    94534845.7064                 
                
 21  8 14 21 55 10.0000000  0 14G17G15R21R 3G14G 7G13R13R 4G30R 2R22
                                R12G19
  21463364.273   112790746.216    21463370.473    87888923.1414   21463370.441  
                
  21683141.492   113945691.545    21683147.727    88788883.8884   21683147.504  
                
  22462782.461   120202899.921                    93491146.389    22462785.219  
  22462780.516  
  20441607.984   109425552.778                    85108762.005    20441611.824  
  20441606.879  
  20389885.312   107149592.894    20389891.461    83493236.1694   20389891.438  
                
  24015843.391   126204145.567    24015850.152    98340939.0234   24015849.898  
                
  20412524.734   107268555.339    20412530.980    83585922.6414                 
                
  20220773.852   107977847.800                    83982774.251    20220776.406  
  20220771.926  
  22813855.016   122167164.617                    95018900.012    22813858.102  
  22813854.191  
  21551192.305   113252326.326    21551200.770    88248620.2164   21551201.023  
                
  21428715.516   114347750.367                    88937136.277    21428718.766  
  21428713.520  
  21528853.680   114922497.826                    89384177.715    21528856.453  
  21528851.902  
  20167160.062   107729376.775                    83789509.222    20167163.473  
  20167159.625  
  23079443.836   121283302.997    23079448.453    94506484.3534                 
                
 21  8 14 21 55 20.0000000  0 14G17G15R21R 3G14G 7G13R13R 4G30R 2R22
                                R12G19
  21459700.422   112771492.488    21459706.629    87873920.2434   21459706.586  
                
  21680725.000   113932992.803    21680731.227    88778988.7644   21680730.988  
                
  22465396.711   120216889.181                    93502026.923    22465399.438  
  22465394.785  
  20442208.109   109428765.312                    85111260.638    20442211.945  
  20442206.980  
  20391735.117   107159313.676    20391741.285    83500810.8044   20391741.258  
                
  24021249.141   126232552.564    24021255.836    98363074.3344   24021255.586  
                
  20412528.766   107268576.500    20412535.047    83585939.1254                 
                
  20218164.891   107963916.103                    83971938.484    20218167.453  
  20218162.949  
  22807945.328   122135518.539                    94994286.399    22807948.414  
  22807944.496  
  21554823.094   113271406.210    21554831.586    88263487.6524   21554831.828  
                
  21435935.477   114386277.755                    88967102.002    21435938.809  
  21435933.469  
  21524927.633   114901540.335                    89367877.422    21524930.375  
  21524925.871  
  20170166.133   107745434.632                    83801998.670    20170169.543  
  20170165.695  
  23072521.641   121246927.268    23072526.414    94478139.6574                 
                
 21  8 14 21 55 30.0000000  0 14G17G15R21R 3G14G 7G13R13R 4G30R 2R22
                                R12G19
  21456046.664   112752291.850    21456052.871    87858958.7124   21456052.820  
                
  21678320.609   113920357.632    21678326.809    88769143.1764   21678326.586  
                
  22468026.867   120230963.673                    93512973.763    22468029.590  
  22468024.934  
  20442825.516   109432070.377                    85113831.250    20442829.363  
  20442824.387  
  20393593.055   107169077.241    20393599.242    83508418.7794   20393599.219  
                
  24026658.172   126260976.996    24026664.812    98385223.2354   24026664.578  
                
  20412545.320   107268663.443    20412551.625    83586006.8734                 
                
  20215561.984   107950016.776                    83961127.900    20215564.562  
  20215560.008  
  22802046.641   122103931.333                    94969718.568    22802049.730  
  22802045.812  
  21558460.016   113290518.342    21558468.539    88278380.2224   21558468.758  
                
  21443163.516   114424848.084                    88997101.139    21443166.930  
  21443161.512  
  21521016.070   114880660.149                    89351637.287    21521018.777  
  21521014.316  
  20173177.219   107761519.332                    83814508.993    20173180.617  
  20173176.781  
  23065603.586   121210572.828    23065608.426    94449811.5394                 
                
 21  8 14 21 55 40.0000000  0 14G17G15R21R 3G14G 7G13R13R 4G30R 2R22
                                R12G19
  21452403.055   112733144.541    21452409.258    87844038.7344   21452409.211  
                
  21675928.344   113907786.185    21675934.512    88759347.2424   21675934.320  
                
  22470672.977   120245123.510                    93523986.952    22470675.688  
  22470671.051  
  20443460.219   109435467.968                    85116473.825    20443464.066  
  20443459.094  
  20395459.172   107178883.780    20395465.387    83516060.2364   20395465.363  
                
  24032070.508   126289419.079    24032077.113    98407385.8954   24032076.914  
                
  20412574.438   107268816.439    20412580.738    83586126.0904                 
                
  20212965.141   107936149.798                    83950342.469    20212967.715  
  20212963.164  
  22796159.023   122072403.370                    94945196.819    22796162.145  
  22796158.199  
  21562103.102   113309662.917    21562111.641    88293298.0574   21562111.840  
                
  21450399.617   114463461.117                    89027133.497    21450403.043  
  21450397.598  
  21517119.070   114859857.762                    89335457.655    21517121.781  
  21517117.316  
  20176193.398   107777631.229                    83827040.459    20176196.789  
  20176192.957  
  23058689.727   121174239.991    23058694.531    94421500.2384                 
                
 21  8 14 21 55 50.0000000  0 14G17G15R21R 3G14G 7G13R13R 4G30R 2R22
                                R12G19
  21448769.594   112714050.549    21448775.801    87829160.2964   21448775.734  
                
  21673548.195   113895278.399    21673554.344    88749600.9184   21673554.188  
                
  22473335.039   120259368.674                    93535066.535    22473337.746  
  22473333.109  
  20444112.211   109438958.129                    85119188.384    20444116.062  
  20444111.074  
  20397333.445   107188733.160    20397339.676    83523735.0814   20397339.648  
                
  24037486.188   126317878.733    24037492.758    98429562.2464   24037492.582  
                
  20412616.102   107269035.367    20412622.395    83586296.6784                 
                
  20210374.391   107922315.393                    83939582.383    20210376.949  
  20210372.434  
  22790282.477   122040934.619                    94920721.130    22790285.613  
  22790281.691  
  21565752.352   113328839.851    21565760.879    88308241.1214   21565761.105  
                
  21457643.680   114502116.561                    89057198.844    21457647.098  
  21457641.641  
  21513236.602   114839132.969                    89319338.376    21513239.230  
  21513234.820  
  20179214.641   107793770.127                    83839592.937    20179218.039  
  20179214.199  
  23051779.977   121137928.855    23051784.770    94393205.8424                 
                
 21  8 14 21 56  0.0000000  0 14G17G15R21R 3G14G 7G13R13R 4G30R 2R22
                                R12G19
  21445146.289   112695009.978    21445152.531    87814323.5054   21445152.445  
                
  21671180.180   113882834.388    21671186.312    88739904.2834   21671186.160  
                
  22476012.969   120273698.814                    93546212.208    22476015.676  
  22476011.055  
  20444781.461   109442540.640                    85121974.775    20444785.305  
  20444780.320  
  20399215.852   107198625.263    20399222.094    83531443.2114   20399222.066  
                
  24042905.258   126346355.855    24042911.758    98451752.2064   24042911.594  
                
  20412670.297   107269320.154    20412676.570    83586518.5904                 
                
  20207789.625   107908512.936                    83928847.134    20207792.219  
  20207787.664  
  22784416.992   122009525.109                    94896291.509    22784420.102  
  22784416.281  
  21569407.750   113348049.089    21569416.277    88323209.3564   21569416.504  
                
  21464895.742   114540814.809                    89087297.500    21464899.156  
  21464893.707  
  21509368.766   114818486.177                    89303279.797    21509371.355  
  21509366.934  
  20182240.930   107809935.972                    83852166.369    20182244.324  
  20182240.469  
  23044874.375   121101639.520    23044879.152    94364928.4404                 
                
 21  8 14 21 56 10.0000000  0 14G17G15R21R 3G14G 7G13R13R 4G30R 2R22
                                R12G19
  21441533.195   112676022.955    21441539.434    87799528.4214   21441539.344  
                
  21668824.320   113870454.257    21668830.438    88730257.4284   21668830.289  
                
  22478706.836   120288114.170                    93557424.155    22478709.555  
  22478704.965  
  20445467.984   109446215.657                    85124833.121    20445471.828  
  20445466.863  
  20401106.406   107208560.173    20401112.656    83539184.7034   20401112.625  
                
  24048327.617   126374850.595    24048334.141    98473955.8924   24048333.938  
                
  20412737.070   107269670.994    20412743.328    83586791.9724                 
                
  20205210.938   107894742.879                    83918137.098    20205213.492  
  20205208.980  
  22778562.664   121978175.286                    94871908.319    22778565.734  
  22778562.027  
  21573069.320   113367290.743    21573077.848    88338202.8434   21573078.082  
                
  21472155.617   114579554.825                    89117428.615    21472159.047  
  21472153.590  
  21505515.516   114797917.337                    89287281.801    21505518.098  
  21505513.672  
  20185272.250   107826128.723                    83864760.730    20185275.645  
  20185271.773  
  23037972.969   121065372.255    23037977.738    94336668.2474                 
                
 21  8 14 21 56 20.0000000  0 14G17G15R21R 3G14G 7G13R13R 4G30R 2R22
                                R12G19
  21437930.234   112657089.276    21437936.445    87784774.8984   21437936.371  
                
  21666480.594   113858137.903    21666486.684    88720660.2704   21666486.535  
                
  22481416.570   120302614.492                    93568702.180    22481419.301  
  22481414.641  
  20446171.781   109449983.141                    85127763.389    20446175.629  
  20446170.676  
  20403005.055   107218537.665    20403011.316    83546959.3754   20403011.285  
                
  24053753.344   126403362.713    24053759.805    98496173.1464   24053759.586  
                
  20412816.375   107270087.758    20412822.617    83587116.7244                 
                
  20202638.305   107881005.173                    83907452.220    20202640.844  
  20202636.367  
  22772719.461   121946885.008                    94847571.419    22772722.461  
  22772718.844  
  21576737.016   113386564.611    21576745.547    88353221.4404   21576745.777  
                
  21479423.406   114618337.176                    89147592.661    21479426.855  
  21479421.414  
  21501676.891   114777426.492                    89271344.483    21501679.484  
  21501675.031  
  20188308.609   107842348.431                    83877376.066    20188312.004  
  20188308.129  
  23031075.719   121029126.888    23031080.469    94308425.1144                 
                
 21  8 14 21 56 30.0000000  0 14G17G15R21R 3G14G 7G13R13R 4G30R 2R22
                                R12G19
  21434337.508   112638209.274    21434343.695    87770063.2084   21434343.621  
                
  21664149.039   113845885.487    21664155.090    88711112.9294   21664154.965  
                
  22484142.141   120317199.630                    93580046.168    22484144.922  
  22484140.172  
  20446892.836   109453842.968                    85130765.473    20446896.680  
  20446891.695  
  20404911.812   107228557.718    20404918.082    83554767.2114   20404918.055  
                
  24059182.375   126431892.266    24059188.789    98518403.9564   24059188.570  
                
  20412908.250   107270570.513    20412914.469    83587492.8984                 
                
  20200071.695   107867299.682                    83896792.398    20200074.234  
  20200069.770  
  22766887.430   121915654.533                    94823281.054    22766890.379  
  22766886.836  
  21580410.859   113405870.744    21580419.395    88368265.1794   21580419.621  
                
  21486699.164   114657161.701                    89177789.524    21486702.562  
  21486697.156  
  21497852.930   114757013.976                    89255468.086    21497855.500  
  21497851.070  
  20191350.000   107858594.971                    83890012.253    20191353.402  
  20191349.516  
  23024182.656   120992903.553    23024187.383    94280199.1424                 
                
 21  8 14 21 56 40.0000000  0 14G17G15R21R 3G14G 7G13R13R 4G30R 2R22
                                R12G19
  21430755.008   112619383.137    21430761.203    87755393.4884   21430761.133  
                
  21661829.680   113833697.172    21661835.707    88701615.5474   21661835.602  
                
  22486883.609   120331869.821                    93591456.313    22486886.453  
  22486881.645  
  20447631.164   109457795.376                    85133839.575    20447635.016  
  20447630.016  
  20406826.695   107238620.501    20406832.969    83562608.3464   20406832.953  
                
  24064614.719   126460439.384    24064621.062    98540648.4844   24064620.895  
                
  20413012.703   107271119.439    20413018.898    83587920.6314                 
                
  20197511.156   107853626.529                    83886157.730    20197513.703  
  20197509.238  
  22761066.586   121884484.095                    94799037.398    22761069.504  
  22761065.980  
  21584090.875   113425209.346    21584099.426    88383334.2204   21584099.641  
                
  21493982.570   114696027.593                    89208018.565    21493985.984  
  21493980.566  
  21494043.672   114736679.903                    89239652.707    21494046.230  
  21494041.840  
  20194396.484   107874868.723                    83902669.615    20194399.902  
  20194395.996  
  23017293.828   120956702.616    23017298.535    94251990.6324                 
                
 21  8 14 21 56 50.0000000  0 14G17G15R21R 3G14G 7G13R13R 4G30R 2R22
                                R12G19
  21427182.758   112600610.812    21427188.977    87740765.7164   21427188.891  
                
  21659522.500   113821572.875    21659528.520    88692168.0454   21659528.422  
                
  22489640.945   120346624.846                    93602932.422    22489643.840  
  22489638.949  
  20448386.773   109461840.206                    85136985.545    20448390.621  
  20448385.594  
  20408749.672   107248725.785    20408755.938    83570482.5904   20408755.922  
                
  24070050.375   126489003.941    24070056.660    98562906.5654   24070056.523  
                
  20413129.734   107271734.420    20413135.902    83588399.8334                 
                
  20194956.641   107839985.543                    83875548.070    20194959.180  
  20194954.699  
  22755256.945   121853373.704                    94774840.431    22755259.848  
  22755256.320  
  21587777.039   113444580.216    21587785.613    88398428.3994   21587785.797  
                
  21501273.672   114734935.110                    89238279.962    21501277.215  
  21501271.734  
  21490249.148   114716424.482                    89223898.491    21490251.695  
  21490247.332  
  20197447.953   107891169.067                    83915347.648    20197451.375  
  20197447.477  
  23010409.258   120920524.014    23010413.949    94223799.5284                 
                
 21  8 14 21 57  0.0000000  0 14G17G15R21R 3G14G 7G13R13R 4G30R 2R22
                                R12G19
  21423620.727   112581892.160    21423626.949    87726179.7564   21423626.859  
                
  21657227.523   113809512.667    21657233.543    88682770.4804   21657233.426  
                
  22492414.117   120361464.661                    93614474.494    22492417.039  
  22492412.086  
  20449159.609   109465977.276                    85140203.270    20449163.480  
  20449158.406  
  20410680.727   107258873.566    20410686.984    83578389.9504   20410686.977  
                
  24075489.250   126517585.932    24075495.543    98585178.2614   24075495.453  
                
  20413259.336   107272415.462    20413265.484    83588930.5144                 
                
  20192408.227   107826377.177                    83864963.780    20192410.773  
  20192406.301  
  22749458.570   121822323.642                    94750690.382    22749461.453  
  22749457.930  
  21591469.344   113463983.367    21591477.945    88413547.7364   21591478.105  
                
  21508572.648   114773884.283                    89268573.761    21508576.254  
  21508570.703  
  21486469.320   114696247.583                    89208205.350    21486471.895  
  21486467.523  
  20200504.445   107907496.281                    83928046.607    20200507.871  
  20200503.965  
  23003528.930   120884367.854    23003533.637    94195625.9004                 
                
 21  8 14 21 57 10.0000000  0 14G17G15R21R 3G14G 7G13R13R 4G30R 2R22
                                R12G19
  21420068.969   112563227.542    21420075.184    87711635.8984   21420075.113  
                
  21654944.742   113797516.594    21654950.770    88673422.8974   21654950.672  
                
  22495203.109   120376389.168                    93626082.457    22495206.090  
  22495201.059  
  20449949.703   109470206.758                    85143492.856    20449953.590  
  20449948.488  
  20412619.859   107269063.763    20412626.109    83586330.3614   20412626.109  
                
  24080931.555   126546185.333    24080937.801    98607463.4884   24080937.715  
                
  20413401.516   107273162.625    20413407.652    83589512.7144                 
                
  20189865.844   107812800.987                    83854404.530    20189868.402  
  20189863.934  
  22743671.477   121791334.018                    94726587.335    22743674.332  
  22743670.859  
  21595167.797   113483418.818    21595176.398    88428692.2324   21595176.551  
                
  21515879.367   114812874.642                    89298899.600    21515883.000  
  21515877.414  
  21482704.297   114676149.669                    89192573.669    21482706.848  
  21482702.512  
  20203565.969   107923850.346                    83940766.419    20203569.406  
  20203565.500  
  22996652.898   120848234.301    22996657.625    94167469.8994                 
                
 21  8 14 21 57 20.0000000  0 14G17G15R21R 3G14G 7G13R13R 4G30R 2R22
                                R12G19
  21416527.461   112544616.812    21416533.672    87697134.0254   21416533.605  
                
  21652674.148   113785584.554    21652680.188    88664125.2044   21652680.086  
                
  22498007.883   120391398.166                    93637756.102    22498010.895  
  22498005.805  
  20450757.031   109474528.439                    85146854.154    20450760.906  
  20450755.836  
  20414567.016   107279296.178    20414573.262    83594303.6724   20414573.266  
                
  24086377.219   126574801.977    24086383.328    98629762.1574   24086383.250  
                
  20413556.234   107273975.701    20413562.367    83590146.2834                 
                
  20187329.453   107799256.880                    83843870.211    20187332.008  
  20187327.539  
  22737895.625   121760404.687                    94702531.191    22737898.492  
  22737894.988  
  21598872.352   113502886.352    21598880.934    88443861.7434   21598881.090  
                
  21523193.781   114851905.842                    89329257.201    21523197.410  
  21523191.809  
  21478953.969   114656130.347                    89177003.088    21478956.539  
  21478952.195  
  20206632.469   107940231.065                    83953506.987    20206635.914  
  20206632.008  
  22989781.180   120812123.321    22989785.902    94139331.4714                 
                
 21  8 14 21 57 30.0000000  0 14G17G15R21R 3G14G 7G13R13R 4G30R 2R22
                                R12G19
  21412996.211   112526059.955    21413002.414    87682674.1454   21413002.348  
                
  21650415.820   113773716.944    21650421.879    88654877.7234   21650421.762  
                
  22500828.469   120406491.728                    93649495.555    22500831.527  
  22500826.383  
  20451581.609   109478942.397                    85150287.226    20451585.473  
  20451580.430  
  20416522.258   107289571.020    20416528.508    83602310.0464   20416528.512  
                
  24091826.141   126603436.108    24091832.148    98652074.4684   24091832.082  
                
  20413723.570   107274855.009    20413729.703    83590831.4624                 
                
  20184799.156   107785745.235                    83833361.165    20184801.711  
  20184797.230  
  22732131.148   121729536.146                    94678522.334    22732134.012  
  22732130.504  
  21602583.078   113522386.266    21602591.648    88459056.4814   21602591.805  
                
  21530515.953   114890978.227                    89359646.826    21530519.570  
  21530513.969  
  21475218.508   114636190.202                    89161494.100    21475221.094  
  21475216.727  
  20209703.977   107956638.463                    83966268.281    20209707.418  
  20209703.516  
  22982913.852   120776035.253    22982918.594    94111210.9194                 
                
 21  8 14 21 57 40.0000000  0 14G17G15R21R 3G14G 7G13R13R 4G30R 2R22
                                R12G19
  21409475.211   112507557.032    21409481.410    87668256.2864   21409481.344  
                
  21648169.680   113761913.405    21648175.758    88645680.1624   21648175.637  
                
  22503664.820   120421669.634                    93661300.587    22503667.871  
  22503662.668  
  20452423.391   109483448.484                    85153791.968    20452427.281  
  20452422.188  
  20418485.508   107299887.965    20418491.773    83610349.2274   20418491.762  
                
  24097278.328   126632087.409    24097284.277    98674400.1564   24097284.238  
                
  20413903.445   107275800.254    20413909.582    83591568.0104                 
                
  20182274.883   107772265.806                    83822877.163    20182277.445  
  20182272.953  
  22726377.992   121698728.250                    94654560.650    22726380.879  
  22726377.367  
  21606299.898   113541918.277    21606308.457    88474276.2224   21606308.613  
                
  21537845.758   114930091.376                    89390068.158    21537849.402  
  21537843.754  
  21471497.836   114616329.138                    89146046.613    21471500.465  
  21471496.066  
  20212780.461   107973072.469                    83979050.290    20212783.906  
  20212780.004  
  22976050.828   120739969.907    22976055.617    94083108.0764                 
                
 21  8 14 21 57 50.0000000  0 14G17G15R21R 3G14G 7G13R13R 4G30R 2R22
                                R12G19
  21405964.578   112489108.518    21405970.773    87653880.8274   21405970.703  
                
  21645935.773   113750174.139    21645941.859    88636532.6854   21645941.742  
                
  22506516.945   120436932.003                    93673171.333    22506520.016  
  22506514.789  
  20453282.398   109488046.827                    85157368.447    20453286.285  
  20453281.188  
  20420456.805   107310247.145    20420463.090    83618421.3154   20420463.055  
                
  24102733.828   126660756.118    24102739.676    98696739.4234   24102739.707  
                
  20414095.906   107276811.640    20414102.051    83592356.1054                 
                
  20179756.695   107758818.850                    83812418.428    20179759.285  
  20179754.758  
  22720636.234   121667981.352                    94630646.406    22720639.121  
  22720635.617  
  21610022.859   113561482.519    21610031.398    88489521.0894   21610031.559  
                
  21545183.133   114969245.034                    89420521.006    21545186.809  
  21545181.125  
  21467792.039   114596547.289                    89130660.746    21467794.684  
  21467790.262  
  20215861.945   107989533.189                    83991853.073    20215865.414  
  20215861.492  
  22969192.211   120703927.571    22969197.012    94055023.1404                 
                
 21  8 14 21 58  0.0000000  0 14G17G15R21R 3G14G 7G13R13R 4G30R 2R22
                                R12G19
  21402464.305   112470714.486    21402470.484    87639547.8124   21402470.410  
                
  21643714.133   113738499.385    21643720.223    88627435.4714   21643720.109  
                
  22509384.836   120452278.731                    93685107.682    22509387.906  
  22509382.691  
  20454158.664   109492737.540                    85161016.778    20454162.555  
  20454157.441  
  20422436.125   107320648.584    20422442.438    83626526.3304   20422442.367  
                
  24108192.562   126689442.209    24108198.484    98719092.2044   24108198.520  
                
  20414300.984   107277889.299    20414307.129    83593195.8354                 
                
  20177244.570   107745404.311                    83801984.902    20177247.164  
  20177242.629  
  22714905.883   121637295.679                    94606779.781    22714908.812  
  22714905.273  
  21613751.969   113581079.091    21613760.496    88504791.1424   21613760.664  
                
  21552528.078   115008439.109                    89451005.294    21552531.762  
  21552526.113  
  21464101.125   114576844.954                    89115336.692    21464103.770  
  21464099.352  
  20218948.438   108006020.646                    84004676.643    20218951.914  
  20218947.969  
  22962338.023   120667908.488    22962342.773    94026956.3144                 
                
 21  8 14 21 58 10.0000000  0 14G17G15R21R 3G14G 7G13R13R 4G30R 2R22
                                R12G19
  21398974.391   112452374.917    21398980.547    87625257.2454   21398980.492  
                
  21641504.773   113726889.143    21641510.863    88618388.5354   21641510.762  
                
  22512268.484   120467709.794                    93697109.600    22512271.555  
  22512266.277  
  20455052.164   109497520.491                    85164736.865    20455056.047  
  20455050.918  
  20424423.492   107331092.266    20424429.809    83634664.2654   20424429.727  
                
  24113654.625   126718145.651    24113660.652    98741458.4914   24113660.656  
                
  20414518.672   107279033.272    20414524.816    83594087.2494                 
                
  20174738.539   107732022.229                    83791576.630    20174741.145  
  20174736.605  
  22709186.992   121606671.269                    94582960.793    22709189.926  
  22709186.371  
  21617487.234   113600708.013    21617495.773    88520086.4064   21617495.930  
                
  21559880.664   115047673.571                    89481520.990    21559884.293  
  21559878.648  
  21460425.141   114557222.353                    89100074.681    21460427.820  
  21460423.348  
  20222039.922   108022534.815                    84017520.993    20222043.418  
  20222039.453  
  22955488.320   120631912.772    22955492.957    93998907.6984                 
                
 21  8 14 21 58 20.0000000  0 14G17G15R21R 3G14G 7G13R13R 4G30R 2R22
                                R12G19
  21395494.820   112434089.645    21395500.957    87611008.9774   21395500.914  
                
  21639307.680   113715343.285    21639313.773    88609391.7574   21639313.672  
                
  22515167.852   120483224.936                    93709176.949    22515170.941  
  22515165.621  
  20455962.859   109502395.516                    85168528.532    20455966.738  
  20455961.613  
  20426418.844   107341577.919    20426425.160    83642834.9004   20426425.082  
                
  24119120.008   126746866.229    24119126.047    98763838.1634   24119126.035  
                
  20414748.938   107280243.281    20414755.078    83595030.1114                 
                
  20172238.523   107718672.347                    83781193.384    20172241.137  
  20172236.586  
  22703479.562   121576108.154                    94559189.495    22703482.520  
  22703478.934  
  21621228.602   113620369.026    21621237.145    88535406.6674   21621237.301  
                
  21567240.812   115086948.288                    89512067.991    21567244.391  
  21567238.734  
  21456764.062   114537679.271                    89084874.534    21456766.730  
  21456762.250  
  20225136.375   108039075.436                    84030385.927    20225139.863  
  20225135.914  
  22948643.023   120595940.328    22948647.598    93970877.2214                 
                
 21  8 14 21 58 30.0000000  0 14G17G15R21R 3G14G 7G13R13R 4G30R 2R22
                                R12G19
  21392025.617   112415858.921    21392031.773    87596803.2274   21392031.727  
                
  21637122.867   113703862.061    21637128.988    88600445.3544   21637128.867  
                
  22518082.953   120498824.303                    93721309.763    22518086.039  
  22518080.695  
  20456890.773   109507362.769                    85172391.946    20456894.648  
  20456889.531  
  20428422.211   107352105.708    20428428.516    83651038.3764   20428428.449  
                
  24124588.633   126775604.195    24124594.754    98786231.3764   24124594.727  
                
  20414991.859   107281519.803    20414997.988    83596024.7964                 
                
  20169744.578   107705354.820                    83770835.302    20169747.203  
  20169742.633  
  22697783.641   121545606.688                    94535466.137    22697786.602  
  22697783.004  
  21624976.125   113640062.387    21624984.656    88550752.1484   21624984.820  
                
  21574608.359   115126263.103                    89542646.195    21574611.980  
  21574606.324  
  21453117.922   114518216.005                    89069736.439    21453120.590  
  21453116.074  
  20228237.812   108055642.756                    84043271.613    20228241.301  
  20228237.367  
  22941802.172   120559991.470    22941806.730    93942865.1294                 
                
 21  8 14 21 58 40.0000000  0 14G17G15R21R 3G14G 7G13R13R 4G30R 2R22
                                R12G19
  21388566.766   112397682.525    21388572.938    87582639.8124   21388572.867  
                
  21634950.352   113692445.400    21634956.496    88591549.2554   21634956.348  
                
  22521013.773   120514507.752                    93733507.992    22521016.844  
  22521011.551  
  20457835.891   109512422.037                    85176326.932    20457839.754  
  20457834.652  
  20430433.562   107362675.419    20430439.848    83659274.5154   20430439.797  
                
  24130060.477   126804359.410    24130066.707    98808638.0244   24130066.676  
                
  20415247.352   107282862.390    20415253.461    83597070.9654                 
                
  20167256.727   107692069.926                    83760502.608    20167259.352  
  20167254.777  
  22692099.211   121515166.788                    94511790.676    22692102.195  
  22692098.586  
  21628729.758   113659787.875    21628738.285    88566122.6524   21628738.449  
                
  21581983.227   115165617.587                    89573255.211    21581987.004  
  21581981.281  
  21449486.734   114498832.607                    89054660.466    21449489.480  
  21449484.840  
  20231344.227   108072236.598                    84056177.946    20231347.707  
  20231343.777  
  22934965.820   120524066.170    22934970.359    93914871.3894                 
                
 21  8 14 21 58 50.0000000  0 14G17G15R21R 3G14G 7G13R13R 4G30R 2R22
                                R12G19
  21385118.289   112379560.735    21385124.438    87568518.9274   21385124.379  
                
  21632790.125   113681093.370    21632796.273    88582703.5184   21632796.098  
                
  22523960.258   120530275.072                    93745771.489    22523963.293  
  22523958.086  
  20458798.195   109517573.362                    85180333.515    20458802.066  
  20458796.953  
  20432452.883   107373287.066    20432459.156    83667543.3364   20432459.117  
                
  24135535.562   126833131.885    24135541.910    98831058.1214   24135541.891  
                
  20415515.430   107284271.191    20415521.516    83598168.7274                 
                
  20164774.945   107678817.386                    83750195.087    20164777.551  
  20164773.016  
  22686426.328   121484788.828                    94488163.371    22686429.309  
  22686425.707  
  21632489.516   113679545.586    21632498.027    88581518.2614   21632498.199  
                
  21589365.547   115205011.672                    89603895.041    21589369.457  
  21589363.672  
  21445870.547   114479529.224                    89039646.735    21445873.289  
  21445868.672  
  20234455.578   108088856.898                    84069104.845    20234459.055  
  20234455.133  
  22928134.016   120488164.603    22928138.496    93886896.1444                 
                
 21  8 14 21 59  0.0000000  0 14G17G15R21R 3G14G 7G13R13R 4G30R 2R22
                                R12G19
  21381680.227   112361493.628    21381686.363    87554440.6694   21381686.320  
                
  21630642.219   113669805.998    21630648.367    88573908.1694   21630648.191  
                
  22526922.438   120546126.291                    93758100.204    22526925.430  
  22526920.258  
  20459777.703   109522816.710                    85184411.670    20459781.562  
  20459776.457  
  20434480.180   107383940.559    20434486.449    83675844.7594   20434486.418  
                
  24141014.039   126861921.562    24141020.414    98853491.6384   24141020.410  
                
  20415796.125   107285746.198    20415802.191    83599318.0824                 
                
  20162299.203   107665597.053                    83739912.606    20162301.840  
  20162297.281  
  22680764.977   121454472.682                    94464584.138    22680767.973  
  22680764.332  
  21636255.406   113699335.430    21636263.895    88596938.9234   21636264.074  
                
  21596755.297   115244445.372                    89634565.722    21596759.352  
  21596753.516  
  21442269.383   114460306.010                    89024695.348    21442272.156  
  21442267.535  
  20237571.898   108105503.656                    84082052.320    20237575.375  
  20237571.449  
  22921306.727   120452286.831    22921311.195    93858939.4334                 
                
 21  8 14 21 59 10.0000000  0 14G17G15R21R 3G14G 7G13R13R 4G30R 2R22
                                R12G19
  21378252.578   112343481.252    21378258.727    87540405.0594   21378258.668  
                
  21628506.602   113658583.309    21628512.738    88565163.2074   21628512.586  
                
  22529900.242   120562061.225                    93770494.042    22529903.238  
  22529898.055  
  20460774.383   109528152.039                    85188561.366    20460778.246  
  20460773.152  
  20436515.406   107394635.776    20436521.688    83684178.6984   20436521.648  
                
  24146495.797   126890728.354    24146502.160    98875938.4854   24146502.184  
                
  20416089.383   107287287.296    20416095.430    83600518.9384                 
                
  20159829.484   107652408.924                    83729655.180    20159832.152  
  20159827.570  
  22675115.195   121424218.534                    94441053.148    22675118.207  
  22675114.566  
  21640027.383   113719157.349    21640035.848    88612384.5734   21640036.047  
                
  21604152.477   115283918.181                    89665266.790    21604156.531  
  21604150.684  
  21438683.242   114441163.066                    89009806.395    21438686.035  
  21438681.418  
  20240693.148   108122176.821                    84095020.331    20240696.625  
  20240692.707  
  22914483.953   120416432.881    22914488.457    93831001.2964                 
                
 21  8 14 21 59 20.0000000  0 14G17G15R21R 3G14G 7G13R13R 4G30R 2R22
                                R12G19
  21374835.320   112325523.461    21374841.492    87526411.9724   21374841.402  
                
  21626383.266   113647425.120    21626389.391    88556468.5224   21626389.230  
                
  22532893.656   120578079.669                    93782952.831    22532896.641  
  22532891.465  
  20461788.203   109533579.127                    85192782.433    20461792.062  
  20461786.969  
  20438558.539   107405372.539    20438564.836    83692545.0124   20438564.789  
                
  24151980.805   126919552.071    24151987.164    98898398.5224   24151987.184  
                
  20416395.219   107288894.463    20416401.242    83601771.2734                 
                
  20157365.773   107639252.860                    83719422.683    20157368.438  
  20157363.891  
  22669477.016   121394026.455                    94417570.407    22669480.027  
  22669476.422  
  21643805.453   113739011.223    21643813.879    88627855.1154   21643814.098  
                
  21611557.008   115323430.101                    89695998.283    21611561.035  
  21611555.191  
  21435112.148   114422100.335                    88994979.843    21435114.906  
  21435110.344  
  20243819.305   108138876.189                    84108008.741    20243822.785  
  20243818.875  
  22907665.727   120380602.807    22907670.297    93803081.7724                 
                
 21  8 14 21 59 30.0000000  0 14G17G15R21R 3G14G 7G13R13R 4G30R 2R22
                                R12G19
  21371428.531   112307620.688    21371434.719    87512461.7674   21371434.629  
                
  21624272.297   113636331.840    21624278.402    88547824.4094   21624278.242  
                
  22535902.750   120594182.018                    93795476.903    22535905.711  
  22535900.547  
  20462819.227   109539098.225                    85197075.051    20462823.078  
  20462817.984  
  20440609.641   107416151.115    20440615.949    83700943.9014   20440615.895  
                
  24157469.109   126948393.047    24157475.426    98920871.9994   24157475.418  
                
  20416713.695   107290568.033    20416719.703    83603075.3464                 
                
  20154908.219   107626129.628                    83709215.743    20154910.883  
  20154906.348  
  22663850.531   121363896.858                    94394136.289    22663853.527  
  22663849.930  
  21647589.656   113758897.314    21647598.047    88643350.7744   21647598.297  
                
  21618968.930   115362980.984                    89726760.071    21618972.828  
  21618967.059  
  21431556.148   114403118.094                    88980215.869    21431558.848  
  21431554.355  
  20246950.414   108155601.956                    84121017.663    20246953.898  
  20246949.984  
  22900852.102   120344796.988    22900856.723    93775181.1354                 
                
 21  8 14 21 59 40.0000000  0 14G17G15R21R 3G14G 7G13R13R 4G30R 2R22
                                R12G19
  21368032.203   112289772.876    21368038.410    87498554.3854   21368038.324  
                
  21622173.656   113625303.453    21622179.742    88539230.8554   21622179.586  
                
  22538927.461   120610367.925                    93808065.927    22538930.414  
  22538925.273  
  20463867.414   109544709.262                    85201439.197    20463871.262  
  20463866.180  
  20442668.672   107426971.368    20442674.996    83709375.2674   20442674.934  
                
  24162960.664   126977251.169    24162966.941    98943358.8544   24162966.914  
                
  20417044.781   107292307.918    20417050.773    83604431.0994                 
                
  20152456.727   107613038.807                    83699033.987    20152459.391  
  20152454.879  
  22658235.719   121333829.831                    94370750.838    22658238.730  
  22658235.090  
  21651379.977   113778815.571    21651388.359    88658871.4874   21651388.609  
                
  21626388.250   115402570.976                    89757552.306    21626391.945  
  21626386.270  
  21428015.250   114384216.520                    88965514.644    21428017.938  
  21428013.461  
  20250086.453   108172354.078                    84134047.093    20250089.945  
  20250086.020  
  22894043.086   120309015.472    22894047.723    93747299.4364                 
                
 21  8 14 21 59 50.0000000  0 14G17G15R21R 3G14G 7G13R13R 4G30R 2R22
                                R12G19
  21364646.344   112271980.133    21364652.594    87484689.9094   21364652.488  
                
  21620087.375   113614339.987    21620093.453    88530687.8984   21620093.305  
                
  22541967.789   120626637.358                    93820719.927    22541970.738  
  22541965.613  
  20464932.750   109550412.123                    85205874.759    20464936.586  
  20464931.531  
  20444735.609   107437833.222    20444741.945    83717839.0514   20444741.875  
                
  24168455.438   127006126.333    24168461.664    98965858.9694   24168461.629  
                
  20417388.477   107294114.052    20417394.449    83605838.4714                 
                
  20150011.258   107599980.145                    83688877.245    20150013.949  
  20150009.418  
  22652632.594   121303825.478                    94347414.112    22652635.617  
  22652631.992  
  21655176.398   113798765.919    21655184.785    88674417.2084   21655185.035  
                
  21633814.719   115442199.291                    89788374.335    21633818.246  
  21633812.660  
  21424489.445   114365395.585                    88950876.152    21424492.105  
  21424487.680  
  20253227.414   108189132.538                    84147097.006    20253230.906  
  20253226.977  
  22887238.688   120273258.299    22887243.348    93719436.7114                 
                
 21  8 14 22  0  0.0000000  0 14G17G15R21R 3G14G 7G13R13R 4G30R 2R22
                                R12G19
  21361270.984   112254242.518    21361277.277    87470868.3934   21361277.145  
                
  21618013.461   113603441.533    21618019.535    88522195.5874   21618019.375  
                
  22545023.719   120642990.254                    93833438.843    22545026.648  
  22545021.562  
  20466015.266   109556206.894                    85210381.797    20466019.090  
  20466014.062  
  20446810.461   107448736.646    20446816.809    83726335.2264   20446816.727  
                
  24173953.445   127035018.543    24173959.684    98988372.3794   24173959.617  
                
  20417744.781   107295986.490    20417750.734    83607297.5154                 
                
  20147571.852   107586953.845                    83678745.690    20147574.570  
  20147570.016  
  22647041.227   121273883.879                    94324126.188    22647044.191  
  22647040.652  
  21658978.938   113818748.427    21658987.320    88689987.9884   21658987.590  
                
  21641248.367   115481866.362                    89819226.503    21641251.832  
  21641246.270  
  21420978.828   114346655.620                    88936300.636    21420981.434  
  21420977.105  
  20256373.320   108205937.419                    84160167.467    20256376.820  
  20256372.875  
  22880438.938   120237525.643    22880443.676    93691593.0914                 
                
 21  8 14 22  0 10.0000000  0 14G17G15R21R 3G14G 7G13R13R 4G30R 2R22
                                R12G19
  21357906.078   112236559.834    21357912.395    87457089.6794   21357912.258  
                
  21615951.898   113592607.943    21615957.980    88513753.8414   21615957.840  
                
  22548095.219   120659426.418                    93846222.514    22548098.102  
  22548093.023  
  20467114.914   109562093.389                    85214960.195    20467118.727  
  20467113.703  
  20448893.188   107459681.490    20448899.535    83734863.6784   20448899.449  
                
  24179454.711   127063927.727    24179460.953    99010898.9974   24179460.836  
                
  20418113.703   107297925.165    20418119.641    83608808.1714                 
                
  20145138.484   107573959.893                    83668639.276    20145141.215  
  20145136.633  
  22641461.594   121244005.009                    94300887.077    22641464.496  
  22641461.016  
  21662787.570   113838762.924    21662795.977    88705583.6934   21662796.254  
                
  21648689.039   115521571.538                    89850108.297    21648692.543  
  21648687.004  
  21417483.383   114327996.645                    88921788.117    21417485.914  
  21417481.672  
  20259524.094   108222768.322                    84173258.161    20259527.605  
  20259523.652  
  22873643.883   120201817.526    22873648.691    93663768.5984                 
                
 21  8 14 22  0 20.0000000  0 14G17G15R21R 3G14G 7G13R13R 4G30R 2R22
                                R12G19
  21354551.812   112218933.067    21354558.160    87443354.5454   21354558.000  
                
  21613902.867   113581840.182    21613908.938    88505363.3764   21613908.801  
                
  22551182.398   120675946.557                    93859071.515    22551185.270  
  22551180.176  
  20468231.836   109568072.427                    85219610.544    20468235.660  
  20468230.594  
  20450983.953   107470668.538    20450990.293    83743425.0154   20450990.203  
                
  24184959.359   127092854.738    24184965.566    99033439.5184   24184965.441  
                
  20418495.391   107299930.944    20418501.305    83610371.1154                 
                
  20142711.352   107560999.136                    83658558.703    20142714.098  
  20142709.508  
  22635893.852   121214189.976                    94277697.626    22635896.738  
  22635893.250  
  21666602.461   113858810.262    21666610.906    88721204.9954   21666611.152  
                
  21656137.000   115561315.574                    89881020.330    21656140.586  
  21656135.027  
  21414003.266   114309419.554                    88907339.272    21414005.816  
  21414001.535  
  20262679.938   108239626.247                    84186369.876    20262683.441  
  20262679.477  
  22866853.734   120166134.979    22866858.543    93635964.0194                 
                
 21  8 14 22  0 30.0000000  0 14G17G15R21R 3G14G 7G13R13R 4G30R 2R22
                                R12G19
  21351207.891   112201360.660    21351214.254    87429661.7634   21351214.090  
                
  21611866.023   113571136.518    21611872.082    88497022.8534   21611871.957  
                
  22554284.953   120692548.971                    93871984.492    22554287.820  
  22554282.715  
  20469365.719   109574142.225                    85224331.497    20469369.547  
  20469364.461  
  20453082.414   107481696.050    20453088.742    83752017.8834   20453088.656  
                
  24190467.117   127121797.848    24190473.238    99055992.5864   24190473.098  
                
  20418889.531   107302002.137    20418895.426    83611985.0234                 
                
  20140290.117   107548069.859                    83648502.599    20140292.891  
  20140288.285  
  22630337.734   121184437.222                    94254556.592    22630340.605  
  22630337.148  
  21670423.273   113878888.735    21670431.750    88736850.5524   21670431.977  
                
  21663591.969   115601096.764                    89911961.254    21663595.578  
  21663590.008  
  21410538.156   114290922.673                    88892952.787    21410540.738  
  21410536.461  
  20265840.523   108256509.516                    84199501.310    20265844.035  
  20265840.051  
  22860068.148   120130476.271    22860072.898    93608178.0184                 
                
 21  8 14 22  0 40.0000000  0 14G17G15R21R 3G14G 7G13R13R 4G30R 2R22
                                R12G19
  21347874.672   112183844.513    21347881.039    87416012.8144   21347880.867  
                
  21609841.750   113560498.917    21609847.797    88488733.8164   21609847.680  
                
  22557403.203   120709235.389                    93884962.806    22557406.047  
  22557400.992  
  20470516.898   109580304.595                    85229124.432    20470520.723  
  20470515.617  
  20455188.922   107492765.833    20455195.234    83760643.6924   20455195.160  
                
  24195978.164   127150758.956    24195984.262    99078559.6814   24195984.160  
                
  20419296.453   107304140.548    20419302.324    83613651.3194                 
                
  20137875.156   107535174.113                    83638472.579    20137877.922  
  20137873.324  
  22624793.617   121154748.728                    94231465.559    22624796.453  
  22624793.066  
  21674250.359   113899000.210    21674258.848    88752521.8194   21674259.070  
                
  21671054.078   115640916.408                    89942932.075    21671057.750  
  21671052.152  
  21407088.484   114272508.171                    88878630.411    21407091.074  
  21407086.781  
  20269006.195   108273419.978                    84212653.893    20269009.695  
  20269005.715  
  22853287.469   120094843.451    22853292.160    93580412.1814                 
                
 21  8 14 22  0 50.0000000  0 14G17G15R21R 3G14G 7G13R13R 4G30R 2R22
                                R12G19
  21344551.930   112166383.411    21344558.316    87402406.7684   21344558.141  
                
  21607829.812   113549926.126    21607835.848    88480495.2784   21607835.750  
                
  22560536.945   120726004.623                    93898005.526    22560539.746  
  22560534.754  
  20471685.125   109586558.249                    85233988.382    20471688.953  
  20471683.859  
  20457303.219   107503876.534    20457309.512    83769301.3844   20457309.449  
                
  24201492.461   127179736.689    24201498.445    99101139.7394   24201498.383  
                
  20419715.938   107306344.970    20419721.781    83615369.0434                 
                
  20135466.164   107522310.208                    83628467.313    20135468.926  
  20135464.367  
  22619261.289   121125123.349                    94208423.615    22619264.121  
  22619260.707  
  21678083.477   113919143.354    21678091.949    88768217.7754   21678092.168  
                
  21678523.344   115680773.779                    89973932.257    21678527.016  
  21678521.398  
  21403653.969   114254174.622                    88864370.973    21403656.566  
  21403652.266  
  20272176.688   108290356.166                    84225826.485    20272180.168  
  20272176.207  
  22846511.469   120059235.307    22846516.102    93552665.5764                 
                
 21  8 14 22  1  0.0000000  0 14G17G15R21R 3G14G 7G13R13R 4G30R 2R22
                                R12G19
  21341239.641   112148977.224    21341246.051    87388843.5084   21341245.844  
                
  21605830.219   113539418.150    21605836.238    88472307.2534   21605836.137  
                
  22563686.094   120742856.221                    93911112.340    22563688.828  
  22563683.973  
  20472870.398   109592903.111                    85238923.279    20472874.223  
  20472869.156  
  20459425.273   107515028.055    20459431.551    83777990.8804   20459431.484  
                
  24207009.883   127208730.917    24207015.836    99123732.6444   24207015.766  
                
  20420147.984   107308615.384    20420153.801    83617138.1984                 
                
  20133063.172   107509478.337                    83618486.964    20133065.930  
  20133061.383  
  22613740.750   121095561.113                    94185430.757    22613743.594  
  22613740.141  
  21681922.602   113939318.123    21681931.055    88783938.3714   21681931.293  
                
  21685999.508   115720668.092                    90004961.155    21686003.191  
  21685997.590  
  21400234.695   114235922.450                    88850174.846    21400237.281  
  21400232.977  
  20275351.977   108307318.004                    84239019.027    20275355.461  
  20275351.500  
  22839740.172   120023651.880    22839744.723    93524938.2344                 
                
 21  8 14 22  1 10.0000000  0 14G17G15R21R 3G14G 7G13R13R 4G30R 2R22
                                R12G19
  21337937.859   112131626.255    21337944.262    87375323.2754   21337944.059  
                
  21603843.016   113528975.318    21603849.023    88464169.9804   21603848.934  
                
  22566850.703   120759790.561                    93924283.503    22566853.383  
  22566848.625  
  20474072.750   109599339.355                    85243929.237    20474076.574  
  20474071.520  
  20461555.141   107526220.603    20461561.410    83786712.3524   20461561.348  
                
  24212530.477   127237741.936    24212536.469    99146338.6254   24212536.367  
                
  20420592.609   107310951.913    20420598.387    83618958.8694                 
                
  20130666.203   107496678.639                    83608531.659    20130668.969  
  20130664.410  
  22608232.086   121066062.455                    94162487.351    22608234.910  
  22608231.465  
  21685767.797   113959524.744    21685776.230    88799683.7904   21685776.492  
                
  21693482.688   115760599.536                    90036018.940    21693486.316  
  21693480.750  
  21396830.672   114217751.633                    88836041.998    21396833.273  
  21396828.945  
  20278532.148   108324305.903                    84252231.850    20278535.652  
  20278531.664  
  22832973.641   119988093.532    22832978.129    93497230.4114                 
                
 21  8 14 22  1 20.0000000  0 14G17G15R21R 3G14G 7G13R13R 4G30R 2R22
                                R12G19
  21334646.688   112114331.014    21334653.066    87361846.4604   21334652.887  
                
  21601868.234   113518597.746    21601874.242    88456083.5594   21601874.133  
                
  22570030.781   120776807.682                    93937519.046    22570033.363  
  22570028.746  
  20475292.227   109605867.289                    85249006.534    20475296.035  
  20475290.992  
  20463692.836   107537454.245    20463699.094    83795465.8374   20463699.035  
                
  24218054.188   127266769.929    24218060.332    99168957.8244   24218060.215  
                
  20421049.859   107313354.774    20421055.602    83620831.2204                 
                
  20128275.273   107483911.182                    83598601.426    20128278.043  
  20128273.480  
  22602735.367   121036627.771                    94139593.692    22602738.176  
  22602734.773  
  21689619.078   113979763.364    21689627.488    88815454.1424   21689627.754  
                
  21700972.820   115800567.995                    90067105.526    21700976.387  
  21700970.871  
  21393442.000   114199662.622                    88821972.758    21393444.586  
  21393440.270  
  20281717.156   108341319.622                    84265464.732    20281720.645  
  20281716.672  
  22826211.945   119952560.603    22826216.402    93469542.4074                 
                
 21  8 14 22  1 30.0000000  0 14G17G15R21R 3G14G 7G13R13R 4G30R 2R22
                                R12G19
  21331366.125   112097091.597    21331372.504    87348413.1584   21331372.336  
                
  21599905.906   113508285.644    21599911.910    88448048.1514   21599911.785  
                
  22573226.344   120793907.622                    93950819.000    22573228.902  
  22573224.363  
  20476528.773   109612486.610                    85254154.889    20476532.590  
  20476527.535  
  20465838.344   107548729.012    20465844.602    83804251.3734   20465844.531  
                
  24223581.062   127295814.894    24223587.441    99191590.2484   24223587.316  
                
  20421519.758   107315824.094    20421525.473    83622755.3654                 
                
  20125890.453   107471176.382                    83588696.586    20125893.215  
  20125888.660  
  22597250.586   121007257.058                    94116749.820    22597253.391  
  22597250.012  
  21693476.453   114000034.026    21693484.848    88831249.4614   21693485.102  
                
  21708469.969   115840573.730                    90098221.086    21708473.422  
  21708467.961  
  21390068.711   114181655.642                    88807967.352    21390071.254  
  21390066.973  
  20284907.070   108358359.533                    84278717.997    20284910.543  
  20284906.578  
  22819455.086   119917053.208    22819459.559    93441874.3104                 
                
 21  8 14 22  1 40.0000000  0 14G17G15R21R 3G14G 7G13R13R 4G30R 2R22
                                R12G19
  21328096.109   112079907.561    21328102.488    87335023.0004   21328102.324  
                
  21597956.000   113498038.806    21597961.988    88440063.6004   21597961.867  
                
  22576437.305   120811090.013                    93964183.101    22576439.859  
  22576435.355  
  20477782.398   109619197.423                    85259374.415    20477786.223  
  20477781.145  
  20467991.641   107560044.676    20467997.891    83813068.7724   20467997.820  
                
  24229111.289   127324876.543    24229117.684    99214235.6964   24229117.574  
                
  20422002.258   107318359.644    20422007.953    83624731.1184                 
                
  20123511.695   107458473.866                    83578816.849    20123514.406  
  20123509.922  
  22591777.758   120977950.379                    94093955.757    22591780.570  
  22591777.168  
  21697339.891   114020336.553    21697348.262    88847069.6074   21697348.520  
                
  21715973.914   115880616.122                    90129365.169    21715977.348  
  21715971.926  
  21386710.711   114163730.515                    88794025.612    21386713.301  
  21386708.977  
  20288101.805   108375425.259                    84291991.329    20288105.250  
  20288101.309  
  22812703.062   119881571.233    22812707.598    93414226.0344                 
                
 21  8 14 22  1 50.0000000  0 15G17G15R21R 3G14G 7G13G24R13R 4G30R 2
                                R22R12G19
  21324836.812   112062779.843    21324843.184    87321676.7194   21324843.023  
                
  21596018.625   113487857.847    21596024.598    88432130.3934   21596024.496  
                
  22579663.773   120828355.455                    93977611.760    22579666.340  
  22579661.852  
  20479053.180   109626000.108                    85264665.389    20479057.016  
  20479051.871  
  20470152.828   107571401.841    20470159.070    83821918.5104   20470159.000  
                
  24234644.789   127353955.585    24234651.242    99236894.6744   24234651.156  
                
  20422497.492   107320962.134    20422503.172    83626759.0264                 
                
  24298999.711   127692111.579    24299008.449    99500374.2094   24299008.383  
                
  20121139.078   107445804.243                    83568962.703    20121141.797  
  20121137.320  
  22586317.047   120948708.455                    94071212.063    22586319.844  
  22586316.410  
  21701209.516   114040671.586    21701217.863    88862915.0794   21701218.137  
                
  21723484.852   115920695.686                    90160538.160    21723488.230  
  21723482.828  
  21383368.219   114145888.090                    88780148.165    21383370.828  
  21383366.508  
  20291301.523   108392517.568                    84305285.352    20291304.934  
  20291301.047  
  22805956.031   119846115.513    22805960.633    93386598.2104                 
                
 21  8 14 22  2  0.0000000  0 15G17G15R21R 3G14G 7G13G24R13R 4G30R 2
                                R22R12G19
  21321588.117   112045707.834    21321594.488    87308373.8604   21321594.340  
                
  21594093.648   113477742.041    21594099.609    88424247.9514   21594099.531  
                
  22582905.633   120845703.120                    93991104.391    22582908.195  
  22582903.738  
  20480341.000   109632893.913                    85270027.239    20480344.875  
  20480339.672  
  20472321.766   107582799.632    20472328.000    83830799.9044   20472327.941  
                
  24240181.508   127383051.262    24240188.004    99259566.6124   24240187.926  
                
  20423005.305   107323630.706    20423010.969    83628838.4354                 
                
  24292692.953   127658969.360    24292701.590    99474549.1184   24292701.656  
                
  20118772.492   107433166.722                    83559133.521    20118775.199  
  20118770.711  
  22580868.336   120919530.776                    94048518.307    22580871.102  
  22580867.684  
  21705085.172   114061038.289    21705093.496    88878785.2364   21705093.785  
                
  21731002.664   115960811.682                    90191739.491    21731005.969  
  21731000.598  
  21380041.102   114128127.691                    88766334.513    21380043.711  
  21380039.402  
  20294506.039   108409635.454                    84318599.268    20294509.426  
  20294505.555  
  22799213.859   119810685.291    22799218.520    93358990.2524                 
                
