     2.11           OBSERVATION DATA    M (MIXED)           RINEX VERSION / TYPE
EFT-CORS.RU                             20210817 144906 UTC PGM / RUN BY / DATE 
MDNG                                                        MARKER NAME         
                                                            MARKER NUMBER       
MDNG                EFT-CORS.RU                             OBSERVER / AGENCY   
0                   TRIMBLE BD970       2.0                 REC # / TYPE / VERS 
0                   UNKNOWN EXT NONE                        ANT # / TYPE        
  3463911.2830  3030468.2400  4402179.3760                  APPROX POSITION XYZ 
        0.0000        0.0000        0.0000                  ANTENNA: DELTA H/E/N
     1     1                                                WAVELENGTH FACT L1/2
     6    C1    L1    P2    L2    C2    P1                  # / TYPES OF OBSERV 
    10.000                                                  INTERVAL            
  2021     8    16    15    30    0.0000000     GPS         TIME OF FIRST OBS   
  2021     8    16    16    30    0.0000000     GPS         TIME OF LAST OBS    
     0                                                      RCV CLOCK OFFS APPL 
                                                            END OF HEADER       
 21  8 16 15 30  0.0000000  0 18G 4G16R 1R24G26R17G 9G31G 1R18G 6G22
                                R12G 7R 8R10G 3R 2
  20450378.422   107467510.318    20450386.242    83740967.6014   20450385.984  
                
  23702653.586   124558299.982    23702661.520    97058453.7364                 
                
  19920506.695   106486556.326                    82822880.422    19920512.312  
  19920506.121  
  23414381.164   125207214.101                    97383376.678    23414388.414  
  23414380.328  
  22947694.586   120591005.810    22947705.172    93967037.9244   22947705.102  
                
  21756613.688   116424039.992                    90552022.495    21756618.109  
  21756612.125  
  22053076.648   115889726.957    22053085.516    90303735.0564   22053085.375  
                
  23949028.273   125853034.306    23949035.270    98067359.1224   23949035.836  
                
  24103856.891   126666622.662    24103869.066    98701297.5464   24103868.719  
                
  22832498.617   121881432.081                    94796661.485    22832502.875  
  22832496.949  
  23093767.719   121358553.834    23093777.855    94565166.5754   23093777.996  
                
  22027493.625   115755281.476    22027498.891    90198948.8564                 
                
  21869760.070   116824347.643                    90863376.992    21869764.883  
  21869759.340  
  24471968.945   128601061.111    24471977.531   100208660.7674   24471977.473  
                
  22922431.961   122748583.891                    95471127.093    22922436.273  
  22922431.066  
  22374074.078   119266414.745                                                  
  22374072.980  
  20700580.727   108782308.897    20700590.113    84765489.6284   20700590.477  
                
  20825425.117   111128469.614                    86433257.592    20825428.504  
  20825423.000  
 21  8 16 15 30 10.0000000  0 18G 4G16R 1R24G26R17G 9G31G 1R18G 6G22
                                R12G 7R 8R10G 3R 2
  20449677.156   107463825.114    20449684.977    83738096.0114   20449684.715  
                
  23697162.422   124529443.463    23697170.270    97035968.1584                 
                
  19922494.172   106497180.483                    82831143.644    19922499.785  
  19922493.617  
  23421986.617   125247883.251                    97415008.202    23421993.820  
  23421985.746  
  22946211.703   120583213.134    22946222.254    93960965.7164   22946222.180  
                
  21760174.367   116443093.815                    90566842.104    21760178.812  
  21760172.785  
  22048778.102   115867137.991    22048786.988    90286133.2794   22048786.840  
                
  23955717.102   125888184.140    23955724.078    98094748.6084   23955724.621  
                
  24111098.609   126704677.574    24111110.730    98730950.6864   24111110.387  
                
  22829757.250   121866798.489                    94785279.824    22829761.527  
  22829755.598  
  23090595.758   121341885.078    23090605.910    94552177.9434   23090606.074  
                
  22032232.359   115780183.610    22032237.625    90218353.1014                 
                
  21861963.703   116782700.605                    90830984.854    21861968.461  
  21861962.957  
  24465526.250   128567204.492    24465534.727   100182278.9864   24465534.680  
                
  22927858.281   122777641.400                    95493727.357    22927862.613  
  22927857.395  
  22380069.133   119298371.709                                                  
  22380068.082  
  20703474.633   108797516.421    20703484.047    84777339.6414   20703484.395  
                
  20820976.672   111104731.840                    86414794.877    20820980.031  
  20820974.566  
 21  8 16 15 30 20.0000000  0 18G 4G16R 1R24G26R17G 9G31G 1R18G 6G22
                                R12G 7R 8R10G 3R 2
  20448982.586   107460175.143    20448990.410    83735251.8824   20448990.145  
                
  23691677.141   124500617.810    23691684.844    97013506.5904                 
                
  19924488.898   106507843.442                    82839437.059    19924494.516  
  19924488.348  
  23429594.141   125288563.800                    97446648.565    23429601.391  
  23429593.254  
  22944740.414   120575481.536    22944750.945    93954941.1144   22944750.879  
                
  21763749.312   116462224.158                    90581721.244    21763753.770  
  21763747.715  
  22044484.047   115844572.633    22044492.926    90268549.8914   22044492.785  
                
  23962409.836   125923354.547    23962416.809    98122154.1274   23962417.312  
                
  24118340.945   126742736.284    24118353.078    98760606.7754   24118352.750  
                
  22827031.375   121852247.722                    94773962.553    22827035.680  
  22827029.738  
  23087435.070   121325275.608    23087445.199    94539235.5004   23087445.383  
                
  22036977.969   115805121.934    22036983.223    90237785.5504                 
                
  21854173.375   116741086.677                    90798618.487    21854178.258  
  21854172.719  
  24459085.711   128533359.596    24459094.195   100155906.3534   24459094.133  
                
  22933287.930   122806716.623                    95516341.411    22933292.223  
  22933287.066  
  22386075.156   119330387.130                                                  
  22386074.121  
  20706377.906   108812773.229    20706387.340    84789228.0614   20706387.680  
                
  20816531.781   111081013.145                    86396347.018    20816535.117  
  20816529.695  
 21  8 16 15 30 30.0000000  0 18G 4G16R 1R24G26R17G 9G31G 1R18G 6G22
                                R12G 7R 8R10G 3R 2
  20448294.711   107456560.347    20448302.531    83732435.1604   20448302.266  
                
  23686197.648   124471823.024    23686205.312    96991069.1204                 
                
  19926490.891   106518545.197                    82847760.644    19926496.496  
  19926490.332  
  23437203.688   125329255.511                    97478297.643    23437211.004  
  23437202.824  
  22943280.766   120567811.040    22943291.309    93948964.1194   22943291.250  
                
  21767338.531   116481430.784                    90596659.737    21767343.004  
  21767336.883  
  22040194.477   115822030.826    22040203.324    90250984.8604   22040203.180  
                
  23969106.453   125958545.353    23969113.426    98149575.5334   23969113.898  
                
  24125583.914   126780798.584    24125596.102    98790265.6844   24125595.801  
                
  22824321.094   121837780.063                    94762709.923    22824325.398  
  22824319.453  
  23084285.680   121308725.433    23084295.781    94526339.2454   23084295.973  
                
  22041730.453   115830096.342    22041735.719    90257246.1144                 
                
  21846389.344   116699506.061                    90766278.026    21846394.312  
  21846388.730  
  24452647.383   128499526.536    24452655.965   100129542.9554   24452655.859  
                
  22938720.961   122835809.928                    95538969.529    22938725.191  
  22938720.109  
  22392092.086   119362460.653                                                  
  22392091.066  
  20709290.562   108828079.269    20709300.004    84801154.8434   20709300.336  
                
  20812090.414   111057313.199                    86377913.734    20812093.715  
  20812088.340  
 21  8 16 15 30 40.0000000  0 18G 4G16R 1R24G26R17G 9G31G 1R18G 6G22
                                R12G 7R 8R10G 3R 2
  20447613.508   107452980.578    20447621.320    83729645.7314   20447621.062  
                
  23680724.023   124443058.959    23680731.648    96968655.5734                 
                
  19928500.102   106529285.600                    82856114.298    19928505.719  
  19928499.543  
  23444815.211   125369957.993                    97509955.088    23444822.605  
  23444814.324  
  22941832.727   120560201.541    22941843.270    93943034.6444   22941843.195  
                
  21770941.969   116500713.607                    90611657.472    21770946.414  
  21770940.254  
  22035909.375   115799512.473    22035918.176    90233438.0974   22035918.039  
                
  23975806.906   125993756.309    23975813.855    98177012.6314   23975814.332  
                
  24132827.547   126818864.256    24132839.758    98819927.2054   24132839.492  
                
  22821626.344   121823395.250                    94751521.746    22821630.633  
  22821624.672  
  23081147.539   121292234.425    23081157.625    94513489.1214   23081157.832  
                
  22046489.789   115855106.729    22046495.090    90276734.7284                 
                
  21838611.586   116657958.703                    90733963.431    21838616.582  
  21838610.977  
  24446211.344   128465705.174    24446219.965   100103188.6734   24446219.844  
                
  22944157.250   122864920.845                    95561611.354    22944161.383  
  22944156.422  
  22398119.930   119394592.305                                                  
  22398118.957  
  20712212.555   108843434.375    20712222.000    84813119.8524   20712222.344  
                
  20807652.578   111033632.016                    86359495.042    20807655.848  
  20807650.512  
 21  8 16 15 30 50.0000000  0 18G 4G16R 1R24G26R17G 9G31G 1R18G 6G22
                                R12G 7R 8R10G 3R 2
  20446939.008   107449436.099    20446946.797    83726883.8034   20446946.543  
                
  23675256.367   124414326.107    23675263.926    96946266.3444                 
                
  19930516.602   106540064.957                    82864498.224    19930522.230  
  19930516.035  
  23452428.828   125410671.488                    97541621.113    23452436.254  
  23452427.945  
  22940396.359   120552653.366    22940406.906    93937152.9564   22940406.801  
                
  21774559.648   116520072.663                    90626714.525    21774564.098  
  21774557.895  
  22031628.773   115777017.848    22031637.555    90215909.8284   22031637.441  
                
  23982511.180   126028987.551    23982518.117    98204465.5594   23982518.633  
                
  24140071.805   126856933.485    24140084.102    98849591.5104   24140083.828  
                
  22818947.156   121809093.609                    94740398.282    22818951.457  
  22818945.535  
  23078020.719   121275802.956    23078030.766    94500685.3744   23078030.996  
                
  22051255.992   115880153.240    22051261.320    90296251.4684                 
                
  21830840.180   116616445.257                    90701675.212    21830845.156  
  21830839.551  
  24439777.586   128431895.774    24439786.262   100076843.7114   24439786.098  
                
  22949596.898   122894049.825                    95584267.257    22949600.934  
  22949596.113  
  22404158.625   119426781.932                                                  
  22404157.688  
  20715143.922   108858838.841    20715153.375    84825123.3234   20715153.727  
                
  20803218.297   111009969.870                    86341091.148    20803221.570  
  20803216.211  
 21  8 16 15 31  0.0000000  0 18G 4G16R 1R24G26R17G 9G31G 1R18G 6G22
                                R12G 7R 8R10G 3R 2
  20446271.203   107445926.729    20446278.973    83724149.2234   20446278.730  
                
  23669794.680   124385624.443    23669802.129    96923901.4274                 
                
  19932540.367   106550883.131                    82872912.356    19932546.004  
  19932539.793  
  23460044.680   125451395.711                    97573295.487    23460051.941  
  23460043.594  
  22938971.641   120545166.374    22938982.148    93931318.9454   22938982.035  
                
  21778191.523   116539507.621                    90641830.608    21778195.984  
  21778189.711  
  22027352.672   115754546.796    22027361.449    90198399.9284   22027361.332  
                
  23989219.281   126064238.783    23989226.207    98231934.0334   23989226.742  
                
  24147316.805   126895005.955    24147329.102    98879258.3354   24147328.812  
                
  22816283.547   121794875.053                    94729339.396    22816287.836  
  22816281.949  
  23074905.219   121259430.900    23074915.230    94487927.9414   23074915.484  
                
  22056029.039   115905235.662    22056034.375    90315796.1974                 
                
  21823074.992   116574965.383                    90669413.099    21823080.008  
  21823074.410  
  24433346.117   128398098.278    24433354.844   100050508.0234   24433354.668  
                
  22955039.836   122923196.602                    95606936.957    22955043.859  
  22955039.047  
  22410208.164   119459029.324                                                  
  22410207.281  
  20718084.648   108874292.423    20718094.109    84837165.0574   20718094.453  
                
  20798787.547   110986326.580                    86322701.919    20798790.820  
  20798785.477  
 21  8 16 15 31 10.0000000  0 18G 4G16R 1R24G26R17G 9G31G 1R18G 6G22
                                R12G 7R 8R10G 3R 2
  20445610.047   107442452.331    20445617.797    83721441.9014   20445617.562  
                
  23664338.883   124356954.035    23664346.309    96901560.8654                 
                
  19934571.352   106561739.948                    82881356.544    19934577.000  
  19934570.770  
  23467662.227   125492130.232                    97604977.825    23467669.539  
  23467661.160  
  22937558.539   120537740.525    22937569.027    93925532.5824   22937568.918  
                
  21781837.547   116559018.282                    90657005.550    21781842.004  
  21781835.719  
  22023081.031   115732099.216    22023089.824    90180908.3154   22023089.699  
                
  23995931.141   126099509.767    23995938.059    98259417.9204   23995938.609  
                
  24154562.391   126933081.430    24154574.648    98908927.5194   24154574.344  
                
  22813635.500   121780739.672                    94718345.223    22813639.801  
  22813633.910  
  23071801.008   121243118.219    23071811.012    94475216.7754   23071811.273  
                
  22060808.883   115930353.856    22060814.238    90335368.8014                 
                
  21815316.227   116533519.318                    90637177.280    21815321.195  
  21815315.629  
  24426916.922   128364312.682    24426925.668   100024181.6094   24426925.480  
                
  22960486.055   122952361.043                    95629620.386    22960490.105  
  22960485.270  
  22416268.508   119491334.264                                                  
  22416267.625  
  20721034.703   108889795.022    20721044.176    84849244.9974   20721044.512  
                
  20794360.289   110962701.931                    86304327.214    20794363.547  
  20794358.223  
 21  8 16 15 31 20.0000000  0 18G 4G16R 1R24G26R17G 9G31G 1R18G 6G22
                                R12G 7R 8R10G 3R 2
  20444955.578   107439013.090    20444963.309    83718761.9764   20444963.086  
                
  23658889.086   124328315.085    23658896.469    96879244.8274                 
                
  19936609.625   106572635.654                    82889830.977    19936615.270  
  19936609.031  
  23475281.805   125532875.136                    97636668.272    23475289.086  
  23475280.699  
  22936157.125   120530376.040    22936167.598    93919794.0404   22936167.488  
                
  21785497.734   116578604.703                    90672239.437    21785502.164  
  21785495.852  
  22018813.906   115709675.330    22018822.715    90163435.1704   22018822.566  
                
  24002646.789   126134800.587    24002653.699    98286917.2614   24002654.262  
                
  24161808.594   126971160.047    24161820.770    98938599.1544   24161820.480  
                
  22811003.070   121766687.544                    94707415.789    22811007.371  
  22811001.508  
  23068708.141   121226865.141    23068718.141    94462552.0464   23068718.410  
                
  22065595.555   115955507.895    22065600.953    90354969.3394                 
                
  21807563.867   116492107.397                    90604968.016    21807568.781  
  21807563.250  
  24420490.016   128330539.203    24420498.836    99997864.6464   24420498.664  
                
  22965935.656   122981543.307                    95652317.681    22965939.754  
  22965934.898  
  22422339.656   119523696.712                                                  
  22422338.762  
  20723994.109   108905346.790    20724003.594    84861363.2504   20724003.926  
                
  20789936.648   110939096.568                    86285967.491    20789939.883  
  20789934.578  
 21  8 16 15 31 30.0000000  0 18G 4G16R 1R24G26R17G 9G31G 1R18G 6G22
                                R12G 7R 8R10G 3R 2
  20444307.789   107435608.934    20444315.504    83716109.3914   20444315.289  
                
  23653445.328   124299707.668    23653452.625    96856953.3234                 
                
  19938655.172   106583570.231                    82898335.637    19938660.797  
  19938654.586  
  23482903.195   125573630.074                    97668366.534    23482910.531  
  23482902.125  
  22934767.398   120523072.947    22934777.867    93914103.3294   22934777.750  
                
  21789172.031   116598266.646                    90687532.050    21789176.457  
  21789170.133  
  22014551.273   115687275.061    22014560.078    90145980.4114   22014559.930  
                
  24009366.195   126170111.094    24009373.098    98314431.9464   24009373.660  
                
  24169055.375   127009241.624    24169067.430    98968273.0924   24169067.172  
                
  22808386.234   121752718.739                    94696551.182    22808390.543  
  22808384.637  
  23065626.617   121210671.684    23065636.613    94449933.7674   23065636.883  
                
  22070389.047   115980697.790    22070394.496    90374597.8134                 
                
  21799817.930   116450729.623                    90572785.305    21799822.805  
  21799817.277  
  24414065.383   128296777.850    24414074.340    99971557.1274   24414074.164  
                
  22971388.586   123010743.470                    95675028.871    22971392.730  
  22971387.859  
  22428421.562   119556116.649                                                  
  22428420.691  
  20726962.859   108920947.668    20726972.352    84873519.7694   20726972.680  
                
  20785516.594   110915510.282                    86267622.603    20785519.820  
  20785514.520  
 21  8 16 15 31 40.0000000  0 18G 4G16R 1R24G26R17G 9G31G 1R18G 6G22
                                R12G 7R 8R10G 3R 2
  20443666.656   107432239.757    20443674.359    83713484.0574   20443674.148  
                
  23648007.586   124271131.858    23648014.840    96834686.4824                 
                
  19940707.961   106594543.512                    82906870.410    19940713.574  
  19940707.387  
  23490526.430   125614394.986                    97700072.531    23490533.816  
  23490525.387  
  22933389.328   120515831.154    22933399.809    93908460.3784   22933399.680  
                
  21792860.430   116618004.037                    90702883.325    21792864.859  
  21792858.539  
  22010293.117   115664898.353    22010301.914    90128544.0294   22010301.789  
                
  24016089.305   126205441.179    24016096.230    98341961.8794   24016096.770  
                
  24176302.648   127047325.969    24176314.605    98997949.1764   24176314.391  
                
  22805785.016   121738833.300                    94685751.377    22805789.324  
  22805783.418  
  23062556.438   121194537.798    23062566.430    94437361.9264   23062566.699  
                
  22075189.320   116005923.334    22075194.797    90394254.0634                 
                
  21792078.336   116409385.977                    90540629.158    21792083.223  
  21792077.691  
  24407642.969   128263028.600    24407652.117    99945259.0384   24407651.949  
                
  22976844.898   123039961.433                    95697753.905    22976849.031  
  22976844.137  
  22434514.172   119588593.649                                                  
  22434513.340  
  20729940.938   108936597.544    20729950.445    84885714.4734   20729950.762  
                
  20781100.047   110891942.767                    86249292.321    20781103.250  
  20781097.969  
 21  8 16 15 31 50.0000000  0 18G 4G16R 1R24G26R17G 9G31G 1R18G 6G22
                                R12G 7R 8R10G 3R 2
  20443032.211   107428905.770    20443039.902    83710886.1444   20443039.703  
                
  23642575.891   124242588.025    23642583.172    96812444.5524                 
                
  19942768.047   106605555.813                    82915435.532    19942773.652  
  19942767.477  
  23498151.500   125655169.837                    97731786.250    23498158.918  
  23498150.480  
  22932022.977   120508650.950    22932033.496    93902865.4294   22932033.367  
                
  21796562.938   116637816.811                    90718293.263    21796567.371  
  21796561.035  
  22006039.484   115642545.436    22006048.277    90111126.1874   22006048.164  
                
  24022816.148   126240790.903    24022823.113    98369507.1104   24022823.625  
                
  24183550.375   127085413.198    24183562.324    99027627.5134   24183562.148  
                
  22803199.453   121725031.339                    94675016.513    22803203.711  
  22803197.852  
  23059497.641   121178463.791    23059507.625    94424836.7224   23059507.898  
                
  22079996.422   116031184.742    22080001.891    90413938.2634                 
                
  21784345.156   116368077.050                    90508500.014    21784350.125  
  21784344.559  
  24401222.930   128229291.668    24401232.195    99918970.5584   24401232.031  
                
  22982304.445   123069197.019                    95720492.681    22982308.621  
  22982303.734  
  22440617.484   119621127.678                                                  
  22440616.641  
  20732928.375   108952296.617    20732937.887    84897947.5124   20732938.191  
                
  20776687.133   110868394.660                    86230977.117    20776690.332  
  20776685.047  
 21  8 16 15 32  0.0000000  0 18G 4G16R 1R24G26R17G 9G31G 1R18G 6G22
                                R12G 7R 8R10G 3R 2
  20442404.445   107425606.854    20442412.129    83708315.5554   20442411.930  
                
  23637150.242   124214076.111    23637157.539    96790227.4864                 
                
  19944835.414   106616607.072                    82924030.951    19944841.027  
  19944834.863  
  23505778.469   125695954.240                    97763507.425    23505785.816  
  23505777.414  
  22930668.344   120501532.263    22930678.898    93897318.4104   22930678.766  
                
  21800279.500   116657704.904                    90733761.749    21800283.934  
  21800277.613  
  22001790.359   115620216.224    22001799.148    90093726.8094   22001799.035  
                
  24029546.680   126276160.036    24029553.680    98397067.4644   24029554.164  
                
  24190798.625   127123503.090    24190810.586    99057307.9094   24190810.430  
                
  22800629.555   121711313.005                    94664346.727    22800633.785  
  22800627.977  
  23056450.219   121162449.568    23056460.195    94412358.1164   23056460.484  
                
  22084810.328   116056481.865    22084815.793    90433650.2944                 
                
  21776618.453   116326802.716                    90476397.787    21776623.512  
  21776617.918  
  24394805.305   128195567.081    24394814.609    99892691.6724   24394814.457  
                
  22987767.414   123098450.587                    95743245.425    22987771.578  
  22987766.727  
  22446731.523   119653718.846                                                  
  22446730.664  
  20735925.156   108968044.749    20735934.656    84910218.7844   20735934.965  
                
  20772277.852   110844865.909                    86212676.984    20772281.039  
  20772275.762  
 21  8 16 15 32 10.0000000  0 18G 4G16R 1R24G26R17G 9G31G 1R18G 6G22
                                R12G 7R 8R10G 3R 2
  20441783.336   107422342.932    20441791.012    83705772.2434   20441790.824  
                
  23631730.680   124185596.177    23631737.922    96768035.3134                 
                
  19946910.031   106627697.030                    82932656.463    19946915.637  
  19946909.488  
  23513407.195   125736748.231                    97795236.051    23513414.516  
  23513406.137  
  22929325.391   120494475.076    22929336.004    93891819.3174   22929335.832  
                
  21804010.086   116677667.941                    90749288.527    21804014.492  
  21804008.227  
  21997545.742   115597910.662    21997554.531    90076345.8614   21997554.410  
                
  24036280.859   126311548.448    24036287.895    98424642.8344   24036288.363  
                
  24198047.383   127161595.465    24198059.336    99086990.2454   24198059.164  
                
  22798075.320   121697678.297                    94653741.963    22798079.543  
  22798073.723  
  23053414.180   121146495.146    23053424.145    94399926.1024   23053424.457  
                
  22089631.000   116081814.578    22089636.465    90453390.0584                 
                
  21768898.359   116285563.288                    90444322.702    21768903.406  
  21768897.801  
  24388389.977   128161854.786    24388399.355    99866422.3974   24388399.180  
                
  22993233.602   123127721.533                    95766011.719    22993237.734  
  22993232.926  
  22452856.172   119686366.688                                                  
  22452855.352  
  20738931.250   108983841.865    20738940.734    84922528.2174   20738941.039  
                
  20767872.086   110821355.911                    86194391.459    20767875.270  
  20767869.973  
 21  8 16 15 32 20.0000000  0 18G 4G16R 1R24G26R17G 9G31G 1R18G 6G22
                                R12G 7R 8R10G 3R 2
  20441168.891   107419113.987    20441176.562    83703256.1804   20441176.367  
                
  23626317.266   124157148.371    23626324.383    96745868.1944                 
                
  19948991.906   106638825.776                    82941312.173    19948997.516  
  19948991.375  
  23521037.578   125777551.242                    97826971.694    23521044.945  
  23521036.562  
  22927994.164   120487479.435    22928004.832    93886368.1814   22928004.648  
                
  21807754.672   116697705.856                    90764873.568    21807759.051  
  21807752.820  
  21993305.617   115575628.737    21993314.402    90058983.3344   21993314.273  
                
  24043018.680   126346955.982    24043025.742    98452233.1104   24043026.219  
                
  24205296.672   127199690.222    24205308.555    99116674.4484   24205308.371  
                
  22795536.695   121684126.995                    94643202.062    22795540.934  
  22795535.078  
  23050389.547   121130600.568    23050399.500    94387540.7304   23050399.809  
                
  22094458.438   116107182.871    22094463.891    90473157.5504                 
                
  21761184.773   116244358.692                    90412274.702    21761189.809  
  21761184.188  
  24381977.023   128128154.841    24381986.445    99840162.7324   24381986.273  
                
  22998703.055   123157010.194                    95788791.784    22998707.230  
  22998702.371  
  22458991.422   119719070.921                                                  
  22458990.625  
  20741946.664   108999687.933    20741956.133    84934875.8004   20741956.457  
                
  20763469.914   110797865.050                    86176120.764    20763473.082  
  20763467.820  
 21  8 16 15 32 30.0000000  0 18G 4G16R 1R24G26R17G 9G31G 1R18G 6G22
                                R12G 7R 8R10G 3R 2
  20440561.125   107415920.172    20440568.797    83700767.4954   20440568.598  
                
  23620909.906   124128732.919    23620917.059    96723726.3144                 
                
  19951081.070   106649993.523                    82949998.188    19951086.672  
  19951080.555  
  23528669.828   125818363.567                    97858714.581    23528677.133  
  23528668.742  
  22926674.695   120480545.543    22926685.391    93880965.1644   22926685.191  
                
  21811513.258   116717818.722                    90780516.895    21811517.621  
  21811511.430  
  21989070.047   115553370.648    21989078.820    90041639.3804   21989078.699  
                
  24049760.148   126382382.733    24049767.230    98479838.3644   24049767.688  
                
  24212546.297   127237787.417    24212558.250    99146360.5484   24212558.043  
                
  22793013.781   121670659.562                    94632727.386    22793017.988  
  22793012.191  
  23047376.336   121114766.072    23047386.285    94375202.1814   23047386.586  
                
  22099292.680   116132586.902    22099298.113    90492952.8884                 
                
  21753477.758   116203189.294                    90380254.067    21753482.758  
  21753477.199  
  24375566.594   128094467.560    24375575.930    99813912.9314   24375575.770  
                
  23004175.836   123186316.658                    95811585.665    23004180.051  
  23004175.117  
  22465137.297   119751831.770                                                  
  22465136.531  
  20744971.422   109015583.095    20744980.863    84947261.6324   20744981.203  
                
  20759071.461   110774394.025                    86157865.552    20759074.633  
  20759069.379  
 21  8 16 15 32 40.0000000  0 18G 4G16R 1R24G26R17G 9G31G 1R18G 6G22
                                R12G 7R 8R10G 3R 2
  20439959.984   107412761.165    20439967.656    83698305.9344   20439967.461  
                
  23615508.742   124100349.728    23615515.879    96701609.5504                 
                
  19953177.477   106661199.980                    82958714.312    19953183.070  
  19953176.973  
  23536303.562   125859184.734                    97890464.329    23536310.941  
  23536302.516  
  22925366.922   120473673.158    22925377.633    93875610.0704   22925377.418  
                
  21815285.742   116738005.958                    90796218.094    21815290.121  
  21815283.910  
  21984838.945   115531136.096    21984847.707    90024313.7634   21984847.570  
                
  24056505.203   126417828.344    24056512.312    98507458.3094   24056512.762  
                
  24219796.352   127275886.618    24219808.324    99176048.2184   24219808.078  
                
  22790506.531   121657275.666                    94622317.676    22790510.703  
  22790504.980  
  23044374.500   121098991.394    23044384.434    94362910.2334   23044384.750  
                
  22104133.633   116158026.236    22104139.043    90512775.7244                 
                
  21745777.250   116162054.924                    90348260.671    21745782.250  
  21745776.723  
  24369158.492   128060792.648    24369167.785    99787672.7674   24369167.617  
                
  23009651.898   123215640.846                    95834393.363    23009656.160  
  23009651.180  
  22471293.672   119784648.711                                                  
  22471292.941  
  20748005.453   109031527.016    20748014.871    84959685.4664   20748015.227  
                
  20754676.516   110750941.795                    86139624.921    20754679.695  
  20754674.445  
 21  8 16 15 32 50.0000000  0 18G 4G16R 1R24G26R17G 9G31G 1R18G 6G22
                                R12G 7R 8R10G 3R 2
  20439365.531   107409637.306    20439373.207    83695871.7524   20439372.996  
                
  23610113.852   124071999.260    23610120.980    96679518.3064                 
                
  19955281.180   106672445.456                    82967460.794    19955286.777  
  19955280.691  
  23543938.945   125900014.854                    97922221.029    23543946.398  
  23543937.961  
  22924070.914   120466862.649    22924081.625    93870303.1884   22924081.406  
                
  21819072.172   116758267.942                    90811977.419    21819076.586  
  21819070.371  
  21980612.398   115508925.459    21980621.148    90007006.7734   21980621.012  
                
  24063253.883   126453293.052    24063261.004    98535093.1224   24063261.453  
                
  24227046.852   127313988.091    24227058.801    99205737.6594   24227058.539  
                
  22788015.000   121643975.737                    94611973.302    22788019.133  
  22788013.488  
  23041384.141   121083276.944    23041394.051    94350665.2164   23041394.410  
                
  22108981.352   116183501.129    22108986.758    90532626.2734                 
                
  21738083.398   116120956.098                    90316294.936    21738088.410  
  21738082.867  
  24362752.820   128027130.511    24362762.074    99761442.5524   24362761.914  
                
  23015131.234   123244982.638                    95857214.718    23015135.543  
  23015130.523  
  22477460.602   119817521.878                                                  
  22477459.859  
  20751048.836   109047520.064    20751058.238    84972147.5674   20751058.605  
                
  20750285.250   110727509.167                    86121399.559    20750288.438  
  20750283.195  
 21  8 16 15 33  0.0000000  0 18G 4G16R 1R24G26R17G 9G31G 1R18G 6G22
                                R12G 7R 8R10G 3R 2
  20438777.719   107406548.368    20438785.398    83693464.7894   20438785.180  
                
  23604725.188   124043681.273    23604732.312    96657452.3484                 
                
  19957392.180   106683729.864                    82976237.551    19957397.789  
  19957391.695  
  23551576.086   125940853.511                    97953984.374    23551583.488  
  23551575.059  
  22922786.656   120460113.846    22922797.367    93865044.4014   22922797.168  
                
  21822872.508   116778604.248                    90827794.503    21822876.914  
  21822870.730  
  21976390.352   115486738.503    21976399.094    89989718.2414   21976398.957  
                
  24070006.156   126488776.482    24070013.246    98562742.5604   24070013.719  
                
  24234297.656   127352091.498    24234309.664    99235428.5984   24234309.371  
                
  22785539.180   121630759.652                    94601694.113    22785543.309  
  22785537.684  
  23038405.203   121067622.555    23038415.121    94338466.9994   23038415.469  
                
  22113835.797   116209011.385    22113841.223    90552504.3854                 
                
  21730396.180   116079892.801                    90284356.822    21730401.234  
  21730395.688  
  24356349.570   127993480.954    24356358.773    99735222.1454   24356358.609  
                
  23020613.922   123274342.232                    95880049.940    23020618.242  
  23020613.207  
  22483638.039   119850451.024                                                  
  22483637.242  
  20754101.516   109063561.945    20754110.906    84984647.7324   20754111.273  
                
  20745897.625   110704095.988                    86103189.317    20745900.824  
  20745895.586  
 21  8 16 15 33 10.0000000  0 18G 4G16R 1R24G26R17G 9G31G 1R18G 6G22
                                R12G 7R 8R10G 3R 2
  20438196.609   107403494.581    20438204.285    83691085.2234   20438204.078  
                
  23599342.789   124015396.324    23599349.918    96635412.1234                 
                
  19959510.492   106695053.395                    82985044.735    19959516.105  
  19959510.016  
  23559214.930   125981700.905                    97985754.594    23559222.156  
  23559213.836  
  22921514.211   120453427.080    22921524.895    93859833.9414   22921524.703  
                
  21826686.797   116799015.071                    90843669.582    21826691.211  
  21826685.055  
  21972172.867   115464575.514    21972181.621    89972448.3924   21972181.484  
                
  24076762.023   126524278.815    24076769.102    98590406.7254   24076769.582  
                
  24241548.930   127390197.033    24241560.969    99265121.2044   24241560.648  
                
  22783079.102   121617627.664                    94591480.357    22783083.246  
  22783077.598  
  23035437.758   121052028.554    23035447.691    94326315.8374   23035448.039  
                
  22118697.031   116234557.264    22118702.469    90572410.2464                 
                
  21722715.781   116038865.384                    90252446.631    21722720.809  
  21722715.254  
  24349948.781   127959844.255    24349957.922    99709011.7484   24349957.754  
                
  23026099.969   123303719.604                    95902898.983    23026104.270  
  23026099.254  
  22489826.008   119883436.302                                                  
  22489825.223  
  20757163.539   109079652.931    20757172.934    84997186.1604   20757173.297  
                
  20741513.695   110680702.505                    86084994.395    20741516.902  
  20741511.691  
 21  8 16 15 33 20.0000000  0 18G 4G16R 1R24G26R17G 9G31G 1R18G 6G22
                                R12G 7R 8R10G 3R 2
  20437622.156   107400475.846    20437629.824    83688732.9624   20437629.625  
                
  23593966.609   123987144.462    23593973.773    96613397.6894                 
                
  19961636.070   106706415.842                    82993882.192    19961641.688  
  19961635.598  
  23566855.234   126022556.766                    98017531.330    23566862.406  
  23566854.164  
  22920253.539   120446802.252    22920264.176    93854671.7394   22920264.020  
                
  21830514.938   116819500.030                    90859602.325    21830519.328  
  21830513.207  
  21967959.906   115442436.378    21967968.680    89955197.1414   21967968.527  
                
  24083521.438   126559799.957    24083528.531    98618085.5204   24083529.000  
                
  24248800.609   127428304.424    24248812.645    99294815.2464   24248812.297  
                
  22780634.766   121604579.707                    94581331.980    22780638.910  
  22780633.246  
  23032481.789   121036494.889    23032491.754    94314211.6834   23032492.109  
                
  22123564.984   116260138.515    22123570.395    90592343.6724                 
                
  21715042.117   115997873.988                    90220564.453    21715047.133  
  21715041.555  
  24343550.438   127926220.436    24343559.520    99682811.3894   24343559.336  
                
  23031589.297   123333114.703                    95925761.807    23031593.566  
  23031588.578  
  22496024.414   119916477.390                                                  
  22496023.648  
  20760234.867   109095792.874    20760244.266    85009762.7314   20760244.629  
                
  20737133.430   110657328.608                    86066814.712    20737136.625  
  20737131.441  
 21  8 16 15 33 30.0000000  0 18G 4G16R 1R24G26R17G 9G31G 1R18G 6G22
                                R12G 7R 8R10G 3R 2
  20437054.328   107397491.924    20437061.977    83686407.8314   20437061.789  
                
  23588596.695   123958925.619    23588603.918    96591409.0124                 
                
  19963768.922   106717817.075                    83002749.812    19963774.535  
  19963768.465  
  23574496.953   126063420.531                    98049314.202    23574504.145  
  23574495.949  
  22919004.633   120440239.206    22919015.270    93849557.6994   22919015.121  
                
  21834356.898   116840058.981                    90875592.605    21834361.273  
  21834355.180  
  21963751.477   115420320.932    21963760.215    89937964.3344   21963760.066  
                
  24090284.352   126595339.455    24090291.488    98645778.6214   24090291.930  
                
  24256052.602   127466413.383    24256064.633    99324510.5114   24256064.270  
                
  22778206.188   121591615.755                    94571248.905    22778210.316  
  22778204.664  
  23029537.273   121021021.372    23029547.305    94302154.4164   23029547.637  
                
  22128439.633   116285754.932    22128445.047    90612304.4944                 
                
  21707375.117   115956918.383                    90188710.108    21707380.148  
  21707374.570  
  24337154.469   127892609.326    24337163.566    99656620.9434   24337163.363  
                
  23037081.906   123362527.173                    95948638.148    23037086.129  
  23037081.191  
  22502233.195   119949573.738                                                  
  22502232.445  
  20763315.484   109111981.567    20763324.898    85022377.2854   20763325.246  
                
  20732756.812   110633974.117                    86048650.113    20732760.016  
  20732754.832  
 21  8 16 15 33 40.0000000  0 17G 4G16R 1G26R17G 9G31G 1R18G 6G22R12
                                G 7R 8R10G 3R 2
  20436493.164   107394543.009    20436500.789    83684109.9774   20436500.633  
                
  23583233.070   123930739.947    23583240.406    96569446.1554                 
                
  19965909.062   106729257.342                    83011647.789    19965914.680  
  19965908.609  
  22917767.531   120433738.231    22917778.195    93844492.0124   22917778.016  
                
  21838212.656   116860691.846                    90891640.387    21838217.070  
  21838210.965  
  21959547.586   115398229.393    21959556.266    89920750.1484   21959556.156  
                
  24097050.789   126630897.443    24097057.973    98673486.1374   24097058.434  
                
  24263304.875   127504524.006    24263316.953    99354207.0734   24263316.566  
                
  22775793.352   121578735.789                    94561231.179    22775797.426  
  22775791.840  
  23026604.258   121005608.292    23026614.332    94290144.2254   23026614.652  
                
  22133321.008   116311406.697    22133326.449    90632292.8814                 
                
  21699714.883   115915999.098                    90156884.023    21699719.980  
  21699714.398  
  24330760.992   127859011.139    24330770.062    99630440.5634   24330769.840  
                
  23042577.812   123391957.427                    95971528.326    23042581.996  
  23042577.121  
  22508452.430   119982725.665                                                  
  22508451.688  
  20766405.406   109128219.176    20766414.828    85035029.9644   20766415.188  
                
  20728383.852   110610639.204                    86030500.746    20728387.070  
  20728381.883  
 21  8 16 15 33 50.0000000  0 17G 4G16R 1G26R17G 9G31G 1R18G 6G22R12
                                G 7R 8R10G 3R 2
  20435938.617   107391628.801    20435946.227    83681839.1664   20435946.094  
                
  23577875.805   123902587.419    23577883.184    96547509.1424                 
                
  19968056.484   106740736.490                    83020576.013    19968062.117  
  19968056.043  
  22916542.172   120427299.010    22916552.848    93839474.4514   22916552.656  
                
  21842082.148   116881398.192                    90907745.291    21842086.594  
  21842080.414  
  21955348.203   115376161.477    21955356.848    89903554.3764   21955356.754  
                
  24103820.680   126666473.503    24103827.914    98701207.7234   24103828.383  
                
  24270557.422   127542635.901    24270569.500    99383904.6194   24270569.105  
                
  22773396.273   121565939.948                    94551278.874    22773400.316  
  22773394.801  
  23023682.695   120990255.398    23023692.797    94278180.9464   23023693.117  
                
  22138209.047   116337093.472    22138214.484    90652308.5374                 
                
  21692061.469   115875115.877                    90125085.977    21692066.535  
  21692060.953  
  24324369.938   127825425.731    24324378.973    99604270.1404   24324378.742  
                
  23048076.977   123421404.958                    95994431.955    23048081.145  
  23048076.309  
  22514681.977   120015932.605                                                  
  22514681.238  
  20769504.586   109144505.408    20769514.031    85047720.5304   20769514.383  
                
  20724014.531   110587323.721                    86012366.484    20724017.734  
  20724012.566  
 21  8 16 15 34  0.0000000  0 17G 4G16R 1G26R17G 9G31G 1R18G 6G22R12
                                G 7R 8R10G 3R 2
  20435390.711   107388749.581    20435398.305    83679595.6214   20435398.184  
                
  23572524.914   123874468.490    23572532.316    96525598.2914                 
                
  19970211.180   106752254.548                    83029534.504    19970216.820  
  19970210.730  
  22915328.648   120420921.926    22915339.320    93834505.3004   22915339.133  
                
  21845965.383   116902178.225                    90923907.528    21845969.879  
  21845963.578  
  21951153.367   115354117.494    21951162.004    89886377.2434   21951161.902  
                
  24110594.055   126702067.864    24110601.348    98728943.5764   24110601.789  
                
  24277810.219   127580749.256    24277822.285    99413603.2984   24277821.883  
                
  22771014.953   121553228.357                    94541392.075    22771018.973  
  22771013.508  
  23020772.648   120974963.051    23020782.766    94266264.8374   23020783.055  
                
  22143103.781   116362815.475    22143109.164    90672351.6434                 
                
  21684414.828   115834269.208                    90093316.360    21684419.930  
  21684414.332  
  24317981.336   127791853.402    24317990.297    99578109.8974   24317990.086  
                
  23053579.438   123450870.316                    96017349.428    23053583.598  
  23053578.773  
  22520921.852   120049194.587                                                  
  22520921.094  
  20772613.055   109160840.508    20772622.531    85060449.1704   20772622.875  
                
  20719648.930   110564028.062                    85994247.643    20719652.125  
  20719646.930  
 21  8 16 15 34 10.0000000  0 17G 4G16R 1G26R17G 9G31G 1R18G 6G22R12
                                G 7R 8R10G 3R 2
  20434849.500   107385905.498    20434857.078    83677379.4534   20434856.969  
                
  23567180.461   123846383.349    23567187.828    96503713.7704                 
                
  19972373.203   106763811.769                    83038523.441    19972378.828  
  19972372.750  
  22914126.977   120414607.154    22914137.652    93829584.7134   22914137.461  
                
  21849862.398   116923032.011                    90940127.125    21849866.988  
  21849860.555  
  21946963.109   115332097.590    21946971.750    89869218.8834   21946971.652  
                
  24117370.945   126737680.552    24117378.270    98756693.7114   24117378.695  
                
  24285063.391   127618864.128    24285075.348    99443303.1724   24285074.941  
                
  22768649.484   121540601.361                    94531571.089    22768653.480  
  22768648.016  
  23017874.172   120959731.460    23017884.277    94254396.0764   23017884.586  
                
  22148005.234   116388572.762    22148010.570    90692422.2484                 
                
  21676775.156   115793459.488                    90061575.484    21676780.246  
  21676774.637  
  24311595.195   127758294.345    24311604.172    99551960.0104   24311603.969  
                
  23059085.219   123480353.399                    96040280.701    23059089.355  
  23059084.543  
  22527172.070   120082511.800                                                  
  22527171.340  
  20775730.867   109177224.628    20775740.363    85073216.0134   20775740.699  
                
  20715287.047   110540752.275                    85976144.278    20715290.250  
  20715285.043  
 21  8 16 15 34 20.0000000  0 17G 4G16R 1G26R17G 9G31G 1R18G 6G22R12
                                G 7R 8R10G 3R 2
  20434314.922   107383096.295    20434322.496    83675190.4664   20434322.395  
                
  23561842.375   123818331.904    23561849.758    96481855.5074                 
                
  19974542.523   106775407.980                    83047542.733    19974548.117  
  19974542.066  
  22912937.125   120408354.523    22912947.789    93824712.5494   22912947.605  
                
  21853773.109   116943959.073                    90956403.699    21853777.797  
  21853771.301  
  21942777.391   115310101.549    21942786.062    89852079.1314   21942785.957  
                
  24124151.250   126773311.239    24124158.594    98784457.8694   24124158.973  
                
  24292316.609   127656980.148    24292328.609    99473003.9454   24292328.195  
                
  22766299.781   121528058.507                    94521815.524    22766303.758  
  22766298.312  
  23014987.219   120944560.428    23014997.316    94242574.4884   23014997.625  
                
  22152913.352   116414365.120    22152918.676    90712520.1814                 
                
  21669142.367   115752686.542                    90029863.218    21669147.445  
  21669141.820  
  24305211.617   127724748.473    24305220.566    99525820.3964   24305220.348  
                
  23064594.328   123509854.153                    96063225.695    23064598.395  
  23064593.645  
  22533432.594   120115883.721                                                  
  22533431.895  
  20778857.945   109193657.503    20778867.473    85086020.8394   20778867.793  
                
  20710928.867   110517496.236                    85958056.245    20710932.059  
  20710926.859  
 21  8 16 15 34 30.0000000  0 17G 4G16R 1G26R17G 9G31G 1R18G 6G22R12
                                G 7R 8R10G 3R 2
  20433787.008   107380322.082    20433794.582    83673028.7424   20433794.480  
                
  23556510.734   123790314.368    23556518.203    96460023.6714                 
                
  19976719.141   106787043.295                    83056592.418    19976724.738  
  19976718.684  
  22911759.125   120402164.176    22911769.770    93819888.9164   22911769.602  
                
  21857697.547   116964959.468                    90972737.347    21857702.262  
  21857695.754  
  21938596.227   115288129.501    21938604.949    89834958.0644   21938604.809  
                
  24130934.977   126808959.936    24130942.320    98812236.0634   24130942.680  
                
  24299570.125   127695097.320    24299582.102    99502705.6134   24299581.695  
                
  22763965.898   121515600.061                    94512125.635    22763969.879  
  22763964.422  
  23012111.820   120929450.133    23012121.891    94230800.2404   23012122.195  
                
  22157828.156   116440192.620    22157833.488    90732645.5014                 
                
  21661516.547   115711950.474                    89998179.630    21661521.582  
  21661515.977  
  24298830.562   127691215.908    24298839.488    99499691.1384   24298839.273  
                
  23070106.656   123539372.304                    96086184.271    23070110.664  
  23070105.938  
  22539703.391   120149310.595                                                  
  22539702.645  
  20781994.320   109210139.224    20782003.895    85098863.7314   20782004.191  
                
  20706574.438   110494260.209                    85939983.792    20706577.637  
  20706572.445  
 21  8 16 15 34 40.0000000  0 17G 4G16R 1G26R17G 9G31G 1R18G 6G22R12
                                G 7R 8R10G 3R 2
  20433265.719   107377582.693    20433273.297    83670894.1584   20433273.195  
                
  23551185.594   123762330.694    23551193.145    96438218.2274                 
                
  19978903.039   106798717.480                    83065672.330    19978908.637  
  19978902.555  
  22910592.969   120396036.020    22910603.613    93815113.7314   22910603.457  
                
  21861635.625   116986032.885                    90989127.758    21861640.363  
  21861633.844  
  21934419.625   115266181.339    21934428.367    89817855.6124   21934428.207  
                
  24137722.062   126844626.391    24137729.371    98840028.1074   24137729.742  
                
  24306823.828   127733215.428    24306835.766    99532408.0154   24306835.371  
                
  22761647.859   121503226.094                    94502501.429    22761651.809  
  22761646.391  
  23009247.977   120914400.470    23009258.000    94219073.2344   23009258.320  
                
  22162749.609   116466055.007    22162754.969    90752798.0074                 
                
  21653897.648   115671251.585                    89966524.939    21653902.637  
  21653897.102  
  24292452.070   127657696.574    24292460.930    99473572.2014   24292460.750  
                
  23075622.188   123568908.060                    96109156.520    23075626.238  
  23075621.457  
  22545984.375   120182791.961                                                  
  22545983.555  
  20785139.961   109226669.627    20785149.570    85111744.5504   20785149.844  
                
  20702223.742   110471044.030                    85921926.781    20702226.930  
  20702221.734  
 21  8 16 15 34 50.0000000  0 17G 4G16R 1G26R17G 9G31G 1R18G 6G22R12
                                G 7R 8R10G 3R 2
  20432751.070   107374878.186    20432758.656    83668786.7514   20432758.547  
                
  23545866.922   123734380.995    23545874.512    96416439.2494                 
                
  19981094.250   106810430.788                    83074782.676    19981099.855  
  19981093.770  
  22909438.648   120389970.137    22909449.293    93810387.0994   22909449.129  
                
  21865587.328   117007179.281                    91005574.936    21865592.113  
  21865585.523  
  21930247.578   115244257.106    21930256.309    89800771.8074   21930256.152  
                
  24144512.547   126880310.628    24144519.789    98867834.0034   24144520.164  
                
  24314077.680   127771334.411    24314089.621    99562111.1004   24314089.246  
                
  22759345.648   121490936.756                    94492943.059    22759349.613  
  22759344.176  
  23006395.688   120899411.573    23006405.672    94207393.5814   23006406.016  
                
  22167677.711   116491952.364    22167683.109    90772977.7394                 
                
  21646285.734   115630589.896                    89934899.191    21646290.648  
  21646285.168  
  24286076.109   127624190.612    24286084.918    99447463.6814   24286084.773  
                
  23081141.062   123598461.380                    96132142.396    23081145.121  
  23081140.297  
  22552275.523   120216327.505                                                  
  22552274.590  
  20788294.867   109243248.738    20788304.504    85124663.3304   20788304.766  
                
  20697876.680   110447847.298                    85903884.887    20697879.859  
  20697874.664  
 21  8 16 15 35  0.0000000  0 17G 4G16R 1G26R17G 9G31G 1R18G 6G22R12
                                G 7R 8R10G 3R 2
  20432243.078   107372208.647    20432250.676    83666706.6024   20432250.562  
                
  23540554.734   123706465.681    23540562.414    96394687.0494                 
                
  19983292.789   106822183.223                    83083923.453    19983298.410  
  19983292.277  
  22908296.227   120383966.697    22908306.844    93805709.1094   22908306.707  
                
  21869552.680   117028398.694                    91022078.903    21869557.516  
  21869550.832  
  21926080.109   115222356.946    21926088.816    89783706.7454   21926088.680  
                
  24151306.445   126916012.672    24151313.633    98895653.7964   24151313.996  
                
  24321331.680   127809454.279    24321343.660    99591814.8614   24321343.285  
                
  22757059.266   121478731.860                    94483450.383    22757063.262  
  22757057.801  
  23003555.000   120884483.594    23003564.984    94195761.3974   23003565.316  
                
  22172612.477   116517884.727    22172617.875    90793184.7674                 
                
  21638680.828   115589965.800                    89903302.701    21638685.707  
  21638680.246  
  24279702.750   127590698.184    24279711.457    99421365.7014   24279711.363  
                
  23086663.172   123628032.299                    96155141.986    23086667.312  
  23086662.453  
  22558576.922   120249917.553                                                  
  22558575.902  
  20791459.062   109259876.662    20791468.738    85137620.1454   20791469.000  
                
  20693533.469   110424671.030                    85885858.898    20693536.641  
  20693531.441  
 21  8 16 15 35 10.0000000  0 17G 4G16R 1G26R17G 9G31G 1R18G 6G22R12
                                G 7R 8R10G 3R 2
  20431741.727   107369574.008    20431749.336    83664653.6364   20431749.219  
                
  23535249.078   123678584.727    23535256.863    96372961.6554                 
                
  19985498.617   106833974.684                    83093094.593    19985504.246  
  19985498.086  
  22907165.672   120378025.666    22907176.266    93801079.7474   22907176.156  
                
  21873531.617   117049690.797                    91038639.428    21873536.508  
  21873529.793  
  21921917.211   115200480.784    21921925.906    89766660.3924   21921925.777  
                
  24158103.695   126951732.271    24158110.828    98923487.2594   24158111.180  
                
  24328585.781   127847574.846    24328597.836    99621519.1724   24328597.457  
                
  22754788.766   121466611.792                    94474023.695    22754792.758  
  22754787.293  
  23000725.906   120869616.546    23000735.906    94184176.6824   23000736.211  
                
  22177553.883   116543851.977    22177559.297    90813418.9954                 
                
  21631082.844   115549379.200                    89871735.359    21631087.805  
  21631082.344  
  24273331.922   127557219.212    24273340.551    99395278.2004   24273340.480  
                
  23092188.609   123657620.769                    96178155.216    23092192.750  
  23092187.887  
  22564888.406   120283561.470                                                  
  22564887.355  
  20794632.539   109276553.309    20794642.254    85150614.9234   20794642.496  
                
  20689194.023   110401514.943                    85867848.621    20689197.195  
  20689192.008  
 21  8 16 15 35 20.0000000  0 17G 4G16R 1G26R17G 9G31G 1R18G 6G22R12
                                G 7R 8R10G 3R 2
  20431247.023   107366974.329    20431254.641    83662627.9184   20431254.520  
                
  23529950.016   123650738.350    23529957.914    96351263.2064                 
                
  19987711.781   106845805.301                    83102296.178    19987717.406  
  19987711.242  
  22906047.016   120372147.146    22906057.621    93796499.1164   22906057.492  
                
  21877524.141   117071055.528                    91055256.426    21877529.031  
  21877522.324  
  21917758.906   115178628.750    21917767.621    89749632.8404   21917767.477  
                
  24164904.289   126987469.505    24164911.391    98951334.4594   24164911.723  
                
  24335839.961   127885696.110    24335852.148    99651224.0254   24335851.754  
                
  22752534.125   121454576.369                    94464662.779    22752538.133  
  22752532.641  
  22997908.414   120854810.516    22997918.406    94172639.5244   22997918.680  
                
  22182501.961   116569854.273    22182507.398    90833680.5094                 
                
  21623492.000   115508830.543                    89840197.524    21623497.004  
  21623491.535  
  24266963.688   127523753.836    24266972.289    99369201.3144   24266972.199  
                
  23097717.367   123687226.883                    96201182.168    23097721.531  
  23097716.645  
  22571210.078   120317259.609                                                  
  22571209.035  
  20797815.281   109293278.725    20797825.023    85163647.7144   20797825.246  
                
  20684858.320   110378378.807                    85849853.844    20684861.473  
  20684856.320  
 21  8 16 15 35 30.0000000  0 17G 4G16R 1G26R17G 9G31G 1R18G 6G22R12
                                G 7R 8R10G 3R 2
  20430758.977   107364409.631    20430766.605    83660629.4584   20430766.465  
                
  23524657.523   123622926.713    23524665.566    96329591.8114                 
                
  19989932.289   106857675.244                    83111528.345    19989937.895  
  19989931.727  
  22904940.273   120366331.255    22904950.895    93791967.2594   22904950.723  
                
  21881530.219   117092492.803                    91071929.837    21881535.098  
  21881528.438  
  21913605.188   115156800.865    21913613.930    89732624.1034   21913613.777  
                
  24171708.219   127023224.226    24171715.289    98979195.2844   24171715.613  
                
  24343094.188   127923818.000    24343106.570    99680929.3384   24343106.160  
                
  22750295.398   121442625.882                    94455367.952    22750299.391  
  22750293.902  
  22995102.547   120840065.591    22995112.516    94161149.9834   22995112.809  
                
  22187456.688   116595891.532    22187462.148    90853969.2614                 
                
  21615908.305   115468319.776                    89808689.167    21615913.312  
  21615907.816  
  24260598.039   127490302.169    24260606.617    99343135.0894   24260606.508  
                
  23103249.406   123716850.463                    96224222.716    23103253.570  
  23103248.668  
  22577541.820   120351011.422                                                  
  22577540.730  
  20801007.312   109310052.925    20801017.086    85176718.5054   20801017.305  
                
  20680526.398   110355262.857                    85831874.789    20680529.574  
  20680524.418  
 21  8 16 15 35 40.0000000  0 17G 4G16R 1G26R17G 9G31G 1R18G 6G22R12
                                G 7R 8R10G 3R 2
  20430277.531   107361879.630    20430285.180    83658658.0294   20430285.020  
                
  23519371.672   123595149.595    23519379.793    96307947.3054                 
                
  19992160.055   106869583.991                    83120790.705    19992165.652  
  19992159.461  
  22903845.406   120360577.749    22903856.008    93787484.0114   22903855.840  
                
  21885549.797   117114002.339                    91088659.483    21885554.668  
  21885548.043  
  21909456.008   115134996.854    21909464.781    89715633.9744   21909464.629  
                
  24178515.398   127058996.049    24178522.422    99007069.4424   24178522.754  
                
  24350348.516   127961940.132    24350361.016    99710634.8434   24350360.605  
                
  22748072.547   121430760.063                    94446138.991    22748076.559  
  22748071.066  
  22992308.273   120825381.600    22992318.195    94149707.9134   22992318.520  
                
  22192417.984   116621963.357    22192423.445    90874284.9524                 
                
  21608331.680   115427846.945                    89777210.330    21608336.691  
  21608331.184  
  24254234.891   127456864.100    24254243.535    99317079.4664   24254243.391  
                
  23108784.672   123746491.441                    96247276.782    23108788.879  
  23108783.906  
  22583883.648   120384816.983                                                  
  22583882.531  
  20804208.570   109326875.591    20804218.371    85189827.0704   20804218.574  
                
  20676198.211   110332166.869                    85813911.235    20676201.383  
  20676196.219  
 21  8 16 15 35 50.0000000  0 17G 4G16R 1G26R17G 9G31G 1R18G 6G22R12
                                G 7R 8R10G 3R 2
  20429802.750   107359384.618    20429810.422    83656713.8654   20429810.246  
                
  23514092.477   123567407.381    23514100.652    96286330.0194                 
                
  19994395.180   106881532.044                    83130083.630    19994400.797  
  19994394.562  
  22902762.477   120354886.962    22902773.016    93783049.6404   22902772.891  
                
  21889582.859   117135584.191                    91105445.341    21889587.754  
  21889581.074  
  21905311.445   115113217.081    21905320.273    89698662.7424   21905320.105  
                
  24185325.875   127094785.240    24185332.867    99034957.1244   24185333.203  
                
  24357602.969   128000062.720    24357615.523    99740340.7274   24357615.105  
                
  22745865.617   121418979.246                    94436976.115    22745869.609  
  22745864.172  
  22989525.672   120810758.878    22989535.559    94138313.5854   22989535.898  
                
  22197385.938   116648070.022    22197391.383    90894627.8114                 
                
  21600762.273   115387412.584                    89745761.398    21600767.262  
  21600761.789  
  24247874.391   127423439.868    24247883.078    99291034.6294   24247882.918  
                
  23114323.266   123776150.128                    96270344.628    23114327.480  
  23114322.496  
  22590235.562   120418676.222                                                  
  22590234.465  
  20807419.109   109343747.070    20807428.934    85202973.6754   20807429.117  
                
  20671873.852   110309091.333                    85795963.615    20671877.035  
  20671871.852  
 21  8 16 15 36  0.0000000  0 17G 4G16R 1G26R17G 9G31G 1R18G 6G22R12
                                G 7R 8R10G 3R 2
  20429334.586   107356924.373    20429342.270    83654796.7864   20429342.078  
                
  23508819.953   123539700.203    23508828.215    96264740.0344                 
                
  19996637.602   106893519.083                    83139406.872    19996643.215  
  19996636.965  
  22901691.438   120349258.717    22901701.949    93778664.0014   22901701.844  
                
  21893629.383   117157238.030                    91122287.192    21893634.266  
  21893627.535  
  21901171.453   115091461.315    21901180.324    89681710.2094   21901180.137  
                
  24192139.594   127130591.507    24192146.582    99062858.0994   24192146.922  
                
  24364857.477   128038185.409    24364870.023    99770046.6904   24364869.613  
                
  22743674.531   121407283.065                    94427879.139    22743678.551  
  22743673.074  
  22986754.688   120796197.244    22986764.578    94126966.8684   22986764.895  
                
  22202360.477   116674211.337    22202365.898    90914997.6554                 
                
  21593200.047   115347016.497                    89714342.213    21593204.992  
  21593199.566  
  24241516.555   127390029.401    24241525.270    99265000.5214   24241525.105  
                
  23119865.102   123805826.223                    96293426.013    23119869.336  
  23119864.352  
  22596597.461   120452588.685                                                  
  22596596.367  
  20810638.883   109360667.088    20810648.727    85216158.0894   20810648.906  
                
  20667553.289   110286036.046                    85778031.736    20667556.484  
  20667551.273  
 21  8 16 15 36 10.0000000  0 17G 4G16R 1G26R17G 9G31G 1R18G 6G22R12
                                G 7R 8R10G 3R 2
  20428873.047   107354498.952    20428880.750    83652906.8454   20428880.539  
                
  23503554.109   123512028.121    23503562.453    96243177.4094                 
                
  19998887.352   106905545.295                    83148760.596    19998892.949  
  19998886.715  
  22900632.328   120343693.114    22900642.863    93774327.1904   22900642.750  
                
  21897689.367   117178963.767                    91139185.006    21897694.230  
  21897687.555  
  21897036.047   115069729.653    21897044.930    89664776.4614   21897044.742  
                
  24198956.523   127166414.733    24198963.555    99090772.2894   24198963.871  
                
  24372112.062   128076308.177    24372124.512    99799752.7224   24372124.121  
                
  22741499.367   121395671.964                    94418848.268    22741503.398  
  22741497.879  
  22983995.352   120781696.822    22984005.242    94115667.8434   22984005.539  
                
  22207341.602   116700387.241    22207347.035    90935394.4494                 
                
  21585645.055   115306658.858                    89682952.940    21585649.953  
  21585644.551  
  24235161.352   127356632.772    24235170.094    99238977.2004   24235169.914  
                
  23125410.195   123835519.745                    96316520.965    23125414.391  
  23125409.426  
  22602969.352   120486554.399                                                  
  22602968.230  
  20813867.906   109377635.662    20813877.758    85229380.3604   20813877.953  
                
  20663236.539   110263001.071                    85760115.671    20663239.738  
  20663234.520  
 21  8 16 15 36 20.0000000  0 17G 4G16R 1G26R17G 9G31G 1R18G 6G22R12
                                G 7R 8R10G 3R 2
  20428418.094   107352108.195    20428425.812    83651043.9204   20428425.594  
                
  23498294.930   123484391.143    23498303.289    96221642.1164                 
                
  20001144.398   106917610.492                    83158144.627    20001149.992  
  20001143.766  
  22899585.125   120338190.069    22899595.684    93770039.1134   22899595.559  
                
  21901762.766   117200761.221                    91156138.559    21901767.602  
  21901760.984  
  21892905.211   115048021.947    21892914.074    89647861.3684   21892913.914  
                
  24205776.680   127202254.755    24205783.738    99118699.5814   24205784.039  
                
  24379366.594   128114430.779    24379378.977    99829458.6234   24379378.605  
                
  22739340.125   121384145.802                    94409883.482    22739344.203  
  22739338.621  
  22981247.648   120767257.534    22981257.527    94104416.4584   22981257.801  
                
  22212329.281   116726597.621    22212334.723    90955818.1044                 
                
  21578097.242   115266339.818                    89651593.695    21578102.164  
  21578096.758  
  24228808.836   127323250.149    24228817.602    99212964.7864   24228817.406  
                
  23130958.531   123865230.695                    96339629.486    23130962.730  
  23130957.746  
  22609351.117   120520572.861                                                  
  22609349.980  
  20817106.133   109394652.652    20817115.992    85242640.3424   20817116.188  
                
  20658923.625   110239986.531                    85742215.471    20658926.816  
  20658921.602  
 21  8 16 15 36 30.0000000  0 17G 4G16R 1G26R17G 9G31G 1R18G 6G22R12
                                G 7R 8R10G 3R 2
  20427969.789   107349752.307    20427977.504    83649208.1644   20427977.277  
                
  23493042.555   123456789.579    23493050.855    96200134.4054                 
                
  20003408.750   106929714.757                    83167559.069    20003414.355  
  20003408.137  
  22898549.859   120332749.823    22898560.441    93765799.9714   22898560.277  
                
  21905849.562   117222630.291                    91173147.786    21905854.355  
  21905847.824  
  21888778.977   115026338.453    21888787.812    89630965.1424   21888787.664  
                
  24212600.055   127238111.635    24212607.109    99146640.0184   24212607.387  
                
  24386621.141   128152553.338    24386633.430    99859164.4764   24386633.078  
                
  22737196.789   121372704.608                    94400984.748    22737200.875  
  22737195.305  
  22978511.625   120752879.633    22978521.492    94093212.9044   22978521.734  
                
  22217323.547   116752842.595    22217328.988    90976268.7284                 
                
  21570556.742   115226059.628                    89620264.683    21570561.660  
  21570556.219  
  24222458.953   127289881.454    24222467.785    99186963.2384   24222467.562  
                
  23136510.070   123894958.807                    96362751.320    23136514.289  
  23136509.250  
  22615742.820   120554644.230                                                  
  22615741.695  
  20820353.602   109411718.248    20820363.453    85255938.1904   20820363.648  
                
  20654614.477   110216992.165                    85724330.971    20654617.680  
  20654612.445  
 21  8 16 15 36 40.0000000  0 17G 4G16R 1G26R17G 9G31G 1R18G 6G22R12
                                G 7R 8R10G 3R 2
  20427528.109   107347431.278    20427535.820    83647399.5664   20427535.590  
                
  23487796.938   123429223.470    23487805.121    96178654.3154                 
                
  20005680.492   106941858.517                    83177004.200    20005686.102  
  20005679.883  
  22897526.562   120327372.388    22897537.152    93761609.7824   22897536.965  
                
  21909949.766   117244570.950                    91190212.730    21909954.539  
  21909948.055  
  21884657.344   115004679.141    21884666.164    89614087.7654   21884666.008  
                
  24219426.617   127273985.288    24219433.688    99174593.5084   24219433.957  
                
  24393875.641   128190675.721    24393887.859    99888870.2074   24393887.508  
                
  22735069.438   121361348.658                    94392152.312    22735073.516  
  22735067.957  
  22975787.305   120738563.172    22975797.141    94082057.2214   22975797.391  
                
  22222324.383   116779122.075    22222329.812    90996746.2394                 
                
  21563023.555   115185818.485                    89588966.043    21563028.453  
  21563022.984  
  24216111.750   127256526.788    24216120.613    99160972.6064   24216120.387  
                
  23142064.859   123924704.604                    96385886.922    23142069.129  
  23142064.016  
  22622144.445   120588768.516                                                  
  22622143.328  
  20823610.320   109428832.411    20823620.164    85269273.8854   20823620.375  
                
  20650309.156   110194018.172                    85706462.315    20650312.371  
  20650307.117  
 21  8 16 15 36 50.0000000  0 17G 4G16R 1G26R17G 9G31G 1R18G 6G22R12
                                G 7R 8R10G 3R 2
  20427093.062   107345145.084    20427100.762    83645618.1274   20427100.539  
                
  23482558.062   123401692.977    23482566.176    96157201.9984                 
                
  20007959.555   106954041.396                    83186479.769    20007965.164  
  20007958.949  
  22896515.227   120322057.853    22896525.805    93757468.5864   22896525.625  
                
  21914063.273   117266582.953                    91207333.191    21914068.016  
  21914061.582  
  21880540.328   114983044.090    21880549.148    89597229.2864   21880548.980  
                
  24226256.328   127309875.648    24226263.414    99202560.0014   24226263.680  
                
  24401130.016   128228797.835    24401142.254    99918575.7154   24401141.898  
                
  22732958.055   121350077.884                    94383386.188    22732962.152  
  22732956.602  
  22973074.672   120724308.224    22973084.453    94070949.4614   22973084.719  
                
  22227331.781   116805436.074    22227337.180    91017250.6364                 
                
  21555497.633   115145616.504                    89557697.863    21555502.543  
  21555497.062  
  24209767.211   127223186.273    24209776.117    99134993.0084   24209775.902  
                
  23147622.836   123954467.710                    96409036.001    23147627.203  
  23147622.020  
  22628555.969   120622945.467                                                  
  22628554.844  
  20826876.281   109445995.116    20826886.117    85282647.4154   20826886.344  
                
  20646007.688   110171064.804                    85688609.707    20646010.898  
  20646005.672  
 21  8 16 15 37  0.0000000  0 17G 4G16R 1G26R17G 9G31G 1R18G 6G22R12
                                G 7R 8R10G 3R 2
  20426664.633   107342893.638    20426672.309    83643863.7504   20426672.094  
                
  23477326.016   123374198.310    23477334.062    96135777.5984                 
                
  20010245.945   106966263.414                    83195985.779    20010251.570  
  20010245.344  
  22895515.852   120316806.137    22895526.391    93753376.3374   22895526.223  
                
  21918190.070   117288666.206                    91224509.048    21918194.770  
  21918188.375  
  21876427.914   114961433.156    21876436.750    89580389.6104   21876436.551  
                
  24233089.188   127345782.471    24233096.250    99230539.3614   24233096.512  
                
  24408384.359   128266919.496    24408396.574    99948280.8744   24408396.211  
                
  22730862.602   121338892.238                    94374686.273    22730866.695  
  22730861.141  
  22970373.734   120710114.694    22970383.465    94059889.5764   22970383.758  
                
  22232345.727   116831784.434    22232351.105    91037781.8064                 
                
  21547979.031   115105453.820                    89526460.233    21547983.988  
  21547978.500  
  24203425.461   127189859.869    24203434.312    99109024.3964   24203434.098  
                
  23153184.156   123984248.326                    96432198.688    23153188.531  
  23153183.348  
  22634977.312   120657174.821                                                  
  22634976.215  
  20830151.461   109463206.287    20830161.277    85296058.7154   20830161.508  
                
  20641710.078   110148131.943                    85670773.044    20641713.285  
  20641708.062  
 21  8 16 15 37 10.0000000  0 17G 4G16R 1G26R17G 9G31G 1R18G 6G22R12
                                G 7R 8R10G 3R 2
  20426242.805   107340676.942    20426250.461    83642136.4544   20426250.250  
                
  23472100.758   123346739.588    23472108.805    96114381.2084                 
                
  20012539.641   106978524.551                    83205522.203    20012545.281  
  20012539.039  
  22894528.430   120311617.302    22894538.930    93749333.1064   22894538.773  
                
  21922330.156   117310820.509                    91241740.177    21922334.781  
  21922328.441  
  21872320.070   114939846.419    21872328.930    89563568.7784   21872328.699  
                
  24239925.141   127381705.721    24239932.207    99258531.5054   24239932.461  
                
  24415638.656   128305040.594    24415650.797    99977985.6094   24415650.422  
                
  22728783.094   121327791.752                    94366052.567    22728787.141  
  22728781.609  
  22967684.508   120695982.717    22967694.223    94048877.6364   22967694.520  
                
  22237366.203   116858167.117    22237371.582    91058339.7304                 
                
  21540467.820   115065330.605                    89495253.298    21540472.789  
  21540467.320  
  24197086.359   127156547.706    24197095.223    99083066.8814   24197095.008  
                
  23158748.727   124014046.281                    96455374.837    23158753.102  
  23158747.938  
  22641408.445   120691456.404                                                  
  22641407.395  
  20833435.844   109480465.897    20833445.629    85309507.7564   20833445.875  
                
  20637416.359   110125219.863                    85652952.534    20637419.559  
  20637414.340  
 21  8 16 15 37 20.0000000  0 17G 4G16R 1G26R17G 9G31G 1R18G 6G22R12
                                G 7R 8R10G 3R 2
  20425827.633   107338495.186    20425835.266    83640436.3884   20425835.082  
                
  23466882.422   123319317.037    23466890.461    96093012.9954                 
                
  20014840.727   106990825.080                    83215089.288    20014846.379  
  20014840.145  
  22893553.047   120306491.597    22893563.500    93745339.0674   22893563.395  
                
  21926483.539   117333045.972                    91259026.652    21926488.105  
  21926481.820  
  21868216.906   114918284.076    21868225.781    89546766.9654   21868225.527  
                
  24246764.273   127417645.496    24246771.387    99286536.5274   24246771.633  
                
  24422892.844   128343161.262    24422904.945   100007690.0074   24422904.574  
                
  22726719.641   121316776.944                    94357485.498    22726723.707  
  22726718.137  
  22965007.031   120681912.515    22965016.762    94037913.8424   22965017.035  
                
  22242393.266   116884584.309    22242398.613    91078924.5524                 
                
  21532964.086   115025247.163                    89464077.299    21532969.062  
  21532963.590  
  24190749.938   127123250.014    24190758.887    99057120.6534   24190758.680  
                
  23164316.578   124043861.617                    96478564.523    23164320.938  
  23164315.793  
  22647849.445   120725790.457                                                  
  22647848.395  
  20836729.508   109497774.124    20836739.250    85322994.6794   20836739.520  
                
  20633126.492   110102328.308                    85635147.997    20633129.688  
  20633124.449  
 21  8 16 15 37 30.0000000  0 17G 4G16R 1G26R17G 9G31G 1R18G 6G22R12
                                G 7R 8R10G 3R 2
  20425419.070   107336348.187    20425426.688    83638763.4074   20425426.520  
                
  23461670.977   123291930.587    23461678.984    96071672.9164                 
                
  20017149.148   107003164.886                    83224686.917    20017154.797  
  20017148.566  
  22892589.641   120301428.900    22892600.039    93741394.0974   22892599.949  
                
  21930650.164   117355342.335                    91276368.246    21930654.664  
  21930648.496  
  21864118.336   114896745.976    21864127.223    89529984.0414   21864126.973  
                
  24253606.484   127453601.535    24253613.656    99314554.2154   24253613.883  
                
  24430146.883   128381281.198    24430158.945   100037393.8314   24430158.582  
                
  22724672.172   121305847.428                    94348984.733    22724676.230  
  22724670.684  
  22962341.289   120667903.945    22962351.035    94026998.0734   22962351.277  
                
  22247426.859   116911035.869    22247432.145    91099536.1464                 
                
  21525467.805   114985203.465                    89432932.232    21525472.789  
  21525467.281  
  24184416.258   127089966.696    24184425.277    99031185.6284   24184425.078  
                
  23169887.703   124073694.512                    96501767.894    23169892.051  
  23169886.934  
  22654300.148   120760176.281                                                  
  22654299.062  
  20840032.367   109515130.752    20840042.062    85336519.3214   20840042.355  
                
  20628840.570   110079457.871                    85617359.884    20628843.773  
  20628838.508  
 21  8 16 15 37 40.0000000  0 17G 4G16R 1G26R17G 9G31G 1R18G 6G22R12
                                G 7R 8R10G 3R 2
  20425017.117   107334235.916    20425024.719    83637117.4874   20425024.555  
                
  23456466.422   123264580.426    23456474.387    96050361.1224                 
                
  20019464.875   107015543.803                    83234314.951    20019470.520  
  20019464.305  
  22891638.203   120296429.196    22891648.582    93737498.2534   22891648.523  
                
  21934830.000   117377709.357                    91293764.806    21934834.441  
  21934828.312  
  21860024.375   114875232.120    21860033.258    89513220.0114   21860033.004  
                
  24260451.758   127489573.724    24260458.992    99342584.4814   24260459.176  
                
  24437400.695   128419400.331    24437412.758   100067097.0204   24437412.441  
                
  22722640.672   121295003.238                    94340550.373    22722644.754  
  22722639.219  
  22959687.273   120653957.082    22959697.051    94016130.4004   22959697.266  
                
  22252466.953   116937521.668    22252472.195    91120174.4184                 
                
  21517978.992   114945199.697                    89401818.206    21517983.980  
  21517978.473  
  24178085.359   127056697.742    24178094.402    99005261.8004   24178094.215  
                
  23175462.000   124103544.757                    96524984.737    23175466.379  
  23175461.242  
  22660760.609   120794614.215                                                  
  22660759.535  
  20843344.438   109532535.757    20843354.074    85350081.6574   20843354.402  
                
  20624558.531   110056608.165                    85599587.911    20624561.750  
  20624556.453  
 21  8 16 15 37 50.0000000  0 17G 4G16R 1G26R17G 9G31G 1R18G 6G22R12
                                G 7R 8R10G 3R 2
  20424621.789   107332158.450    20424629.375    83635498.6824   20424629.215  
                
  23451268.750   123237266.686    23451276.703    96029077.6774                 
                
  20021787.969   107027962.020                    83243973.567    20021793.625  
  20021787.422  
  22890698.789   120291492.632    22890709.211    93733651.5894   22890709.133  
                
  21939023.016   117400146.992                    91311216.289    21939027.406  
  21939021.277  
  21855935.062   114853742.601    21855943.910    89496474.9304   21855943.664  
                
  24267300.102   127525561.927    24267307.367    99370627.2494   24267307.535  
                
  24444654.328   128457518.581    24444666.438   100096799.5164   24444666.145  
                
  22720625.211   121284244.584                    94332182.551    22720629.289  
  22720623.758  
  22957045.039   120640072.035    22957054.840    94005310.8834   22957055.035  
                
  22257513.578   116964041.737    22257518.801    91140839.3914                 
                
  21510497.688   114905236.038                    89370735.365    21510502.688  
  21510497.164  
  24171757.273   127023443.312    24171766.305    98979349.2864   24171766.125  
                
  23181039.547   124133412.341                    96548215.054    23181043.926  
  23181038.773  
  22667230.734   120829103.636                                                  
  22667229.699  
  20846665.727   109549989.204    20846675.320    85363681.7384   20846675.676  
                
  20620280.352   110033779.008                    85581831.905    20620283.566  
  20620278.258  
 21  8 16 15 38  0.0000000  0 17G 4G16R 1G26R17G 9G31G 1R18G 6G22R12
                                G 7R 8R10G 3R 2
  20424233.055   107330115.680    20424240.641    83633906.9164   20424240.473  
                
  23446078.008   123209989.394    23446085.945    96007822.6634                 
                
  20024118.383   107040419.390                    83253662.637    20024124.027  
  20024117.836  
  22889771.383   120286619.145    22889781.848    93729854.0794   22889781.715  
                
  21943229.164   117422654.932                    91328722.458    21943233.520  
  21943227.398  
  21851850.344   114832277.332    21851859.172    89479748.7474   21851858.957  
                
  24274151.469   127561566.087    24274158.750    99398682.4324   24274158.914  
                
  24451907.820   128495635.767    24451919.938   100126501.1784   24451919.660  
                
  22718625.758   121273571.406                    94323881.178    22718629.820  
  22718624.297  
  22954414.547   120626248.766    22954424.398    93994539.5114   22954424.555  
                
  22262566.688   116990595.882    22262571.895    91161530.9194                 
                
  21503023.891   114865312.534                    89339683.772    21503028.914  
  21503023.371  
  24165432.016   126990203.443    24165440.953    98953448.1084   24165440.770  
                
  23186620.344   124163297.232                    96571458.859    23186624.715  
  23186619.523  
  22673710.539   120863644.794                                                  
  22673709.496  
  20849996.211   109567490.965    20850005.773    85377319.4714   20850006.137  
                
  20616006.133   110010970.980                    85564092.342    20616009.348  
  20616004.047  
 21  8 16 15 38 10.0000000  0 17G 4G16R 1G26R17G 9G31G 1R18G 6G22R12
                                G 7R 8R10G 3R 2
  20423850.938   107328107.618    20423858.516    83632342.1974   20423858.344  
                
  23440894.234   123182748.728    23440902.180    95986596.1924                 
                
  20026456.156   107052916.056                    83263382.252    20026461.781  
  20026455.625  
  22888856.000   120281808.809    22888866.492    93726105.7724   22888866.355  
                
  21947448.453   117445233.207                    91346283.312    21947452.816  
  21947446.672  
  21847770.258   114810836.367    21847779.086    89463041.5104   21847778.859  
                
  24281005.867   127597586.196    24281013.184    99426750.0474   24281013.352  
                
  24459161.078   128533751.846    24459173.254   100156201.9664   24459172.961  
                
  22716642.344   121262983.765                    94315646.334    22716646.363  
  22716640.855  
  22951795.828   120612487.349    22951805.715    93983816.3144   22951805.863  
                
  22267626.281   117017184.052    22267631.465    91182248.9664                 
                
  21495557.680   114825429.494                    89308663.635    21495562.691  
  21495557.176  
  24159109.500   126956978.123    24159118.344    98927558.2544   24159118.164  
                
  23192204.328   124193199.347                    96594716.055    23192208.754  
  23192203.504  
  22680200.008   120898237.322                                                  
  22680198.965  
  20853335.891   109585041.036    20853345.418    85390994.8394   20853345.781  
                
  20611735.781   109988183.520                    85546368.758    20611738.988  
  20611733.719  
 21  8 16 15 38 20.0000000  0 17G 4G16R 1G26R17G 9G31G 1R18G 6G22R12
                                G 7R 8R10G 3R 2
  20423475.430   107326134.338    20423483.004    83630804.5774   20423482.832  
                
  23435717.500   123155544.899    23435725.461    95965398.4234                 
                
  20028801.289   107065452.115                    83273132.501    20028806.906  
  20028800.758  
  22887952.648   120277061.726    22887963.152    93722406.7594   22887963.031  
                
  21951680.836   117467881.648                    91363898.745    21951685.246  
  21951679.059  
  21843694.812   114789419.802    21843703.664    89446353.2804   21843703.434  
                
  24287863.266   127633622.194    24287870.645    99454830.0354   24287870.816  
                
  24466414.156   128571866.758    24466426.340   100185901.8484   24466426.031  
                
  22714674.953   121252481.784                    94307478.138    22714678.973  
  22714673.461  
  22949188.898   120598787.929    22949198.812    93973141.4404   22949198.938  
                
  22272692.352   117043806.395    22272697.539    91202993.6354                 
                
  21488099.094   114785586.970                    89277675.012    21488104.062  
  21488098.574  
  24152789.664   126923767.504    24152798.535    98901679.8694   24152798.348  
                
  23197791.578   124223118.906                    96617986.798    23197796.047  
  23197790.730  
  22686699.078   120932881.053                                                  
  22686698.004  
  20856684.773   109602639.483    20856694.273    85404707.9064   20856694.641  
                
  20607469.398   109965417.313                    85528661.716    20607472.590  
  20607467.359  
 21  8 16 15 38 30.0000000  0 17G 4G16R 1G26R17G 9G31G 1R18G 6G22R12
                                G 7R 8R10G 3R 2
  20423106.547   107324195.861    20423114.113    83629294.0874   20423113.953  
                
  23430547.781   123128377.999    23430555.766    95944229.4364                 
                
  20031153.781   107078027.440                    83282913.324    20031159.406  
  20031153.258  
  22887061.344   120272377.984    22887071.832    93718757.1114   22887071.727  
                
  21955926.352   117490600.168                    91381568.694    21955930.762  
  21955924.582  
  21839624.016   114768027.682    21839632.891    89429684.1184   21839632.660  
                
  24294723.672   127669674.002    24294731.113    99482922.3264   24294731.281  
                
  24473667.016   128609980.492    24473679.219   100215600.8294   24473678.883  
                
  22712723.625   121242065.506                    94299376.598    22712727.641  
  22712722.121  
  22946593.797   120585150.562    22946603.707    93962514.9274   22946603.832  
                
  22277764.945   117070462.975    22277770.152    91223764.9794                 
                
  21480648.164   114745785.208                    89246718.089    21480653.074  
  21480647.633  
  24146472.633   126890571.700    24146481.574    98875813.0344   24146481.371  
                
  23203382.109   124253055.981                    96641271.173    23203386.609  
  23203381.277  
  22693207.766   120967576.026                                                  
  22693206.660  
  20860042.867   109620286.332    20860052.359    85418458.6854   20860052.719  
                
  20603206.938   109942672.045                    85510970.961    20603210.105  
  20603204.891  
 21  8 16 15 38 40.0000000  0 17G 4G16R 1G26R17G 9G31G 1R18G 6G22R12
                                G 7R 8R10G 3R 2
  20422744.250   107322291.970    20422751.801    83627810.5344   20422751.656  
                
  23425385.133   123101248.061    23425393.098    95923089.2244                 
                
  20033513.578   107090641.898                    83292724.547    20033519.230  
  20033513.039  
  22886182.062   120267757.390    22886192.516    93715156.6604   22886192.438  
                
  21960184.953   117513388.492                    91399292.949    21960189.398  
  21960183.207  
  21835557.844   114746659.825    21835566.730    89413033.8424   21835566.512  
                
  24301587.016   127705741.259    24301594.508    99511026.6814   24301594.676  
                
  24480919.547   128648092.663    24480931.766   100245298.5934   24480931.402  
                
  22710788.336   121231734.746                    94291341.580    22710792.336  
  22710786.793  
  22944010.484   120571575.104    22944020.402    93951936.6454   22944020.523  
                
  22282843.977   117097153.380    22282849.195    91244562.6854                 
                
  21473204.867   114706024.287                    89215792.937    21473209.742  
  21473204.328  
  24140158.438   126857390.612    24140167.391    98849957.6604   24140167.203  
                
  23208975.859   124283010.173                    96664568.850    23208980.352  
  23208975.008  
  22699726.031   121002322.037                                                  
  22699724.910  
  20863410.125   109637981.319    20863419.617    85432246.9784   20863419.961  
                
  20598948.391   109919947.626                    85493296.418    20598951.539  
  20598946.320  
 21  8 16 15 38 50.0000000  0 17G 4G16R 1G26R17G 9G31G 1R18G 6G22R12
                                G 7R 8R10G 3R 2
  20422388.547   107320422.722    20422396.090    83626353.9754   20422395.949  
                
  23420229.508   123074155.201    23420237.453    95901977.9234                 
                
  20035880.727   107103295.649                    83302566.356    20035886.379  
  20035880.195  
  22885314.820   120263200.075    22885325.266    93711605.5264   22885325.219  
                
  21964456.562   117536246.546                    91417071.407    21964461.020  
  21964454.824  
  21831496.297   114725316.306    21831505.195    89396402.5444   21831504.984  
                
  24308453.320   127741823.951    24308460.840    99539143.0504   24308460.996  
                
  24488171.844   128686203.280    24488184.008   100274995.1534   24488183.625  
                
  22708869.086   121221489.689                    94283373.198    22708873.082  
  22708867.523  
  22941438.953   120558061.674    22941448.910    93941406.7094   22941449.020  
                
  22287929.445   117123877.631    22287934.695    91265386.7614                 
                
  21465769.164   114666304.245                    89184899.602    21465774.070  
  21465768.648  
  24133847.133   126824224.366    24133856.023    98824113.8514   24133855.836  
                
  23214572.812   124312981.595                    96687879.927    23214577.344  
  23214571.949  
  22706253.789   121037118.617                                                  
  22706252.680  
  20866786.555   109655724.515    20866796.039    85446072.8404   20866796.387  
                
  20594693.828   109897244.494                    85475638.449    20594696.984  
  20594691.758  
 21  8 16 15 39  0.0000000  0 17G 4G16R 1G26R17G 9G31G 1R18G 6G22R12
                                G 7R 8R10G 3R 2
  20422039.469   107318588.305    20422047.004    83624924.5674   20422046.871  
                
  23415080.992   123047099.677    23415088.961    95880895.7194                 
                
  20038255.266   107115988.875                    83312438.868    20038260.910  
  20038254.715  
  22884459.656   120258706.235    22884470.105    93708103.8484   22884470.059  
                
  21968741.180   117559174.283                    91434904.059    21968745.688  
  21968739.465  
  21827439.445   114703997.353    21827448.340    89379790.3824   21827448.117  
                
  24315322.609   127777922.190    24315330.141    99567271.5344   24315330.281  
                
  24495423.867   128724312.463    24495435.961   100304690.6024   24495435.574  
                
  22706965.961   121211330.608                    94275471.683    22706969.949  
  22706964.383  
  22938879.289   120544610.529    22938889.254    93930925.2964   22938889.391  
                
  22293021.398   117150635.933    22293026.703    91286237.3734                 
                
  21458341.219   114626625.623                    89154038.464    21458346.125  
  21458340.719  
  24127538.711   126791073.209    24127547.527    98798281.7934   24127547.355  
                
  23220173.000   124342970.267                    96711204.436    23220177.570  
  23220172.125  
  22712791.109   121071966.075                                                  
  22712790.031  
  20870172.195   109673516.092    20870181.668    85459936.4004   20870182.031  
                
  20590443.250   109874562.617                    85457996.985    20590446.395  
  20590441.191  
 21  8 16 15 39 10.0000000  0 17G 4G16R 1G26R17G 9G31G 1R18G 6G22R12
                                G 7R 8R10G 3R 2
  20421696.938   107316788.311    20421704.461    83623521.9654   20421704.324  
                
  23409939.578   123020081.319    23409947.555    95859842.4674                 
                
  20040637.102   107128721.196                    83322341.778    20040642.730  
  20040636.543  
  22883616.484   120254275.519    22883626.941    93704651.3564   22883626.867  
                
  21973038.727   117582171.227                    91452790.571    21973043.285  
  21973037.023  
  21823387.172   114682702.561    21823396.039    89363197.0394   21823395.828  
                
  24322194.789   127814035.504    24322202.301    99595411.7784   24322202.457  
                
  24502675.438   128762419.672    24502687.520   100334384.4974   24502687.164  
                
  22705078.844   121201257.046                    94267636.713    22705082.855  
  22705077.277  
  22936331.398   120531221.288    22936341.395    93920492.1324   22936341.527  
                
  22298119.742   117177427.825    22298125.070    91307114.1504                 
                
  21450920.961   114586988.020                    89123209.234    21450925.859  
  21450920.461  
  24121233.016   126757936.773    24121241.848    98772461.2194   24121241.707  
                
  23225776.367   124372975.989                    96734542.221    23225780.961  
  23225775.480  
  22719337.828   121106863.721                                                  
  22719336.762  
  20873566.953   109691355.614    20873576.422    85473837.3214   20873576.793  
                
  20586196.586   109851901.651                    85440371.794    20586199.707  
  20586194.555  
 21  8 16 15 39 20.0000000  0 17G 4G16R 1G26R17G 9G31G 1R18G 6G22R12
                                G 7R 8R10G 3R 2
  20421361.047   107315023.204    20421368.555    83622146.5564   20421368.434  
                
  23404805.344   122993100.771    23404813.395    95838818.6854                 
                
  20043026.359   107141493.125                    83332275.487    20043032.004  
  20043025.785  
  22882785.453   120249908.474    22882795.918    93701248.4794   22882795.848  
                
  21977349.242   117605237.702                    91470731.152    21977353.855  
  21977347.523  
  21819339.602   114661432.423    21819348.434    89346622.9154   21819348.230  
                
  24329069.922   127850164.361    24329077.418    99623564.1284   24329077.590  
                
  24509926.711   128800525.340    24509938.793   100364077.2344   24509938.457  
                
  22703207.859   121191269.614                    94259868.731    22703211.891  
  22703206.293  
  22933795.398   120517894.524    22933805.418    93910107.6434   22933805.559  
                
  22303224.555   117204253.698    22303229.859    91328017.4124                 
                
  21443508.508   114547391.987                    89092412.340    21443513.391  
  21443508.012  
  24114930.297   126724815.641    24114939.055    98746652.5574   24114938.941  
                
  23231382.969   124402999.105                    96757893.547    23231387.621  
  23231382.078  
  22725894.062   121141812.157                                                  
  22725892.957  
  20876970.930   109709243.555    20876980.410    85487775.9674   20876980.770  
                
  20581953.953   109829262.171                    85422763.320    20581957.070  
  20581951.918  
 21  8 16 15 39 30.0000000  0 17G 4G16R 1G26R17G 9G31G 1R18G 6G22R12
                                G 7R 8R10G 3R 2
  20421031.734   107313292.669    20421039.230    83620798.0884   20421039.109  
                
  23399678.266   122966157.737    23399686.383    95817824.1184                 
                
  20045422.945   107154304.301                    83342239.725    20045428.582  
  20045422.352  
  22881966.469   120245604.791    22881976.969    93697894.9684   22881976.902  
                
  21981672.672   117628373.300                    91488725.463    21981677.363  
  21981670.953  
  21815296.664   114640186.673    21815305.477    89330067.7854   21815305.277  
                
  24335947.898   127886308.248    24335955.375    99651728.1964   24335955.562  
                
  24517177.609   128838628.981    24517189.691   100393768.3804   24517189.375  
                
  22701352.938   121181368.031                    94252167.486    22701356.992  
  22701351.371  
  22931271.219   120504629.919    22931281.242    93899771.5854   22931281.367  
                
  22308335.766   117231113.208    22308341.027    91348946.8914                 
                
  21436103.875   114507837.601                    89061647.823    21436108.719  
  21436103.336  
  24108630.406   126691709.564    24108639.141    98720855.6344   24108639.059  
                
  23236992.734   124433039.370                    96781258.161    23236997.438  
  23236991.832  
  22732459.656   121176810.598                                                  
  22732458.590  
  20880384.039   109727179.542    20880393.547    85501752.0624   20880393.891  
                
  20577715.312   109806643.983                    85405171.398    20577718.410  
  20577713.285  
 21  8 16 15 39 40.0000000  0 17G 4G16R 1G26R17G 9G31G 1R18G 6G22R12
                                G 7R 8R10G 3R 2
  20420709.039   107311596.836    20420716.520    83619476.6684   20420716.414  
                
  23394558.398   122939252.547    23394566.516    95796859.0484                 
                
  20047826.945   107167155.035                    83352234.729    20047832.574  
  20047826.336  
  22881159.586   120241364.654    22881170.121    93694590.9944   22881170.016  
                
  21986009.023   117651577.913                    91506773.459    21986013.773  
  21986007.289  
  21811258.391   114618965.451    21811267.188    89313531.7754   21811267.020  
                
  24342828.742   127922467.181    24342836.191    99679903.9784   24342836.379  
                
  24524428.133   128876730.626    24524440.211   100423457.9534   24524439.918  
                
  22699514.125   121171552.404                    94244533.113    22699518.211  
  22699512.543  
  22928758.922   120491427.707    22928768.938    93889484.1434   22928769.043  
                
  22313453.414   117258006.503    22313458.672    91369902.6844                 
                
  21428707.070   114468325.101                    89030915.890    21428711.895  
  21428706.523  
  24102333.383   126658618.705    24102342.152    98695070.5794   24102342.082  
                
  23242605.766   124463096.903                    96804636.218    23242610.457  
  23242604.859  
  22739034.719   121211859.258                                                  
  22739033.656  
  20883806.328   109745163.730    20883815.863    85515765.7044   20883816.199  
                
  20573480.664   109784047.063                    85387596.020    20573483.742  
  20573478.664  
 21  8 16 15 39 50.0000000  0 17G 4G16R 1G26R17G 9G31G 1R18G 6G22R12
                                G 7R 8R10G 3R 2
  20420392.969   107309935.901    20420400.434    83618182.4374   20420400.340  
                
  23389445.758   122912385.514    23389453.871    95775923.7034                 
                
  20050238.320   107180045.222                    83362260.434    20050243.965  
  20050237.703  
  22880364.836   120237188.314    22880375.352    93691336.7124   22880375.254  
                
  21990358.289   117674851.666                    91524875.279    21990363.059  
  21990356.520  
  21807224.828   114597768.953    21807233.609    89297015.0364   21807233.445  
                
  24349712.453   127958641.270    24349719.871    99708091.5694   24349720.055  
                
  24531678.273   128914830.399    24531690.348   100453146.0504   24531690.066  
                
  22697691.445   121161822.914                    94236965.745    22697695.559  
  22697689.848  
  22926258.539   120478288.137    22926268.531    93879245.5104   22926268.637  
                
  22318577.508   117284933.707    22318582.801    91390884.9114                 
                
  21421318.141   114428854.760                    89000216.747    21421322.930  
  21421317.602  
  24096039.289   126625543.310    24096048.105    98669297.5694   24096048.035  
                
  23248222.016   124493171.899                    96828027.893    23248226.793  
  23248221.172  
  22745619.148   121246957.939                                                  
  22745618.090  
  20887237.805   109763196.263    20887247.371    85529817.0104   20887247.699  
                
  20569250.094   109761471.917                    85370037.586    20569253.152  
  20569248.105  
 21  8 16 15 40  0.0000000  0 17G 4G16R 1G26R17G 9G31G 1R18G 6G22R12
                                G 7R 8R10G 3R 2
  20420083.484   107308309.533    20420090.926    83616915.1384   20420090.840  
                
  23384340.344   122885556.464    23384348.480    95755017.9704                 
                
  20052657.047   107192974.707                    83372316.699    20052662.672  
  20052656.422  
  22879582.195   120233075.509    22879592.668    93688131.9354   22879592.574  
                
  21994720.375   117698194.106                    91543030.540    21994725.156  
  21994718.605  
  21803195.922   114576596.927    21803204.699    89280517.3644   21803204.531  
                
  24356598.977   127994830.185    24356606.352    99736290.7344   24356606.535  
                
  24538927.898   128952927.959    24538940.102   100482832.4254   24538939.852  
                
  22695884.883   121152179.448                    94229465.269    22695889.012  
  22695883.258  
  22923770.016   120465210.912    22923779.988    93869055.4684   22923780.121  
                
  22323707.992   117311894.489    22323713.312    91411893.2924                 
                
  21413937.031   114389426.460                    88969550.312    21413941.820  
  21413936.508  
  24089748.039   126592483.188    24089756.957    98643536.4634   24089756.906  
                
  23253841.578   124523264.161                    96851432.969    23253846.324  
  23253840.695  
  22752212.914   121282106.445                                                  
  22752211.852  
  20890678.430   109781276.842    20890688.031    85543905.7694   20890688.344  
                
  20565023.562   109738918.330                    85352495.896    20565026.625  
  20565021.594  
 21  8 16 15 40 10.0000000  0 17G 4G16R 1G26R17G 9G31G 1R18G 6G22R12
                                G 7R 8R10G 3R 2
  20419780.602   107306717.870    20419788.020    83615674.8864   20419787.949  
                
  23379242.211   122858765.662    23379250.348    95734142.0354                 
                
  20055083.180   107205943.734                    83382403.704    20055088.809  
  20055082.535  
  22878811.664   120229026.389    22878822.113    93684976.7874   22878822.031  
                
  21999095.336   117721605.300                    91561239.229    21999100.070  
  21999093.547  
  21799171.711   114555449.537    21799180.480    89264038.8784   21799180.312  
                
  24363488.344   128031033.966    24363495.652    99764501.4934   24363495.852  
                
  24546177.203   128991023.297    24546189.438   100512517.0874   24546189.199  
                
  22694094.484   121142622.219                    94222031.846    22694098.641  
  22694092.867  
  22921293.406   120452196.246    22921303.371    93858914.1814   22921303.512  
                
  22328844.867   117338888.918    22328850.195    91432927.9004                 
                
  21406563.836   114350040.396                    88938916.706    21406568.621  
  21406563.324  
  24083459.750   126559438.507    24083468.703    98617787.3864   24083468.684  
                
  23259464.297   124553373.485                    96874851.307    23259469.047  
  23259463.434  
  22758815.992   121317304.590                                                  
  22758815.000  
  20894128.211   109799405.574    20894137.840    85558032.0414   20894138.156  
                
  20560801.055   109716386.187                    85334970.900    20560804.125  
  20560799.109  
 21  8 16 15 40 20.0000000  0 17G 4G16R 1G26R17G 9G31G 1R18G 6G22R12
                                G 7R 8R10G 3R 2
  20419484.312   107305160.843    20419491.711    83614461.6224   20419491.652  
                
  23374151.320   122832013.155    23374159.477    95713295.9414                 
                
  20057516.648   107218952.007                    83392521.238    20057522.266  
  20057516.000  
  22878053.242   120225040.902    22878063.707    93681871.2204   22878063.609  
                
  22003483.086   117745084.878                    91579501.070    22003487.770  
  22003481.273  
  21795152.164   114534326.689    21795160.926    89247579.5194   21795160.770  
                
  24370380.508   128067252.428    24370387.773    99792723.6744   24370387.992  
                
  24553425.984   129029116.235    24553438.336   100542199.8584   24553438.098  
                
  22692320.211   121133151.065                    94214665.391    22692324.387  
  22692318.590  
  22918828.688   120439244.104    22918838.656    93848821.6154   22918838.801  
                
  22333988.125   117365916.859    22333993.445    91453988.6284                 
                
  21399198.570   114310696.644                    88908316.011    21399203.375  
  21399198.082  
  24077174.461   126526409.226    24077183.371    98592050.3004   24077183.375  
                
  23265090.281   124583500.168                    96898283.152    23265095.008  
  23265089.434  
  22765428.375   121352552.346                                                  
  22765427.445  
  20897587.141   109817582.355    20897596.801    85572195.7524   20897597.121  
                
  20556582.625   109693875.859                    85317462.875    20556585.695  
  20556580.719  
 21  8 16 15 40 30.0000000  0 17G 4G16R 1G26R17G 9G31G 1R18G 6G22R12
                                G 7R 8R10G 3R 2
  20419194.609   107303638.470    20419201.984    83613275.3614   20419201.949  
                
  23369067.750   122805299.078    23369075.910    95692479.7874                 
                
  20059957.500   107231999.730                    83402669.464    20059963.121  
  20059956.867  
  22877306.961   120221119.177    22877317.438    93678815.3314   22877317.324  
                
  22007883.641   117768632.892                    91597816.200    22007888.254  
  22007881.840  
  21791137.305   114513228.467    21791146.062    89231139.3514   21791145.906  
                
  24377275.453   128103485.525    24377282.738    99820957.2604   24377282.949  
                
  24560674.281   129067206.737    24560686.770   100571880.7244   24560686.539  
                
  22690562.117   121123766.198                    94207366.059    22690566.324  
  22690560.484  
  22916375.891   120426354.602    22916385.863    93838777.8574   22916386.020  
                
  22339137.781   117392978.424    22339143.055    91475075.5564                 
                
  21391841.320   114271395.660                    88877748.603    21391846.168  
  21391840.844  
  24070892.047   126493395.384    24070900.969    98566325.2524   24070900.996  
                
  23270719.453   124613643.999                    96921728.327    23270724.188  
  23270718.617  
  22772050.039   121387849.461                                                  
  22772049.062  
  20901055.211   109835807.191    20901064.910    85586396.9084   20901065.219  
                
  20552368.227   109671387.053                    85299971.578    20552371.289  
  20552366.316  
 21  8 16 15 40 40.0000000  0 17G 4G16R 1G26R17G 9G31G 1R18G 6G22R12
                                G 7R 8R10G 3R 2
  20418911.508   107302150.759    20418918.867    83612116.1114   20418918.852  
                
  23363991.586   122778623.600    23363999.680    95671693.7154                 
                
  20062405.750   107245087.012                    83412848.459    20062411.375  
  20062405.133  
  22876572.805   120217261.210    22876583.297    93675809.1414   22876583.172  
                
  22012296.906   117792249.022                    91616184.302    22012301.473  
  22012295.086  
  21787127.125   114492154.874    21787135.883    89214718.3814   21787135.734  
                
  24384173.172   128139733.221    24384180.465    99849202.2044   24384180.660  
                
  24567922.094   129105294.670    24567934.719   100601559.5954   24567934.480  
                
  22688820.141   121114467.490                    94200133.739    22688824.383  
  22688818.473  
  22913935.008   120413527.771    22913944.992    93828782.9164   22913945.141  
                
  22344293.820   117420073.621    22344299.066    91496188.6764                 
                
  21384492.086   114232137.367                    88847214.405    21384496.965  
  21384491.594  
  24064612.609   126460397.152    24064621.508    98540612.3654   24064621.562  
                
  23276351.828   124643804.988                    96945186.856    23276356.609  
  23276350.965  
  22778680.891   121423195.736                                                  
  22778679.875  
  20904532.430   109854080.087    20904542.172    85600635.5144   20904542.461  
                
  20548157.883   109648919.879                    85282497.118    20548160.945  
  20548155.969  
 21  8 16 15 40 50.0000000  0 17G 4G16R 1G26R17G 9G31G 1R18G 6G22R12
                                G 7R 8R10G 3R 2
  20418634.961   107300697.473    20418642.309    83610983.6834   20418642.309  
                
  23358922.703   122751986.616    23358930.820    95650937.6164                 
                
  20064861.328   107258213.480                    83423057.919    20064866.949  
  20064860.719  
  22875850.750   120213466.837    22875861.234    93672852.5054   22875861.109  
                
  22016722.852   117815933.165                    91634605.296    22016727.406  
  22016721.027  
  21783121.602   114471105.737    21783130.355    89198316.4594   21783130.199  
                
  24391073.586   128175995.146    24391080.863    99877458.2554   24391081.047  
                
  24575169.492   129143379.742    24575182.117   100631236.2394   24575181.867  
                
  22687094.273   121105254.740                    94192968.296    22687098.531  
  22687092.586  
  22911506.039   120400763.459    22911516.008    93818836.7034   22911516.156  
                
  22349456.156   117447201.913    22349461.422    91517327.5894                 
                
  21377150.828   114192921.752                    88816713.378    21377155.715  
  21377150.324  
  24058336.156   126427414.364    24058345.000    98514911.5164   24058345.074  
                
  23281987.398   124673983.152                    96968658.733    23281992.254  
  23281986.488  
  22785320.914   121458590.922                                                  
  22785319.891  
  20908018.742   109872400.793    20908028.531    85614911.3784   20908028.793  
                
  20543951.602   109626474.382                    85265039.516    20543954.668  
  20543949.672  
 21  8 16 15 41  0.0000000  0 17G 4G16R 1G26R17G 9G31G 1R18G 6G22R12
                                G 7R 8R10G 3R 2
  20418364.938   107299278.523    20418372.281    83609878.0024   20418372.281  
                
  23353861.148   122725388.130    23353869.363    95630211.5414                 
                
  20067324.266   107271379.285                    83433297.986    20067329.883  
  20067323.664  
  22875140.789   120209736.003    22875151.262    93669945.3744   22875151.125  
                
  22021161.438   117839684.901                    91653078.860    22021166.004  
  22021159.609  
  21779120.711   114450080.951    21779129.465    89181933.5144   21779129.312  
                
  24397976.695   128212271.179    24397983.957    99905725.2954   24397984.113  
                
  24582416.312   129181461.728    24582428.891   100660910.4844   24582428.652  
                
  22685384.539   121096128.103                    94185869.783    22685388.789  
  22685382.859  
  22909088.953   120388061.626    22909098.895    93808939.1704   22909099.062  
                
  22354624.789   117474363.226    22354630.082    91538492.2354                 
                
  21369817.539   114153748.853                    88786245.573    21369822.457  
  21369817.008  
  24052062.711   126394446.977    24052071.418    98489222.6654   24052071.520  
                
  23287626.094   124704178.150                    96992143.708    23287631.023  
  23287625.191  
  22791970.062   121494034.649                                                  
  22791969.035  
  20911514.133   109890769.195    20911523.961    85629224.4064   20911524.207  
                
  20539749.336   109604050.336                    85247598.604    20539752.422  
  20539747.391  
 21  8 16 15 41 10.0000000  0 17G 4G16R 1G26R17G 9G31G 1R18G 6G22R12
                                G 7R 8R10G 3R 2
  20418101.461   107297893.952    20418108.820    83608799.1234   20418108.809  
                
  23348806.969   122698828.390    23348815.285    95609515.6694                 
                
  20069794.516   107284584.148                    83443568.427    20069800.137  
  20069793.918  
  22874442.938   120206068.790    22874453.395    93667087.8264   22874453.246  
                
  22025612.602   117863504.198                    91671604.961    22025617.223  
  22025610.738  
  21775124.477   114429080.654    21775133.242    89165569.6554   21775133.086  
                
  24404882.477   128248561.212    24404889.742    99934003.2474   24404889.891  
                
  24589662.680   129219540.645    24589675.082   100690582.3384   24589674.863  
                
  22683690.953   121087087.609                    94178838.288    22683695.172  
  22683689.297  
  22906683.773   120375422.376    22906693.684    93799090.4104   22906693.875  
                
  22359799.719   117501557.660    22359805.008    91559682.6904                 
                
  21362492.328   114114619.064                    88755811.328    21362497.312  
  21362491.762  
  24045792.297   126361495.126    24045800.797    98463545.9024   24045800.902  
                
  23293267.891   124734389.934                    97015641.758    23293272.902  
  23293267.004  
  22798628.359   121529527.054                                                  
  22798627.305  
  20915018.617   109909185.343    20915028.488    85643574.6484   20915028.715  
                
  20535551.188   109581648.260                    85230174.767    20535554.281  
  20535549.238  
 21  8 16 15 41 20.0000000  0 17G 4G16R 1G26R17G 9G31G 1R18G 6G22R12
                                G 7R 8R10G 3R 2
  20417844.562   107296543.963    20417851.941    83607747.1804   20417851.914  
                
  23343760.258   122672307.745    23343768.629    95588850.2754                 
                
  20072272.148   107297828.492                    83453869.583    20072277.781  
  20072271.559  
  22873757.250   120202465.467    22873767.676    93664280.0424   22873767.512  
                
  22030076.414   117887391.204                    91690183.718    22030081.082  
  22030074.504  
  21771132.938   114408105.010    21771141.695    89149225.0094   21771141.543  
                
  24411790.945   128284865.351    24411798.207    99962292.1734   24411798.367  
                
  24596908.375   129257616.583    24596920.719   100720251.8764   24596920.500  
                
  22682013.547   121078133.490                    94171873.978    22682017.738  
  22682011.902  
  22904290.539   120362845.911    22904300.422    93789290.5854   22904300.637  
                
  22364980.984   117528785.402    22364986.234    91580899.1074                 
                
  21355175.211   114075532.482                    88725410.694    21355180.258  
  21355174.648  
  24039524.734   126328559.051    24039533.168    98437881.4404   24039533.297  
                
  23298912.859   124764618.652                    97039152.971    23298917.922  
  23298912.016  
  22805295.781   121565068.059                                                  
  22805294.684  
  20918532.203   109927649.380    20918542.113    85657962.2024   20918542.316  
                
  20531357.070   109559267.694                    85212767.664    20531360.184  
  20531355.117  
 21  8 16 15 41 30.0000000  0 17G 4G16R 1G26R17G 9G31G 1R18G 6G22R12
                                G 7R 8R10G 3R 2
  20417594.242   107295228.509    20417601.660    83606722.1534   20417601.605  
                
  23338721.000   122645826.215    23338729.375    95568215.3184                 
                
  20074757.180   107311112.403                    83464201.503    20074762.809  
  20074756.590  
  22873083.703   120198926.009    22873094.090    93661522.0294   22873093.949  
                
  22034552.828   117911345.578                    91708814.896    22034557.578  
  22034550.918  
  21767146.094   114387154.031    21767154.844    89132899.5744   21767154.688  
                
  24418702.078   128321183.539    24418709.340    99990592.0494   24418709.531  
                
  24604153.391   129295689.422    24604165.758   100749919.0044   24604165.559  
                
  22680352.320   121069265.742                    94164976.837    22680356.484  
  22680350.664  
  22901909.281   120350332.351    22901919.117    93779539.7464   22901919.348  
                
  22370168.586   117556046.407    22370173.840    91602141.4314                 
                
  21347866.227   114036489.406                    88695043.880    21347871.316  
  21347865.660  
  24033260.242   126295638.871    24033268.641    98412229.3794   24033268.762  
                
  23304561.047   124794864.601                    97062677.573    23304566.152  
  23304560.223  
  22811972.203   121600657.126                                                  
  22811971.094  
  20922054.906   109946161.273    20922064.832    85672387.0404   20922065.012  
                
  20527167.133   109536909.380                    85195377.878    20527170.238  
  20527165.172  
 21  8 16 15 41 40.0000000  0 17G 4G16R 1G26R17G 9G31G 1R18G 6G22R12
                                G 7R 8R10G 3R 2
  20417350.547   107293947.883    20417357.996    83605724.2634   20417357.918  
                
  23333689.266   122619384.076    23333697.594    95547611.0644                 
                
  20077249.656   107324436.047                    83474564.330    20077255.270  
  20077249.078  
  22872422.383   120195450.760    22872432.750    93658814.0604   22872432.637  
                
  22039041.930   117935367.537                    91727498.633    22039046.703  
  22039040.023  
  21763164.008   114366228.030    21763172.750    89116593.6094   21763172.605  
                
  24425615.922   128357515.909    24425623.164   100018902.9874   24425623.383  
                
  24611397.875   129333759.347    24611410.250   100779583.8564   24611410.043  
                
  22678707.297   121060484.601                    94158147.047    22678711.441  
  22678705.605  
  22899540.039   120337881.932    22899549.879    93769838.1314   22899550.129  
                
  22375362.570   117583340.955    22375367.891    91623409.8954                 
                
  21340565.438   113997490.268                    88664711.228    21340570.559  
  21340564.863  
  24026998.852   126262734.830    24027007.188    98386589.8854   24027007.297  
                
  23310212.398   124825127.885                    97086215.655    23310217.602  
  23310211.609  
  22818657.797   121636295.103                                                  
  22818656.664  
  20925586.773   109964721.290    20925596.699    85686849.3764   20925596.871  
                
  20522981.328   109514573.114                    85178005.229    20522984.418  
  20522979.363  
 21  8 16 15 41 50.0000000  0 17G 4G16R 1G26R17G 9G31G 1R18G 6G22R12
                                G 7R 8R10G 3R 2
  20417113.430   107292701.868    20417120.910    83604753.3354   20417120.812  
                
  23328664.992   122592981.374    23328673.277    95527037.5244                 
                
  20079749.492   107337799.085                    83484957.800    20079755.113  
  20079748.945  
  22871773.234   120192039.494    22871783.613    93656155.9474   22871783.508  
                
  22043543.625   117959456.769                    91746234.706    22043548.402  
  22043541.684  
  21759186.625   114345326.793    21759195.324    89100306.9344   21759195.199  
                
  24432532.406   128393862.177    24432539.605   100047224.7634   24432539.855  
                
  24618641.719   129371826.031    24618654.109   100809246.1834   24618653.914  
                
  22677078.531   121051790.143                    94151384.677    22677082.668  
  22677076.828  
  22897182.789   120325494.555    22897192.633    93760185.6274   22897192.879  
                
  22380562.852   117610668.622    22380568.215    91644704.1584                 
                
  21333272.875   113958535.004                    88634412.712    21333277.996  
  21333272.320  
  24020740.531   126229846.739    24020748.789    98360962.8204   24020748.867  
                
  23315867.023   124855408.131                    97109766.964    23315872.211  
  23315866.238  
  22825352.383   121671981.012                                                  
  22825351.266  
  20929127.750   109983329.187    20929137.660    85701349.0334   20929137.828  
                
  20518799.617   109492258.707                    85160649.581    20518802.715  
  20518797.656  
 21  8 16 15 42  0.0000000  0 17G 4G16R 1G26R17G 9G31G 1R18G 6G22R12
                                G 7R 8R10G 3R 2
  20416882.906   107291490.472    20416890.422    83603809.3984   20416890.301  
                
  23323648.281   122566618.431    23323656.555    95506494.9974                 
                
  20082256.766   107351201.815                    83495382.138    20082262.375  
  20082256.254  
  22871136.289   120188692.332    22871146.715    93653547.7894   22871146.582  
                
  22048057.836   117983613.079                    91765022.907    22048062.602  
  22048055.898  
  21755213.969   114324450.400    21755222.641    89084039.6164   21755222.527  
                
  24439451.516   128430222.271    24439458.668   100075557.2984   24439458.945  
                
  24625884.953   129409889.427    24625897.363   100838905.9444   24625897.168  
                
  22675465.969   121043182.127                    94144689.560    22675470.078  
  22675464.242  
  22894837.547   120313170.254    22894847.402    93750582.2724   22894847.641  
                
  22385769.438   117638029.369    22385774.797    91666024.2184                 
                
  21325988.578   113919623.594                    88604148.281    21325993.648  
  21325988.047  
  24014485.180   126196974.823    24014493.445    98335348.3484   24014493.512  
                
  23321524.867   124885705.586                    97133331.619    23321530.039  
  23321524.062  
  22832056.031   121707715.144                                                  
  22832054.969  
  20932677.844   110001984.980    20932687.727    85715886.0084   20932687.898  
                
  20514622.109   109469966.722                    85143311.371    20514625.203  
  20514620.156  
 21  8 16 15 42 10.0000000  0 17G 4G16R 1G26R17G 9G31G 1R18G 6G22R12
                                G 7R 8R10G 3R 2
  20416658.961   107290313.610    20416666.496    83602892.3644   20416666.363  
                
  23318639.148   122540295.262    23318647.457    95485983.4524                 
                
  20084771.430   107364644.117                    83505837.258    20084777.023  
  20084770.914  
  22870511.523   120185409.185    22870521.957    93650989.5224   22870521.805  
                
  22052584.539   118007836.294                    91783863.165    22052589.316  
  22052582.617  
  21751246.031   114303598.760    21751254.699    89067791.5924   21751254.574  
                
  24446373.250   128466596.117    24446380.375   100103900.5614   24446380.652  
                
  24633127.562   129447949.333    24633139.977   100868562.9934   24633139.750  
                
  22673869.633   121034660.725                    94138061.821    22673873.754  
  22673867.887  
  22892504.305   120300908.992    22892514.176    93741028.0624   22892514.418  
                
  22390982.305   117665423.128    22390987.664    91687370.0034                 
                
  21318712.570   113880756.416                    88573918.266    21318717.617  
  21318712.051  
  24008232.844   126164118.989    24008241.184    98309746.4274   24008241.246  
                
  23327185.953   124916020.239                    97156909.657    23327191.039  
  23327185.125  
  22838768.641   121743497.051                                                  
  22838767.598  
  20936237.039   110020688.557    20936246.887    85730460.2144   20936247.074  
                
  20510448.719   109447696.680                    85125990.235    20510451.812  
  20510446.773  
 21  8 16 15 42 20.0000000  0 17G 4G16R 1G26R17G 9G31G 1R18G 6G22R12
                                G 7R 8R10G 3R 2
  20416441.562   107289171.224    20416449.117    83602002.1934   20416448.984  
                
  23313637.547   122514011.826    23313645.902    95465502.8674                 
                
  20087293.484   107378125.884                    83516323.064    20087299.062  
  20087292.977  
  22869898.938   120182190.083    22869909.328    93648481.1294   22869909.203  
                
  22057123.695   118032126.274                    91802755.338    22057128.516  
  22057121.797  
  21747282.789   114282771.854    21747291.457    89051562.8394   21747291.328  
                
  24453297.531   128502983.526    24453304.668   100132254.3804   24453304.910  
                
  24640369.453   129486005.626    24640381.863   100898217.2314   24640381.621  
                
  22672289.469   121026225.836                    94131501.348    22672293.629  
  22672287.738  
  22890183.055   120288710.791    22890192.934    93731522.9844   22890193.184  
                
  22396201.438   117692849.821    22396206.859    91708741.4254                 
                
  21311444.844   113841933.487                    88543722.668    21311449.852  
  21311444.352  
  24001983.648   126131279.256    24001991.988    98284157.0434   24001992.047  
                
  23332850.141   124946351.557                    97180500.701    23332855.184  
  23332849.328  
  22845490.211   121779326.785                                                  
  22845489.184  
  20939805.297   110039439.844    20939815.113    85745071.6084   20939815.316  
                
  20506279.508   109425448.994                    85108686.475    20506282.594  
  20506277.582  
 21  8 16 15 42 30.0000000  0 17G 4G16R 1G26R17G 9G31G 1R18G 6G22R12
                                G 7R 8R10G 3R 2
  20416230.727   107288063.277    20416238.293    83601138.8604   20416238.164  
                
  23308643.547   122487768.257    23308651.910    95445053.3554                 
                
  20089822.906   107391647.051                    83526839.518    20089828.473  
  20089822.414  
  22869298.547   120179034.996    22869308.883    93646022.6314   22869308.781  
                
  22061675.305   118056482.710                    91821699.197    22061680.117  
  22061673.363  
  21743324.266   114261969.679    21743332.945    89035353.3594   21743332.812  
                
  24460224.352   128539384.330    24460231.496   100160618.6084   24460231.715  
                
  24647610.641   129524058.171    24647623.047   100927868.5494   24647622.793  
                
  22670725.531   121017877.438                    94125008.160    22670729.719  
  22670723.820  
  22887873.828   120276575.701    22887883.703    93722067.0584   22887883.973  
                
  22401426.828   117720309.378    22401432.328    91730138.4664                 
                
  21304185.406   113803154.899                    88513561.566    21304190.395  
  21304184.922  
  23995737.594   126098455.707    23995745.910    98258580.2704   23995745.953  
                
  23338517.492   124976699.947                    97204105.017    23338522.555  
  23338516.715  
  22852220.664   121815203.805                                                  
  22852219.664  
  20943382.633   110058238.799    20943392.406    85759720.1304   20943392.617  
                
  20502114.422   109403223.256                    85091399.805    20502117.523  
  20502112.480  
 21  8 16 15 42 40.0000000  0 17G 4G16R 1G26R17G 9G31G 1R18G 6G22R12
                                G 7R 8R10G 3R 2
  20416026.438   107286989.744    20416034.016    83600302.3414   20416033.887  
                
  23303657.156   122461564.670    23303665.512    95424634.9824                 
                
  20092359.703   107405207.652                    83537386.657    20092365.281  
  20092359.211  
  22868710.328   120175943.927    22868720.633    93643614.0224   22868720.527  
                
  22066239.281   118080905.502                    91840694.706    22066244.102  
  22066237.355  
  21739370.438   114241192.214    21739379.117    89019163.1234   21739378.973  
                
  24467153.656   128575798.412    24467160.863   100188993.2044   24467161.059  
                
  24654851.086   129562106.836    24654863.473   100957516.8354   24654863.227  
                
  22669177.789   121009615.486                    94118582.195    22669181.980  
  22669176.113  
  22885576.602   120264503.691    22885586.480    93712660.2904   22885586.758  
                
  22406658.453   117747801.718    22406663.988    91751561.0714                 
                
  21296934.258   113764420.671                    88483434.956    21296939.227  
  21296933.766  
  23989494.578   126065648.362    23989502.941    98233016.1244   23989502.941  
                
  23344188.008   125007065.279                    97227722.486    23344193.113  
  23344187.270  
  22858959.984   121851128.111                                                  
  22858959.023  
  20946969.023   110077085.356    20946978.738    85774405.7524   20946978.977  
                
  20497953.508   109381019.902                    85074130.542    20497956.629  
  20497951.562  
 21  8 16 15 42 50.0000000  0 17G 4G16R 1G26R17G 9G31G 1R18G 6G22R12
                                G 7R 8R10G 3R 2
  20415828.734   107285950.812    20415836.324    83599492.7854   20415836.195  
                
  23298678.430   122435401.339    23298686.719    95404247.9684                 
                
  20094903.922   107418807.927                    83547964.640    20094909.492  
  20094903.434  
  22868134.344   120172917.141    22868144.613    93641255.4944   22868144.500  
                
  22070815.703   118105394.789                    91859741.947    22070820.523  
  22070813.793  
  21735421.352   114220439.656    21735430.027    89002992.3144   21735429.898  
                
  24474085.523   128612225.907    24474092.785   100217378.2604   24474092.957  
                
  24662090.805   129600151.738    24662103.180   100987162.1934   24662102.957  
                
  22667646.312   121001440.296                    94112223.713    22667650.457  
  22667644.641  
  22883291.438   120252495.010    22883301.336    93703302.8784   22883301.617  
                
  22411896.352   117775327.054    22411901.867    91773009.3784                 
                
  21289691.508   113725731.299                    88453343.232    21289696.461  
  21289691.012  
  23983254.602   126032857.460    23983263.137    98207464.8084   23983263.074  
                
  23349861.695   125037447.625                    97251353.182    23349866.852  
  23349860.980  
  22865708.180   121887099.868                                                  
  22865707.242  
  20950564.500   110095979.679    20950574.156    85789128.5984   20950574.422  
                
  20493796.836   109358839.123                    85056878.825    20493799.969  
  20493794.906  
 21  8 16 15 43  0.0000000  0 17G 4G16R 1G26R17G 9G31G 1R18G 6G22R12
                                G 7R 8R10G 3R 2
  20415637.797   107284947.455    20415645.387    83598710.9534   20415645.262  
                
  23293707.594   122409279.403    23293715.820    95383893.2184                 
                
  20097455.773   107432448.958                    83558574.333    20097461.332  
  20097455.281  
  22867570.766   120169955.607    22867581.008    93638947.8164   22867580.914  
                
  22075404.695   118129951.291                    91878841.433    22075409.480  
  22075402.809  
  21731477.203   114199713.051    21731485.867    88986841.7194   21731485.754  
                
  24481020.141   128648667.771    24481027.426   100245774.4994   24481027.586  
                
  24669329.984   129638193.757    24669342.328   101016805.3024   24669342.145  
                
  22666131.281   120993352.983                    94105933.598    22666135.379  
  22666129.633  
  22881018.500   120240550.676    22881028.441    93693995.6174   22881028.707  
                
  22417140.727   117802886.382    22417146.258    91794484.1644                 
                
  21282457.367   113687087.918                    88423287.297    21282462.336  
  21282456.867  
  23977017.977   126000084.025    23977026.617    98181927.0934   23977026.535  
                
  23355538.797   125067847.973                    97274997.859    23355543.945  
  23355538.062  
  22872465.391   121923119.626                                                  
  22872464.441  
  20954169.258   110114922.754    20954178.852    85803889.4224   20954179.148  
                
  20489644.539   109336681.689                    85039645.273    20489647.672  
  20489642.609  
 21  8 16 15 43 10.0000000  0 17G 4G16R 1G26R17G 9G31G 1R18G 6G22R12
                                G 7R 8R10G 3R 2
  20415453.094   107283976.826    20415460.684    83597954.6194   20415460.566  
                
  23288744.102   122383196.127    23288752.332    95363568.6054                 
                
  20100014.656   107446127.635                    83569213.297    20100020.215  
  20100014.172  
  22867019.094   120167056.542    22867029.301    93636688.8324   22867029.238  
                
  22080005.719   118154572.053                    91897990.898    22080010.492  
  22080003.844  
  21727537.453   114179009.579    21727546.086    88970709.1484   21727545.973  
                
  24487956.961   128685120.984    24487964.250   100274179.5994   24487964.406  
                
  24676568.133   129676229.963    24676580.359   101046443.8904   24676580.191  
                
  22664632.180   120985350.675                    94099709.563    22664636.273  
  22664630.527  
  22878757.297   120228667.948    22878767.301    93684736.3474   22878767.535  
                
  22422391.000   117830476.719    22422396.578    91815983.1134                 
                
  21275231.328   113648487.760                    88393264.964    21275236.312  
  21275230.828  
  23970784.156   125967325.297    23970792.855    98156400.8324   23970792.781  
                
  23361218.727   125098263.561                    97298654.391    23361223.922  
  23361217.961  
  22879231.078   121959184.614                                                  
  22879230.160  
  20957782.750   110133911.692    20957792.277    85818685.9954   20957792.609  
                
  20485496.086   109314544.735                    85022427.643    20485499.230  
  20485494.164  
 21  8 16 15 43 20.0000000  0 17G 4G16R 1G26R17G 9G31G 1R18G 6G22R12
                                G 7R 8R10G 3R 2
  20415275.055   107283041.208    20415282.633    83597225.5604   20415282.520  
                
  23283788.414   122357153.862    23283796.660    95343275.9434                 
                
  20102581.062   107459846.520                    83579883.551    20102586.609  
  20102580.566  
  22866479.750   120164222.277    22866489.914    93634480.3204   22866489.855  
                
  22084619.125   118179259.254                    91917192.046    22084623.922  
  22084617.277  
  21723602.555   114158331.503    21723611.164    88954596.3794   21723611.062  
                
  24494896.383   128721587.782    24494903.652   100302595.2994   24494903.832  
                
  24683805.531   129714262.538    24683817.715   101076079.6524   24683817.551  
                
  22663149.430   120977435.670                    94093553.471    22663153.535  
  22663147.711  
  22876508.250   120216849.120    22876518.305    93675526.8764   22876518.512  
                
  22427647.617   117858100.355    22427653.238    91837508.0164                 
                
  21268013.836   113609933.340                    88363278.212    21268018.848  
  21268013.348  
  23964553.594   125934583.644    23964562.324    98130887.8794   23964562.262  
                
  23366901.938   125128696.699                    97322324.585    23366907.145  
  23366901.191  
  22886005.648   121995296.839                                                  
  22886004.789  
  20961405.391   110152948.767    20961414.859    85833520.0714   20961415.230  
                
  20481352.016   109292431.176                    85005228.228    20481355.152  
  20481350.086  
 21  8 16 15 43 30.0000000  0 17G 4G16R 1G26R17G 9G31G 1R18G 6G22R12
                                G 7R 8R10G 3R 2
  20415103.555   107282140.006    20415111.129    83596523.3264   20415111.023  
                
  23278840.422   122331152.132    23278848.648    95323014.8704                 
                
  20105154.852   107473604.931                    83590584.520    20105160.410  
  20105154.344  
  22865952.617   120161452.218    22865962.770    93632321.8414   22865962.711  
                
  22089244.781   118204012.080                    91936444.214    22089249.598  
  22089242.965  
  21719672.367   114137678.302    21719680.980    88938502.9794   21719680.875  
                
  24501838.281   128758067.536    24501845.484   100331021.0874   24501845.691  
                
  24691042.109   129752290.784    24691054.262   101105712.0284   24691054.082  
                
  22661682.906   120969607.363                    94087464.799    22661687.008  
  22661681.141  
  22874271.258   120205093.646    22874281.344    93666366.7694   22874281.551  
                
  22432910.422   117885756.582    22432916.074    91859058.3104                 
                
  21260804.812   113571424.174                    88333326.662    21260809.832  
  21260804.355  
  23958326.141   125901858.550    23958334.938    98105387.8294   23958334.883  
                
  23372588.336   125159146.684                    97346007.887    23372593.473  
  23372587.559  
  22892789.000   122031455.801                                                  
  22892788.109  
  20965037.070   110172033.346    20965046.492    85848391.1694   20965046.887  
                
  20477212.203   109270340.361                    84988046.496    20477215.328  
  20477210.262  
 21  8 16 15 43 40.0000000  0 17G 4G16R 1G26R17G 9G31G 1R18G 6G22R12
                                G 7R 8R10G 3R 2
  20414938.633   107281273.363    20414946.203    83595848.0264   20414946.105  
                
  23273900.258   122305191.356    23273908.477    95302785.7104                 
                
  20107736.078   107487403.038                    83601316.373    20107741.668  
  20107735.551  
  22865437.758   120158746.588    22865447.938    93630213.5704   22865447.848  
                
  22093882.742   118228830.608                    91955747.497    22093887.547  
  22093880.965  
  21715746.953   114117050.129    21715755.574    88922429.0844   21715755.469  
                
  24508782.641   128794560.296    24508789.797   100359457.0134   24508790.039  
                
  24698277.883   129790314.796    24698290.062   101135341.0984   24698289.828  
                
  22660232.672   120961865.922                    94081443.669    22660236.770  
  22660230.879  
  22872046.359   120193401.739    22872056.492    93657256.1984   22872056.691  
                
  22438179.430   117913445.384    22438185.098    91880633.9794                 
                
  21253604.344   113532960.567                    88303410.530    21253609.348  
  21253603.887  
  23952101.883   125869150.201    23952110.766    98079900.8314   23952110.691  
                
  23378277.844   125189613.714                    97369704.454    23378283.016  
  23378277.062  
  22899581.086   122067661.388                                                  
  22899580.152  
  20968677.820   110191165.613    20968687.199    85863299.4164   20968687.617  
                
  20473076.586   109248271.965                    84970882.191    20473079.719  
  20473074.637  
 21  8 16 15 43 50.0000000  0 17G 4G16R 1G26R17G 9G31G 1R18G 6G22R12
                                G 7R 8R10G 3R 2
  20414780.273   107280441.191    20414787.836    83595199.5794   20414787.750  
                
  23268967.875   122279271.535    23268976.121    95282588.4534                 
                
  20110324.719   107501240.810                    83612079.080    20110330.301  
  20110324.195  
  22864935.125   120156105.323    22864945.336    93628155.4394   22864945.223  
                
  22098532.953   118253714.591                    91975101.719    22098537.773  
  22098531.188  
  21711826.281   114096446.908    21711834.922    88906374.6344   21711834.828  
                
  24515729.422   128831065.853    24515736.559   100387902.8974   24515736.844  
                
  24705512.672   129828334.375    24705525.039   101164966.7214   24705524.742  
                
  22658798.719   120954211.377                    94075490.134    22658802.797  
  22658796.945  
  22869833.555   120181773.351    22869843.738    93648195.1234   22869843.934  
                
  22443454.633   117941166.777    22443460.309    91902235.0624                 
                
  21246412.445   113494542.720                    88273529.993    21246417.430  
  21246411.988  
  23945880.883   125836458.511    23945889.797    98054426.8164   23945889.699  
                
  23383970.492   125220097.554                    97393414.101    23383975.672  
  23383969.641  
  22906381.820   122103913.202                                                  
  22906380.867  
  20972327.617   110210345.399    20972336.953    85878244.7014   20972337.391  
                
  20468945.242   109226226.363                    84953735.625    20468948.371  
  20468943.281  
 21  8 16 15 44  0.0000000  0 17G 4G16R 1G26R17G 9G31G 1R18G 6G22R12
                                G 7R 8R10G 3R 2
  20414628.656   107279644.435    20414636.211    83594578.7384   20414636.137  
                
  23264043.484   122253393.720    23264051.750    95262423.9354                 
                
  20112920.938   107515119.117                    83622873.313    20112926.531  
  20112920.383  
  22864444.945   120153529.409    22864455.180    93626148.2464   22864455.031  
                
  22103195.508   118278664.865                    91994507.439    22103200.355  
  22103193.805  
  21707910.539   114075869.631    21707919.207    88890340.4084   21707919.102  
                
  24522678.758   128867585.040    24522685.914   100416359.3994   24522686.242  
                
  24712746.805   129866350.384    24712759.324   101194589.5454   24712758.980  
                
  22657381.203   120946644.629                    94069604.901    22657385.277  
  22657379.473  
  22867633.023   120170209.486    22867643.227    93639184.3314   22867643.410  
                
  22448736.219   117968921.712    22448741.898    91923862.2704                 
                
  21239229.289   113456171.552                    88243685.761    21239234.266  
  21239228.828  
  23939663.250   125803784.579    23939672.145    98028966.6254   23939672.047  
                
  23389666.484   125250599.588                    97417137.822    23389671.719  
  23389665.609  
  22913191.406   122140212.144                                                  
  22913190.453  
  20975986.633   110229573.674    20975995.945    85893227.7524   20975996.406  
                
  20464818.344   109204204.479                    84936607.505    20464821.484  
  20464816.363  
 21  8 16 15 44 10.0000000  0 17G 4G16R 1G26R17G 9G31G 1R18G 6G22R12
                                G 7R 8R10G 3R 2
  20414483.445   107278881.370    20414491.000    83593984.1434   20414490.922  
                
  23259126.773   122227556.339    23259135.055    95242290.9264                 
                
  20115524.430   107529036.290                    83633697.776    20115530.020  
  20115523.840  
  22863966.867   120151017.154    22863977.133    93624190.6654   22863976.965  
                
  22107870.156   118303679.559                    92013963.280    22107874.977  
  22107868.457  
  21703999.414   114055316.593    21704008.078    88874325.0604   21704007.965  
                
  24529630.344   128904116.125    24529637.516   100444825.1574   24529637.867  
                
  24719979.922   129904361.016    24719992.566   101224208.1824   24719992.203  
                
  22655979.852   120939164.063                    94063786.672    22655983.867  
  22655978.125  
  22865444.453   120158708.475    22865454.629    93630222.5004   22865454.820  
                
  22454023.844   117996708.360    22454029.535    91945514.1844                 
                
  21232054.602   113417845.643                    88213876.742    21232059.590  
  21232054.137  
  23933448.727   125771126.771    23933457.535    98003518.9954   23933457.441  
                
  23395365.609   125281117.757                    97440874.108    23395370.801  
  23395364.703  
  22920009.508   122176556.574                                                  
  22920008.551  
  20979654.547   110248848.660    20979663.848    85908247.2184   20979664.328  
                
  20460695.578   109182204.635                    84919496.505    20460698.711  
  20460693.594  
 21  8 16 15 44 20.0000000  0 17G 4G16R 1G26R17G 9G31G 1R18G 6G22R12
                                G 7R 8R10G 3R 2
  20414344.766   107278152.601    20414352.320    83593416.2724   20414352.242  
                
  23254217.898   122201760.134    23254226.172    95222190.0164                 
                
  20118135.312   107542992.975                    83644552.953    20118140.922  
  20118134.695  
  22863501.023   120148569.189    22863511.289    93622283.1644   22863511.102  
                
  22112556.914   118328758.998                    92033469.539    22112561.668  
  22112555.215  
  21700093.023   114034788.424    21700101.664    88858329.0944   21700101.566  
                
  24536584.297   128940659.580    24536591.473   100473300.5574   24536591.855  
                
  24727212.141   129942366.738    24727224.852   101253823.0044   24727224.469  
                
  22654594.773   120931770.396                    94058036.030    22654598.762  
  22654593.023  
  22863267.977   120147270.988    22863278.098    93621310.1534   22863278.332  
                
  22459317.617   118024527.338    22459323.328    91967191.3024                 
                
  21224888.461   113379565.616                    88184103.415    21224893.484  
  21224888.020  
  23927237.312   125738485.724    23927246.098    97978084.4364   23927246.020  
                
  23401067.805   125311652.442                    97464623.284    23401072.918  
  23401066.875  
  22926836.172   122212946.513                                                  
  22926835.180  
  20983331.453   110268170.955    20983340.754    85923303.5464   20983341.230  
                
  20456577.062   109160227.471                    84902403.153    20456580.191  
  20456575.066  
 21  8 16 15 44 30.0000000  0 17G 4G16R 1G26R17G 9G31G 1R18G 6G22R12
                                G 7R 8R10G 3R 2
  20414212.633   107277458.261    20414220.191    83592875.2284   20414220.109  
                
  23249316.914   122176005.229    23249325.152    95202121.2744                 
                
  20120753.594   107556989.242                    83655438.933    20120759.207  
  20120752.965  
  22863047.445   120146185.694    22863057.703    93620425.8984   22863057.523  
                
  22117255.789   118353903.356                    92053026.245    22117260.508  
  22117254.039  
  21696191.406   114014285.290    21696200.004    88842352.6344   21696199.930  
                
  24543540.625   128977215.435    24543547.812   100501785.6384   24543548.184  
                
  24734443.430   129980367.651    24734456.207   101283434.0734   24734455.793  
                
  22653225.969   120924463.661                    94052353.055    22653229.949  
  22653224.234  
  22861103.602   120135897.151    22861113.676    93612447.4404   22861113.945  
                
  22464617.562   118052378.711    22464623.270    91988893.6474                 
                
  21217730.992   113341331.846                    88154366.048    21217736.027  
  21217730.547  
  23921029.141   125705861.606    23921037.926    97952663.0634   23921037.852  
                
  23406773.141   125342203.987                    97488385.584    23406778.129  
  23406772.246  
  22933671.406   122249382.104                                                  
  22933670.461  
  20987017.391   110287540.687    20987026.707    85938396.8294   20987027.184  
                
  20452462.820   109138273.152                    84885327.578    20452465.957  
  20452460.812  
 21  8 16 15 44 40.0000000  0 17G 4G16R 1G26R17G 9G31G 1R18G 6G22R12
                                G 7R 8R10G 3R 2
  20414087.016   107276798.127    20414094.582    83592360.8404   20414094.504  
                
  23244423.797   122150291.756    23244432.039    95182084.8084                 
                
  20123379.320   107571025.203                    83666355.798    20123384.949  
  20123378.695  
  22862606.102   120143866.470    22862616.398    93618618.7274   22862616.211  
                
  22121966.680   118379112.188                    92072633.096    22121971.402  
  22121964.902  
  21692294.508   113993806.995    21692303.066    88826395.5204   21692302.996  
                
  24550499.297   129013783.463    24550506.492   100530280.1984   24550506.844  
                
  24741673.867   130018363.463    24741686.598   101313041.1624   24741686.184  
                
  22651873.445   120917243.788                    94046737.594    22651877.426  
  22651871.754  
  22858951.328   120124586.854    22858961.402    93603634.2294   22858961.676  
                
  22469923.609   118080262.137    22469929.281    92010620.9864                 
                
  21210582.172   113303144.186                    88124664.548    21210587.180  
  21210581.723  
  23914824.133   125673254.347    23914832.938    97927254.8314   23914832.887  
                
  23412481.617   125372772.234                    97512160.918    23412486.504  
  23412480.754  
  22940515.180   122285863.143                                                  
  22940514.246  
  20990712.312   110306957.596    20990721.648    85953526.8734   20990722.125  
                
  20448352.898   109116341.844                    84868269.906    20448356.023  
  20448350.859  
 21  8 16 15 44 50.0000000  0 17G 4G16R 1G26R17G 9G31G 1R18G 6G22R12
                                G 7R 8R10G 3R 2
  20413967.961   107276172.457    20413975.531    83591873.3084   20413975.453  
                
  23239538.602   122124619.956    23239546.844    95162080.8254                 
                
  20126012.430   107585100.682                    83677303.390    20126018.043  
  20126011.805  
  22862177.039   120141611.821    22862187.391    93616861.8824   22862187.184  
                
  22126689.641   118404385.620                    92092290.224    22126694.359  
  22126687.832  
  21688402.391   113973353.806    21688410.934    88810457.9824   21688410.863  
                
  24557460.320   129050363.761    24557467.492   100558784.3234   24557467.844  
                
  24748903.266   130056354.265    24748916.039   101342644.3694   24748915.609  
                
  22650537.227   120910110.960                    94041189.841    22650541.188  
  22650535.547  
  22856811.180   120113340.360    22856821.277    93594870.7414   22856821.531  
                
  22475235.812   118108177.900    22475241.434    92032373.5244                 
                
  21203442.141   113265003.352                    88094999.464    21203447.082  
  21203441.703  
  23908622.312   125640664.232    23908631.227    97901859.9664   23908631.184  
                
  23418193.203   125403357.323                    97535949.353    23418198.027  
  23418192.363  
  22947367.469   122322389.644                                                  
  22947366.574  
  20994416.250   110326421.916    20994425.617    85968693.8724   20994426.094  
                
  20444247.305   109094433.632                    84851230.196    20444250.406  
  20444245.250  
 21  8 16 15 45  0.0000000  0 17G 4G16R 1G26R17G 9G31G 1R18G 6G22R12
                                G 7R 8R10G 3R 2
  20413855.461   107275581.255    20413863.039    83591412.6304   20413862.957  
                
  23234661.398   122098989.989    23234669.609    95142109.4254                 
                
  20128652.992   107599215.953                    83688281.923    20128658.621  
  20128652.363  
  22861760.289   120139421.803    22861770.656    93615155.3814   22861770.422  
                
  22131424.609   118429723.473                    92111997.446    22131429.328  
  22131422.789  
  21684515.062   113952925.775    21684523.605    88794540.0434   21684523.531  
                
  24564423.672   129086956.256    24564430.820   100587297.9594   24564431.152  
                
  24756131.727   130094340.009    24756144.516   101372243.6374   24756144.082  
                
  22649217.352   120903065.342                    94035709.900    22649221.289  
  22649215.680  
  22854683.203   120102157.766    22854693.301    93586157.0224   22854693.535  
                
  22480554.164   118136126.015    22480559.734    92054151.2694                 
                
  21196310.844   113226909.188                    88065370.680    21196315.730  
  21196310.410  
  23902423.789   125608091.279    23902432.766    97876478.4784   23902432.754  
                
  23423907.922   125433959.332                    97559750.918    23423912.707  
  23423907.121  
  22954228.305   122358961.728                                                  
  22954227.445  
  20998129.219   110345933.665    20998138.633    85983897.8244   20998139.090  
                
  20440146.039   109072548.466                    84834208.406    20440149.129  
  20440143.988  
 21  8 16 15 45 10.0000000  0 17G 4G16R 1G26R17G 9G31G 1R18G 6G22R12
                                G 7R 8R10G 3R 2
  20413749.492   107275024.354    20413757.086    83590978.6804   20413756.988  
                
  23229792.156   122073401.894    23229800.363    95122170.6604                 
                
  20131300.953   107613370.846                    83699291.268    20131306.574  
  20131300.328  
  22861355.797   120137296.190    22861366.172    93613499.0594   22861365.922  
                
  22136171.539   118455125.574                    92131754.626    22136176.285  
  22136169.684  
  21680632.484   113932522.743    21680641.051    88778641.5854   21680640.980  
                
  24571389.305   129123560.702    24571396.414   100615820.9164   24571396.738  
                
  24763359.062   130132320.460    24763371.969   101401838.7524   24763371.547  
                
  22647913.766   120896106.673                    94030297.628    22647917.672  
  22647912.141  
  22852567.359   120091038.927    22852577.449    93577492.9844   22852577.664  
                
  22485878.633   118164106.238    22485884.156    92075954.0294                 
                
  21189188.297   113188861.843                    88035778.310    21189193.156  
  21189187.871  
  23896228.578   125575535.462    23896237.551    97851110.3254   23896237.555  
                
  23429625.773   125464577.839                    97583565.300    23429630.496  
  23429624.977  
  22961097.586   122395578.785                                                  
  22961096.754  
  21001851.172   110365492.614    21001860.645    85999138.5544   21001861.074  
                
  20436049.055   109050686.193                    84817204.420    20436052.125  
  20436047.008  
 21  8 16 15 45 20.0000000  0 17G 4G16R 1G26R17G 9G31G 1R18G 6G22R12
                                G 7R 8R10G 3R 2
  20413650.047   107274501.751    20413657.660    83590571.4554   20413657.551  
                
  23224930.906   122047855.807    23224939.117    95102264.6414                 
                
  20133956.359   107627565.456                    83710331.512    20133962.000  
  20133955.746  
  22860963.578   120135235.180    22860973.965    93611893.0904   22860973.719  
                
  22140930.445   118480591.717                    92151561.606    22140935.219  
  22140928.566  
  21676754.680   113912144.750    21676763.285    88762762.6424   21676763.211  
                
  24578357.203   129160177.054    24578364.273   100644353.1604   24578364.590  
                
  24770585.359   130170295.529    24770598.387   101431429.6774   24770597.992  
                
  22646626.500   120889235.079                    94024953.055    22646630.383  
  22646624.926  
  22850463.648   120079983.884    22850473.688    93568878.6694   22850473.918  
                
  22491209.211   118192118.574    22491214.691    92097781.8124                 
                
  21182074.508   113150861.327                    88006222.369    21182079.363  
  21182074.082  
  23890036.648   125542996.817    23890045.598    97825755.5514   23890045.625  
                
  23435346.719   125495213.224                    97607392.812    23435351.434  
  23435345.945  
  22967975.242   122432240.585                                                  
  22967974.410  
  21005582.109   110385098.776    21005591.648    86014416.0734   21005592.047  
                
  20431956.406   109028847.069                    84800218.431    20431959.469  
  20431954.375  
 21  8 16 15 45 30.0000000  0 17G 4G16R 1G26R17G 9G31G 1R18G 6G22R12
                                G 7R 8R10G 3R 2
  20413557.148   107274013.534    20413564.781    83590191.0204   20413564.648  
                
  23220077.703   122022351.899    23220085.816    95082391.4644                 
                
  20136619.180   107641799.727                    83721402.613    20136624.828  
  20136618.594  
  22860583.664   120133238.795    22860594.066    93610337.4854   22860593.805  
                
  22145701.352   118506121.798                    92171418.313    22145706.102  
  22145699.445  
  21672881.656   113891791.907    21672890.297    88746903.2894   21672890.199  
                
  24585327.344   129196805.317    24585334.367   100672894.6684   24585334.691  
                
  24777810.711   130208265.184    24777823.789   101461016.3944   24777823.418  
                
  22645355.555   120882450.637                    94019676.285    22645359.426  
  22645354.000  
  22848372.109   120068992.773    22848382.090    93560314.1704   22848382.367  
                
  22496545.898   118220162.981    22496551.355    92119634.5874                 
                
  21174969.555   113112907.954                    87976703.102    21174974.422  
  21174969.129  
  23883848.031   125510475.488    23883856.973    97800414.2764   23883857.020  
                
  23441070.836   125525865.296                    97631233.281    23441075.484  
  23441070.059  
  22974861.328   122468947.365                                                  
  22974860.484  
  21009322.039   110404752.193    21009331.660    86029730.4194   21009332.027  
                
  20427868.117   109007031.145                    84783250.492    20427871.168  
  20427866.074  
 21  8 16 15 45 40.0000000  0 17G 4G16R 1G26R17G 9G31G 1R18G 6G22R12
                                G 7R 8R10G 3R 2
  20413470.758   107273559.563    20413478.414    83589837.2784   20413478.246  
                
  23215232.523   121996890.147    23215240.543    95062551.1264                 
                
  20139289.406   107656073.565                    83732504.464    20139295.062  
  20139288.824  
  22860216.031   120131306.963    22860226.422    93608832.1584   22860226.141  
                
  22150484.133   118531715.567                    92191324.604    22150488.883  
  22150482.238  
  21669013.406   113871464.109    21669022.051    88731063.4574   21669021.945  
                
  24592299.727   129233445.290    24592306.691   100701445.3114   24592307.012  
                
  24785035.008   130246229.198    24785048.137   101490598.7104   24785047.746  
                
  22644100.914   120875753.238                    94014467.173    22644104.781  
  22644099.391  
  22846292.719   120058065.520    22846302.664    93551799.4454   22846302.965  
                
  22501888.680   118248239.418    22501894.117    92141512.3194                 
                
  21167873.445   113075001.822                    87947220.560    21167878.301  
  21167873.016  
  23877662.664   125477971.419    23877671.602    97775086.4484   23877671.645  
                
  23446798.094   125556534.001                    97655086.710    23446802.605  
  23446797.293  
  22981755.797   122505698.808                                                  
  22981754.926  
  21013070.938   110424452.715    21013080.648    86045081.4624   21013080.969  
                
  20423784.148   108985238.322                    84766300.523    20423787.191  
  20423782.105  
 21  8 16 15 45 50.0000000  0 16G 4G16R 1G26R17G 9G31R18G 6G22R12G 7
                                R 8R10G 3R 2
  20413390.883   107273139.820    20413398.543    83589510.1964   20413398.363  
                
  23210395.398   121971470.674    23210403.359    95042743.7574                 
                
  20141967.031   107670386.984                    83743637.117    20141972.703  
  20141966.480  
  22859860.688   120129439.658    22859871.055    93607377.1404   22859870.777  
                
  22155278.758   118557372.879                    92211280.264    22155283.570  
  22155276.848  
  21665149.922   113851161.357    21665158.551    88715243.1354   21665158.461  
                
  24599274.312   129270096.913    24599281.227   100730005.0424   24599281.543  
                
  22642862.578   120869142.953                    94009325.865    22642866.484  
  22642861.074  
  22844225.484   120047202.184    22844235.430    93543334.4964   22844235.746  
                
  22507237.539   118276347.747    22507242.953    92163414.8984                 
                
  21160786.188   113037143.038                    87917774.860    21160791.066  
  21160785.754  
  23871480.688   125445484.722    23871489.500    97749772.1454   23871489.551  
                
  23452528.344   125587219.305                    97678953.048    23452532.887  
  23452527.566  
  22988658.570   122542494.577                                                  
  22988657.684  
  21016828.789   110444200.300    21016838.578    86060469.1794   21016838.859  
                
  20419704.641   108963469.315                    84749369.089    20419707.668  
  20419702.617  
 21  8 16 15 46  0.0000000  0 16G 4G16R 1G26R17G 9G31R18G 6G22R12G 7
                                R 8R10G 3R 2
  20413317.312   107272753.179    20413324.969    83589208.9224   20413324.781  
                
  23205566.109   121946092.505    23205574.055    95022968.5714                 
                
  20144651.859   107684738.859                    83754799.667    20144657.523  
  20144651.316  
  22859517.438   120127635.848    22859527.754    93605971.5774   22859527.508  
                
  22160085.047   118583092.375                    92231284.262    22160089.875  
  22160083.176  
  21661290.984   113830882.558    21661299.605    88699441.4844   21661299.523  
                
  24606250.859   129306758.925    24606257.742   100758572.8414   24606258.070  
                
  22641640.352   120862618.598                    94004251.347    22641644.285  
  22641638.855  
  22842170.211   120036401.646    22842180.184    93534918.4864   22842180.477  
                
  22512592.227   118304486.758    22512597.637    92185341.3944                 
                
  21153707.625   112999330.619                    87888365.226    21153712.480  
  21153707.188  
  23865301.781   125413014.274    23865310.535    97724470.5094   23865310.578  
                
  23458261.523   125617920.342                    97702831.591    23458266.098  
  23458260.680  
  22995569.422   122579333.366                                                  
  22995568.547  
  21020595.391   110463993.819    21020605.246    86075892.6944   21020605.496  
                
  20415629.219   108941722.124                    84732454.610    20415632.227  
  20415627.207  
 21  8 16 15 46 10.0000000  0 16G 4G16R 1G26R17G 9G31R18G 6G22R12G 7
                                R 8R10G 3R 2
  20413250.406   107272401.559    20413258.055    83588934.9334   20413257.875  
                
  23200745.070   121920757.660    23200752.973    95003227.1494                 
                
  20147344.242   107699131.133                    83765993.659    20147349.910  
  20147343.727  
  22859186.617   120125897.450    22859196.891    93604616.9894   22859196.664  
                
  22164903.359   118608875.959                    92251338.160    22164908.156  
  22164901.516  
  21657436.977   113810629.655    21657445.598    88683660.0144   21657445.516  
                
  24613229.727   129343433.118    24613236.613   100787150.1384   24613236.941  
                
  22640434.578   120856182.076                    93999245.199    22640438.535  
  22640433.055  
  22840127.258   120025665.847    22840137.285    93526552.9484   22840137.539  
                
  22517953.109   118332658.317    22517958.520    92207293.2484                 
                
  21146638.125   112961566.685                    87858993.280    21146642.965  
  21146637.680  
  23859126.305   125380561.987    23859135.070    97699183.0334   23859135.074  
                
  23463997.938   125648638.712                    97726723.623    23464002.523  
  23463997.074  
  23002488.750   122616217.283                                                  
  23002487.848  
  21024371.086   110483835.150    21024380.988    86091353.4614   21024381.191  
                
  20411558.320   108919999.016                    84715558.875    20411561.301  
  20411556.309  
 21  8 16 15 46 20.0000000  0 16G 4G16R 1G26R17G 9G31R18G 6G22R12G 7
                                R 8R10G 3R 2
  20413190.133   107272084.841    20413197.777    83588688.1374   20413197.598  
                
  23195932.273   121895466.139    23195940.137    94983519.4814                 
                
  20150044.180   107713563.814                    83777219.064    20150049.848  
  20150043.676  
  22858868.227   120124224.351    22858878.508    93603313.3084   22858878.273  
                
  22169733.578   118634723.309                    92271441.626    22169738.383  
  22169731.766  
  21653587.883   113790402.540    21653596.496    88667898.6324   21653596.406  
                
  24620210.883   129380119.319    24620217.797   100815736.7854   24620218.121  
                
  22639245.258   120849833.402                    93994307.349    22639249.207  
  22639243.711  
  22838096.609   120014994.747    22838106.664    93518237.8274   22838106.895  
                
  22523320.141   118360862.256    22523325.531    92229270.3344                 
                
  21139577.703   112923851.259                    87829659.073    21139582.543  
  21139577.238  
  23852954.258   125348127.887    23852963.082    97673909.7324   23852963.062  
                
  23469737.578   125679374.312                    97750629.084    23469742.199  
  23469736.691  
  23009416.422   122653145.762                                                  
  23009415.488  
  21028155.859   110503724.158    21028165.781    86106851.3794   21028165.977  
                
  20407491.969   108898300.197                    84698682.020    20407494.918  
  20407489.949  
 21  8 16 15 46 30.0000000  0 16G 4G16R 1G26R17G 9G31R18G 6G22R12G 7
                                R 8R10G 3R 2
  20413136.406   107271802.496    20413144.043    83588468.1274   20413143.875  
                
  23191127.633   121870217.550    23191135.484    94963845.2744                 
                
  20152751.531   107728036.162                    83788475.340    20152757.207  
  20152751.027  
  22858562.172   120122616.087    22858572.488    93602060.1224   22858572.211  
                
  22174575.586   118660633.737                    92291594.184    22174580.410  
  22174573.812  
  21649743.594   113770200.710    21649752.211    88652156.9544   21649752.125  
                
  24627194.211   129416816.899    24627201.145   100844332.3014   24627201.461  
                
  22638072.289   120843572.042                    93989437.381    22638076.215  
  22638070.715  
  22836078.172   120004387.862    22836088.191    93509972.7144   22836088.449  
                
  22528693.242   118389098.057    22528698.613    92251272.2434                 
                
  21132526.273   112886183.859                    87800362.230    21132531.125  
  21132525.789  
  23846785.570   125315711.453    23846794.453    97648650.2084   23846794.426  
                
  23475480.359   125710126.692                    97774547.584    23475485.020  
  23475479.512  
  23016352.328   122690118.157                                                  
  23016351.402  
  21031949.594   110523660.284    21031959.496    86122386.0054   21031959.695  
                
  20403430.016   108876624.900                    84681823.454    20403432.969  
  20403428.008  
 21  8 16 15 46 40.0000000  0 16G 4G16R 1G26R17G 9G31R18G 6G22R12G 7
                                R 8R10G 3R 2
  20413089.203   107271554.455    20413096.836    83588274.8454   20413096.672  
                
  23186331.172   121845011.908    23186339.039    94944204.5374                 
                
  20155466.344   107742548.372                    83799762.600    20155472.016  
  20155465.820  
  22858268.453   120121072.617    22858278.801    93600857.4314   22858278.520  
                
  22179429.344   118686607.091                    92311795.670    22179434.234  
  22179427.629  
  21645904.117   113750024.141    21645912.758    88636434.9634   21645912.656  
                
  24634179.688   129453525.780    24634186.660   100872936.6164   24634186.965  
                
  22636915.656   120837397.899                    93984635.288    22636919.598  
  22636914.070  
  22834071.961   119993845.185    22834081.953    93501757.6434   22834082.273  
                
  22534072.383   118417365.589    22534077.789    92273298.8714                 
                
  21125483.883   112848564.776                    87771102.960    21125488.742  
  21125483.418  
  23840620.297   125283312.781    23840629.215    97623404.5204   23840629.164  
                
  23481226.312   125740895.730                    97798479.041    23481230.977  
  23481225.465  
  23023296.461   122727134.254                                                  
  23023295.516  
  21035752.281   110543643.438    21035762.164    86137957.2884   21035762.367  
                
  20399372.469   108854973.056                    84664983.141    20399375.418  
  20399370.449  
 21  8 16 15 46 50.0000000  0 16G 4G16R 1G26R17G 9G31R18G 6G22R12G 7
                                R 8R10G 3R 2
  20413048.508   107271340.589    20413056.145    83588108.2024   20413055.977  
                
  23181542.883   121819849.293    23181550.758    94924597.3244                 
                
  20158188.562   107757100.200                    83811080.684    20158194.219  
  20158188.023  
  22857987.055   120119593.865    22857997.391    93599705.1574   22857997.102  
                
  22184294.812   118712643.015                    92332045.791    22184299.758  
  22184293.113  
  21642069.422   113729872.738    21642078.090    88620732.5794   21642077.965  
                
  24641167.266   129490245.729    24641174.277   100901549.5504   24641174.590  
                
  22635775.383   120831311.111                    93979901.100    22635779.320  
  22635773.750  
  22832077.953   119983366.646    22832087.918    93493592.5454   22832088.273  
                
  22539457.516   118445664.696    22539463.008    92295350.0964                 
                
  21118450.523   112810993.814                    87741881.110    21118455.359  
  21118450.062  
  23834458.398   125250931.797    23834467.301    97598172.6014   23834467.234  
                
  23486975.297   125771681.313                    97822423.383    23486979.977  
  23486974.461  
  23030248.758   122764193.860                                                  
  23030247.746  
  21039563.883   110563673.509    21039573.746    86153565.1294   21039573.949  
                
  20395319.336   108833344.815                    84648161.168    20395322.301  
  20395317.316  
 21  8 16 15 47  0.0000000  0 16G 4G16R 1G26R17G 9G31R18G 6G22R12G 7
                                R 8R10G 3R 2
  20413014.352   107271161.073    20413021.988    83587968.3234   20413021.816  
                
  23176762.852   121794730.064    23176770.691    94905023.9204                 
                
  20160918.234   107771691.838                    83822429.721    20160923.883  
  20160917.688  
  22857718.000   120118180.000    22857728.305    93598603.4544   22857728.027  
                
  22189172.016   118738741.663                    92352344.748    22189176.930  
  22189170.312  
  21638239.562   113709746.682    21638248.219    88605049.9424   21638248.098  
                
  24648156.969   129526976.901    24648164.016   100930171.2214   24648164.328  
                
  22634651.453   120825311.578                    93975234.803    22634655.402  
  22634649.805  
  22830096.195   119972952.434    22830106.195    93485477.5744   22830106.520  
                
  22544848.711   118473995.566    22544854.277    92317426.0874                 
                
  21111426.258   112773471.463                    87712697.056    21111431.059  
  21111425.781  
  23828299.945   125218568.753    23828308.820    97572954.6634   23828308.738  
                
  23492727.438   125802483.634                    97846380.725    23492732.113  
  23492726.625  
  23037209.242   122801297.266                                                  
  23037208.188  
  21043384.445   110583750.617    21043394.277    86169209.6224   21043394.488  
                
  20391270.680   108811740.425                    84631357.768    20391273.648  
  20391268.652  
 21  8 16 15 47 10.0000000  0 16G 4G16R 1G26R17G 9G31R18G 6G22R12G 7
                                R 8R10G 3R 2
  20412986.703   107271015.782    20412994.340    83587855.1084   20412994.160  
                
  23171991.062   121769654.138    23171998.859    94885484.2524                 
                
  20163655.344   107786323.245                    83833809.689    20163661.012  
  20163654.809  
  22857461.281   120116830.948    22857471.547    93597552.2514   22857471.289  
                
  22194060.852   118764902.591                    92372692.129    22194065.766  
  22194059.141  
  21634414.492   113689645.879    21634423.113    88589386.9824   21634423.008  
                
  24655148.750   129563718.949    24655155.793   100958801.3674   24655156.109  
                
  22633543.898   120819399.321                    93970636.394    22633547.832  
  22633542.246  
  22828126.656   119962602.450    22828136.711    93477412.6594   22828136.957  
                
  22550245.898   118502357.987    22550251.453    92339526.6624                 
                
  21104411.094   112735997.755                    87683550.851    21104415.887  
  21104410.605  
  23822144.828   125186223.573    23822153.727    97547750.6414   23822153.621  
                
  23498482.664   125833302.354                    97870350.833    23498487.270  
  23498481.855  
  23044177.797   122838443.682                                                  
  23044176.773  
  21047213.930   110603874.627    21047223.742    86184890.6584   21047223.949  
                
  20387226.383   108790159.372                    84614572.500    20387229.348  
  20387224.340  
 21  8 16 15 47 20.0000000  0 16G 4G16R 1G26R17G 9G31R18G 6G22R12G 7
                                R 8R10G 3R 2
  20412965.602   107270904.910    20412973.238    83587768.7184   20412973.055  
                
  23167227.570   121744621.747    23167235.328    94865978.5124                 
                
  20166399.922   107800994.590                    83845220.730    20166405.621  
  20166399.387  
  22857216.930   120115546.921    22857227.148    93596551.7264   22857226.922  
                
  22198961.367   118791126.018                    92393088.124    22198966.254  
  22198959.629  
  21630594.281   113669570.552    21630602.891    88573743.8834   21630602.789  
                
  24662142.617   129600472.043    24662149.664   100987440.1374   24662149.988  
                
  22632452.711   120813574.556                    93966106.042    22632456.656  
  22632451.059  
  22826169.383   119952316.954    22826179.434    93469397.9944   22826179.660  
                
  22555649.125   118530752.104    22555654.645    92361651.9424                 
                
  21097405.078   112698572.964                    87654442.710    21097409.879  
  21097404.578  
  23815993.180   125153896.478    23816002.070    97522560.7084   23816001.934  
                
  23504240.969   125864137.937                    97894334.072    23504245.633  
  23504240.164  
  23051154.523   122875633.600                                                  
  23051153.547  
  21051052.359   110624045.694    21051062.168    86200608.3634   21051062.363  
                
  20383186.664   108768602.710                    84597806.218    20383189.641  
  20383184.613  
 21  8 16 15 47 30.0000000  0 16G 4G16R 1G26R17G 9G31R18G 6G22R12G 7
                                R 8R10G 3R 2
  20412951.023   107270828.266    20412958.664    83587708.9924   20412958.473  
                
  23162472.383   121719632.981    23162480.102    94846506.7634                 
                
  20169151.945   107815705.705                    83856662.718    20169157.676  
  20169151.410  
  22856984.938   120114327.763    22856995.125    93595601.7604   22856994.914  
                
  22203873.453   118817411.468                    92413532.350    22203878.320  
  22203871.691  
  21626778.898   113649520.533    21626787.488    88558120.4914   21626787.395  
                
  24669138.578   129637235.955    24669145.582   101016087.3474   24669145.902  
                
  22631377.906   120807837.192                    93961643.657    22631381.879  
  22631376.238  
  22824224.367   119942095.835    22824234.348    93461433.4784   22824234.602  
                
  22561058.359   118559177.686    22561063.902    92383801.7324                 
                
  21090408.266   112661197.219                    87625372.706    21090413.066  
  21090407.766  
  23809844.914   125121587.362    23809853.840    97497384.7954   23809853.668  
                
  23510002.383   125894990.087                    97918330.161    23510007.055  
  23510001.559  
  23058139.312   122912866.459                                                  
  23058138.371  
  21054899.719   110644263.610    21054909.508    86216362.5694   21054909.695  
                
  20379151.391   108747069.649                    84581058.296    20379154.359  
  20379149.336  
 21  8 16 15 47 40.0000000  0 16G 4G16R 1G26R17G 9G31R18G 6G22R12G 7
                                R 8R10G 3R 2
  20412942.930   107270785.711    20412950.578    83587675.8334   20412950.391  
                
  23157725.516   121694687.925    23157733.230    94827069.0774                 
                
  20171911.367   107830456.393                    83868135.456    20171917.133  
  20171910.824  
  22856765.281   120113173.426    22856775.457    93594702.2804   22856775.246  
                
  22208797.102   118843758.807                    92434024.701    22208801.953  
  22208795.309  
  21622968.305   113629495.739    21622976.871    88542516.7644   21622976.785  
                
  24676136.555   129674010.454    24676143.523   101044742.8084   24676143.844  
                
  22630319.461   120802187.209                    93957249.178    22630323.453  
  22630317.727  
  22822291.578   119931938.980    22822301.488    93453519.0424   22822301.820  
                
  22566473.523   118587634.539    22566479.160    92405975.8894                 
                
  21083420.609   112623870.440                    87596340.772    21083425.402  
  21083420.133  
  23803700.102   125089296.203    23803709.078    97472222.8694   23803708.840  
                
  23515766.914   125925858.647                    97942339.036    23515771.574  
  23515766.039  
  23065132.094   122950141.797                                                  
  23065131.133  
  21058755.953   110664528.259    21058765.691    86232153.1964   21058765.898  
                
  20375120.648   108725560.837                    84564329.214    20375123.605  
  20375118.594  
 21  8 16 15 47 50.0000000  0 16G 4G16R 1G26R17G 9G31R18G 6G22R12G 7
                                R 8R10G 3R 2
  20412941.336   107270777.374    20412948.988    83587669.3364   20412948.809  
                
  23152986.984   121669786.644    23152994.672    94807665.5004                 
                
  20174678.234   107845246.916                    83879639.185    20174684.027  
  20174677.684  
  22856557.961   120112084.006    22856568.148    93593853.3864   22856567.941  
                
  22213732.234   118870167.879                    92454565.048    22213737.141  
  22213730.398  
  21619162.531   113609496.306    21619171.102    88526932.7984   21619171.000  
                
  24683136.555   129710795.555    24683143.504   101073406.5324   24683143.809  
                
  22629277.344   120796624.382                    93952922.562    22629281.363  
  22629275.609  
  22820371.031   119921846.545    22820380.914    93445654.8204   22820381.289  
                
  22571894.664   118616122.797    22571900.387    92428174.5054                 
                
  21076442.156   112586592.871                    87567347.120    21076446.945  
  21076441.664  
  23797558.727   125057023.173    23797567.770    97447075.0774   23797567.484  
                
  23521534.531   125956743.720                    97966360.742    23521539.184  
  23521533.629  
  23072132.906   122987460.070                                                  
  23072131.965  
  21062621.086   110684839.682    21062630.766    86247980.2704   21062630.992  
                
  20371094.328   108704075.668                    84547618.535    20371097.297  
  20371092.238  
 21  8 16 15 48  0.0000000  0 16G 4G16R 1G26R17G 9G31R18G 6G22R12G 7
                                R 8R10G 3R 2
  20412946.234   107270803.082    20412953.898    83587689.3764   20412953.699  
                
  23148256.789   121644929.201    23148264.414    94788296.0714                 
                
  20177452.531   107860077.140                    83891173.784    20177458.375  
  20177451.969  
  22856362.977   120111059.367    22856373.160    93593054.9854   22856372.973  
                
  22218678.797   118896638.483                    92475153.296    22218683.820  
  22218676.973  
  21615361.555   113589522.095    21615370.145    88511368.4834   21615370.035  
                
  24690138.523   129747591.080    24690145.488   101102078.3744   24690145.785  
                
  22628251.625   120791148.983                    93948663.921    22628255.641  
  22628249.902  
  22818462.734   119911818.420    22818472.621    93437840.7054   22818473.000  
                
  22577321.742   118644642.252    22577327.480    92450397.4314                 
                
  21069472.906   112549364.490                    87538391.729    21069477.691  
  21069472.383  
  23791420.781   125024768.174    23791429.867    97421941.3374   23791429.562  
                
  23527305.156   125987645.218                    97990395.256    23527309.887  
  23527304.250  
  23079141.656   123024820.699                                                  
  23079140.715  
  21066495.094   110705197.743    21066504.719    86263843.6814   21066504.973  
                
  20367072.523   108682614.603                    84530926.607    20367075.500  
  20367070.422  
 21  8 16 15 48 10.0000000  0 16G 4G16R 1G26R17G 9G31R18G 6G22R12G 7
                                R 8R10G 3R 2
  20412957.641   107270863.046    20412965.324    83587736.1004   20412965.109  
                
  23143534.992   121620115.875    23143542.551    94768961.0264                 
                
  20180234.273   107874947.142                    83902739.340    20180240.148  
  20180233.695  
  22856180.359   120110099.767    22856190.559    93592307.2634   22856190.363  
                
  22223636.906   118923170.606                    92495789.410    22223641.973  
  22223635.082  
  21611565.422   113569573.323    21611574.020    88495824.0004   21611573.906  
                
  24697142.484   129784397.086    24697149.477   101130758.3734   24697149.750  
                
  22627242.258   120785760.990                    93944473.280    22627246.281  
  22627240.551  
  22816566.719   119901854.866    22816576.648    93430076.9074   22816576.973  
                
  22582754.797   118673193.073    22582760.535    92472644.8154                 
                
  21062512.938   112512185.721                    87509474.919    21062517.738  
  21062512.418  
  23785286.273   124992531.418    23785295.449    97396821.8194   23785295.145  
                
  23533078.852   126018563.267                    98014442.593    23533083.641  
  23533077.961  
  23086158.375   123062223.741                                                  
  23086157.434  
  21070378.000   110725602.569    21070387.570    86279743.5444   21070387.859  
                
  20363055.203   108661177.462                    84514253.290    20363058.188  
  20363053.074  
 21  8 16 15 48 20.0000000  0 16G 4G16R 1G26R17G 9G31R18G 6G22R12G 7
                                R 8R10G 3R 2
  20412975.578   107270957.296    20412983.285    83587809.5454   20412983.059  
                
  23138821.625   121595346.839    23138829.137    94749660.4904                 
                
  20183023.469   107889857.022                    83914335.903    20183029.375  
  20183022.879  
  22856010.141   120109205.254    22856020.367    93591610.2494   22856020.168  
                
  22228606.492   118949764.108                    92516473.205    22228611.594  
  22228604.699  
  21607774.148   113549650.064    21607782.746    88480299.3884   21607782.621  
                
  24704148.445   129821213.559    24704155.488   101159446.5324   24704155.734  
                
  22626249.320   120780460.647                    93940350.796    22626253.383  
  22626247.605  
  22814683.016   119891955.957    22814692.980    93422363.4644   22814693.270  
                
  22588193.812   118701775.190    22588199.582    92494916.5834                 
                
  21055562.328   112475056.785                    87480596.860    21055567.145  
  21055561.820  
  23779155.281   124960312.998    23779164.512    97371716.5794   23779164.215  
                
  23538855.672   126049497.905                    98038502.876    23538860.469  
  23538854.840  
  23093183.000   123099668.986                                                  
  23093181.996  
  21074269.828   110746054.215    21074279.344    86295679.8724   21074279.672  
                
  20359042.422   108639764.515                    84497598.782    20359045.418  
  20359040.301  
 21  8 16 15 48 30.0000000  0 16G 4G16R 1G26R17G 9G31R18G 6G22R12G 7
                                R 8R10G 3R 2
  20413000.000   107271085.653    20413007.730    83587909.5664   20413007.488  
                
  23134116.664   121570622.026    23134124.117    94730394.4184                 
                
  20185820.109   107904806.601                    83925963.351    20185826.023  
  20185819.543  
  22855852.266   120108375.649    22855862.504    93590963.8274   22855862.297  
                
  22233587.547   118976418.637                    92537204.456    22233592.613  
  22233585.770  
  21603987.703   113529752.165    21603996.301    88464794.5384   21603996.184  
                
  24711156.328   129858040.283    24711163.445   101188142.6794   24711163.637  
                
  22625272.727   120775247.543                    93936296.155    22625276.789  
  22625271.000  
  22812811.586   119882121.509    22812821.547    93414700.2704   22812821.828  
                
  22593638.734   118730388.392    22593644.512    92517212.5714                 
                
  21048620.992   112437977.535                    87451757.478    21048625.867  
  21048620.465  
  23773027.805   124928112.812    23773037.027    97346625.5514   23773036.758  
                
  23544635.602   126080449.077                    98062576.051    23544640.402  
  23544634.777  
  23100215.492   123137156.194                                                  
  23100214.449  
  21078170.508   110766552.455    21078179.988    86311652.5244   21078180.336  
                
  20355034.219   108618375.991                    84480963.254    20355037.227  
  20355032.102  
 21  8 16 15 48 40.0000000  0 16G 4G16R 1G26R17G 9G31R18G 6G22R12G 7
                                R 8R10G 3R 2
  20413030.930   107271248.196    20413038.680    83588036.2244   20413038.426  
                
  23129420.164   121545941.679    23129427.562    94711163.0044                 
                
  20188624.172   107919795.914                    83937621.701    20188630.098  
  20188623.590  
  22855706.773   120107611.096    22855717.023    93590368.0934   22855716.809  
                
  22238580.062   119003134.368                    92557983.335    22238585.059  
  22238578.312  
  21600206.102   113509879.715    21600214.703    88449309.5184   21600214.590  
                
  24718166.133   129894877.163    24718173.301   101216846.7354   24718173.480  
                
  22624312.547   120770122.076                    93932309.684    22624316.605  
  22624310.820  
  22810952.453   119872351.720    22810962.375    93407087.4254   22810962.637  
                
  22599089.586   118759032.712    22599095.379    92539532.8094                 
                
  21041689.023   112400948.366                    87422957.047    21041693.941  
  21041688.449  
  23766903.906   124895931.120    23766913.031    97321548.9304   23766912.797  
                
  23550418.555   126111416.646                    98086661.940    23550423.414  
  23550417.715  
  23107255.914   123174685.602                                                  
  23107254.812  
  21082080.070   110787097.333    21082089.531    86327661.5124   21082089.906  
                
  20351030.531   108597011.571                    84464346.482    20351033.551  
  20351028.418  
 21  8 16 15 48 50.0000000  0 16G 4G16R 1G26R17G 9G31R18G 6G22R12G 7
                                R 8R10G 3R 2
  20413068.367   107271444.925    20413076.133    83588189.5184   20413075.879  
                
  23124732.164   121521305.952    23124739.520    94691966.3314                 
                
  20191435.719   107934825.219                    83949311.145    20191441.633  
  20191435.125  
  22855573.664   120106911.623    22855583.934    93589823.0534   22855583.727  
                
  22243583.945   119029910.886                    92578809.550    22243588.844  
  22243582.215  
  21596429.352   113490032.761    21596437.945    88433844.3624   21596437.840  
                
  24725177.859   129931724.228    24725185.070   101245558.7134   24725185.230  
                
  22623368.727   120765083.947                    93928391.162    22623372.785  
  22623366.973  
  22809105.625   119862646.585    22809115.477    93399524.9904   22809115.762  
                
  22604546.352   118787708.126    22604552.180    92561877.2664                 
                
  21034766.461   112363969.319                    87394195.580    21034771.367  
  21034765.871  
  23760783.531   124863767.961    23760792.562    97296486.7544   23760792.352  
                
  23556204.562   126142400.752                    98110760.671    23556209.504  
  23556203.746  
  23114304.148   123212256.661                                                  
  23114303.023  
  21085998.516   110807688.862    21086007.969    86343706.8494   21086008.355  
                
  20347031.398   108575671.477                    84447748.660    20347034.461  
  20347029.293  
 21  8 16 15 49  0.0000000  0 16G 4G16R 1G26R17G 9G31R18G 6G22R12G 7
                                R 8R10G 3R 2
  20413112.289   107271675.776    20413120.074    83588369.4064   20413119.816  
                
  23120052.656   121496714.865    23120059.949    94672804.4514                 
                
  20194254.703   107949894.265                    83961031.512    20194260.621  
  20194254.102  
  22855452.930   120106277.192    22855463.234    93589328.7044   22855463.023  
                
  22248599.188   119056748.109                    92599682.946    22248604.000  
  22248597.445  
  21592657.445   113470211.264    21592666.035    88418399.0414   21592665.934  
                
  24732191.500   129968581.222    24732198.703   101274278.4434   24732198.863  
                
  22622441.305   120760133.256                    93924540.611    22622445.344  
  22622439.562  
  22807271.094   119853006.073    22807280.898    93392012.9194   22807281.203  
                
  22610009.023   118816414.563    22610014.883    92584245.8904                 
                
  21027853.305   112327040.520                    87365473.179    21027858.176  
  21027852.727  
  23754666.688   124831623.295    23754675.586    97271438.9754   23754675.410  
                
  23561993.664   126173401.138                    98134872.083    23561998.617  
  23561992.855  
  23121360.195   123249869.291                                                  
  23121359.066  
  21089925.812   110828326.932    21089935.270    86359788.4494   21089935.664  
                
  20343036.883   108554356.020                    84431169.976    20343039.961  
  20343034.770  
 21  8 16 15 49 10.0000000  0 16G 4G16R 1G26R17G 9G31R18G 6G22R12G 7
                                R 8R10G 3R 2
  20413162.727   107271940.834    20413170.527    83588575.9484   20413170.270  
                
  23115381.672   121472168.667    23115388.949    94653677.5504                 
                
  20197081.148   107965003.229                    83972782.908    20197087.047  
  20197080.559  
  22855344.594   120105707.919    22855354.902    93588885.1264   22855354.695  
                
  22253625.734   119083645.893                    92620603.422    22253630.488  
  22253623.969  
  21588890.398   113450415.320    21588898.996    88402973.6444   21588898.891  
                
  24739207.031   130005448.169    24739214.191   101303005.9354   24739214.375  
                
  22621530.281   120755270.188                    93920758.212    22621534.348  
  22621528.555  
  22805448.898   119843430.360    22805458.719    93384551.3244   22805459.004  
                
  22615477.602   118845151.984    22615483.449    92606638.6794                 
                
  21020949.617   112290162.244                    87336790.083    21020954.457  
  21020949.043  
  23748553.352   124799497.223    23748562.137    97246405.6894   23748562.023  
                
  23567785.820   126204417.906                    98158996.241    23567790.766  
  23567785.031  
  23128424.039   123287523.481                                                  
  23128422.941  
  21093861.984   110849011.623    21093871.473    86375906.3844   21093871.855  
                
  20339046.977   108533065.113                    84414610.391    20339050.090  
  20339044.852  
 21  8 16 15 49 20.0000000  0 16G 4G16R 1G26R17G 9G31R18G 6G22R12G 7
                                R 8R10G 3R 2
  20413219.664   107272240.036    20413227.469    83588809.0944   20413227.215  
                
  23110719.242   121447667.437    23110726.551    94634585.6994                 
                
  20199915.070   107980152.073                    83984565.351    20199920.957  
  20199914.500  
  22855248.641   120105203.738    22855258.953    93588492.2664   22855258.766  
                
  22258663.594   119110604.081                    92641570.867    22258668.270  
  22258661.789  
  21585128.203   113430644.902    21585136.828    88387568.1294   21585136.715  
                
  24746224.453   130042324.938    24746231.559   101331741.0944   24746231.758  
                
  22620635.688   120750494.798                    93917044.030    22620639.801  
  22620633.984  
  22803639.008   119833919.388    22803648.863    93377140.1644   22803649.125  
                
  22620952.070   118873920.386    22620957.883    92629055.6104                 
                
  21014055.406   112253334.578                    87308146.351    21014060.238  
  21014054.852  
  23742443.516   124767389.742    23742452.195    97221386.8894   23742452.129  
                
  23573581.125   126235451.216                    98183133.250    23573586.027  
  23573580.262  
  23135495.641   123325219.131                                                  
  23135494.590  
  21097807.008   110869742.814    21097816.539    86392060.5504   21097816.895  
                
  20335061.570   108511798.271                    84398069.511    20335064.703  
  20335059.445  
 21  8 16 15 49 30.0000000  0 16G 4G16R 1G26R17G 9G31R18G 6G22R12G 7
                                R 8R10G 3R 2
  20413283.094   107272573.401    20413290.910    83589068.8604   20413290.652  
                
  23106065.383   121423211.263    23106072.770    94615528.9564                 
                
  20202756.453   107995340.888                    83996378.860    20202762.301  
  20202755.902  
  22855165.086   120104764.736    22855175.422    93588150.1934   22855175.227  
                
  22263712.727   119137622.643                    92662585.304    22263717.328  
  22263710.875  
  21581370.883   113410900.074    21581379.531    88372182.5594   21581379.418  
                
  24753243.742   130079211.510    24753250.812   101360483.8854   24753251.043  
                
  22619757.477   120745806.960                    93913397.906    22619761.617  
  22619755.785  
  22801841.477   119824473.235    22801851.363    93369779.5284   22801851.578  
                
  22626432.406   118902719.669    22626438.188    92651496.5954                 
                
  21007170.680   112216557.638                    87279542.082    21007175.516  
  21007170.121  
  23736337.297   124735301.021    23736345.801    97196382.6994   23736345.801  
                
  23579379.406   126266500.895                    98207283.004    23579384.363  
  23579378.559  
  23142574.977   123362956.001                                                  
  23142573.957  
  21101760.883   110890520.539    21101770.453    86408250.9784   21101770.801  
                
  20331080.820   108490556.250                    84381547.948    20331083.965  
  20331078.699  
 21  8 16 15 49 40.0000000  0 16G 4G16R 1G26R17G 9G31R18G 6G22R12G 7
                                R 8R10G 3R 2
  20413353.031   107272940.929    20413360.859    83589355.2414   20413360.605  
                
  23101420.125   121398800.285    23101427.617    94596507.4394                 
                
  20205605.297   108010569.509                    84008223.343    20205611.137  
  20205604.770  
  22855093.938   120104390.916    22855104.289    93587858.9104   22855104.086  
                
  22268773.031   119164701.249                    92683646.405    22268777.629  
  22268771.164  
  21577618.438   113391180.840    21577627.090    88356816.9264   21577626.961  
                
  24760264.906   130116107.811    24760271.949   101389234.2554   24760272.195  
                
  22618895.680   120741206.595                    93909819.873    22618899.844  
  22618894.012  
  22800056.281   119815091.916    22800066.156    93362469.4214   22800066.348  
                
  22631918.609   118931549.792    22631924.355    92673961.5974                 
                
  21000295.484   112179831.655                    87250977.455    21000300.332  
  21000294.930  
  23730234.656   124703231.114    23730243.027    97171393.1704   23730243.070  
                
  23585180.781   126297566.961                    98231445.499    23585185.762  
  23585179.879  
  23149662.023   123400733.894                                                  
  23149661.051  
  21105723.625   110911344.759    21105733.234    86424477.6344   21105733.570  
                
  20327104.656   108469338.712                    84365045.432    20327107.820  
  20327102.539  
 21  8 16 15 49 50.0000000  0 16G 4G16R 1G26R17G 9G31R18G 6G22R12G 7
                                R 8R10G 3R 2
  20413429.438   107273342.473    20413437.277    83589668.1354   20413437.020  
                
  23096783.430   121374434.385    23096791.043    94577521.0664                 
                
  20208461.586   108025837.950                    84020098.795    20208467.387  
  20208461.082  
  22855035.164   120104082.165    22855045.539    93587618.3524   22855045.340  
                
  22273844.539   119191839.718                    92704754.142    22273849.125  
  22273842.660  
  21573870.844   113371487.101    21573879.492    88341471.1574   21573879.363  
                
  24767287.859   130153013.608    24767294.902   101417992.0204   24767295.148  
                
  22618050.273   120736693.738                    93906309.872    22618054.418  
  22618048.617  
  22798283.398   119805775.365    22798293.227    93355209.7744   22798293.422  
                
  22637410.664   118960410.631    22637416.391    92696450.5634                 
                
  20993429.836   112143156.616                    87222452.440    20993434.676  
  20993429.309  
  23724135.445   124671179.945    23724143.777    97146418.2494   23724143.875  
                
  23590985.188   126328649.333                    98255620.662    23590990.195  
  23590984.281  
  23156756.688   123438552.409                                                  
  23156755.715  
  21109695.164   110932215.290    21109704.828    86440740.3884   21109705.145  
                
  20323133.141   108448146.021                    84348562.234    20323136.320  
  20323131.023  
 21  8 16 15 50  0.0000000  0 16G 4G16R 1G26R17G 9G31R18G 6G22R12G 7
                                R 8R10G 3R 2
  20413512.383   107273778.330    20413520.242    83590007.7654   20413519.980  
                
  23092155.406   121350114.006    23092163.125    94558570.1484                 
                
  20211325.352   108041146.348                    84032005.319    20211331.113  
  20211324.848  
  22854988.844   120103838.807    22854999.246    93587428.7434   22854999.051  
                
  22278927.242   119219038.216                    92725908.513    22278931.828  
  22278925.367  
  21570128.156   113351819.167    21570136.801    88326145.4974   21570136.668  
                
  24774312.672   130189929.131    24774319.723   101446757.3564   24774319.977  
                
  22617221.328   120732268.711                    93902868.220    22617225.461  
  22617219.711  
  22796522.906   119796523.901    22796532.676    93348000.8594   22796532.930  
                
  22642908.609   118989302.438    22642914.332    92718963.6524                 
                
  20986573.828   112106532.990                    87193967.402    20986578.652  
  20986573.312  
  23718039.914   124639147.848    23718048.152    97121458.1884   23718048.301  
                
  23596792.711   126359748.247                    98279808.718    23596797.727  
  23596791.809  
  23163859.055   123476411.857                                                  
  23163858.094  
  21113675.578   110953132.427    21113685.316    86457039.4494   21113685.602  
                
  20319166.234   108426977.893                    84332098.140    20319169.426  
  20319164.102  
 21  8 16 15 50 10.0000000  0 16G 4G16R 1G26R17G 9G31R18G 6G22R12G 7
                                R 8R10G 3R 2
  20413601.789   107274248.223    20413609.656    83590373.9154   20413609.383  
                
  23087536.070   121325839.236    23087543.824    94539654.7424                 
                
  20214196.562   108056494.608                    84043942.854    20214202.289  
  20214196.059  
  22854954.914   120103660.588    22854965.336    93587289.8864   22854965.148  
                
  22284021.039   119246296.149                    92747109.081    22284025.664  
  22284019.164  
  21566390.328   113332176.790    21566398.965    88310839.7504   21566398.832  
                
  24781339.234   130226854.010    24781346.312   101475529.9824   24781346.590  
                
  22616408.766   120727931.217                    93899494.606    22616412.906  
  22616407.160  
  22794774.758   119787337.313    22794784.441    93340842.4574   22794784.766  
                
  22648412.375   119018224.858    22648418.066    92741500.5864                 
                
  20979727.367   112069960.557                    87165522.202    20979732.203  
  20979726.844  
  23711947.922   124607134.627    23711956.156    97096512.8334   23711956.316  
                
  23602603.320   126390863.500                    98304009.460    23602608.285  
  23602602.402  
  23170969.047   123514311.990                                                  
  23170968.090  
  21117664.797   110974095.859    21117674.605    86473374.5784   21117674.852  
                
  20315204.016   108405834.749                    84315653.481    20315207.227  
  20315201.840  
 21  8 16 15 50 20.0000000  0 16G 4G16R 1G26R17G 9G31R18G 6G22R12G 7
                                R 8R10G 3R 2
  20413697.703   107274752.230    20413705.574    83590766.6514   20413705.305  
                
  23082925.430   121301610.176    23082933.207    94520774.9714                 
                
  20217075.242   108071882.784                    84055911.427    20217080.938  
  20217074.738  
  22854933.422   120103547.623    22854943.879    93587201.8794   22854943.676  
                
  22289125.945   119273613.629                    92768355.993    22289130.605  
  22289124.074  
  21562657.383   113312560.063    21562665.992    88295554.0014   21562665.879  
                
  24788367.578   130263788.201    24788374.707   101504309.8634   24788374.980  
                
  22615612.609   120723681.235                    93896189.065    22615616.762  
  22615610.980  
  22793038.984   119778215.691    22793048.602    93333734.6984   22793048.934  
                
  22653921.984   119047177.928    22653927.648    92764061.3974                 
                
  20972890.562   112033439.672                    87137117.101    20972895.418  
  20972890.012  
  23705859.508   124575140.402    23705867.770    97071582.2884   23705867.984  
                
  23608416.969   126421995.147                    98328222.960    23608421.934  
  23608416.016  
  23178086.625   123552252.533                                                  
  23178085.637  
  21121662.836   110995105.655    21121672.715    86489745.8404   21121672.926  
                
  20311246.484   108384716.648                    84299228.289    20311249.688  
  20311244.297  
 21  8 16 15 50 30.0000000  0 16G 4G16R 1G26R17G 9G31R18G 6G22R12G 7
                                R 8R10G 3R 2
  20413800.102   107275290.377    20413807.969    83591185.9884   20413807.695  
                
  23078323.438   121277426.641    23078331.285    94501930.6744                 
                
  20219961.398   108087310.902                    84067911.062    20219967.066  
  20219960.891  
  22854924.344   120103499.964    22854934.852    93587164.7504   22854934.613  
                
  22294241.914   119300990.424                    92789649.043    22294246.621  
  22294240.066  
  21558929.328   113292969.076    21558937.922    88280288.2964   21558937.812  
                
  24795397.672   130300731.703    24795404.863   101533096.9954   24795405.141  
                
  22614832.875   120719519.073                    93892951.829    22614837.031  
  22614831.211  
  22791315.562   119769159.079    22791325.152    93326677.6124   22791325.492  
                
  22659437.414   119076161.619    22659443.090    92786646.0804                 
                
  20966063.422   111996970.386                    87108752.099    20966068.266  
  20966062.867  
  23699774.711   124543165.261    23699783.039    97046666.6214   23699783.258  
                
  23614233.562   126453143.050                    98352449.099    23614238.602  
  23614232.633  
  23185211.758   123590233.517                                                  
  23185210.754  
  21125669.688   111016161.774    21125679.609    86506153.1884   21125679.812  
                
  20307293.547   108363623.074                    84282822.193    20307296.758  
  20307291.348  
 21  8 16 15 50 40.0000000  0 16G 4G16R 1G26R17G 9G31R18G 6G22R12G 7
                                R 8R10G 3R 2
  20413909.008   107275862.677    20413916.867    83591631.9404   20413916.602  
                
  23073730.227   121253289.279    23073738.102    94483122.3724                 
                
  20222855.047   108102779.111                    84079941.877    20222860.699  
  20222854.547  
  22854927.703   120103517.633    22854938.234    93587178.5224   22854937.973  
                
  22299368.969   119328426.551                    92810988.194    22299373.715  
  22299367.145  
  21555206.180   113273403.833    21555214.773    88265042.6654   21555214.656  
                
  24802429.539   130337684.490    24802436.789   101561891.3694   24802437.051  
                
  22614069.562   120715444.481                    93889782.712    22614073.719  
  22614067.902  
  22789604.539   119760167.556    22789614.141    93319671.2404   22789614.488  
                
  22664958.680   119105175.948    22664964.379    92809254.6284                 
                
  20959246.008   111960553.043                    87080427.518    20959250.855  
  20959245.445  
  23693693.586   124511209.343    23693701.965    97021765.9334   23693702.191  
                
  23620053.234   126484307.321                    98376687.954    23620058.363  
  23620052.316  
  23192344.406   123628254.584                                                  
  23192343.375  
  21129685.359   111037264.257    21129695.309    86522596.6764   21129695.512  
                
  20303345.312   108342554.590                    84266435.595    20303348.508  
  20303343.109  
 21  8 16 15 50 50.0000000  0 15G 4G16R 1G26R17G 9R18G 6G22R12G 7R 8
                                R10G 3R 2
  20414024.367   107276468.930    20414032.211    83592104.3474   20414031.953  
                
  23069145.789   121229197.892    23069153.684    94464349.8704                 
                
  20225756.125   108118286.949                    84092003.520    20225761.762  
  20225755.625  
  22854943.453   120103600.433    22854953.938    93587243.0534   22854953.699  
                
  22304507.055   119355921.560                    92832373.240    22304511.871  
  22304505.227  
  21551487.898   113253864.177    21551496.477    88249816.9624   21551496.355  
                
  22613322.664   120711457.412                    93886681.645    22613326.789  
  22613321.031  
  22787905.875   119751240.974    22787915.500    93312715.4624   22787915.840  
                
  22670485.719   119134220.615    22670491.375    92831886.8234                 
                
  20952438.289   111924187.558                    87052143.283    20952443.148  
  20952437.699  
  23687616.211   124479272.521    23687624.551    96996880.1224   23687624.773  
                
  23625875.938   126515487.635                    98400939.299    23625881.074  
  23625874.988  
  23199484.562   123666315.651                                                  
  23199483.508  
  21133709.805   111058412.820    21133719.785    86539076.0674   21133719.984  
                
  20299401.805   108321511.299                    84250068.598    20299405.008  
  20299399.605  
 21  8 16 15 51  0.0000000  0 15G 4G16R 1G26R17G 9R18G 6G22R12G 7R 8
                                R10G 3R 2
  20414146.172   107277109.041    20414154.008    83592603.1384   20414153.758  
                
  23064570.078   121205152.463    23064577.980    94445613.1844                 
                
  20228664.641   108133834.610                    84104096.135    20228670.262  
  20228664.137  
  22854971.586   120103748.310    22854981.996    93587358.3084   22854981.801  
                
  22309656.070   119383475.137                    92853803.800    22309660.941  
  22309654.234  
  21547774.477   113234350.045    21547783.031    88234611.1414   21547782.914  
                
  22612592.133   120707557.754                    93883648.609    22612596.246  
  22612590.523  
  22786219.555   119742379.286    22786229.191    93305810.2454   22786229.500  
                
  22676018.508   119163295.481    22676024.113    92854542.5544                 
                
  20945640.281   111887873.921                    87023899.365    20945645.148  
  20945639.684  
  23681542.492   124447354.820    23681550.781    96972009.2134   23681550.984  
                
  23631701.711   126546684.199                    98425203.280    23631706.840  
  23631700.758  
  23206632.133   123704416.283                                                  
  23206631.062  
  21137743.000   111079607.401    21137753.000    86555591.3114   21137753.180  
                
  20295462.930   108300492.751                    84233720.842    20295466.121  
  20295460.742  
 21  8 16 15 51 10.0000000  0 15G 4G16R 1G26R17G 9R18G 6G22R12G 7R 8
                                R10G 3R 2
  20414274.461   107277783.168    20414282.285    83593128.4264   20414282.035  
                
  23060003.172   121181153.240    23060011.109    94426912.5154                 
                
  20231580.602   108149422.054                    84116219.698    20231586.215  
  20231580.086  
  22855012.148   120103961.467    22855022.516    93587524.3894   22855022.355  
                
  22314816.086   119411087.414                    92875279.970    22314820.961  
  22314814.270  
  21544065.945   113214861.610    21544074.477    88219425.3524   21544074.359  
                
  22611878.008   120703745.778                    93880683.711    22611882.098  
  22611876.395  
  22784545.617   119733582.651    22784555.270    93298955.7204   22784555.562  
                
  22681557.055   119192400.617    22681562.637    92877221.8724                 
                
  20938852.047   111851612.402                    86995695.970    20938856.883  
  20938851.457  
  23675472.453   124415456.358    23675480.691    96947153.2944   23675480.883  
                
  23637530.547   126577897.071                    98449479.951    23637535.633  
  23637529.562  
  23213787.117   123742556.446                                                  
  23213786.082  
  21141784.977   111100848.089    21141794.969    86572142.4894   21141795.152  
                
  20291528.766   108279499.286                    84217392.600    20291531.934  
  20291526.590  
 21  8 16 15 51 20.0000000  0 14G 4G16R 1G26R17G 9R18G 6G22R12G 7R10
                                G 3R 2
  20414409.211   107278491.297    20414417.012    83593680.2244   20414416.781  
                
  23055445.070   121157200.374    23055453.027    94408247.9554                 
                
  20234504.039   108165049.428                    84128374.318    20234509.625  
  20234503.523  
  22855065.133   120104239.941    22855075.500    93587741.3994   22855075.344  
                
  22319987.055   119438758.124                    92896801.588    22319991.906  
  22319985.293  
  21540362.305   113195398.899    21540370.816    88204259.6134   21540370.711  
                
  22611180.297   120700021.401                    93877786.980    22611184.371  
  22611178.668  
  22782884.062   119724851.107    22782893.773    93292151.9264   22782894.039  
                
  22687101.367   119221536.045    22687106.949    92899924.7894                 
                
  20932073.609   111815403.253                    86967533.312    20932078.430  
  20932073.000  
  23669406.133   124383577.240    23669414.309    96922312.4314   23669414.500  
                
  23220949.500   123780736.166                                                  
  23220948.512  
  21145835.711   111122134.885    21145845.688    86588729.5944   21145845.867  
                
  20287599.344   108258531.137                    84201084.050    20287602.500  
  20287597.176  
 21  8 16 15 51 30.0000000  0 14G 4G16R 1G26R17G 9R18G 6G22R12G 7R10
                                G 3R 2
  20414550.430   107279233.430    20414558.211    83594258.5094   20414557.988  
                
  23050895.828   121133293.967    23050903.770    94389619.6134                 
                
  20237434.945   108180716.740                    84140559.998    20237440.527  
  20237434.445  
  22855130.547   120104583.707    22855140.910    93588009.2894   22855140.734  
                
  22325168.922   119466487.165                    92918368.616    22325173.750  
  22325167.188  
  21536663.562   113175961.926    21536672.074    88189113.9234   21536671.953  
                
  22610498.992   120696384.637                    93874958.373    22610503.066  
  22610497.320  
  22781234.914   119716184.718    22781244.668    93285398.9024   22781244.918  
                
  22692651.430   119250701.706    22692657.031    92922651.2664                 
                
  20925305.016   111779246.677                    86939411.535    20925309.812  
  20925304.402  
  23663343.422   124351717.424    23663351.633    96897486.6214   23663351.820  
                
  23228119.281   123818955.256                                                  
  23228118.320  
  21149895.219   111143467.741    21149905.199    86605352.5864   21149905.379  
                
  20283674.562   108237587.755                    84184794.751    20283677.699  
  20283672.387  
 21  8 16 15 51 40.0000000  0 14G 4G16R 1G26R17G 9R18G 6G22R12G 7R10
                                G 3R 2
  20414698.156   107280009.753    20414705.910    83594863.4324   20414705.699  
                
  23046355.461   121109434.283    23046363.336    94371027.6474                 
                
  20240373.367   108196424.241                    84152776.941    20240378.926  
  20240372.863  
  22855208.422   120104992.990    22855218.762    93588328.2234   22855218.598  
                
  22330361.734   119494274.638                    92939981.060    22330366.520  
  22330359.977  
  21532969.758   113156550.901    21532978.289    88173988.4604   21532978.160  
                
  22609834.133   120692835.638                    93872198.051    22609838.211  
  22609832.465  
  22779598.195   119707583.674    22779607.961    93278696.7794   22779608.191  
                
  22698207.266   119279897.742    22698212.910    92945401.4054                 
                
  20918546.305   111743142.951                    86911330.869    20918551.078  
  20918545.691  
  23657284.375   124319877.188    23657292.680    96872676.0694   23657292.832  
                
  23235296.461   123857213.817                                                  
  23235295.531  
  21153963.523   111164846.807    21153973.500    86622011.5854   21153973.676  
                
  20279754.586   108216670.028                    84168525.416    20279757.727  
  20279752.422  
 21  8 16 15 51 50.0000000  0 14G 4G16R 1G26R17G 9R18G 6G22R12G 7R10
                                G 3R 2
  20414852.359   107280820.127    20414860.082    83595494.8944   20414859.895  
                
  23041824.008   121085621.323    23041831.805    94352472.1024                 
                
  20243319.250   108212171.680                    84165024.936    20243324.809  
  20243318.746  
  22855298.750   120105467.686    22855309.066    93588698.1224   22855308.906  
                
  22335565.367   119522120.188                    92961638.713    22335570.129  
  22335563.645  
  21529280.875   113137165.735    21529289.426    88158883.1434   21529289.273  
                
  22609185.719   120689374.405                    93869506.016    22609189.785  
  22609184.051  
  22777973.891   119699047.911    22777983.629    93272045.5294   22777983.887  
                
  22703768.859   119309123.962    22703774.535    92968175.0564                 
                
  20911797.477   111707091.951                    86883291.234    20911802.246  
  20911796.883  
  23651229.047   124288056.504    23651237.434    96847880.7564   23651237.547  
                
  23242481.000   123895511.556                                                  
  23242480.086  
  21158040.586   111186271.951    21158050.523    86638706.4834   21158050.707  
                
  20275839.398   108195777.901                    84152275.991    20275842.523  
  20275837.246  
 21  8 16 15 52  0.0000000  0 14G 4G16R 1G26R17G 9R18G 6G22R12G 7R10
                                G 3R 2
  20415013.023   107281664.433    20415020.715    83596152.7944   20415020.543  
                
  23037301.445   121061855.123    23037309.176    94333953.0074                 
                
  20246272.609   108227958.999                    84177303.946    20246278.180  
  20246272.102  
  22855401.500   120106007.683    22855411.812    93589118.9114   22855411.648  
                
  22340779.828   119550023.530                    92983341.285    22340784.551  
  22340778.098  
  21525596.898   113117806.327    21525605.465    88143797.8854   21525605.285  
                
  22608553.742   120686000.867                    93866882.151    22608557.785  
  22608552.039  
  22776361.992   119690577.305    22776371.684    93265445.0624   22776372.012  
                
  22709336.164   119338380.220    22709341.809    92990972.1304                 
                
  20905058.555   111671093.854                    86855292.735    20905063.320  
  20905057.984  
  23645177.492   124256255.344    23645185.883    96823100.6574   23645185.965  
                
  23249672.820   123933847.981                                                  
  23249671.879  
  21162126.391   111207742.981    21162136.285    86655437.1514   21162136.496  
                
  20271928.945   108174910.986                    84136046.162    20271932.074  
  20271926.812  
 21  8 16 15 52 10.0000000  0 14G 4G16R 1G26R17G 9R18G 6G22R12G 7R10
                                G 3R 2
  20415180.172   107282542.786    20415187.844    83596837.2294   20415187.684  
                
  23032787.836   121038135.948    23032795.508    94315470.5434                 
                
  20249233.453   108243786.358                    84189614.110    20249239.031  
  20249232.949  
  22855516.703   120106613.124    22855527.039    93589590.7054   22855526.875  
                
  22346005.070   119577984.651                    93005088.806    22346009.777  
  22346003.324  
  21521917.844   113098472.786    21521926.414    88128732.8024   21521926.238  
                
  22607938.188   120682714.970                    93864326.450    22607942.215  
  22607936.488  
  22774762.516   119682171.978    22774772.168    93258895.4714   22774772.547  
                
  22714909.219   119367666.640    22714914.832    93013792.7164                 
                
  20898329.609   111635149.019                    86827335.634    20898334.348  
  20898329.062  
  23639129.719   124224473.893    23639138.066    96798335.9044   23639138.141  
                
  23256871.938   123972223.365                                                  
  23256870.977  
  21166220.953   111229260.030    21166230.793    86672203.6774   21166231.027  
                
  20268023.281   108154069.615                    84119836.218    20268026.402  
  20268021.156  
 21  8 16 15 52 20.0000000  0 14G 4G16R 1G26R17G 9R18G 6G22R12G 7R10
                                G 3R 2
  20415353.758   107283455.059    20415361.422    83597548.0914   20415361.262  
                
  23028283.164   121014463.765    23028290.793    94297024.7004                 
                
  20252201.766   108259653.686                    84201955.351    20252207.348  
  20252201.266  
  22855644.336   120107283.874    22855654.676    93590113.3824   22855654.496  
                
  22351241.023   119606003.215                    93026881.018    22351245.742  
  22351239.234  
  21518243.711   113079165.092    21518252.270    88113687.8484   21518252.105  
                
  22607339.070   120679516.779                    93861838.966    22607343.062  
  22607337.402  
  22773175.461   119673831.952    22773185.102    93252396.7584   22773185.480  
                
  22720487.961   119396983.011    22720493.535    93036636.6264                 
                
  20891610.594   111599257.276                    86799419.846    20891615.301  
  20891610.055  
  23633085.602   124192711.998    23633093.984    96773586.3924   23633094.020  
                
  23264078.227   124010637.126                                                  
  23264077.250  
  21170324.242   111250822.922    21170334.008    86689005.9194   21170334.277  
                
  20264122.398   108133253.766                    84103646.119    20264125.520  
  20264120.277  
 21  8 16 15 52 30.0000000  0 14G 4G16R 1G26R17G 9R18G 6G22R12G 7R10
                                G 3R 2
  20415533.820   107284401.312    20415541.484    83598285.4274   20415541.316  
                
  23023787.484   120990838.785    23023795.105    94278615.6264                 
                
  20255177.539   108275560.886                    84214327.609    20255183.141  
  20255177.039  
  22855784.430   120108020.088    22855794.762    93590687.0624   22855794.578  
                
  22356487.688   119634079.229                    93048717.903    22356492.445  
  22356485.914  
  21514574.492   113059883.269    21514583.043    88098663.0444   21514582.879  
                
  22606756.359   120676406.187                    93859419.636    22606760.332  
  22606754.703  
  22771600.844   119665557.276    22771610.508    93245948.9484   22771610.875  
                
  22726072.391   119426329.335    22726077.938    93059503.8804                 
                
  20884901.594   111563419.006                    86771545.640    20884906.277  
  20884901.047  
  23627045.250   124160969.864    23627053.695    96748852.2884   23627053.703  
                
  23271291.805   124049089.572                                                  
  23271290.844  
  21174436.266   111272431.703    21174445.961    86705843.9254   21174446.266  
                
  20260226.305   108112463.496                    84087475.913    20260229.430  
  20260224.227  
 21  8 16 15 52 40.0000000  0 14G 4G16R 1G26R17G 9R18G 6G22R12G 7R10
                                G 3R 2
  20415720.367   107285381.616    20415728.051    83599049.3044   20415727.875  
                
  23019300.820   120967261.198    23019308.438    94260243.4934                 
                
  20258160.797   108291508.067                    84226730.959    20258166.426  
  20258160.281  
  22855936.977   120108821.775    22855947.285    93591311.7624   22855947.109  
                
  22361745.109   119662212.619                    93070599.421    22361749.879  
  22361743.324  
  21510910.219   113040627.393    21510918.770    88083658.4874   21510918.602  
                
  22606190.078   120673383.342                    93857068.549    22606194.047  
  22606188.457  
  22770038.680   119657348.048    22770048.414    93239552.1404   22770048.746  
                
  22731662.547   119455705.719    22731668.094    93082394.5484                 
                
  20878202.602   111527634.260                    86743713.069    20878207.297  
  20878202.055  
  23621008.719   124129247.604    23621017.180    96724133.6674   23621017.176  
                
  23278512.594   124087580.341                                                  
  23278511.621  
  21178557.031   111294086.397    21178566.684    86722717.7124   21178567.012  
                
  20256335.117   108091699.362                    84071326.041    20256338.234  
  20256333.059  
 21  8 16 15 52 50.0000000  0 14G 4G16R 1G26R17G 9R18G 6G22R12G 7R10
                                G 3R 2
  20415913.344   107286395.760    20415921.043    83599839.5474   20415920.848  
                
  23014823.117   120943730.789    23014830.711    94241908.1284                 
                
  20261151.523   108307495.221                    84239165.391    20261157.176  
  20261151.012  
  22856101.953   120109688.800    22856112.211    93591987.3764   22856112.047  
                
  22367013.102   119690402.934                    93092525.224    22367017.949  
  22367011.348  
  21507250.852   113021397.365    21507259.402    88068674.0454   21507259.238  
                
  22605640.195   120670448.036                    93854785.525    22605644.137  
  22605638.625  
  22768488.938   119649204.096    22768498.758    93233206.2074   22768499.023  
                
  22737258.328   119485111.717    22737263.887    93105308.2884                 
                
  20871513.656   111491903.148                    86715922.239    20871518.348  
  20871513.102  
  23614975.961   124097545.117    23614984.387    96699430.4424   23614984.387  
                
  23285740.484   124126109.030                                                  
  23285739.527  
  21182686.484   111315786.804    21182696.086    86739627.1054   21182696.426  
                
  20252448.656   108070960.500                    84055195.824    20252451.773  
  20252446.613  
 21  8 16 15 53  0.0000000  0 14G 4G16R 1G26R17G 9R18G 6G22R12G 7R10
                                G 3R 2
  20416112.789   107287443.846    20416120.508    83600656.2424   20416120.293  
                
  23010354.484   120920247.975    23010362.051    94223609.8394                 
                
  20264149.742   108323522.332                    84251630.928    20264155.430  
  20264149.203  
  22856279.383   120110621.256    22856289.602    93592713.9774   22856289.449  
                
  22372291.719   119718650.168                    93114495.251    22372296.652  
  22372290.031  
  21503596.430   113002193.257    21503604.984    88053709.8134   21503604.816  
                
  22605106.742   120667600.379                    93852570.684    22605110.629  
  22605105.195  
  22766951.641   119641125.524    22766961.492    93226911.2324   22766961.762  
                
  22742859.797   119514547.474    22742865.379    93128245.2324                 
                
  20864834.805   111456225.916                    86688173.286    20864839.480  
  20864834.246  
  23608946.969   124065862.545    23608955.410    96674742.7514   23608955.406  
                
  23292975.531   124164675.740                                                  
  23292974.594  
  21186824.664   111337532.991    21186834.211    86756572.1784   21186834.578  
                
  20248567.070   108050247.588                    84039085.782    20248570.164  
  20248565.043  
 21  8 16 15 53 10.0000000  0 14G 4G16R 1G26R17G 9R18G 6G22R12G 7R10
                                G 3R 2
  20416318.680   107288525.842    20416326.410    83601499.3584   20416326.180  
                
  23005894.898   120896812.845    23005902.457    94205348.7064                 
                
  20267155.406   108339589.275                    84264127.435    20267161.125  
  20267154.875  
  22856469.266   120111619.138    22856479.469    93593491.5514   22856479.324  
                
  22377580.961   119746954.149                    93136509.424    22377585.973  
  22377579.297  
  21499946.938   112983015.045    21499955.508    88038765.7634   21499955.344  
                
  22604589.695   120664840.426                    93850424.066    22604593.555  
  22604588.148  
  22765426.797   119633112.358    22765436.637    93220667.2184   22765436.906  
                
  22748466.898   119544012.914    22748472.520    93151205.2944                 
                
  20858166.047   111420602.658                    86660466.324    20858170.723  
  20858165.504  
  23602921.742   124034199.940    23602930.234    96650070.6124   23602930.219  
                
  23300217.711   124203280.483                                                  
  23300216.762  
  21190971.531   111359324.822    21190981.055    86773552.8254   21190981.434  
                
  20244690.211   108029559.924                    84022995.370    20244693.289  
  20244688.203  
 21  8 16 15 53 20.0000000  0 14G 4G16R 1G26R17G 9R18G 6G22R12G 7R10
                                G 3R 2
  20416531.055   107289641.868    20416538.789    83602368.9964   20416538.555  
                
  23001444.453   120873425.669    23001451.965    94187124.9504                 
                
  20270168.586   108355696.443                    84276655.236    20270174.328  
  20270168.062  
  22856671.617   120112682.561    22856681.840    93594320.2314   22856681.688  
                
  22382880.859   119775314.825                    93158567.722    22382885.898  
  22382879.160  
  21496302.414   112963862.941    21496310.980    88023842.0384   21496310.809  
                
  22604089.117   120662168.287                    93848345.751    22604092.945  
  22604087.578  
  22763914.422   119625164.787    22763924.207    93214474.2944   22763924.527  
                
  22754079.672   119573508.127    22754085.297    93174188.5744                 
                
  20851507.438   111385033.551                    86632801.484    20851512.109  
  20851506.906  
  23596900.367   124002557.468    23596908.859    96625414.1614   23596908.848  
                
  23307466.906   124241922.840                                                  
  23307465.957  
  21195127.117   111381162.482    21195136.637    86790569.1784   21195137.016  
                
  20240818.367   108008898.997                    84006925.756    20240821.410  
  20240816.383  
 21  8 16 15 53 30.0000000  0 14G 4G16R 1G26R17G 9R18G 6G22R12G 7R10
                                G 3R 2
  20416749.859   107290791.737    20416757.598    83603264.9994   20416757.355  
                
  22997003.102   120850086.279    22997010.605    94168938.4304                 
                
  20273189.219   108371843.484                    84289214.030    20273194.988  
  20273188.699  
  22856886.422   120113811.419    22856896.656    93595199.8504   22856896.477  
                
  22388191.305   119803731.843                    93180669.821    22388196.332  
  22388189.637  
  21492662.797   112944736.715    21492671.367    88008938.4964   21492671.207  
                
  22603604.922   120659583.663                    93846335.467    22603608.699  
  22603603.391  
  22762414.484   119617282.632    22762424.219    93208332.3574   22762424.602  
                
  22759698.047   119603032.894    22759703.652    93197194.8734                 
                
  20844858.984   111349518.738                    86605178.857    20844863.637  
  20844858.453  
  23590882.828   123970935.062    23590891.266    96600773.3414   23590891.262  
                
  23314723.125   124280602.629                                                  
  23314722.156  
  21199291.367   111403045.689    21199300.891    86807621.0234   21199301.258  
                
  20236951.273   107988263.514                    83990875.942    20236954.285  
  20236949.277  
 21  8 16 15 53 40.0000000  0 14G 4G16R 1G26R17G 9R18G 6G22R12G 7R10
                                G 3R 2
  20416975.148   107291975.654    20416982.887    83604187.5334   20416982.648  
                
  22992570.930   120826795.070    22992578.410    94150789.4554                 
                
  20276217.398   108388030.796                    84301804.173    20276223.211  
  20276216.902  
  22857113.711   120115005.885    22857123.961    93596130.6194   22857123.762  
                
  22393512.344   119832205.386                    93202815.913    22393517.320  
  22393510.688  
  21489028.180   112925636.662    21489036.754    87994055.3494   21489036.598  
                
  22603137.164   120657086.792                    93844393.476    22603140.945  
  22603135.648  
  22760927.055   119609466.131    22760936.777    93202241.5874   22760937.176  
                
  22765322.086   119632587.362    22765327.656    93220224.3114                 
                
  20838220.734   111314058.407                    86577598.620    20838225.371  
  20838220.199  
  23584869.125   123939332.859    23584877.520    96576148.2654   23584877.543  
                
  23321986.406   124319319.951                                                  
  23321985.453  
  21203464.344   111424974.688    21203473.887    86824708.5454   21203474.238  
                
  20233089.180   107967654.605                    83974846.802    20233092.168  
  20233087.188  
 21  8 16 15 53 50.0000000  0 14G 4G16R 1G26R17G 9R18G 6G22R12G 7R10
                                G 3R 2
  20417206.867   107293193.386    20417214.598    83605136.4194   20417214.359  
                
  22988147.891   120803551.877    22988155.359    94132677.8894                 
                
  20279253.031   108404257.936                    84314425.266    20279258.836  
  20279252.547  
  22857353.453   120116265.782    22857363.691    93597112.3714   22857363.488  
                
  22398843.766   119860734.852                    93225005.477    22398848.730  
  22398842.129  
  21485398.484   112906562.557    21485407.062    87979192.4034   21485406.910  
                
  22602685.820   120654677.529                    93842519.575    22602689.594  
  22602684.277  
  22759452.078   119601715.089    22759461.809    93196201.8164   22759462.188  
                
  22770951.703   119662171.241    22770957.266    93243276.6694                 
                
  20831592.695   111278652.652                    86550060.816    20831597.316  
  20831592.141  
  23578859.227   123907750.670    23578867.598    96551538.7864   23578867.645  
                
  23329256.711   124358074.575                                                  
  23329255.789  
  21207645.961   111446949.177    21207655.539    86841831.5194   21207655.855  
                
  20229231.859   107947071.286                    83958837.563    20229234.848  
  20229229.859  
 21  8 16 15 54  0.0000000  0 14G 4G16R 1G26R17G 9R18G 6G22R12G 7R10
                                G 3R 2
  20417445.062   107294445.124    20417452.773    83606111.8024   20417452.551  
                
  22983734.047   120780357.050    22983741.535    94114604.0254                 
                
  20282296.172   108420525.220                    84327077.581    20282301.965  
  20282295.711  
  22857605.688   120117591.319    22857615.934    93598145.2734   22857615.723  
                
  22404185.773   119889320.491                    93247238.713    22404190.656  
  22404184.109  
  21481773.766   112887514.577    21481782.344    87964349.8454   21481782.203  
                
  22602250.938   120652356.175                    93840714.076    22602254.738  
  22602249.371  
  22757989.609   119594029.736    22757999.352    93190213.2364   22757999.730  
                
  22776586.969   119691784.717    22776592.527    93266352.0854                 
                
  20824974.906   111243301.651                    86522565.614    20824979.535  
  20824974.355  
  23572853.234   123876188.883    23572861.594    96526945.2014   23572861.629  
                
  23336533.961   124396866.347                                                  
  23336533.062  
  21211836.281   111468969.345    21211845.883    86858990.0824   21211846.176  
                
  20225379.523   107926514.485                    83942848.937    20225382.516  
  20225377.531  
 21  8 16 15 54 10.0000000  0 14G 4G16R 1G26R17G 9R18G 6G22R12G 7R10
                                G 3R 2
  20417689.688   107295730.633    20417697.375    83607113.4924   20417697.164  
                
  22979329.398   120757210.527    22979336.930    94096567.7974                 
                
  20285346.781   108436832.434                    84339760.982    20285352.590  
  20285346.332  
  22857870.359   120118982.253    22857880.598    93599229.1314   22857880.387  
                
  22409538.180   119917961.822                    93269515.319    22409542.984  
  22409536.465  
  21478154.000   112868492.591    21478162.586    87949527.5134   21478162.469  
                
  22601832.453   120650122.254                    93838976.578    22601836.285  
  22601830.910  
  22756539.578   119586409.858    22756549.320    93184275.6804   22756549.691  
                
  22782227.812   119721427.531    22782233.348    93289450.3794                 
                
  20818367.367   111208005.398                    86495112.996    20818372.000  
  20818366.832  
  23566851.047   123844647.289    23566859.391    96502367.3464   23566859.434  
                
  23343818.172   124435695.086                                                  
  23343817.309  
  21216035.234   111491034.913    21216044.852    86876184.0214   21216045.137  
                
  20221532.039   107905983.579                    83926880.454    20221535.035  
  20221530.055  
 21  8 16 15 54 20.0000000  0 14G 4G16R 1G26R17G 9R18G 6G22R12G 7R10
                                G 3R 2
  20417940.781   107297050.190    20417948.441    83608141.7184   20417948.250  
                
  22974934.023   120734112.640    22974941.555    94078569.4424                 
                
  20288404.883   108453179.707                    84352475.506    20288410.699  
  20288404.414  
  22858147.531   120120438.893    22858157.762    93600364.1874   22858157.535  
                
  22414900.969   119946658.913                    93291835.257    22414905.703  
  22414899.230  
  21474539.219   112849496.844    21474547.824    87934725.6374   21474547.703  
                
  22601430.430   120647976.198                    93837307.425    22601434.277  
  22601428.930  
  22755102.086   119578855.792    22755111.824    93178389.3894   22755112.230  
                
  22787874.273   119751099.873    22787879.770    93312571.6774                 
                
  20811770.148   111172764.278                    86467703.255    20811774.762  
  20811769.613  
  23560852.734   123813126.280    23560861.078    96477805.5384   23560861.129  
                
  23351109.305   124474560.700                                                  
  23351108.434  
  21220242.867   111513146.118    21220252.508    86893413.5224   21220252.781  
                
  20217689.586   107885479.539                    83910932.871    20217692.590  
  20217687.598  
 21  8 16 15 54 30.0000000  0 14G 4G16R 1G26R17G 9R18G 6G22R12G 7R10
                                G 3R 2
  20418198.297   107298403.453    20418205.926    83609196.2084   20418205.754  
                
  22970547.828   120711063.169    22970555.359    94060608.8384                 
                
  20291470.430   108469566.768                    84365220.996    20291476.238  
  20291469.938  
  22858437.148   120121960.920    22858447.355    93601550.1934   22858447.117  
                
  22420274.141   119975411.291                    93314198.216    22420278.742  
  22420272.328  
  21470929.375   112830527.011    21470938.000    87919943.9704   21470937.871  
                
  22601044.805   120645917.738                    93835706.420    22601048.672  
  22601043.348  
  22753677.055   119571367.214    22753686.812    93172554.1274   22753687.227  
                
  22793526.289   119780801.385    22793531.754    93335715.7034                 
                
  20805183.242   111137578.281                    86440336.393    20805187.836  
  20805182.691  
  23554858.266   123781625.487    23554866.617    96453259.4824   23554866.641  
                
  23358407.281   124513462.997                                                  
  23358406.383  
  21224459.117   111535302.604    21224468.781    86910678.3124   21224469.047  
                
  20213851.953   107865001.203                    83895005.290    20213854.965  
  20213849.969  
 21  8 16 15 54 40.0000000  0 14G 4G16R 1G26R17G 9R18G 6G22R12G 7R10
                                G 3R 2
  20418462.273   107299790.657    20418469.871    83610277.1464   20418469.723  
                
  22966170.930   120688062.456    22966178.477    94042686.2144                 
                
  20294543.508   108485994.103                    84377997.797    20294549.324  
  20294543.000  
  22858739.250   120123548.563    22858749.398    93602787.3324   22858749.203  
                
  22425657.555   120004219.077                    93336604.302    22425662.148  
  22425655.723  
  21467324.531   112811583.447    21467333.168    87905182.7504   21467333.027  
                
  22600675.617   120643946.975                    93834173.608    22600679.500  
  22600674.176  
  22752264.523   119563944.366    22752274.320    93166770.1054   22752274.707  
                
  22799183.883   119810532.196    22799189.332    93358882.5524                 
                
  20798606.688   111102447.599                    86413012.540    20798611.262  
  20798606.117  
  23548867.711   123750145.263    23548876.066    96428729.4464   23548876.082  
                
  23365712.078   124552401.631                                                  
  23365711.156  
  21228684.023   111557504.596    21228693.723    86927978.5564   21228693.984  
                
  20210019.328   107844549.578                    83879098.468    20210022.328  
  20210017.336  
 21  8 16 15 54 50.0000000  0 14G 4G16R 1G26R17G 9R18G 6G22R12G 7R10
                                G 3R 2
  20418732.672   107301211.621    20418740.250    83611384.3864   20418740.113  
                
  22961803.281   120665110.457    22961810.832    94024801.5684                 
                
  20297624.047   108502461.309                    84390805.620    20297629.848  
  20297623.539  
  22859053.812   120125201.665    22859063.887    93604075.4774   22859063.727  
                
  22431051.258   120033081.962                    93359053.142    22431055.848  
  22431049.379  
  21463724.633   112792665.909    21463733.297    87890441.8194   21463733.152  
                
  22600322.844   120642063.830                    93832708.951    22600326.730  
  22600321.395  
  22750864.484   119556587.137    22750874.320    93161037.2064   22750874.684  
                
  22804847.023   119840292.134    22804852.480    93382072.0924                 
                
  20792040.492   111067372.201                    86385731.680    20792045.070  
  20792039.914  
  23542881.047   123718685.473    23542889.418    96404215.3454   23542889.430  
                
  23373023.695   124591376.692                                                  
  23373022.773  
  21232917.547   111579751.858    21232927.301    86945314.0784   21232927.555  
                
  20206191.648   107824124.383                    83863212.214    20206194.664  
  20206189.648  
 21  8 16 15 55  0.0000000  0 14G 4G16R 1G26R17G 9R18G 6G22R12G 7R10
                                G 3R 2
  20419009.523   107302666.504    20419017.086    83612518.0664   20419016.961  
                
  22957444.969   120642207.436    22957452.539    94006955.0874                 
                
  20300712.086   108518968.624                    84403644.622    20300717.883  
  20300711.562  
  22859380.875   120126920.433    22859390.914    93605414.7844   22859390.777  
                
  22436455.203   120061999.858                    93381544.837    22436459.863  
  22436453.328  
  21460129.734   112773774.616    21460138.395    87875721.3454   21460138.262  
                
  22599986.508   120640268.435                    93831312.524    22599990.387  
  22599985.043  
  22749476.953   119549295.709    22749486.824    93155355.5674   22749487.172  
                
  22810515.719   119870081.289    22810521.184    93405284.4034                 
                
  20785484.734   111032352.538                    86358494.181    20785489.293  
  20785484.160  
  23536898.312   123687246.391    23536906.746    96379717.3944   23536906.742  
                
  23380342.180   124630388.217                                                  
  23380341.270  
  21237159.703   111602044.551    21237169.535    86962684.9904   21237169.762  
                
  20202368.930   107803725.637                    83847346.522    20202371.945  
  20202366.941  
 21  8 16 15 55 10.0000000  0 14G 4G16R 1G26R17G 9R18G 6G22R12G 7R10
                                G 3R 2
  20419292.797   107304155.126    20419300.355    83613678.0294   20419300.238  
                
  22953095.977   120619353.353    22953103.594    93989146.7314                 
                
  20303807.594   108535515.907                    84416514.732    20303813.422  
  20303807.051  
  22859720.391   120128704.673    22859730.406    93606805.0974   22859730.293  
                
  22441869.406   120090972.577                    93404079.163    22441874.133  
  22441867.496  
  21456539.797   112754909.409    21456548.434    87861021.1874   21456548.324  
                
  22599666.562   120638560.551                    93829984.173    22599670.441  
  22599665.117  
  22748101.930   119542069.934    22748111.805    93149725.0904   22748112.168  
                
  22816189.938   119899899.478    22816195.371    93428519.3344                 
                
  20778939.352   110997388.333                    86331299.815    20778943.883  
  20778938.785  
  23530919.539   123655827.899    23530928.000    96355235.4764   23530927.988  
                
  23387667.359   124669435.416                                                  
  23387666.457  
  21241410.469   111624382.433    21241420.379    86980091.1154   21241420.578  
                
  20198551.203   107783353.518                    83831501.548    20198554.227  
  20198549.219  
 21  8 16 15 55 20.0000000  0 14G 4G16R 1G26R17G 9R18G 6G22R12G 7R10
                                G 3R 2
  20419582.516   107305677.607    20419590.078    83614864.3814   20419589.949  
                
  22948756.352   120596548.494    22948764.008    93971376.7174                 
                
  20306910.594   108552103.228                    84429415.974    20306916.414  
  20306910.031  
  22860072.391   120130554.503    22860082.398    93608246.5464   22860082.289  
                
  22447293.812   120119999.960                    93426656.010    22447298.609  
  22447291.926  
  21452954.852   112736070.411    21452963.484    87846341.4614   21452963.379  
                
  22599363.031   120636940.284                    93828723.957    22599366.902  
  22599361.621  
  22746739.438   119534909.950    22746749.293    93144145.8774   22746749.699  
                
  22821869.703   119929746.721    22821875.055    93451776.9274                 
                
  20772404.438   110962480.048                    86304148.935    20772408.957  
  20772403.879  
  23524944.695   123624430.139    23524953.203    96330769.7154   23524953.160  
                
  23394999.297   124708518.724                                                  
  23394998.402  
  21245669.836   111646765.568    21245679.816    86997532.5154   21245679.996  
                
  20194738.469   107763008.046                    83815677.292    20194741.477  
  20194736.484  
 21  8 16 15 55 30.0000000  0 14G 4G16R 1G26R17G 9R18G 6G22R12G 7R10
                                G 3R 2
  20419878.656   107307233.860    20419886.230    83616077.0494   20419886.090  
                
  22944426.094   120573792.912    22944433.762    93953645.1164                 
                
  20310021.078   108568730.572                    84442348.349    20310026.918  
  20310020.492  
  22860436.867   120132469.867    22860446.887    93609739.0324   22860446.770  
                
  22452728.398   120149081.786                    93449275.157    22452733.258  
  22452726.543  
  21449374.883   112717257.591    21449383.516    87831682.1254   21449383.418  
                
  22599075.906   120635407.597                    93827531.871    22599079.777  
  22599074.508  
  22745389.453   119527815.686    22745399.309    93138617.8864   22745399.734  
                
  22827554.961   119959622.872    22827560.262    93475057.0454                 
                
  20765879.984   110927627.716                    86277041.577    20765884.504  
  20765879.402  
  23518973.789   123593053.084    23518982.367    96306320.0844   23518982.312  
                
  23402337.930   124747637.580                                                  
  23402337.004  
  21249937.805   111669193.888    21249947.828    87015009.1184   21249947.996  
                
  20190930.688   107742689.031                    83799873.612    20190933.676  
  20190928.680  
 21  8 16 15 55 40.0000000  0 14G 4G16R 1G26R17G 9R18G 6G22R12G 7R10
                                G 3R 2
  20420181.219   107308823.821    20420188.805    83617315.9794   20420188.652  
                
  22940105.219   120551086.668    22940112.848    93935951.9514                 
                
  20313139.055   108585397.945                    84455311.839    20313144.902  
  20313138.445  
  22860813.797   120134450.777    22860823.883    93611282.5934   22860823.707  
                
  22458173.164   120178217.811                    93471936.495    22458178.047  
  22458171.332  
  21445799.891   112698470.904    21445808.516    87817043.1544   21445808.434  
                
  22598805.203   120633962.556                    93826407.938    22598809.074  
  22598803.801  
  22744051.945   119520787.114    22744061.863    93133141.0964   22744062.262  
                
  22833245.688   119989527.841    22833251.004    93498359.6034                 
                
  20759366.031   110892831.430                    86249977.806    20759370.551  
  20759365.441  
  23513006.859   123561696.745    23513015.465    96281886.5934   23513015.430  
                
  23409683.234   124786792.061                                                  
  23409682.273  
  21254214.352   111691667.283    21254224.406    87032520.8354   21254224.562  
                
  20187127.898   107722396.618                    83784090.635    20187130.879  
  20187125.867  
 21  8 16 15 55 50.0000000  0 14G 4G16R 1G26R17G 9R18G 6G22R12G 7R10
                                G 3R 2
  20420490.234   107310447.729    20420497.820    83618581.3654   20420497.668  
                
  22935793.789   120528430.085    22935801.379    93918297.5034                 
                
  20316264.547   108602105.497                    84468306.596    20316270.398  
  20316263.930  
  22861203.250   120136497.436    22861213.383    93612877.4144   22861213.184  
                
  22463628.211   120207408.278                    93494640.201    22463633.023  
  22463626.297  
  21442229.922   112679710.641    21442238.539    87802424.7804   21442238.457  
                
  22598550.938   120632605.261                    93825352.258    22598554.832  
  22598549.508  
  22742727.023   119513824.575    22742736.984    93127715.7244   22742737.332  
                
  22838941.930   120019461.843    22838947.309    93521684.7694                 
                
  20752862.664   110858091.677                    86222958.008    20752867.188  
  20752862.066  
  23507043.922   123530361.402    23507052.531    96257469.4774   23507052.504  
                
  23417035.242   124825982.294                                                  
  23417034.285  
  21258499.516   111714185.980    21258509.574    87050067.8664   21258509.727  
                
  20183330.148   107702131.170                    83768328.628    20183333.117  
  20183328.109  
 21  8 16 15 56  0.0000000  0 14G 4G16R 1G26R17G 9R18G 6G22R12G 7R10
                                G 3R 2
  20420805.680   107312105.405    20420813.262    83619873.0614   20420813.113  
                
  22931491.797   120505823.084    22931499.367    93900681.6864                 
                
  20319397.539   108618853.123                    84481332.521    20319403.402  
  20319396.914  
  22861605.180   120138609.644    22861615.328    93614523.2944   22861615.121  
                
  22469093.297   120236652.671                    93517385.790    22469098.066  
  22469091.336  
  21438664.961   112660976.624    21438673.559    87787826.8434   21438673.480  
                
  22598313.062   120631335.411                    93824364.601    22598316.969  
  22598311.613  
  22741414.625   119506927.847    22741424.609    93122341.6634   22741424.914  
                
  22844643.664   120049424.643    22844649.082    93545032.3924                 
                
  20746369.875   110823408.375                    86195982.127    20746374.410  
  20746369.293  
  23501085.031   123499046.935    23501093.520    96233068.6174   23501093.543  
                
  23424393.836   124865207.821                                                  
  23424392.930  
  21262793.258   111736749.749    21262803.277    87067650.0164   21262803.457  
                
  20179537.492   107681892.863                    83752587.717    20179540.453  
  20179535.461  
 21  8 16 15 56 10.0000000  0 14G 4G16R 1G26R17G 9R18G 6G22R12G 7R10
                                G 3R 2
  20421127.516   107313796.687    20421135.090    83621190.9494   20421134.949  
                
  22927199.250   120483265.629    22927206.793    93883104.4444                 
                
  20322537.992   108635640.636                    84494389.452    20322543.844  
  20322537.355  
  22862019.562   120140787.289    22862029.707    93616220.1674   22862029.492  
                
  22474568.305   120265950.830                    93540173.226    22474573.164  
  22474566.395  
  21435104.961   112642268.728    21435113.523    87773249.2764   21435113.457  
                
  22598091.562   120630153.061                    93823445.009    22598095.508  
  22598090.094  
  22740114.727   119500096.821    22740124.688    93117018.7904   22740125.016  
                
  22850350.828   120079416.012    22850356.219    93568402.2804                 
                
  20739887.633   110788781.467                    86169050.095    20739892.168  
  20739887.039  
  23495130.109   123467753.252    23495138.473    96208683.9484   23495138.523  
                
  23431759.016   124904468.305                                                  
  23431758.137  
  21267095.555   111759358.420    21267105.527    87085267.1514   21267105.738  
                
  20175749.805   107661681.080                    83736867.449    20175752.750  
  20175747.770  
 21  8 16 15 56 20.0000000  0 14G 4G16R 1G26R17G 9R18G 6G22R12G 7R10
                                G 3R 2
  20421455.805   107315521.856    20421463.363    83622535.2324   20421463.234  
                
  22922916.188   120460758.086    22922923.656    93865566.1174                 
                
  20325685.953   108652468.285                    84507477.623    20325691.785  
  20325685.320  
  22862446.453   120143030.702    22862456.574    93617968.2994   22862456.363  
                
  22480053.445   120295302.704                    93563002.455    22480058.277  
  22480051.512  
  21431549.992   112623587.250    21431558.508    87758692.2904   21431558.449  
                
  22597886.508   120629058.520                    93822593.697    22597890.465  
  22597885.000  
  22738827.391   119493331.825    22738837.309    93111747.3624   22738837.660  
                
  22856063.477   120109436.190    22856068.809    93591794.6224                 
                
  20733416.016   110754211.349                    86142162.232    20733420.562  
  20733415.418  
  23489179.148   123436480.957    23489187.445    96184315.9304   23489187.512  
                
  23439130.727   124943763.752                                                  
  23439129.836  
  21271406.430   111782012.226    21271416.352    87102919.4474   21271416.578  
                
  20171967.227   107641496.561                    83721168.385    20171970.164  
  20171965.180  
 21  8 16 15 56 30.0000000  0 14G 4G16R 1G26R17G 9R18G 6G22R12G 7R10
                                G 3R 2
  20421790.531   107317280.858    20421798.082    83623905.8844   20421797.953  
                
  22918642.648   120438300.470    22918650.074    93848066.6844                 
                
  20328841.453   108669336.183                    84520597.099    20328847.281  
  20328840.809  
  22862885.859   120145339.790    22862895.953    93619767.5984   22862895.746  
                
  22485548.664   120324708.205                    93585873.365    22485553.434  
  22485546.676  
  21428000.062   112604932.216    21428008.555    87744155.8924   21428008.480  
                
  22597697.867   120628051.529                    93821810.492    22597701.820  
  22597696.340  
  22737552.625   119486632.807    22737562.496    93106527.3524   22737562.875  
                
  22861781.641   120139485.262    22861786.945    93615209.4794                 
                
  20726955.070   110719698.155                    86115318.659    20726959.621  
  20726954.469  
  23483232.219   123405229.703    23483240.445    96159964.3194   23483240.543  
                
  23446508.984   124983094.111                                                  
  23446508.031  
  21275725.891   111804711.078    21275735.750    87120606.8604   21275736.008  
                
  20168189.766   107621339.317                    83705490.535    20168192.699  
  20168187.703  
 21  8 16 15 56 40.0000000  0 14G 4G16R 1G26R17G 9R18G 6G22R12G 7R10
                                G 3R 2
  20422131.664   107319073.549    20422139.211    83625302.7874   20422139.090  
                
  22914378.633   120415892.994    22914386.098    93830606.3404                 
                
  20332004.422   108686244.085                    84533747.674    20332010.227  
  20332003.793  
  22863337.727   120147714.456    22863347.805    93621617.9854   22863347.609  
                
  22491053.750   120354167.036                    93608785.793    22491058.523  
  22491051.797  
  21424455.117   112586303.432    21424463.613    87729639.9764   21424463.516  
                
  22597525.586   120627131.921                    93821095.264    22597529.551  
  22597524.074  
  22736290.367   119479999.657    22736300.219    93101358.6714   22736300.598  
                
  22867505.203   120169562.825    22867510.535    93638646.5304                 
                
  20720504.789   110685242.007                    86088519.460    20720509.344  
  20720504.199  
  23477289.305   123373999.457    23477297.469    96135629.0754   23477297.574  
                
  23453893.781   125022459.210                                                  
  23453892.762  
  21280053.875   111827454.798    21280063.641    87138329.2364   21280063.945  
                
  20164417.336   107601208.963                    83689833.594    20164420.273  
  20164415.262  
 21  8 16 15 56 50.0000000  0 14G 4G16R 1G26R17G 9R18G 6G22R12G 7R10
                                G 3R 2
  20422479.188   107320899.816    20422486.734    83626725.8584   20422486.617  
                
  22910124.156   120393535.629    22910131.676    93813185.0364                 
                
  20335174.867   108703191.858                    84546929.287    20335180.660  
  20335174.242  
  22863802.062   120150154.564    22863812.098    93623519.3724   22863811.938  
                
  22496568.742   120383678.859                    93631739.389    22496573.531  
  22496566.805  
  21420915.164   112567700.850    21420923.660    87715144.4584   21420923.543  
                
  22597369.719   120626299.797                    93820448.041    22597373.672  
  22597368.250  
  22735040.641   119473432.312    22735050.473    93096241.2334   22735050.844  
                
  22873234.156   120199668.732    22873239.539    93662105.6564                 
                
  20714065.180   110650842.802                    86061764.528    20714069.707  
  20714064.594  
  23471350.398   123342790.267    23471358.559    96111310.2424   23471358.652  
                
  23461285.070   125061858.883                                                  
  23461284.023  
  21284390.398   111850243.274    21284400.082    87156086.4854   21284400.422  
                
  20160649.938   107581105.438                    83674197.518    20160652.863  
  20160647.875  
 21  8 16 15 57  0.0000000  0 14G 4G16R 1G26R17G 9R18G 6G22R12G 7R10
                                G 3R 2
  20422833.172   107322760.036    20422840.719    83628175.3834   20422840.605  
                
  22905879.312   120371228.825    22905886.855    93795803.1304                 
                
  20338352.844   108720179.898                    84560142.200    20338358.602  
  20338352.215  
  22864278.930   120152660.575    22864288.949    93625472.1444   22864288.816  
                
  22502093.570   120413243.940                    93654734.468    22502098.480  
  22502091.770  
  21417380.273   112549124.887    21417388.797    87700669.6904   21417388.660  
                
  22597230.297   120625555.542                    93819869.190    22597234.258  
  22597228.816  
  22733803.508   119466931.145    22733813.332    93091175.4004   22733813.703  
                
  22878968.570   120229803.301    22878974.008    93685587.1064                 
                
  20707636.320   110616501.044                    86035054.278    20707640.824  
  20707635.727  
  23465415.555   123311602.562    23465423.734    96087008.1624   23465423.816  
                
  23468682.805   125101293.036                                                  
  23468681.789  
  21288735.500   111873076.843    21288745.105    87173878.8684   21288745.473  
                
  20156887.695   107561029.400                    83658582.832    20156890.609  
  20156885.621  
 21  8 16 15 57 10.0000000  0 14G 4G16R 1G26R17G 9R18G 6G22R12G 7R10
                                G 3R 2
  20423193.547   107324653.884    20423201.086    83629651.1104   20423200.977  
                
  22901644.047   120348972.398    22901651.578    93778460.4634                 
                
  20341538.289   108737207.926                    84573386.218    20341544.051  
  20341537.664  
  22864768.266   120155232.118    22864778.309    93627475.9504   22864778.176  
                
  22507628.414   120442861.715                    93677770.524    22507633.250  
  22507626.578  
  21413850.383   112530575.223    21413858.934    87686215.4264   21413858.781  
                
  22597107.227   120624898.654                    93819358.269    22597111.184  
  22597105.711  
  22732578.914   119460495.879    22732588.738    93086160.8944   22732589.109  
                
  22884708.375   120259966.239    22884713.871    93709090.6864                 
                
  20701218.211   110582216.725                    86008388.710    20701222.711  
  20701217.609  
  23459484.750   123280436.058    23459492.926    96062722.5864   23459492.980  
                
  23476086.945   125140761.329                                                  
  23476085.910  
  21293089.094   111895955.140    21293098.621    87191706.1084   21293099.031  
                
  20153130.625   107540980.990                    83642989.617    20153133.539  
  20153128.547  
 21  8 16 15 57 20.0000000  0 14G 4G16R 1G26R17G 9R18G 6G22R12G 7R10
                                G 3R 2
  20423560.344   107326581.426    20423567.871    83631153.0914   20423567.777  
                
  22897418.398   120326766.476    22897425.949    93761157.1464                 
                
  20344731.234   108754276.022                    84586661.403    20344737.000  
  20344730.609  
  22865270.086   120157869.276    22865280.188    93629530.8914   22865280.008  
                
  22513173.023   120472532.326                    93700847.605    22513177.926  
  22513171.227  
  21410325.531   112512051.965    21410334.086    87671781.7154   21410333.914  
                
  22597000.570   120624329.297                    93818915.428    22597004.520  
  22596999.047  
  22731366.867   119454126.602    22731376.695    93081197.8244   22731377.074  
                
  22890453.586   120290157.522    22890459.090    93732616.3444                 
                
  20694810.867   110547989.943                    85981767.906    20694815.359  
  20694810.254  
  23453558.000   123249290.872    23453566.199    96038453.6324   23453566.242  
                
  23483497.477   125180263.603                                                  
  23483496.352  
  21297451.219   111918878.186    21297460.672    87209568.2154   21297461.129  
                
  20149378.594   107520959.427                    83627417.302    20149381.504  
  20149376.516  
 21  8 16 15 57 30.0000000  0 14G 4G16R 1G26R17G 9R18G 6G22R12G 7R10
                                G 3R 2
  20423933.539   107328542.630    20423941.062    83632681.3034   20423940.977  
                
  22893202.391   120304611.173    22893209.941    93743893.2854                 
                
  20347931.648   108771384.073                    84599967.649    20347937.422  
  20347931.035  
  22865784.391   120160572.029    22865794.516    93631636.9714   22865794.316  
                
  22518727.312   120502255.345                    93723965.500    22518732.395  
  22518725.625  
  21406805.688   112493555.101    21406814.254    87657368.5874   21406814.086  
                
  22596910.297   120623847.383                    93818540.625    22596914.246  
  22596908.797  
  22730167.391   119447823.328    22730177.203    93076286.1764   22730177.605  
                
  22896204.195   120320377.145    22896209.688    93756164.0934                 
                
  20688414.320   110513820.814                    85955191.922    20688418.789  
  20688413.695  
  23447635.297   123218167.085    23447643.516    96014201.3574   23447643.543  
                
  23490914.383   125219800.039                                                  
  23490913.180  
  21301821.836   111941845.948    21301831.230    87227465.1664   21301831.723  
                
  20145631.703   107500965.382                    83611866.369    20145634.633  
  20145629.609  
 21  8 16 15 57 40.0000000  0 14G 4G16R 1G26R17G 9R18G 6G22R12G 7R10
                                G 3R 2
  20424313.141   107330537.490    20424320.645    83634235.7374   20424320.574  
                
  22888996.031   120282506.589    22889003.527    93726668.9464                 
                
  20351139.578   108788532.289                    84613305.169    20351145.367  
  20351138.969  
  22866311.188   120163340.395    22866321.301    93633794.1544   22866321.102  
                
  22524291.352   120532030.764                    93747124.184    22524296.664  
  22524289.789  
  21403290.875   112475084.667    21403299.449    87642976.0474   21403299.285  
                
  22596836.406   120623452.930                    93818233.822    22596840.363  
  22596834.895  
  22728980.469   119441586.031    22728990.273    93071425.9554   22728990.676  
                
  22901960.180   120350625.005    22901965.688    93779733.8444                 
                
  20682028.609   110479709.559                    85928660.954    20682033.066  
  20682027.988  
  23441716.742   123187064.729    23441724.906    95989965.7684   23441724.930  
                
  23498337.594   125259370.132                                                  
  23498336.383  
  21306201.000   111964858.546    21306210.348    87245397.0604   21306210.859  
                
  20141889.984   107480998.891                    83596336.881    20141892.906  
  20141887.898  
 21  8 16 15 57 50.0000000  0 14G 4G16R 1G26R17G 9R18G 6G22R12G 7R10
                                G 3R 2
  20424698.961   107332565.011    20424706.457    83635815.6274   20424706.387  
                
  22884799.164   120260451.894    22884806.598    93709483.4754                 
                
  20354354.820   108805719.536                    84626672.998    20354360.633  
  20354354.215  
  22866850.281   120166173.383    22866860.391    93636001.6894   22866860.199  
                
  22529864.914   120561857.334                    93770322.605    22529870.457  
  22529863.500  
  21399780.914   112456639.688    21399789.488    87628603.3334   21399789.320  
                
  22596778.703   120623144.909                    93817994.256    22596782.699  
  22596777.195  
  22727805.945   119435413.815    22727815.738    93066616.4074   22727816.176  
                
  22907721.328   120380900.040    22907726.863    93803324.7624                 
                
  20675653.562   110445655.276                    85902174.293    20675658.016  
  20675652.941  
  23435802.125   123155983.055    23435810.223    95965746.2994   23435810.254  
                
  23505766.984   125298972.933                                                  
  23505765.816  
  21310588.430   111987914.614    21310597.742    87263362.8204   21310598.289  
                
  20138153.266   107461059.058                    83580828.122    20138156.203  
  20138151.188  
 21  8 16 15 58  0.0000000  0 14G 4G16R 1G26R17G 9R18G 6G22R12G 7R10
                                G 3R 2
  20425091.266   107334626.582    20425098.758    83637422.0524   20425098.691  
                
  22880612.055   120238448.566    22880619.477    93692338.0464                 
                
  20357577.641   108822947.306                    84640072.372    20357583.461  
  20357577.043  
  22867401.945   120169072.395    22867412.047    93638260.6544   22867411.848  
                
  22535448.414   120591736.288                    93793561.705    22535454.035  
  22535447.098  
  21396276.055   112438221.553    21396284.633    87614251.5624   21396284.457  
                
  22596737.469   120622924.787                    93817823.060    22596741.480  
  22596735.938  
  22726644.055   119429308.017    22726653.836    93061858.6544   22726654.227  
                
  22913487.898   120411203.607    22913493.457    93826937.9074                 
                
  20669289.469   110411659.518                    85875733.167    20669293.934  
  20669288.844  
  23429891.672   123124923.204    23429899.766    95941543.8354   23429899.770  
                
  23513202.688   125338609.342                                                  
  23513201.562  
  21314984.422   112011015.664    21314993.727    87281363.6364   21314994.285  
                
  20134421.828   107441147.382                    83565341.274    20134424.785  
  20134419.750  
 21  8 16 15 58 10.0000000  0 14G 4G16R 1G26R17G 9R18G 6G22R12G 7R10
                                G 3R 2
  20425490.078   107336722.367    20425497.566    83639055.1284   20425497.500  
                
  22876434.773   120216496.838    22876442.195    93675232.8224                 
                
  20360808.047   108840215.655                    84653503.293    20360813.863  
  20360807.449  
  22867966.195   120172037.579    22867976.273    93640571.2044   22867976.082  
                
  22541041.758   120621667.711                    93816841.724    22541047.457  
  22541040.523  
  21392776.359   112419830.515    21392784.945    87599920.8804   21392784.770  
                
  22596712.695   120622792.594                    93817720.236    22596716.734  
  22596711.129  
  22725494.844   119423268.899    22725504.582    93057152.8354   22725505.016  
                
  22919259.922   120441535.775    22919265.473    93850573.3504                 
                
  20662936.398   110377722.609                    85849337.813    20662940.867  
  20662935.781  
  23423985.328   123093885.447    23423993.508    95917358.5994   23423993.492  
                
  23520644.773   125378279.784                                                  
  23520643.672  
  21319389.000   112034161.847    21319398.301    87299399.6144   21319398.871  
                
  20130695.633   107421263.742                    83549876.231    20130698.590  
  20130693.547  
 21  8 16 15 58 20.0000000  0 14G 4G16R 1G26R17G 9R18G 6G22R12G 7R10
                                G 3R 2
  20425895.336   107338851.997    20425902.828    83640714.5804   20425902.758  
                
  22872267.266   120194596.508    22872274.664    93658167.6414                 
                
  20364046.023   108857524.419                    84666965.661    20364051.855  
  20364045.426  
  22868542.984   120175068.628    22868553.035    93642933.0684   22868552.844  
                
  22546645.133   120651650.957                    93840162.070    22546650.570  
  22546643.711  
  21389281.734   112401466.173    21389290.332    87585611.0234   21389290.145  
                
  22596704.359   120622748.104                    93817685.621    22596708.422  
  22596702.715  
  22724358.266   119417296.075    22724367.914    93052498.6884   22724368.371  
                
  22925037.320   120471896.176    22925042.836    93874230.8024                 
                
  20656594.289   110343844.218                    85822987.974    20656598.762  
  20656593.680  
  23418083.180   123062869.544    23418091.418    95893190.3924   23418091.375  
                
  23528093.203   125417983.862                                                  
  23528092.141  
  21323802.094   112057352.781    21323811.426    87317470.4694   21323812.000  
                
  20126974.648   107401407.832                    83534432.744    20126977.598  
  20126972.551  
 21  8 16 15 58 30.0000000  0 14G 4G16R 1G26R17G 9R18G 6G22R12G 7R10
                                G 3R 2
  20426306.984   107341015.265    20426314.480    83642400.2494   20426314.410  
                
  22868109.500   120172747.442    22868116.926    93641142.4214                 
                
  20367291.469   108874873.165                    84680459.108    20367297.305  
  20367290.883  
  22869132.250   120178165.296    22869142.285    93645346.0544   22869142.113  
                
  22552257.969   120681685.756                    93863522.390    22552263.324  
  22552256.449  
  21385792.164   112383128.378    21385800.754    87571321.8404   21385800.562  
                
  22596712.375   120622790.918                    93817718.910    22596716.414  
  22596710.703  
  22723234.250   119411389.355    22723243.809    93047896.0454   22723244.363  
                
  22930820.039   120502284.581    22930825.488    93897910.0684                 
                
  20650263.117   110310024.339                    85796683.631    20650267.598  
  20650262.516  
  23412185.211   123031875.363    23412193.465    95869039.1124   23412193.391  
                
  23535547.719   125457720.652                                                  
  23535546.691  
  21328223.641   112080588.168    21328233.035    87335575.9584   21328233.586  
                
  20123258.867   107381579.771                    83519010.924    20123261.844  
  20123256.754  
 21  8 16 15 58 40.0000000  0 14G 4G16R 1G26R17G 9R18G 6G22R12G 7R10
                                G 3R 2
  20426725.062   107343212.227    20426732.570    83644112.1744   20426732.492  
                
  22863961.531   120150949.809    22863968.984    93624157.2794                 
                
  20370544.406   108892261.958                    84693983.733    20370550.266  
  20370543.824  
  22869734.023   120181327.666    22869744.039    93647810.2464   22869743.895  
                
  22557880.383   120711771.971                    93886922.809    22557885.664  
  22557878.785  
  21382307.672   112364817.218    21382316.254    87557053.4024   21382316.059  
                
  22596736.797   120622921.237                    93817820.302    22596740.828  
  22596735.105  
  22722122.859   119405548.859    22722132.363    93043345.0044   22722132.953  
                
  22936608.094   120532701.003    22936613.512    93921611.1664                 
                
  20643942.953   110276263.209                    85770424.987    20643947.445  
  20643942.332  
  23406291.367   123000903.076    23406299.660    95844904.8854   23406299.574  
                
  23543008.484   125497490.681                                                  
  23543007.488  
  21332653.672   112103868.099    21332663.156    87353716.1474   21332663.676  
                
  20119548.320   107361779.579                    83503610.786    20119551.309  
  20119546.211  
 21  8 16 15 58 50.0000000  0 14G 4G16R 1G26R17G 9R18G 6G22R12G 7R10
                                G 3R 2
  20427149.797   107345444.244    20427157.312    83645851.4124   20427157.238  
                
  22859823.594   120129205.000    22859831.070    93607213.2934                 
                
  20373805.164   108909692.588                    84707540.857    20373811.012  
  20373804.574  
  22870348.555   120184557.151    22870358.551    93650326.7334   22870358.406  
                
  22563512.648   120741910.801                    93910364.061    22563517.797  
  22563510.965  
  21378828.492   112346534.063    21378837.059    87542806.8034   21378836.879  
                
  22596777.828   120623140.281                    93817990.673    22596781.820  
  22596776.145  
  22721024.305   119399775.937    22721033.801    93038846.6304   22721034.383  
                
  22942401.711   120563146.649    22942407.145    93945335.0464                 
                
  20637634.070   110242562.438                    85744213.292    20637638.594  
  20637633.453  
  23400401.906   122969954.134    23400410.219    95820788.8374   23400410.152  
                
  23550475.688   125537294.928                                                  
  23550474.738  
  21337092.414   112127193.839    21337101.980    87371892.0384   21337102.469  
                
  20115843.266   107342008.735                    83488233.466    20115846.250  
  20115841.160  
 21  8 16 15 59  0.0000000  0 14G 4G16R 1G26R17G 9R18G 6G22R12G 7R10
                                G 3R 2
  20427580.703   107347708.716    20427588.230    83647615.9354   20427588.145  
                
  22855695.297   120107510.764    22855702.738    93590308.6954                 
                
  20377073.203   108927162.130                    84721128.279    20377079.062  
  20377072.633  
  22870975.367   120187851.092    22870985.352    93652893.4624   22870985.238  
                
  22569154.242   120772099.547                    93933844.212    22569159.316  
  22569152.480  
  21375354.164   112328276.353    21375362.684    87528580.0164   21375362.531  
                
  22596835.047   120623445.661                    93818228.166    22596839.031  
  22596833.344  
  22719938.133   119394068.038    22719947.648    93034398.9084   22719948.199  
                
  22948200.414   120593618.964    22948205.910    93969079.6914                 
                
  20631336.023   110208919.448                    85718046.551    20631340.570  
  20631335.387  
  23394516.453   122939025.934    23394524.715    95796688.9564   23394524.652  
                
  23557948.734   125577130.390                                                  
  23557947.797  
  21341539.383   112150562.793    21341549.039    87390101.6014   21341549.488  
                
  20112143.320   107322265.130                    83472877.323    20112146.305  
  20112141.227  
 21  8 16 15 59 10.0000000  0 14G 4G16R 1G26R17G 9R18G 6G22R12G 7R10
                                G 3R 2
  20428017.992   107350006.686    20428025.531    83649406.5624   20428025.438  
                
  22851576.828   120085868.154    22851584.250    93573444.3464                 
                
  20380348.727   108944671.632                    84734746.758    20380354.578  
  20380348.164  
  22871614.648   120191210.552    22871624.617    93655511.2344   22871624.520  
                
  22574805.242   120802339.111                    93957363.866    22574810.324  
  22574803.504  
  21371884.875   112310045.145    21371893.371    87514373.8924   21371893.242  
                
  22596908.578   120623838.182                    93818533.471    22596912.578  
  22596906.898  
  22718864.539   119388426.216    22718874.070    93030002.6744   22718874.570  
                
  22954004.352   120624118.894    22954009.922    93992845.8344                 
                
  20625049.008   110175335.434                    85691925.664    20625053.547  
  20625048.340  
  23388635.188   122908119.600    23388643.434    95772606.1264   23388643.352  
                
  23565427.922   125616998.555                                                  
  23565426.945  
  21345994.758   112173975.968    21346004.508    87408345.6194   21346004.910  
                
  20108448.547   107302549.137                    83457542.675    20108451.535  
  20108446.438  
