     2.11           OBSERVATION DATA    M (MIXED)           RINEX VERSION / TYPE
EFT-CORS.RU                             20210813 095608 UTC PGM / RUN BY / DATE 
ANGR                                                        MARKER NAME         
                                                            MARKER NUMBER       
ANGR                EFT-CORS.RU                             OBSERVER / AGENCY   
0                   TRIMBLE BD970       2.0                 REC # / TYPE / VERS 
0                   UNKNOWN EXT NONE                        ANT # / TYPE        
  -931437.4817  3778495.1924  5036899.3175                  APPROX POSITION XYZ 
        0.0000        0.0000        0.0000                  ANTENNA: DELTA H/E/N
     1     1                                                WAVELENGTH FACT L1/2
     6    C1    L1    P2    L2    C2    P1                  # / TYPES OF OBSERV 
    10.000                                                  INTERVAL            
  2021     8     9     0    30    0.0000000     GPS         TIME OF FIRST OBS   
  2021     8     9     4    30    0.0000000     GPS         TIME OF LAST OBS    
     0                                                      RCV CLOCK OFFS APPL 
                                                            END OF HEADER       
 21  8  9  0 30  0.0000000  0 17G17G22R15R16R 8G14G 1G24R24G 3G19R17
                                G 6R18R14G21R 1
  20438060.508   107402755.750    20438065.441    83690473.9104   20438065.730  
                
  22774904.008   119682961.163    22774906.906    93259474.3374                 
                
  19527943.945   104351407.566    19527948.855    81162201.068    19527948.375  
  19527943.477  
  22051160.391   117793360.592    22051164.949    91617040.557    22051163.352  
  22051159.562  
  22763377.406   121896851.139    22763381.312    94808661.625    22763381.352  
  22763376.793  
  20747950.438   109031225.274    20747956.008    84959417.1134   20747956.203  
                
  21576832.227   113387021.721    21576840.566    88353559.2154   21576840.535  
                
  23280493.836   122339826.065    23280502.039    95329766.5684   23280502.457  
                
  20329353.211   108710199.723    20329357.586    84552374.954    20329357.473  
  20329352.367  
  22544391.656   118471611.842    22544398.969    92315593.4564   22544399.742  
                
  20923038.352   109951323.383    20923041.652    85676371.4484                 
                
  19347089.828   103530191.515    19347094.168    80523487.716    19347093.887  
  19347088.926  
  23534563.602   123674983.021    23534572.594    96370151.6784   23534573.078  
                
  22609420.445   120690631.153    22609426.191    93870488.941    22609425.621  
  22609419.348  
  21638085.555   115343151.958    21638091.109    89711322.448    21638091.793  
  21638084.664  
  24334454.820   127878419.803    24334459.242    99645536.0874                 
                
  23067176.602   123307288.583    23067183.594    95905701.960    23067182.590  
  23067175.160  
 21  8  9  0 30 10.0000000  0 17G17G22R15R16R 8G14G 1G24R24G 3G19R17
                                G 6R18R14G21R 1
  20437633.156   107400510.005    20437638.086    83688723.9704   20437638.383  
                
  22775142.891   119684216.502    22775145.781    93260452.5334                 
                
  19528946.930   104356767.210    19528951.828    81166369.674    19528951.355  
  19528946.453  
  22044628.844   117758470.309    22044633.379    91589903.673    22044631.797  
  22044628.031  
  22762789.148   121893701.096    22762793.082    94806211.582    22762793.113  
  22762788.543  
  20751339.195   109049033.271    20751344.750    84973293.4654   20751344.957  
                
  21582142.805   113414928.919    21582151.160    88375305.0764   21582151.117  
                
  23279230.805   122333188.802    23279239.035    95324594.6774   23279239.418  
                
  20334235.672   108736308.368    20334240.027    84572681.677    20334239.934  
  20334234.859  
  22541133.438   118454489.864    22541140.738    92302251.6674   22541141.520  
                
  20919061.688   109930425.913    20919064.965    85660087.7074                 
                
  19344983.438   103518919.876    19344987.785    80514720.891    19344987.496  
  19344982.527  
  23527684.828   123638834.921    23527693.859    96341984.3484   23527694.336  
                
  22602651.594   120654498.729    22602657.324    93842385.967    22602656.793  
  22602650.512  
  21645694.047   115383709.458    21645699.590    89742867.146    21645700.297  
  21645693.113  
  24340487.359   127910120.985    24340491.789    99670238.2894                 
                
  23061584.250   123277394.350    23061591.227    95882450.887    23061590.258  
  23061582.785  
 21  8  9  0 30 20.0000000  0 17G17G22R15R16R 8G14G 1G24R24G 3G19R17
                                G 6R18R14G21R 1
  20437212.805   107398301.075    20437217.734    83687002.7284   20437218.035  
                
  22775394.102   119685536.653    22775396.996    93261481.2314                 
                
  19529966.812   104362217.173    19529971.695    81170608.531    19529971.227  
  19529966.344  
  22038106.570   117723629.491    22038111.059    91562805.265    22038109.504  
  22038105.785  
  22762217.227   121890638.499    22762221.164    94803829.565    22762221.195  
  22762216.613  
  20754738.148   109066894.881    20754743.688    84987211.6004   20754743.902  
                
  21587461.742   113442880.081    21587470.102    88397085.1964   21587470.078  
                
  23277980.375   122326617.782    23277988.633    95319474.4014   23277988.992  
                
  20339125.492   108762456.390    20339129.852    84593019.018    20339129.758  
  20339124.699  
  22537886.734   118437428.381    22537894.031    92288957.0094   22537894.797  
                
  20915092.219   109909566.250    20915095.477    85643833.4364                 
                
  19342888.266   103507708.205    19342892.625    80506000.701    19342892.332  
  19342887.332  
  23520810.156   123602708.297    23520819.211    96313833.7434   23520819.676  
                
  22595887.672   120618392.417    22595893.387    93814303.302    22595892.836  
  22595886.602  
  21653310.031   115424307.030    21653315.574    89774442.983    21653316.301  
  21653309.047  
  24346521.844   127941832.352    24346526.301    99694948.4404                 
                
  23056002.047   123247554.371    23056009.012    95859242.034    23056008.070  
  23056000.547  
 21  8  9  0 30 30.0000000  0 17G17G22R15R16R 8G14G 1G24R24G 3G19R17
                                G 6R18R14G21R 1
  20436799.422   107396128.746    20436804.348    83685310.0064   20436804.648  
                
  22775657.617   119686921.445    22775660.504    93262560.2864                 
                
  19531003.555   104367757.154    19531008.422    81174917.395    19531007.961  
  19531003.102  
  22031593.508   117688837.842    22031597.957    91535745.105    22031596.414  
  22031592.703  
  22761661.609   121887663.213    22761665.559    94801515.453    22761665.641  
  22761660.949  
  20758147.258   109084809.828    20758152.797    85001171.2914   20758153.008  
                
  21592788.977   113470874.840    21592797.340    88418899.2934   21592797.324  
                
  23276742.516   122320112.829    23276750.793    95314405.6024   23276751.129  
                
  20344022.688   108788643.848    20344027.078    84613387.043    20344026.969  
  20344021.953  
  22534651.531   118420427.265    22534658.801    92275709.3764   22534659.582  
                
  20911129.914   109888744.207    20911133.152    85627608.4624                 
                
  19340804.266   103496556.312    19340808.633    80497327.008    19340808.332  
  19340803.309  
  23513939.531   123566602.902    23513948.586    96285699.6824   23513949.066  
                
  22589128.547   120582311.944    22589134.273    93786240.742    22589133.727  
  22589127.473  
  21660933.492   115464944.269    21660938.996    89806049.717    21660939.746  
  21660932.520  
  24352558.203   127973553.612    24352562.660    99719666.2834                 
                
  23050429.992   123217768.642    23050436.934    95836075.358    23050435.980  
  23050428.469  
 21  8  9  0 30 40.0000000  0 17G17G22R15R16R 8G14G 1G24R24G 3G19R17
                                G 6R18R14G21R 1
  20436392.969   107393992.829    20436397.887    83683645.6584   20436398.199  
                
  22775933.375   119688370.624    22775936.273    93263689.5344                 
                
  19532057.125   104373387.102    19532061.984    81179296.238    19532061.520  
  19532056.676  
  22025089.680   117654095.560    22025094.082    91508723.338    22025092.590  
  22025088.875  
  22761122.219   121884774.880    22761126.238    94799268.964    22761126.305  
  22761121.527  
  20761566.477   109102777.921    20761572.008    85015172.3844   20761572.223  
                
  21598124.461   113498912.954    21598132.840    88440747.1684   21598132.816  
                
  23275517.203   122313673.759    23275525.512    95309388.1504   23275525.824  
                
  20348927.141   108814870.151    20348931.562    84633785.264    20348931.441  
  20348926.410  
  22531427.766   118403486.363    22531435.023    92262508.6724   22531435.824  
                
  20907174.750   109867959.698    20907177.984    85611412.7444                 
                
  19338731.383   103485463.999    19338735.758    80488699.655    19338735.453  
  19338730.410  
  23507072.883   123530518.683    23507082.020    96257582.1404   23507082.488  
                
  22582374.227   120546257.174    22582379.965    93758198.165    22582379.430  
  22582373.176  
  21668564.383   115505620.982    21668569.820    89837687.171    21668570.586  
  21668563.430  
  24358596.391   128005284.460    24358600.867    99744391.6144                 
                
  23044868.047   123188036.948    23044874.980    95812950.723    23044874.051  
  23044866.504  
 21  8  9  0 30 50.0000000  0 17G17G22R15R16R 8G14G 1G24R24G 3G19R17
                                G 6R18R14G21R 1
  20435993.617   107391894.190    20435998.531    83682010.3604   20435998.844  
                
  22776221.555   119689885.004    22776224.473    93264869.5704                 
                
  19533127.688   104379107.820    19533132.539    81183745.682    19533132.066  
  19533127.254  
  22018595.211   117619403.286    22018599.582    91481740.460    22018598.113  
  22018594.418  
  22760599.227   121881974.298    22760603.324    94797090.742    22760603.379  
  22760598.488  
  20764995.961   109120799.936    20765001.480    85029215.5084   20765001.707  
                
  21603468.336   113526995.148    21603476.742    88462629.3874   21603476.715  
                
  23274304.602   122307301.445    23274312.918    95304422.7124   23274313.223  
                
  20353839.031   108841136.141    20353843.477    84654214.365    20353843.348  
  20353838.336  
  22528215.625   118386606.600    22528222.867    92249355.6284   22528223.676  
                
  20903226.875   109847213.523    20903230.102    85595246.9034                 
                
  19336669.820   103474432.162    19336674.211    80480119.328    19336673.910  
  19336668.832  
  23500210.477   123494456.542    23500219.652    96229481.7884   23500220.109  
                
  22575624.930   120510229.221    22575630.652    93730176.438    22575630.152  
  22575623.914  
  21676202.805   115546337.900    21676208.195    89869355.864    21676209.000  
  21676201.840  
  24364636.562   128037025.752    24364641.070    99769125.0574                 
                
  23039316.422   123158360.384    23039323.352    95789868.961    23039322.438  
  23039314.895  
 21  8  9  0 31  0.0000000  0 17G17G22R15R16R 8G14G 1G24R24G 3G19R17
                                G 6R18R14G21R 1
  20435601.258   107389832.357    20435606.164    83680403.7394   20435606.480  
                
  22776522.055   119691464.141    22776524.969    93266100.0584                 
                
  19534215.133   104384918.775    19534219.980    81188265.317    19534219.520  
  19534214.723  
  22012110.086   117584760.956    22012114.426    91454796.415    22012112.992  
  22012109.324  
  22760092.578   121879261.239    22760096.723    94794980.593    22760096.770  
  22760091.828  
  20768435.609   109138875.383    20768441.121    85043300.2594   20768441.359  
                
  21608820.484   113555120.839    21608828.930    88484545.4974   21608828.887  
                
  23273104.617   122300995.446    23273112.910    95299508.9414   23273113.230  
                
  20358758.203   108867441.120    20358762.676    84674673.774    20358762.531  
  20358757.508  
  22525015.070   118369787.629    22525022.293    92236249.9414   22525023.117  
                
  20899286.234   109826505.305    20899289.449    85579110.6314                 
                
  19334619.438   103463460.150    19334623.832    80471585.544    19334623.531  
  19334618.461  
  23493352.203   123458416.076    23493361.406    96201398.3404   23493361.828  
                
  22568880.562   120474227.408    22568886.289    93702175.068    22568885.797  
  22568879.570  
  21683848.578   115587094.214    21683854.012    89901055.174    21683854.816  
  21683847.598  
  24370678.609   128068776.974    24370683.145    99793866.2544                 
                
  23033775.031   123128738.598    23033781.984    95766829.812    23033781.027  
  23033773.543  
 21  8  9  0 31 10.0000000  0 17G17G22R15R16R 8G14G 1G24R24G 3G19R17
                                G 6R18R14G21R 1
  20435215.898   107387807.268    20435220.793    83678825.7464   20435221.109  
                
  22776834.844   119693107.860    22776837.734    93267380.8894                 
                
  19535319.438   104390819.814    19535324.281    81192855.004    19535323.816  
  19535319.035  
  22005634.336   117550168.763    22005638.676    91427891.369    22005637.250  
  22005633.594  
  22759602.242   121876635.435    22759606.395    94792938.289    22759606.461  
  22759601.500  
  20771885.406   109157004.128    20771890.906    85057426.5444   20771891.152  
                
  21614180.867   113583289.856    21614189.340    88506495.3664   21614189.289  
                
  23271917.227   122294755.677    23271925.512    95294646.7764   23271925.828  
                
  20363684.672   108893785.126    20363689.176    84695163.554    20363689.020  
  20363684.016  
  22521826.078   118353029.403    22521833.289    92223191.5864   22521834.125  
                
  20895352.805   109805835.025    20895356.008    85563003.9244                 
                
  19332580.250   103452548.033    19332584.656    80463098.341    19332584.359  
  19332579.285  
  23486498.055   123422397.291    23486507.125    96173331.7424   23486507.605  
                
  22562141.125   120438251.843    22562146.793    93674194.083    22562146.328  
  22562140.156  
  21691501.688   115627889.802    21691507.156    89932785.038    21691507.992  
  21691500.707  
  24376722.508   128100537.908    24376727.043    99818615.0354                 
                
  23028243.914   123099171.714    23028250.855    95743833.341    23028249.879  
  23028242.461  
 21  8  9  0 31 20.0000000  0 17G17G22R15R16R 8G14G 1G24R24G 3G19R17
                                G 6R18R14G21R 1
  20434837.562   107385819.112    20434842.449    83677276.5304   20434842.770  
                
  22777159.969   119694816.424    22777162.832    93268712.2394                 
                
  19536440.648   104396811.158    19536445.492    81197514.933    19536445.020  
  19536440.266  
  21999167.992   117515626.796    21999172.355    91401025.406    21999170.926  
  21999167.258  
  22759128.250   121874097.217    22759132.449    94790964.128    22759132.527  
  22759127.512  
  20775345.375   109175186.330    20775350.871    85071594.4804   20775351.113  
                
  21619549.508   113611502.226    21619557.977    88528479.0254   21619557.934  
                
  23270742.477   122288582.295    23270750.777    95289836.3524   23270751.078  
                
  20368618.422   108920168.079    20368622.922    84715683.619    20368622.773  
  20368617.754  
  22518648.695   118336332.183    22518655.898    92210180.7754   22518656.738  
                
  20891426.633   109785202.903    20891429.820    85546926.9454                 
                
  19330552.273   103441695.971    19330556.695    80454657.857    19330556.383  
  19330551.309  
  23479648.023   123386400.382    23479657.062    96145282.2274   23479657.574  
                
  22555406.609   120402302.641    22555412.250    93646233.598    22555411.820  
  22555405.648  
  21699162.227   115668724.841    21699167.715    89964545.608    21699168.551  
  21699161.316  
  24382768.281   128132308.633    24382772.828    99843371.4284                 
                
  23022723.141   123069659.985    23022730.059    95720879.792    23022729.094  
  23022721.730  
 21  8  9  0 31 30.0000000  0 17G17G22R15R16R 8G14G 1G24R24G 3G19R17
                                G 6R18R14G21R 1
  20434466.234   107383867.769    20434471.117    83675756.0034   20434471.441  
                
  22777497.422   119696589.746    22777500.238    93270094.0434                 
                
  19537578.758   104402892.818    19537583.602    81202245.111    19537583.129  
  19537578.387  
  21992711.078   117481135.081    21992715.461    91374198.520    21992713.996  
  21992710.328  
  22758670.586   121871646.439    22758674.836    94789057.960    22758674.902  
  22758669.895  
  20778815.484   109193421.834    20778820.977    85085803.9524   20778821.223  
                
  21624926.375   113639757.802    21624934.828    88550496.3514   21624934.805  
                
  23269580.352   122282475.275    23269588.621    95285077.6274   23269588.941  
                
  20373559.406   108946589.736    20373563.926    84736233.778    20373563.766  
  20373558.727  
  22515482.922   118319695.960    22515490.105    92197217.4964   22515490.934  
                
  20887507.703   109764608.781    20887510.875    85530879.5874                 
                
  19328535.516   103430903.890    19328539.953    80446264.013    19328539.633  
  19328534.555  
  23472802.164   123350425.327    23472811.215    96117249.7464   23472811.715  
                
  22548677.031   120366379.807    22548682.746    93618293.649    22548682.250  
  22548676.043  
  21706830.133   115709598.871    21706835.574    89996336.540    21706836.402  
  21706829.277  
  24388815.891   128164089.041    24388820.414    99868135.3524                 
                
  23017212.703   123040203.556    23017219.578    95697969.247    23017218.688  
  23017211.332  
 21  8  9  0 31 40.0000000  0 17G17G22R15R16R 8G14G 1G24R24G 3G19R17
                                G 6R18R14G21R 1
  20434101.922   107381953.275    20434106.801    83674264.1924   20434107.121  
                
  22777847.211   119698427.904    22777849.973    93271526.3744                 
                
  19538733.750   104409064.723    19538738.594    81207045.484    19538738.125  
  19538733.371  
  21986263.641   117446693.975    21986268.027    91347411.000    21986266.551  
  21986262.871  
  22758229.312   121869283.425    22758233.574    94787220.038    22758233.648  
  22758228.664  
  20782295.750   109211710.720    20782301.242    85100055.0294   20782301.488  
                
  21630311.453   113668056.566    21630319.902    88572547.3264   21630319.887  
                
  23268430.867   122276434.672    23268439.105    95280370.6854   23268439.465  
                
  20378507.656   108973050.206    20378512.184    84756814.137    20378512.020  
  20378506.980  
  22512328.812   118303120.944    22512335.965    92184301.9064   22512336.789  
                
  20883596.000   109744052.669    20883599.164    85514861.8374                 
                
  19326529.969   103420171.752    19326534.422    80437916.798    19326534.094  
  19326529.012  
  23465960.547   123314472.363    23465969.605    96089234.4594   23465970.074  
                
  22541952.422   120330483.514    22541958.156    93590374.331    22541957.641  
  22541951.395  
  21714505.375   115750512.004    21714510.734    90028157.860    21714511.574  
  21714504.516  
  24394865.367   128195879.187    24394869.875    99892906.8804                 
                
  23011712.617   123010802.585    23011719.508    95675101.849    23011718.621  
  23011711.234  
 21  8  9  0 31 50.0000000  0 17G17G22R15R16R 8G14G 1G24R24G 3G19R17
                                G 6R18R14G21R 1
  20433744.555   107380075.326    20433749.430    83672800.8534   20433749.750  
                
  22778209.281   119700330.556    22778212.012    93273008.9674                 
                
  19539905.586   104415326.669    19539910.449    81211915.879    19539909.977  
  19539905.203  
  21979825.617   117412303.183    21979829.980    91320662.617    21979828.523  
  21979824.840  
  22757804.305   121867007.473    22757808.582    94785449.848    22757808.648  
  22757803.695  
  20785786.109   109230052.597    20785791.602    85114347.3964   20785791.848  
                
  21635704.656   113696398.062    21635713.102    88594631.6044   21635713.078  
                
  23267293.953   122270460.240    23267302.156    95275715.2854   23267302.547  
                
  20383463.117   108999549.249    20383467.637    84777424.493    20383467.461  
  20383462.453  
  22509186.273   118286606.838    22509193.406    92171433.7684   22509194.242  
                
  20879691.523   109723534.522    20879694.684    85498873.6704                 
                
  19324535.570   103409499.368    19324540.023    80429616.058    19324539.695  
  19324534.629  
  23459123.055   123278541.190    23459132.148    96061236.1444   23459132.586  
                
  22535232.727   120294613.372    22535238.492    93562475.365    22535237.980  
  22535231.688  
  21722187.812   115791463.763    21722193.152    90060009.198    21722194.020  
  21722186.891  
  24400916.617   128227678.587    24400921.145    99917685.6244                 
                
  23006222.906   122981457.046    23006229.801    95652277.524    23006228.844  
  23006221.516  
 21  8  9  0 32  0.0000000  0 17G17G22R15R16R 8G14G 1G24R24G 3G19R17
                                G 6R18R14G21R 1
  20433394.211   107378234.214    20433399.082    83671366.2194   20433399.398  
                
  22778583.672   119702297.973    22778586.383    93274542.0284                 
                
  19541094.312   104421678.829    19541099.172    81216856.445    19541098.711  
  19541093.922  
  21973397.125   117377963.352    21973401.457    91293953.867    21973400.031  
  21973396.324  
  22757395.656   121864819.149    22757399.973    94783747.826    22757400.000  
  22757395.055  
  20789286.586   109248447.728    20789292.086    85128681.2534   20789292.336  
                
  21641106.047   113724782.511    21641114.480    88616749.3434   21641114.453  
                
  23266169.711   122264552.252    23266177.863    95271111.6554   23266178.293  
                
  20388425.781   109026086.755    20388430.297    84798064.777    20388430.113  
  20388425.129  
  22506055.406   118270154.012    22506062.508    92158613.3964   22506063.379  
                
  20875794.320   109703054.615    20875797.480    85482915.3094                 
                
  19322552.391   103398886.939    19322556.828    80421361.947    19322556.496  
  19322551.469  
  23452289.742   123242632.113    23452298.848    96033255.0764   23452299.293  
                
  22528518.047   120258769.935    22528523.832    93534597.145    22528523.297  
  22528517.012  
  21729877.516   115832454.287    21729882.906    90091890.671    21729883.777  
  21729876.531  
  24406969.664   128259487.457    24406974.195    99942471.7604                 
                
  23000743.586   122952167.143    23000750.441    95629496.479    23000749.535  
  23000742.234  
 21  8  9  0 32 10.0000000  0 17G17G22R15R16R 8G14G 1G24R24G 3G19R17
                                G 6R18R14G21R 1
  20433050.836   107376429.766    20433055.699    83669960.1524   20433056.016  
                
  22778970.359   119704330.004    22778973.098    93276125.4404                 
                
  19542299.883   104428121.008    19542304.746    81221867.032    19542304.289  
  19542299.492  
  21966978.102   117343674.106    21966982.418    91267284.467    21966981.031  
  21966977.262  
  22757003.352   121862718.358    22757007.676    94782113.872    22757007.672  
  22757002.707  
  20792797.172   109266895.900    20792802.680    85143056.4414   20792802.926  
                
  21646515.547   113753209.589    21646523.957    88638900.3154   21646523.934  
                
  23265058.078   122258710.532    23265066.203    95266559.6624   23265066.660  
                
  20393395.594   109052662.535    20393400.066    84818734.822    20393399.891  
  20393394.965  
  22502936.180   118253762.371    22502943.250    92145840.6954   22502944.160  
                
  20871904.375   109682612.815    20871907.531    85466986.6394                 
                
  19320580.383   103388334.321    19320584.809    80413154.360    19320584.484  
  19320579.484  
  23445460.656   123206745.081    23445469.730    96005291.1824   23445470.188  
                
  22521808.305   120222952.947    22521814.094    93506739.497    22521813.523  
  22521807.277  
  21737574.453   115873483.173    21737579.883    90123802.013    21737580.746  
  21737573.480  
  24413024.469   128291305.628    24413029.039    99967265.1164                 
                
  22995274.727   122922933.096    22995281.574    95606758.876    22995280.707  
  22995273.379  
 21  8  9  0 32 20.0000000  0 17G17G22R15R16R 8G14G 1G24R24G 3G19R17
                                G 6R18R14G21R 1
  20432714.469   107374662.112    20432719.328    83668582.7594   20432719.641  
                
  22779369.367   119706426.741    22779372.141    93277759.2594                 
                
  19543522.320   104434653.367    19543527.207    81226947.754    19543526.730  
  19543521.906  
  21960568.664   117309436.084    21960572.953    91240654.900    21960571.570  
  21960567.789  
  22756627.344   121860704.917    22756631.641    94780547.861    22756631.645  
  22756626.660  
  20796317.852   109285397.161    20796323.367    85157472.9984   20796323.605  
                
  21651933.156   113781679.320    21651941.527    88661084.5234   21651941.520  
                
  23263959.062   122252935.208    23263967.195    95262059.4024   23263967.648  
                
  20398372.578   109079276.609    20398377.004    84839434.648    20398376.855  
  20398371.949  
  22499828.633   118237432.109    22499835.695    92133115.8104   22499836.617  
                
  20868021.695   109662209.219    20868024.848    85451087.7414                 
                
  19318619.594   103377841.693    19318624.027    80404993.432    19318623.676  
  19318618.715  
  23438635.836   123170880.298    23438644.875    95977344.6084   23438645.348  
                
  22515103.562   120187162.586    22515109.359    93478902.579    22515108.789  
  22515102.539  
  21745278.633   115914550.501    21745284.027    90155743.274    21745284.906  
  21745277.672  
  24419081.039   128323133.119    24419085.637    99992065.7364                 
                
  22989816.328   122893754.967    22989823.180    95584064.779    22989822.328  
  22989814.984  
 21  8  9  0 32 30.0000000  0 17G17G22R15R16R 8G14G 1G24R24G 3G19R17
                                G 6R18R14G21R 1
  20432385.133   107372931.449    20432389.977    83667234.1924   20432390.289  
                
  22779780.734   119708588.489    22779783.539    93279443.7414                 
                
  19544761.680   104441276.154    19544766.574    81232098.798    19544766.098  
  19544761.262  
  21954168.852   117275249.547    21954173.129    91214065.367    21954171.773  
  21954167.980  
  22756267.750   121858779.366    22756272.023    94779050.206    22756272.043  
  22756267.031  
  20799848.664   109303951.747    20799854.188    85171931.1024   20799854.422  
                
  21657358.914   113810191.877    21657367.246    88683302.0874   21657367.254  
                
  23262872.742   122247226.539    23262880.910    95257611.1024   23262881.324  
                
  20403356.766   109105929.236    20403361.168    84860164.471    20403361.031  
  20403356.176  
  22496732.820   118221163.535    22496739.891    92120439.0124   22496740.812  
                
  20864146.336   109641844.118    20864149.496    85435218.8304                 
                
  19316670.039   103367409.233    19316674.461    80396879.300    19316674.098  
  19316669.176  
  23431815.266   123135038.040    23431824.355    95949415.5974   23431824.797  
                
  22508403.852   120151399.113    22508409.688    93451086.559    22508409.090  
  22508402.820  
  21752990.016   115955656.346    21752995.352    90187714.485    21752996.246  
  21752989.059  
  24425139.414   128354970.127    24425144.000   100016873.7894                 
                
  22984368.469   122864633.133    22984375.352    95561414.460    22984374.512  
  22984367.082  
 21  8  9  0 32 40.0000000  0 17G17G22R15R16R 8G14G 1G24R24G 3G19R17
                                G 6R18R14G21R 1
  20432062.797   107371237.565    20432067.633    83665914.2854   20432067.945  
                
  22780204.430   119710814.959    22780207.234    93281178.6544                 
                
  19546017.906   104447989.037    19546022.801    81237319.928    19546022.332  
  19546017.484  
  21947778.648   117241114.300    21947782.930    91187515.732    21947781.605  
  21947777.793  
  22755924.531   121856941.517    22755928.793    94777620.778    22755928.805  
  22755923.801  
  20803389.594   109322559.386    20803395.133    85186430.5584   20803395.359  
                
  21662792.766   113838746.904    21662801.070    88705552.7594   21662801.082  
                
  23261799.078   122241584.362    23261807.270    95253214.5974   23261807.660  
                
  20408348.086   109132619.965    20408352.488    84880923.929    20408352.359  
  20408347.520  
  22493648.727   118204956.521    22493655.816    92107810.1714   22493656.746  
                
  20860278.289   109621517.395    20860281.457    85419379.8264                 
                
  19314731.672   103357036.584    19314736.062    80388811.685    19314735.707  
  19314730.848  
  23424998.914   123099218.126    23425008.062    95921504.0134   23425008.488  
                
  22501709.156   120115662.286    22501715.047    93423291.272    22501714.398  
  22501708.137  
  21760708.547   115996800.551    21760713.832    90219715.525    21760714.797  
  21760707.559  
  24431199.570   128386816.367    24431204.160   100041689.0234                 
                
  22978931.188   122835567.761    22978938.098    95538808.074    22978937.266  
  22978929.773  
 21  8  9  0 32 50.0000000  0 17G17G22R15R16R 8G14G 1G24R24G 3G19R17
                                G 6R18R14G21R 1
  20431747.422   107369580.268    20431752.242    83664622.8814   20431752.559  
                
  22780640.398   119713105.972    22780643.184    93282963.8694                 
                
  19547290.938   104454791.763    19547295.832    81242610.930    19547295.355  
  19547290.516  
  21941398.039   117207030.261    21941402.336    91161005.935    21941401.035  
  21941397.191  
  22755597.633   121855191.043    22755601.844    94776259.299    22755601.875  
  22755596.863  
  20806940.555   109341219.832    20806946.105    85200971.1624   20806946.320  
                
  21668234.641   113867344.144    21668242.926    88727836.3164   21668242.945  
                
  23260738.016   122236008.447    23260746.219    95248869.7244   23260746.609  
                
  20413346.461   109159348.511    20413350.879    84901712.789    20413350.738  
  20413345.922  
  22490576.328   118188810.959    22490583.449    92095229.2274   22490584.355  
                
  20856417.492   109601228.848    20856420.688    85403570.5874                 
                
  19312804.461   103346723.700    19312808.809    80380790.557    19312808.480  
  19312803.645  
  23418186.820   123063420.483    23418195.977    95893609.7664   23418196.383  
                
  22495019.477   120079952.285    22495025.379    93395516.830    22495024.715  
  22495018.461  
  21768434.148   116037982.576    21768439.438    90251745.963    21768440.414  
  21768433.117  
  24437261.438   128418671.629    24437266.031   100066511.2894                 
                
  22973504.422   122806558.717    22973511.289    95516245.459    22973510.484  
  22973502.980  
 21  8  9  0 33  0.0000000  0 17G17G22R15R16R 8G14G 1G24R24G 3G19R17
                                G 6R18R14G21R 1
  20431439.055   107367959.761    20431443.867    83663360.1414   20431444.188  
                
  22781088.680   119715461.637    22781091.438    93284799.4554                 
                
  19548580.852   104461684.632    19548585.750    81247972.050    19548585.277  
  19548580.426  
  21935027.125   117172997.975    21935031.453    91134536.391    21935030.148  
  21935026.266  
  22755287.102   121853528.111    22755291.246    94774965.898    22755291.285  
  22755286.312  
  20810501.602   109359933.243    20810507.160    85215553.0304   20810507.371  
                
  21673684.555   113895983.624    21673692.828    88750152.7874   21673692.852  
                
  23259689.609   122230498.997    23259697.801    95244576.6444   23259698.215  
                
  20418351.930   109186114.938    20418356.375    84922531.119    20418356.219  
  20418351.383  
  22487515.664   118172727.061    22487522.848    92082696.3324   22487523.715  
                
  20852564.023   109580978.703    20852567.246    85387791.2524                 
                
  19310888.453   103336470.732    19310892.793    80372816.037    19310892.477  
  19310887.656  
  23411379.016   123027645.364    23411388.164    95865733.0314   23411388.566  
                
  22488334.773   120044268.904    22488340.754    93367763.116    22488340.027  
  22488333.785  
  21776166.914   116079202.290    21776172.234    90283805.734    21776173.160  
  21776165.895  
  24443325.047   128450535.934    24443329.633   100091340.5994                 
                
  22968088.281   122777606.377    22968095.152    95493726.975    22968094.324  
  22968086.816  
 21  8  9  0 33 10.0000000  0 17G17G22R15R16R 8G14G 1G24R24G 3G19R17
                                G 6R18R14G21R 1
  20431137.734   107366376.284    20431142.539    83662126.2604   20431142.867  
                
  22781549.320   119717882.284    22781552.043    93286685.6834                 
                
  19549887.648   104468667.800    19549892.543    81253403.391    19549892.078  
  19549887.215  
  21928665.898   117139017.489    21928670.223    91108107.132    21928668.930  
  21928665.031  
  22754993.023   121851953.289    22754997.102    94773741.021    22754997.160  
  22754992.266  
  20814072.773   109378699.826    20814078.328    85230176.3204   20814078.555  
                
  21679142.539   113924665.488    21679150.793    88772502.2924   21679150.801  
                
  23258653.891   122225056.281    23258662.078    95240335.5704   23258662.500  
                
  20423364.562   109212919.683    20423369.035    84943379.239    20423368.848  
  20423364.016  
  22484466.797   118156705.208    22484474.039    92070211.7834   22484474.867  
                
  20848717.891   109560767.161    20848721.145    85372042.0104                 
                
  19308983.695   103326277.997    19308988.008    80364888.342    19308987.699  
  19308982.895  
  23404575.500   122991893.020    23404584.688    95837874.0974   23404585.105  
                
  22481655.195   120008612.864    22481661.215    93340030.652    22481660.449  
  22481654.227  
  21783906.844   116120459.976    21783912.168    90315895.037    21783913.062  
  21783905.855  
  24449390.375   128482409.437    24449394.988   100116177.0724                 
                
  22962682.789   122748710.975    22962689.688    95471252.756    22962688.832  
  22962681.309  
 21  8  9  0 33 20.0000000  0 17G17G22R15R16R 8G14G 1G24R24G 3G19R17
                                G 6R18R14G21R 1
  20430843.359   107364829.352    20430848.164    83660920.8644   20430848.492  
                
  22782022.211   119720367.381    22782024.891    93288622.1314                 
                
  19551211.273   104475740.858    19551216.180    81258904.653    19551215.707  
  19551210.824  
  21922314.391   117105088.884    21922318.711    91081718.229    21922317.426  
  21922313.508  
  22754715.258   121850465.832    22754719.270    94772584.097    22754719.332  
  22754714.492  
  20817653.953   109397519.049    20817659.492    85244840.6484   20817659.738  
                
  21684608.477   113953389.192    21684616.691    88794884.3984   21684616.707  
                
  23257630.789   122219679.824    23257638.961    95236146.1174   23257639.391  
                
  20428384.180   109239761.815    20428388.660    84964256.453    20428388.469  
  20428383.641  
  22481429.656   118140744.954    22481436.961    92057775.2324   22481437.738  
                
  20844879.023   109540593.810    20844882.285    85356322.5144                 
                
  19307090.078   103316144.856    19307094.363    80357007.019    19307094.066  
  19307089.289  
  23397776.289   122956163.077    23397785.480    95810032.6164   23397785.902  
                
  22474980.586   119972983.413    22474986.668    93312318.901    22474985.871  
  22474979.594  
  21791653.758   116161755.161    21791659.086    90348013.491    21791659.961  
  21791652.785  
  24455457.367   128514291.627    24455461.996   100141020.3194                 
                
  22957287.914   122719872.266    22957294.793    95448822.631    22957293.934  
  22957286.461  
 21  8  9  0 33 30.0000000  0 17G17G22R15R16R 8G14G 1G24R24G 3G19R17
                                G 6R18R14G21R 1
  20430556.000   107363319.268    20430560.805    83659744.1784   20430561.141  
                
  22782507.438   119722917.236    22782510.082    93290609.0354                 
                
  19552551.766   104482904.011    19552556.676    81264475.990    19552556.211  
  19552551.309  
  21915972.625   117071212.314    21915976.938    91055369.790    21915975.652  
  21915971.746  
  22754453.891   121849066.208    22754457.836    94771495.489    22754457.922  
  22754453.105  
  20821245.211   109416391.231    20821250.742    85259546.2344   20821251.008  
                
  21690082.422   113982154.951    21690090.598    88817299.2804   21690090.621  
                
  23256620.367   122214370.000    23256628.535    95232008.5914   23256628.949  
                
  20433410.859   109266641.739    20433415.359    84985163.051    20433415.180  
  20433410.309  
  22478404.328   118124846.744    22478411.680    92045387.0274   22478412.438  
                
  20841047.500   109520459.018    20841050.766    85340633.0744                 
                
  19305207.680   103306071.778    19305211.945    80349172.402    19305211.648  
  19305206.895  
  23390981.445   122920456.011    23390990.629    95782208.9184   23390991.039  
                
  22468311.078   119937380.984    22468317.137    93284628.138    22468316.328  
  22468310.074  
  21799407.711   116203088.093    21799413.043    90380161.313    21799413.926  
  21799406.746  
  24461526.062   128546182.831    24461530.699   100165870.5654                 
                
  22951903.773   122691090.950    22951910.652    95426437.157    22951909.793  
  22951902.312  
 21  8  9  0 33 40.0000000  0 17G17G22R15R16R 8G14G 1G24R24G 3G19R17
                                G 6R18R14G21R 1
  20430275.648   107361845.979    20430280.457    83658596.1544   20430280.785  
                
  22783004.984   119725531.812    22783007.621    93292646.3754                 
                
  19553909.117   104490157.278    19553914.023    81270117.408    19553913.566  
  19553908.656  
  21909640.633   117037387.993    21909644.953    91029062.008    21909643.641  
  21909639.738  
  22754208.891   121847754.199    22754212.809    94770475.006    22754212.891  
  22754208.125  
  20824846.523   109435316.253    20824852.051    85274292.9884   20824852.324  
                
  21695564.328   114010962.582    21695572.469    88839746.7854   21695572.516  
                
  23255622.602   122209126.707    23255630.785    95227922.9124   23255631.188  
                
  20438444.570   109293559.290    20438449.105    85006098.909    20438448.926  
  20438444.031  
  22475390.797   118109010.558    22475398.188    92033047.1454   22475398.914  
                
  20837223.320   109500362.795    20837226.594    85324973.6854                 
                
  19303336.453   103296058.460    19303340.711    80341384.274    19303340.414  
  19303335.660  
  23384190.938   122884771.707    23384200.094    95754402.9984   23384200.520  
                
  22461646.641   119901805.760    22461652.723    93256958.543    22461651.867  
  22461645.613  
  21807168.594   116244458.141    21807173.926    90412338.000    21807174.832  
  21807167.645  
  24467596.453   128578082.825    24467601.086   100190727.6964                 
                
  22946530.305   122662366.752    22946537.219    95404096.121    22946536.348  
  22946528.848  
 21  8  9  0 33 50.0000000  0 17G17G22R15R16R 8G14G 1G24R24G 3G19R17
                                G 6R18R14G21R 1
  20430002.266   107360409.332    20430007.082    83657476.6854   20430007.410  
                
  22783514.812   119728210.932    22783517.445    93294734.0084                 
                
  19555283.281   104497500.386    19555288.207    81275828.714    19555287.738  
  19555282.824  
  21903318.414   117003615.885    21903322.730    91002794.820    21903321.418  
  21903317.500  
  22753980.297   121846530.023    22753984.230    94769522.874    22753984.289  
  22753979.539  
  20828457.867   109454293.937    20828463.395    85289080.7894   20828463.676  
                
  21701054.172   114039811.866    21701062.309    88862226.7414   21701062.355  
                
  23254637.484   122203949.849    23254645.668    95223888.9924   23254646.059  
                
  20443485.289   109320514.241    20443489.867    85027063.866    20443489.688  
  20443484.742  
  22472389.062   118093236.334    22472396.480    92020755.5604   22472397.180  
                
  20833406.461   109480305.059    20833409.758    85309344.2884                 
                
  19301476.414   103286105.005    19301480.660    80333642.695    19301480.363  
  19301475.598  
  23377404.758   122849110.173    23377413.887    95726614.8104   23377414.312  
                
  22454987.242   119866257.436    22454993.289    93229309.850    22454992.422  
  22454986.195  
  21814936.547   116285865.413    21814941.762    90444543.682    21814942.699  
  21814935.629  
  24473668.492   128609991.488    24473673.098   100215591.5834                 
                
  22941167.578   122633699.920    22941174.512    95381799.694    22941173.637  
  22941166.145  
 21  8  9  0 34  0.0000000  0 17G17G22R15R16R 8G14G 1G24R24G 3G19R17
                                G 6R18R14G21R 1
  20429735.898   107359009.571    20429740.727    83656385.9594   20429741.051  
                
  22784036.969   119730954.828    22784039.613    93296872.1094                 
                
  19556674.312   104504933.633    19556679.258    81281610.122    19556678.773  
  19556673.852  
  21897006.062   116969896.453    21897010.332    90976568.608    21897009.062  
  21897005.152  
  22753768.109   121845393.721    22753772.023    94768639.073    22753772.059  
  22753767.352  
  20832079.258   109473324.456    20832084.777    85303909.7574   20832085.070  
                
  21706551.961   114068702.886    21706560.141    88884739.2174   21706560.172  
                
  23253665.047   122198839.660    23253673.223    95219907.0254   23253673.625  
                
  20448533.023   109347506.776    20448537.629    85048058.044    20448537.445  
  20448532.453  
  22469399.172   118077524.396    22469406.629    92008512.4984   22469407.297  
                
  20829596.969   109460286.034    20829600.281    85293745.0504                 
                
  19299627.586   103276211.568    19299631.824    80325947.799    19299631.531  
  19299626.762  
  23370622.977   122813471.687    23370632.066    95698844.5514   23370632.492  
                
  22448332.969   119830736.501    22448338.977    93201682.483    22448338.137  
  22448331.898  
  21822711.539   116327309.868    21822716.617    90476778.265    21822717.578  
  21822710.625  
  24479742.203   128641909.016    24479746.727   100240462.3714                 
                
  22935815.617   122605090.598    22935822.594    95359547.997    22935821.691  
  22935814.195  
 21  8  9  0 34 10.0000000  0 17G17G22R15R16R 8G14G 1G24R24G 3G19R17
                                G 6R18R14G21R 1
  20429476.516   107357646.511    20429481.359    83655323.8344   20429481.668  
                
  22784571.406   119733763.321    22784574.082    93299060.5574                 
                
  19558082.164   104512456.764    19558087.105    81287461.438    19558086.625  
  19558081.699  
  21890703.539   116936229.513    21890707.762    90950383.220    21890706.516  
  21890702.645  
  22753572.281   121844345.102    22753576.176    94767823.466    22753576.230  
  22753571.527  
  20835710.656   109492407.561    20835716.172    85318779.6984   20835716.469  
                
  21712057.625   114097635.373    21712065.867    88907284.0044   21712065.867  
                
  23252705.250   122193795.943    23252713.422    95215976.8554   23252713.828  
                
  20453587.695   109374536.402    20453592.336    85069081.081    20453592.156  
  20453587.090  
  22466421.109   118061874.587    22466428.605    91996317.8454   22466429.242  
                
  20825794.797   109440305.553    20825798.121    85278175.8504                 
                
  19297789.906   103266377.839    19297794.145    80318299.342    19297793.848  
  19297789.062  
  23363845.523   122777856.078    23363854.621    95671092.1494   23363855.051  
                
  22441683.758   119795242.595    22441689.785    93174076.128    22441688.930  
  22441682.676  
  21830493.375   116368791.167    21830498.438    90509041.470    21830499.402  
  21830492.461  
  24485817.531   128673835.100    24485821.988   100265339.8374                 
                
  22930474.453   122576539.059    22930481.477    95337341.239    22930480.555  
  22930473.055  
 21  8  9  0 34 20.0000000  0 17G17G22R15R16R 8G14G 1G24R24G 3G19R17
                                G 6R18R14G21R 1
  20429224.188   107356320.513    20429229.051    83654290.5974   20429229.344  
                
  22785118.211   119736636.758    22785120.914    93301299.5914                 
                
  19559506.922   104520070.227    19559511.859    81293383.015    19559511.383  
  19559506.457  
  21884410.953   116902615.684    21884415.133    90924239.134    21884413.906  
  21884410.078  
  22753392.891   121843384.481    22753396.793    94767076.317    22753396.836  
  22753392.176  
  20839352.125   109511543.590    20839357.645    85333690.8824   20839357.945  
                
  21717571.250   114126609.597    21717579.547    88929861.3154   21717579.527  
                
  23251758.188   122188819.070    23251766.352    95212098.7804   23251766.773  
                
  20458649.414   109401603.700    20458654.082    85090133.411    20458653.891  
  20458648.797  
  22463454.953   118046287.364    22463462.480    91984171.9754   22463463.086  
                
  20822000.062   109420364.048    20822003.371    85262637.0154                 
                
  19295963.508   103256604.411    19295967.734    80310697.792    19295967.457  
  19295962.656  
  23357072.531   122742263.803    23357081.648    95643357.9354   23357082.074  
                
  22435039.703   119759776.291    22435045.797    93146491.252    22435044.910  
  22435038.648  
  21838282.117   116410309.547    21838287.219    90541333.499    21838288.199  
  21838281.148  
  24491894.547   128705769.986    24491898.914   100290224.1584                 
                
  22925144.164   122548045.640    22925151.234    95315179.694    22925150.309  
  22925142.754  
 21  8  9  0 34 30.0000000  0 17G17G22R15R16R 8G14G 1G24R24G 3G19R17
                                G 6R18R14G21R 1
  20428978.789   107355030.931    20428983.652    83653285.7194   20428983.941  
                
  22785677.250   119739574.556    22785679.969    93303588.7814                 
                
  19560948.430   104527773.217    19560953.379    81299374.223    19560952.898  
  19560947.977  
  21878128.195   116869054.400    21878132.344    90898135.916    21878131.125  
  21878127.348  
  22753229.828   121842511.299    22753233.723    94766397.160    22753233.773  
  22753229.117  
  20843003.555   109530731.941    20843009.090    85348642.8324   20843009.379  
                
  21723092.672   114155624.867    21723101.004    88952470.5984   21723100.977  
                
  23250823.719   122183908.473    23250831.879    95208272.3414   23250832.328  
                
  20463718.023   109428707.862    20463722.699    85111214.421    20463722.492  
  20463717.406  
  22460500.609   118030762.214    22460508.129    91972074.4714   22460508.734  
                
  20818212.617   109400460.925    20818215.918    85247128.0994                 
                
  19294148.203   103246890.392    19294152.434    80303142.447    19294152.160  
  19294147.344  
  23350303.898   122706694.389    23350313.031    95615641.5254   23350313.449  
                
  22428400.711   119724336.943    22428406.812    93118927.337    22428405.945  
  22428399.656  
  21846077.688   116451864.408    21846082.844    90573653.895    21846083.809  
  21846076.680  
  24497973.125   128737713.089    24497977.434   100315114.8634                 
                
  22919824.641   122519609.769    22919831.766    95293062.890    22919830.777  
  22919823.242  
 21  8  9  0 34 40.0000000  0 17G17G22R15R16R 8G14G 1G24R24G 3G19R17
                                G 6R18R14G21R 1
  20428740.430   107353778.299    20428745.293    83652309.6454   20428745.590  
                
  22786248.633   119742577.182    22786251.367    93305928.4984                 
                
  19562406.805   104535566.309    19562411.766    81305435.515    19562411.277  
  19562406.363  
  21871855.461   116835546.533    21871859.598    90872074.261    21871858.375  
  21871854.609  
  22753083.188   121841726.066    22753087.109    94765786.404    22753087.145  
  22753082.492  
  20846665.016   109549973.004    20846670.562    85363635.8584   20846670.844  
                
  21728621.969   114184681.514    21728630.336    88975112.1364   21728630.301  
                
  23249901.969   122179064.647    23249910.148    95204497.9454   23249910.602  
                
  20468793.578   109455849.086    20468798.238    85132324.262    20468798.047  
  20468792.980  
  22457558.195   118015299.705    22457565.703    91960025.7694   22457566.312  
                
  20814432.586   109380596.704    20814435.895    85231649.4934                 
                
  19292344.141   103237236.529    19292348.375    80295633.887    19292348.098  
  19292343.246  
  23343539.695   122671148.324    23343548.789    95587943.2974   23343549.242  
                
  22421766.867   119688925.131    22421772.980    93091384.855    22421772.102  
  22421765.832  
  21853880.188   116493455.842    21853885.289    90606002.796    21853886.266  
  21853879.180  
  24504053.359   128769664.753    24504057.676   100340012.2634                 
                
  22914516.031   122491232.313    22914523.230    95270991.543    22914522.207  
  22914514.660  
 21  8  9  0 34 50.0000000  0 17G17G22R15R16R 8G14G 1G24R24G 3G19R17
                                G 6R18R14G21R 1
  20428509.023   107352562.260    20428513.891    83651362.0794   20428514.195  
                
  22786832.289   119745644.343    22786835.043    93308318.4964                 
                
  19563881.984   104543449.163    19563886.941    81311566.617    19563886.449  
  19563881.539  
  21865592.602   116802091.459    21865596.719    90846053.653    21865595.500  
  21865591.742  
  22752952.938   121841028.559    22752956.910    94765243.891    22752956.930  
  22752952.250  
  20850336.445   109569266.438    20850341.996    85378669.6864   20850342.277  
                
  21734159.062   114213779.135    21734167.453    88997785.6084   21734167.410  
                
  23248992.867   122174287.252    23249001.047    95200775.2874   23249001.492  
                
  20473876.016   109483027.088    20473880.664    85153462.710    20473880.484  
  20473875.430  
  22454627.633   117999899.528    22454635.125    91948025.6374   22454635.746  
                
  20810659.906   109360771.129    20810663.223    85216200.9974                 
                
  19290551.211   103227642.228    19290555.469    80288171.654    19290555.195  
  19290550.301  
  23336779.891   122635625.375    23336788.945    95560263.0894   23336789.426  
                
  22415138.141   119653540.579    22415144.207    93063863.545    22415143.328  
  22415137.129  
  21861689.539   116535083.590    21861694.488    90638379.983    21861695.520  
  21861688.594  
  24510135.156   128801624.635    24510139.469   100364916.0784                 
                
  22909218.305   122462912.997    22909225.551    95248965.406    22909224.566  
  22909216.980  
 21  8  9  0 35  0.0000000  0 17G17G22R15R16R 8G14G 1G24R24G 3G19R17
                                G 6R18R14G21R 1
  20428284.617   107351383.001    20428289.484    83650443.1774   20428289.785  
                
  22787428.250   119748776.157    22787431.000    93310758.8744                 
                
  19565373.969   104551421.891    19565378.926    81317767.620    19565378.430  
  19565373.531  
  21859339.734   116768689.797    21859343.824    90820074.594    21859342.633  
  21859338.879  
  22752839.078   121840418.813    22752843.086    94764769.637    22752843.109  
  22752838.410  
  20854017.859   109588612.377    20854023.410    85393744.4354   20854023.699  
                
  21739703.969   114242917.802    21739712.367    89020491.0644   21739712.332  
                
  23248096.469   122169576.653    23248104.633    95197104.6844   23248105.094  
                
  20478965.312   109510241.894    20478969.949    85174629.785    20478969.777  
  20478964.730  
  22451709.000   117984561.987    22451716.480    91936074.3204   22451717.102  
                
  20806894.562   109340984.130    20806897.898    85200782.5584                 
                
  19288769.484   103218107.856    19288773.754    80280756.030    19288773.477  
  19288768.562  
  23330024.531   122600125.802    23330033.590    95532601.0794   23330034.066  
                
  22408514.547   119618183.426    22408520.547    93036363.554    22408519.715  
  22408513.527  
  21869505.680   116576747.712    21869510.531    90670785.409    21869511.574  
  21869504.754  
  24516218.547   128833592.953    24516222.812   100389826.4444                 
                
  22903931.531   122434652.256    22903938.812    95226984.840    22903937.879  
  22903930.254  
 21  8  9  0 35 10.0000000  0 17G17G22R15R16R 8G14G 1G24R24G 3G19R17
                                G 6R18R14G21R 1
  20428067.188   107350240.402    20428072.051    83649552.8404   20428072.359  
                
  22788036.484   119751972.481    22788039.234    93313249.5174                 
                
  19566882.758   104559484.406    19566887.703    81324038.460    19566887.215  
  19566882.332  
  21853096.891   116735341.590    21853100.961    90794137.115    21853099.773  
  21853096.020  
  22752741.602   121839896.815    22752745.648    94764363.629    22752745.672  
  22752740.938  
  20857709.250   109608010.679    20857714.820    85408859.9794   20857715.094  
                
  21745256.656   114272097.351    21745265.078    89043228.3644   21745265.039  
                
  23247212.711   122164932.441    23247220.871    95193485.8354   23247221.355  
                
  20484061.516   109537493.627    20484066.160    85195825.571    20484066.000  
  20484060.902  
  22448802.281   117969287.044    22448809.758    91924171.7834   22448810.363  
                
  20803136.617   109321236.010    20803139.965    85185394.4164                 
                
  19286998.914   103208633.203    19287003.191    80273386.855    19287002.918  
  19286997.996  
  23323273.578   122564649.553    23323282.703    95504957.2774   23323283.168  
                
  22401896.102   119582853.840    22401902.148    93008885.011    22401901.305  
  22401895.094  
  21877328.500   116618447.819    21877333.422    90703218.786    21877334.418  
  21877327.578  
  24522303.500   128865569.466    24522307.742   100414743.1964                 
                
  22898655.703   122406449.979    22898662.992    95205049.746    22898662.082  
  22898654.461  
 21  8  9  0 35 20.0000000  0 17G17G22R15R16R 8G14G 1G24R24G 3G19R17
                                G 6R18R14G21R 1
  20427856.766   107349134.650    20427861.629    83648691.2124   20427861.938  
                
  22788657.023   119755233.447    22788659.789    93315790.5304                 
                
  19568408.391   104567636.895    19568413.316    81330379.285    19568412.840  
  19568407.980  
  21846864.086   116702047.075    21846868.148    90768241.389    21846866.965  
  21846863.215  
  22752660.586   121839462.913    22752664.688    94764026.161    22752664.680  
  22752659.863  
  20861410.625   109627461.500    20861416.223    85424016.4484   20861416.480  
                
  21750817.133   114301317.839    21750825.590    89065997.5624   21750825.531  
                
  23246341.641   122160354.989    23246349.793    95189918.9954   23246350.297  
                
  20489164.578   109564782.031    20489169.234    85217049.876    20489169.086  
  20489163.953  
  22445907.508   117954074.978    22445914.977    91912318.2414   22445915.590  
                
  20799386.125   109301527.035    20799389.477    85170036.7764                 
                
  19285239.562   103199218.548    19285243.852    80266064.341    19285243.570  
  19285238.637  
  23316527.133   122529196.870    23316536.246    95477331.8304   23316536.727  
                
  22395282.859   119547551.988    22395288.883    92981428.035    22395288.062  
  22395281.883  
  21885158.062   116660184.131    21885163.148    90735680.309    21885164.105  
  21885157.141  
  24528390.008   128897554.221    24528394.234   100439666.3774                 
                
  22893390.906   122378306.636    22893398.172    95183160.480    22893397.277  
  22893389.691  
 21  8  9  0 35 30.0000000  0 17G17G22R15R16R 8G14G 1G24R24G 3G19R17
                                G 6R18R14G21R 1
  20427653.336   107348065.557    20427658.195    83647858.1494   20427658.508  
                
  22789289.844   119758558.936    22789292.625    93318381.8164                 
                
  19569950.789   104575878.989    19569955.703    81336789.790    19569955.230  
  19569950.379  
  21840641.352   116668806.401    21840645.422    90742387.540    21840644.246  
  21840640.492  
  22752595.906   121839116.597    22752600.070    94763756.785    22752600.055  
  22752595.164  
  20865121.945   109646964.587    20865127.562    85439213.6504   20865127.805  
                
  21756385.336   114330578.938    21756393.828    89088798.4114   21756393.758  
                
  23245483.242   122155844.091    23245491.398    95186404.0074   23245491.895  
                
  20494274.484   109592106.987    20494279.172    85238302.617    20494279.020  
  20494273.863  
  22443024.688   117938925.633    22443032.137    91900513.5614   22443032.758  
                
  20795643.031   109281856.971    20795646.387    85154709.4654                 
                
  19283491.359   103189863.556    19283495.684    80258788.239    19283495.398  
  19283490.441  
  23309785.195   122493767.689    23309794.258    95449724.6784   23309794.750  
                
  22388674.742   119512277.458    22388680.742    92953992.321    22388679.934  
  22388673.785  
  21892994.375   116701956.040    21892999.562    90768169.534    21893000.473  
  21892993.457  
  24534478.039   128929546.962    24534482.238   100464595.7774                 
                
  22888137.117   122350222.075    22888144.332    95161316.947    22888143.477  
  22888135.941  
 21  8  9  0 35 40.0000000  0 17G17G22R15R16R 8G14G 1G24R24G 3G19R17
                                G 6R18R14G21R 1
  20427456.867   107347033.140    20427461.723    83647053.6674   20427462.035  
                
  22789934.953   119761949.065    22789937.770    93321023.4724                 
                
  19571510.008   104584210.967    19571514.922    81343270.216    19571514.449  
  19571509.594  
  21834428.719   116635619.623    21834432.793    90716575.605    21834431.586  
  21834427.883  
  22752547.688   121838858.334    22752551.914    94763555.926    22752551.871  
  22752546.914  
  20868843.219   109666519.964    20868848.844    85454451.6064   20868849.090  
                
  21761961.266   114359880.653    21761969.777    89111630.9064   21761969.691  
                
  23244637.531   122151399.838    23244645.691    95182940.9544   23244646.191  
                
  20499391.195   109619468.355    20499395.918    85259583.667    20499395.758  
  20499390.555  
  22440153.820   117923839.156    22440161.254    91888757.8834   22440161.895  
                
  20791907.359   109262225.865    20791910.715    85139412.5004                 
                
  19281754.320   103180568.331    19281758.660    80251558.622    19281758.367  
  19281753.422  
  23303047.719   122458362.075    23303056.723    95422135.8924   23303057.238  
                
  22382071.805   119477030.612    22382077.762    92926578.122    22382076.961  
  22382070.840  
  21900837.469   116743763.771    21900842.625    90800686.657    21900843.547  
  21900836.551  
  24540567.609   128961547.769    24540571.777   100489531.4664                 
                
  22882894.375   122322196.618    22882901.547    95139519.382    22882900.699  
  22882893.250  
 21  8  9  0 35 50.0000000  0 17G17G22R15R16R 8G14G 1G24R24G 3G19R17
                                G 6R18R14G21R 1
  20427267.430   107346037.611    20427272.277    83646277.9274   20427272.590  
                
  22790592.375   119765403.825    22790595.215    93323715.5034                 
                
  19573086.031   104592632.762    19573090.953    81349820.497    19573090.469  
  19573085.605  
  21828226.211   116602486.947    21828230.297    90690805.763    21828229.082  
  21828225.387  
  22752515.859   121838687.865    22752520.121    94763423.338    22752520.055  
  22752515.062  
  20872574.469   109686127.742    20872580.090    85469730.3844   20872580.344  
                
  21767544.938   114389223.021    21767553.457    89134495.0824   21767553.367  
                
  23243804.523   122147022.355    23243812.680    95179529.9234   23243813.184  
                
  20504514.742   109646866.253    20504519.516    85280893.143    20504519.348  
  20504514.109  
  22437294.977   117908815.786    22437302.383    91877051.3764   22437303.031  
                
  20788179.133   109242633.910    20788182.492    85124146.0474                 
                
  19280028.500   103171333.103    19280032.836    80244375.666    19280032.559  
  19280027.629  
  23296314.789   122422980.263    23296323.773    95394565.6764   23296324.277  
                
  22375474.133   119441811.709    22375480.023    92899185.642    22375479.238  
  22375473.141  
  21908687.258   116785607.188    21908692.336    90833231.548    21908693.270  
  21908686.316  
  24546658.734   128993556.798    24546662.863   100514473.5504                 
                
  22877662.734   122294230.512    22877669.863    95117767.989    22877669.035  
  22877661.621  
 21  8  9  0 36  0.0000000  0 17G17G22R15R16R 8G14G 1G24R24G 3G19R17
                                G 6R18R14G21R 1
  20427084.969   107345078.789    20427089.812    83645530.8004   20427090.129  
                
  22791262.070   119768923.124    22791264.938    93326457.8134                 
                
  19574678.844   104601144.286    19574683.758    81356440.560    19574683.285  
  19574678.414  
  21822033.844   116569408.516    21822037.938    90665078.110    21822036.723  
  21822033.031  
  22752500.484   121838605.508    22752504.781    94763359.280    22752504.707  
  22752499.680  
  20876315.641   109705787.689    20876321.281    85485049.8034   20876321.516  
                
  21773136.289   114418605.721    21773144.801    89157390.6934   21773144.727  
                
  23242984.188   122142711.502    23242992.336    95176170.8124   23242992.840  
                
  20509645.047   109674300.362    20509649.871    85302230.774    20509649.680  
  20509644.391  
  22434448.109   117893855.404    22434455.488    91865393.9434   22434456.137  
                
  20784458.328   109223080.997    20784461.691    85108910.0154                 
                
  19278313.852   103162157.675    19278318.215    80237239.226    19278317.922  
  19278312.996  
  23289586.375   122387622.197    23289595.316    95367013.9244   23289595.820  
                
  22368881.609   119406620.462    22368887.480    92871814.712    22368886.703  
  22368880.590  
  21916543.641   116827486.052    21916548.664    90865803.989    21916549.590  
  21916542.672  
  24552751.328   129025573.628    24552755.473   100539421.7074                 
                
  22872442.188   122266323.734    22872449.277    95096062.736    22872448.480  
  22872441.043  
 21  8  9  0 36 10.0000000  0 17G17G22R15R16R 8G14G 1G24R24G 3G19R17
                                G 6R18R14G21R 1
  20426909.547   107344156.855    20426914.387    83644812.4094   20426914.707  
                
  22791944.094   119772507.162    22791946.988    93329250.5614                 
                
  19576288.469   104609745.568    19576293.367    81363130.452    19576292.895  
  19576288.039  
  21815851.727   116536384.694    21815855.793    90639392.925    21815854.578  
  21815850.902  
  22752501.539   121838611.066    22752505.875    94763363.608    22752505.773  
  22752500.730  
  20880066.789   109725500.006    20880072.453    85500410.0364   20880072.664  
                
  21778735.344   114448028.911    21778743.832    89180317.8604   21778743.754  
                
  23242176.578   122138467.481    23242184.730    95172863.7774   23242185.223  
                
  20514782.172   109701770.850    20514787.055    85323596.699    20514786.844  
  20514781.523  
  22431613.281   117878958.279    22431620.633    91853785.8074   22431621.312  
                
  20780744.992   109203567.279    20780748.352    85093704.5294                 
                
  19276610.414   103153042.167    19276614.797    80230149.392    19276614.488  
  19276609.578  
  23282862.484   122352288.068    23282871.367    95339480.8514   23282871.922  
                
  22362294.344   119371457.223    22362300.215    92844465.545    22362299.445  
  22362293.320  
  21924406.648   116869400.351    21924411.672    90898403.982    21924412.594  
  21924405.707  
  24558845.445   129057598.380    24558849.621   100564376.0424                 
                
  22867232.812   122238476.627    22867239.883    95074403.902    22867239.098  
  22867231.688  
 21  8  9  0 36 20.0000000  0 17G17G22R15R16R 8G14G 1G24R24G 3G19R17
                                G 6R18R14G21R 1
  20426741.070   107343271.487    20426745.906    83644122.5094   20426746.223  
                
  22792638.352   119776155.515    22792641.266    93332093.4334                 
                
  19577914.844   104618436.465    19577919.727    81369890.034    19577919.270  
  19577914.406  
  21809679.688   116503414.782    21809683.707    90613749.664    21809682.492  
  21809678.852  
  22752518.945   121838704.289    22752523.332    94763436.122    22752523.211  
  22752518.129  
  20883827.820   109745264.282    20883833.488    85515810.7604   20883833.699  
                
  21784342.008   114477492.115    21784350.496    89203276.1964   21784350.406  
                
  23241381.617   122134289.937    23241389.785    95169608.5504   23241390.246  
                
  20519926.016   109729277.312    20519930.945    85344990.607    20519930.699  
  20519925.344  
  22428790.430   117864124.124    22428797.770    91842226.7394   22428798.461  
                
  20777039.070   109184092.540    20777042.410    85078529.4084                 
                
  19274918.102   103143986.245    19274922.473    80223105.896    19274922.180  
  19274917.281  
  23276143.109   122316977.633    23276151.938    95311966.2324   23276152.547  
                
  22355712.242   119336321.691    22355718.172    92817137.951    22355717.355  
  22355711.195  
  21932276.195   116911349.656    21932281.324    90931031.165    21932282.180  
  21932275.301  
  24564941.000   129089630.762    24564945.176   100589336.3314                 
                
  22862034.562   122210688.970    22862041.656    95052791.308    22862040.859  
  22862033.418  
 21  8  9  0 36 30.0000000  0 17G17G22R15R16R 8G14G 1G24R24G 3G19R17
                                G 6R18R14G21R 1
  20426579.609   107342423.002    20426584.449    83643461.3474   20426584.754  
                
  22793344.914   119779868.581    22793347.855    93334986.7254                 
                
  19579558.016   104627217.079    19579562.895    81376719.391    19579562.445  
  19579557.559  
  21803517.930   116470499.871    21803521.945    90588149.196    21803520.703  
  21803517.086  
  22752552.812   121838885.694    22752557.223    94763577.205    22752557.105  
  22752552.055  
  20887598.781   109765080.799    20887604.434    85531252.1914   20887604.668  
                
  21789956.320   114506995.555    21789964.793    89226265.8794   21789964.715  
                
  23240599.367   122130179.211    23240607.539    95166405.3914   23240607.980  
                
  20525076.609   109756819.885    20525081.562    85366412.601    20525081.324  
  20525075.938  
  22425979.641   117849353.367    22425986.980    91830717.0684   22425987.660  
                
  20773340.609   109164657.071    20773343.922    85063384.8964                 
                
  19273236.969   103134990.206    19273241.328    80216108.978    19273241.043  
  19273236.160  
  23269428.344   122281691.314    23269437.176    95284470.4074   23269437.773  
                
  22349135.391   119301214.115    22349141.270    92789832.071    22349140.492  
  22349134.336  
  21940152.398   116953334.138    21940157.602    90963685.735    21940158.430  
  21940151.555  
  24571038.039   129121670.995    24571042.227   100614302.7264                 
                
  22856847.508   122182961.257    22856854.602    95031225.332    22856853.824  
  22856846.324  
 21  8  9  0 36 40.0000000  0 17G17G22R15R16R 8G14G 1G24R24G 3G19R17
                                G 6R18R14G21R 1
  20426425.180   107341611.434    20426430.023    83642828.9554   20426430.324  
                
  22794063.805   119783646.383    22794066.770    93337930.4734                 
                
  19581218.016   104636087.585    19581222.883    81383618.672    19581222.438  
  19581217.547  
  21797366.477   116437639.946    21797370.500    90562591.479    21797369.266  
  21797365.645  
  22752603.125   121839155.060    22752607.539    94763786.695    22752607.430  
  22752602.430  
  20891379.695   109784949.555    20891385.355    85546734.3274   20891385.590  
                
  21795578.297   114536539.211    21795586.742    89249286.9014   21795586.695  
                
  23239829.859   122126135.385    23239838.016    95163254.3614   23239838.457  
                
  20530234.023   109784398.815    20530239.008    85387862.871    20530238.746  
  20530233.344  
  22423180.945   117834646.134    22423188.301    91819256.8904   22423188.965  
                
  20769649.648   109145260.925    20769652.938    85048271.0194                 
                
  19271567.070   103126054.185    19271571.449    80209158.746    19271571.145  
  19271566.281  
  23262718.188   122246429.207    23262727.031    95256993.4484   23262727.605  
                
  22342563.805   119266134.686    22342569.664    92762548.115    22342568.895  
  22342562.750  
  21948035.211   116995353.633    21948040.441    90996367.547    21948041.242  
  21948034.371  
  24577136.586   129153719.043    24577140.824   100639275.2184                 
                
  22851671.703   122155293.612    22851678.785    95009706.077    22851677.992  
  22851670.535  
 21  8  9  0 36 50.0000000  0 17G17G22R15R16R 8G14G 1G24R24G 3G19R17
                                G 6R18R14G21R 1
  20426277.688   107340836.319    20426282.535    83642224.9684   20426282.828  
                
  22794794.914   119787488.370    22794797.887    93340924.2234                 
                
  19582894.742   104645047.484    19582899.609    81390587.470    19582899.160  
  19582894.258  
  21791225.211   116404834.469    21791229.258    90537076.119    21791228.031  
  21791224.410  
  22752669.797   121839512.089    22752674.219    94764064.375    22752674.121  
  22752669.152  
  20895170.453   109804870.055    20895176.152    85562256.7894   20895176.355  
                
  21801207.797   114566122.466    21801216.242    89272338.7794   21801216.203  
                
  23239072.984   122122157.960    23239081.145    95160155.0644   23239081.559  
                
  20535398.062   109812013.242    20535403.066    85409340.759    20535402.797  
  20535397.391  
  22420394.258   117820002.002    22420401.648    91807845.8994   22420402.285  
                
  20765966.094   109125903.739    20765969.348    85033187.5004                 
                
  19269908.273   103117177.613    19269912.645    80202254.744    19269912.328  
  19269907.484  
  23256012.562   122211190.924    23256021.406    95229535.0564   23256021.980  
                
  22335997.445   119231083.122    22336003.234    92735285.793    22336002.488  
  22335996.398  
  21955924.508   117037407.686    21955929.699    91029076.246    21955930.492  
  21955923.625  
  24583236.508   129185774.395    24583240.805   100664253.4034                 
                
  22846507.109   122127685.974    22846514.199    94988233.493    22846513.414  
  22846505.918  
 21  8  9  0 37  0.0000000  0 17G17G22R15R16R 8G14G 1G24R24G 3G19R17
                                G 6R18R14G21R 1
  20426137.219   107340098.157    20426142.066    83641649.7764   20426142.355  
                
  22795538.328   119791395.087    22795541.301    93343968.4264                 
                
  19584588.242   104654097.104    19584593.117    81397626.065    19584592.672  
  19584587.754  
  21785094.320   116372084.405    21785098.363    90511603.859    21785097.129  
  21785093.520  
  22752752.961   121839957.378    22752757.383    94764410.698    22752757.270  
  22752752.367  
  20898971.141   109824842.770    20898976.863    85577819.9374   20898977.051  
                
  21806844.938   114595745.786    21806853.402    89295421.8754   21806853.363  
                
  23238328.844   122118247.512    23238337.020    95157107.9614   23238337.391  
                
  20540568.797   109839663.490    20540573.812    85430846.505    20540573.551  
  20540568.141  
  22417619.688   117805421.581    22417627.129    91796484.5434   22417627.719  
                
  20762290.047   109106586.023    20762293.270    85018134.7374                 
                
  19268260.680   103108361.034    19268265.023    80195397.403    19268264.750  
  19268259.891  
  23249311.570   122175977.032    23249320.426    95202095.6784   23249321.004  
                
  22329436.375   119196059.799    22329442.035    92708045.428    22329441.355  
  22329435.320  
  21963820.320   117079496.659    21963825.480    91061812.091    21963826.262  
  21963819.418  
  24589337.938   129217837.638    24589342.262   100689237.7184                 
                
  22841353.812   122100138.720    22841360.965    94966807.885    22841360.141  
  22841352.598  
 21  8  9  0 37 10.0000000  0 17G17G22R15R16R 8G14G 1G24R24G 3G19R17
                                G 6R18R14G21R 1
  20426003.719   107339396.579    20426008.566    83641103.0934   20426008.852  
                
  22796294.008   119795366.180    22796297.000    93347062.7764                 
                
  19586298.516   104663236.281    19586303.383    81404734.306    19586302.945  
  19586298.012  
  21778973.742   116339389.428    21778977.734    90486174.444    21778976.516  
  21778972.938  
  22752852.523   121840490.454    22752856.930    94764825.302    22752856.797  
  22752851.977  
  20902781.695   109844867.312    20902787.402    85593423.4684   20902787.617  
                
  21812489.609   114625408.687    21812498.082    89318535.8234   21812498.031  
                
  23237597.383   122114403.664    23237605.543    95154112.7544   23237605.906  
                
  20545746.227   109867349.505    20545751.258    85452380.062    20545750.980  
  20545745.578  
  22414857.195   117790904.600    22414864.688    91785172.6134   22414865.227  
                
  20758621.469   109087307.502    20758624.652    85003112.5194                 
                
  19266624.250   103099604.141    19266628.594    80188586.493    19266628.328  
  19266623.453  
  23242615.195   122140787.297    23242624.020    95174675.1114   23242624.621  
                
  22322880.594   119161064.615    22322886.219    92680826.960    22322885.566  
  22322879.531  
  21971722.539   117121620.098    21971727.688    91094574.749    21971728.445  
  21971721.625  
  24595440.781   129249908.270    24595445.156   100714227.7884                 
                
  22836211.828   122072651.900    22836219.020    94945429.288    22836218.180  
  22836210.625  
 21  8  9  0 37 20.0000000  0 17G17G22R15R16R 8G14G 1G24R24G 3G19R17
                                G 6R18R14G21R 1
  20425877.188   107338731.636    20425882.027    83640584.9534   20425882.320  
                
  22797061.938   119799401.703    22797064.945    93350207.3324                 
                
  19588025.516   104672464.836    19588030.398    81411912.070    19588029.961  
  19588025.000  
  21772863.508   116306749.676    21772867.430    90460787.974    21772866.270  
  21772862.711  
  22752968.492   121841111.426    22752972.828    94765308.279    22752972.734  
  22752967.938  
  20906602.117   109864943.669    20906607.809    85609067.3664   20906608.039  
                
  21818141.797   114655111.094    21818150.270    89341680.5604   21818150.199  
                
  23236878.602   122110626.466    23236886.730    95151169.4944   23236887.113  
                
  20550930.266   109895070.816    20550935.305    85473941.081    20550935.039  
  20550929.613  
  22412106.797   117776451.151    22412114.340    91773910.1954   22412114.828  
                
  20754960.359   109068068.277    20754963.516    84988120.9114                 
                
  19264998.969   103090906.948    19265003.316    80181822.009    19265003.047  
  19264998.148  
  23235923.414   122105621.770    23235932.223    95147273.4144   23235932.828  
                
  22316330.039   119126097.301    22316335.695    92653630.183    22316334.988  
  22316328.945  
  21979631.195   117163777.692    21979636.344    91127363.971    21979637.074  
  21979630.285  
  24601545.031   129281986.236    24601549.453   100739223.6034                 
                
  22831081.156   122045225.560    22831088.363    94924097.730    22831087.496  
  22831079.941  
 21  8  9  0 37 30.0000000  0 17G17G22R15R16R 8G14G 1G24R24G 3G19R17
                                G 6R18R14G21R 1
  20425757.648   107338103.464    20425762.477    83640095.4654   20425762.773  
                
  22797842.148   119803501.734    22797845.152    93353402.1604                 
                
  19589769.258   104681782.849    19589774.164    81419159.409    19589773.703  
  19589768.727  
  21766763.680   116274165.507    21766767.555    90435444.739    21766766.402  
  21766762.898  
  22753100.883   121841820.409    22753105.164    94765859.707    22753105.090  
  22753100.324  
  20910432.391   109885071.877    20910438.105    85624751.6724   20910438.316  
                
  21823801.500   114684852.994    21823809.980    89364856.0674   21823809.895  
                
  23236172.516   122106915.987    23236180.609    95148278.2094   23236181.020  
                
  20556120.945   109922827.707    20556126.000    85495529.764    20556125.734  
  20556120.289  
  22409368.516   117762061.371    22409376.105    91762697.3854   22409376.555  
                
  20751306.750   109048868.458    20751309.879    84973160.0164                 
                
  19263384.836   103082269.418    19263389.176    80175103.930    19263388.918  
  19263384.000  
  23229236.273   122070480.620    23229245.094    95119890.7164   23229245.680  
                
  22309784.773   119091158.303    22309790.449    92626455.438    22309789.715  
  22309783.684  
  21987546.320   117205969.572    21987551.504    91160179.861    21987552.188  
  21987545.430  
  24607650.672   129314071.592    24607655.105   100764225.1744                 
                
  22825961.836   122017859.937    22825969.016    94902813.384    22825968.145  
  22825960.605  
 21  8  9  0 37 40.0000000  0 17G17G22R15R16R 8G14G 1G24R24G 3G19R17
                                G 6R18R14G21R 1
  20425645.102   107337512.006    20425649.918    83639634.5864   20425650.219  
                
  22798634.633   119807666.256    22798637.637    93356647.2464                 
                
  19591529.766   104691190.449    19591534.699    81426476.418    19591534.215  
  19591529.242  
  21760674.320   116241637.218    21760678.160    90410144.958    21760677.008  
  21760673.566  
  22753249.703   121842617.311    22753253.977    94766479.506    22753253.914  
  22753249.152  
  20914272.531   109905251.897    20914278.270    85640476.3474   20914278.457  
                
  21829468.719   114714634.351    21829477.203    89388062.3084   21829477.109  
                
  23235479.148   122103272.295    23235487.219    95145438.9714   23235487.645  
                
  20561318.250   109950619.959    20561323.305    85517145.953    20561323.047  
  20561317.598  
  22406642.367   117747735.387    22406650.008    91751534.2804   22406650.441  
                
  20747660.648   109029708.112    20747663.746    84958229.8744                 
                
  19261781.875   103073691.679    19261786.199    80168432.359    19261785.953  
  19261781.027  
  23222553.812   122035363.957    23222562.574    95092527.0854   23222563.195  
                
  22303244.797   119056247.568    22303250.438    92599302.652    22303249.730  
  22303243.719  
  21995467.828   117248195.509    21995473.086    91193022.222    21995473.750  
  21995466.945  
  24613757.719   129346164.361    24613762.172   100789232.4964                 
                
  22820853.898   121990555.154    22820861.070    94881576.367    22820860.234  
  22820852.703  
 21  8  9  0 37 50.0000000  0 17G17G22R15R16R 8G14G 1G24R24G 3G19R17
                                G 6R18R14G21R 1
  20425539.562   107336957.392    20425544.367    83639202.4184   20425544.672  
                
  22799439.398   119811895.341    22799442.398    93359942.6434                 
                
  19593307.031   104700687.624    19593311.969    81433863.105    19593311.473  
  19593306.520  
  21754595.359   116209164.496    21754599.164    90384888.397    21754598.020  
  21754594.617  
  22753414.984   121843502.376    22753419.281    94767167.897    22753419.215  
  22753414.398  
  20918122.555   109925483.838    20918128.289    85656241.4884   20918128.484  
                
  21835143.422   114744455.125    21835151.906    89411299.2644   21835151.816  
                
  23234798.500   122099695.491    23234806.547    95142651.8414   23234806.996  
                
  20566522.188   109978447.767    20566527.234    85538789.794    20566527.000  
  20566521.562  
  22403928.391   117733473.355    22403936.094    91740421.0134   22403936.492  
                
  20744022.086   109010587.366    20744025.160    84943330.6004                 
                
  19260190.102   103065173.775    19260194.418    80161807.323    19260194.180  
  19260189.238  
  23215876.023   122000271.941    23215884.781    95065182.6664   23215885.387  
                
  22296710.148   119021365.273    22296715.746    92572172.004    22296715.074  
  22296709.082  
  22003395.727   117290455.594    22003401.062    91225891.138    22003401.688  
  22003394.836  
  24619866.164   129378264.483    24619870.625   100814245.5544                 
                
  22815757.422   121963311.552    22815764.598    94860386.951    22815763.754  
  22815756.223  
 21  8  9  0 38  0.0000000  0 17G17G22R15R16R 8G14G 1G24R24G 3G19R17
                                G 6R18R14G21R 1
  20425441.008   107336439.464    20425445.793    83638798.8384   20425446.105  
                
  22800256.406   119816188.777    22800259.402    93363288.1764                 
                
  19595101.000   104710274.048    19595105.934    81441319.217    19595105.449  
  19595100.488  
  21748526.859   116176747.734    21748530.648    90359675.362    21748529.531  
  21748526.098  
  22753596.656   121844475.227    22753600.977    94767924.548    22753600.910  
  22753596.035  
  20921982.406   109945767.429    20921988.117    85672046.8824   20921988.359  
                
  21840825.578   114774315.015    21840834.062    89434566.7034   21840833.984  
                
  23234130.547   122096185.371    23234138.570    95139916.6714   23234139.047  
                
  20571732.703   110006310.667    20571737.746    85560460.939    20571737.523  
  20571732.078  
  22401226.555   117719275.142    22401234.305    91729357.4854   22401234.672  
                
  20740391.023   108991505.993    20740394.074    84928462.0044                 
                
  19258609.477   103056715.534    19258613.809    80155228.698    19258613.559  
  19258608.602  
  23209202.898   121965204.442    23209211.676    95037857.3514   23209212.266  
                
  22290180.820   118986511.260    22290186.355    92545063.354    22290185.699  
  22290179.746  
  22011329.969   117332749.520    22011335.332    91258786.388    22011335.949  
  22011329.027  
  24625975.977   129410371.691    24625980.434   100839264.1714                 
                
  22810672.359   121936129.001    22810679.547    94839245.000    22810678.688  
  22810671.160  
 21  8  9  0 38 10.0000000  0 17G17G22R15R16R 8G14G 1G24R24G 3G19R17
                                G 6R18R14G21R 1
  20425349.383   107335958.013    20425354.156    83638423.6854   20425354.477  
                
  22801085.617   119820546.398    22801088.613    93366683.7154                 
                
  19596911.672   104719949.747    19596916.617    81448844.749    19596916.129  
  19596911.164  
  21742468.828   116144386.884    21742472.629    90334505.821    21742471.484  
  21742468.031  
  22753794.719   121845535.874    22753799.082    94768749.493    22753799.020  
  22753794.051  
  20925852.047   109966102.483    20925857.746    85687892.3584   20925858.000  
                
  21846515.133   114804213.753    21846523.629    89457864.4174   21846523.535  
                
  23233475.242   122092741.728    23233483.277    95137233.3224   23233483.758  
                
  20576949.727   110034208.414    20576954.750    85582159.177    20576954.539  
  20576949.098  
  22398536.852   117705140.637    22398544.625    91718343.5974   22398544.969  
                
  20736767.430   108972463.899    20736770.457    84913624.0064                 
                
  19257039.953   103048316.724    19257044.289    80148696.295    19257044.043  
  19257039.074  
  23202534.422   121930161.348    23202543.180    95010551.0514   23202543.785  
                
  22283656.828   118951685.645    22283662.270    92517976.778    22283661.641  
  22283655.719  
  22019270.445   117375076.845    22019275.785    91291707.626    22019276.438  
  22019269.465  
  24632087.078   129442485.747    24632091.535   100864288.0794                 
                
  22805598.695   121909007.449    22805605.875    94818150.484    22805605.016  
  22805597.520  
 21  8  9  0 38 20.0000000  0 17G17G22R15R16R 8G14G 1G24R24G 3G19R17
                                G 6R18R14G21R 1
  20425264.781   107335513.411    20425269.543    83638077.2444   20425269.867  
                
  22801927.133   119824968.560    22801930.121    93370129.5414                 
                
  19598739.102   104729714.946    19598744.066    81456439.894    19598743.551  
  19598738.613  
  21736421.297   116112082.071    21736425.105    90309379.870    21736423.965  
  21736420.461  
  22754009.227   121846684.571    22754013.617    94769642.920    22754013.574  
  22754008.516  
  20929731.539   109986489.287    20929737.246    85703778.1734   20929737.492  
                
  21852212.133   114834151.637    21852220.645    89481192.6324   21852220.543  
                
  23232832.680   122089365.003    23232840.742    95134602.1114   23232841.215  
                
  20582173.328   110062141.361    20582178.340    85603884.791    20582178.137  
  20582172.695  
  22395859.359   117691070.329    22395867.141    91707379.7364   22395867.492  
                
  20733151.375   108953461.470    20733154.379    84898816.9194                 
                
  19255481.641   103039977.911    19255485.988    80142210.551    19255485.742  
  19255480.758  
  23195870.703   121895143.149    23195879.445    94983264.1524   23195880.043  
                
  22277138.172   118916888.596    22277143.516    92490912.396    22277142.934  
  22277137.062  
  22027217.281   117417437.834    22027222.582    91324655.062    22027223.227  
  22027216.289  
  24638199.555   129474606.983    24638204.031   100889317.5934                 
                
  22800536.578   121881947.564    22800543.758    94797103.934    22800542.918  
  22800535.422  
 21  8  9  0 38 30.0000000  0 17G17G22R15R16R 8G14G 1G24R24G 3G19R17
                                G 6R18R14G21R 1
  20425187.180   107335105.586    20425191.930    83637759.4584   20425192.262  
                
  22802780.914   119829455.227    22802783.879    93373625.6354                 
                
  19600583.258   104739569.522    19600588.227    81464104.569    19600587.715  
  19600582.789  
  21730384.414   116079834.152    21730388.215    90284298.163    21730387.094  
  21730383.566  
  22754240.195   121847921.354    22754244.609    94770604.854    22754244.559  
  22754239.480  
  20933620.875   110006927.781    20933626.578    85719704.2624   20933626.820  
                
  21857916.539   114864128.483    21857925.059    89504551.2024   21857924.957  
                
  23232202.836   122086055.137    23232210.938    95132023.0004   23232211.391  
                
  20587403.523   110090109.475    20587408.531    85625637.760    20587408.332  
  20587402.879  
  22393194.078   117677064.204    22393201.840    91696465.8744   22393202.207  
                
  20729542.883   108934498.757    20729545.879    84884040.7814                 
                
  19253934.469   103031698.732    19253938.836    80135771.190    19253938.578  
  19253933.594  
  23189211.703   121860149.802    23189220.422    94955996.6204   23189221.020  
                
  22270624.852   118882120.053    22270630.168    92463870.223    22270629.590  
  22270623.746  
  22035170.406   117459832.413    22035175.656    91357628.631    22035176.309  
  22035169.430  
  24644313.383   129506735.287    24644317.832   100914352.6514                 
                
  22795486.023   121854949.403    22795493.215    94776105.397    22795492.363  
  22795484.898  
 21  8  9  0 38 40.0000000  0 17G17G22R15R16R 8G14G 1G24R24G 3G19R17
                                G 6R18R14G21R 1
  20425116.570   107334734.506    20425121.312    83637470.3014   20425121.641  
                
  22803646.961   119834006.316    22803649.871    93377171.9394                 
                
  19602444.125   104749513.406    19602449.094    81471838.694    19602448.605  
  19602443.668  
  21724358.094   116047642.645    21724361.871    90259260.330    21724360.758  
  21724357.238  
  22754487.578   121849245.965    22754492.016    94771635.101    22754491.953  
  22754486.844  
  20937520.031   110027417.862    20937525.715    85735670.5374   20937525.973  
                
  21863628.336   114894144.162    21863636.879    89527940.0364   21863636.777  
                
  23231585.711   122082812.091    23231593.828    95129495.9384   23231594.285  
                
  20592640.227   110118112.403    20592645.219    85647417.806    20592645.012  
  20592639.578  
  22390541.023   117663122.292    22390548.746    91685602.0484   22390549.141  
                
  20725941.953   108915575.708    20725944.938    84869295.5544                 
                
  19252398.469   103023479.253    19252402.852    80129378.266    19252402.578  
  19252397.598  
  23182557.438   121825181.381    23182566.121    94928748.4994   23182566.734  
                
  22264116.883   118847380.087    22264122.227    92436850.277    22264121.621  
  22264115.762  
  22043129.781   117502260.362    22043135.008    91390628.130    22043135.688  
  22043128.824  
  24650428.547   129538870.617    24650432.949   100939393.1504                 
                
  22790447.039   121828013.117    22790454.250    94755154.999    22790453.379  
  22790445.922  
 21  8  9  0 38 50.0000000  0 17G17G22R15R16R 8G14G 1G24R24G 3G19R17
                                G 6R18R14G21R 1
  20425052.930   107334400.057    20425057.672    83637209.6914   20425058.008  
                
  22804525.234   119838621.699    22804528.082    93380768.3394                 
                
  19604321.680   104759546.466    19604326.664    81479642.175    19604326.172  
  19604321.230  
  21718342.305   116015507.466    21718346.043    90234266.304    21718344.926  
  21718341.461  
  22754751.359   121850658.508    22754755.836    94772733.742    22754755.750  
  22754750.645  
  20941428.945   110047959.318    20941434.617    85751676.8494   20941434.883  
                
  21869347.469   114924198.427    21869356.035    89551358.9344   21869355.930  
                
  23230981.266   122079635.705    23230989.410    95127020.8264   23230989.863  
                
  20597883.406   110146150.018    20597888.383    85669224.833    20597888.184  
  20597882.789  
  22387900.172   117649244.510    22387907.883    91674788.2054   22387908.277  
                
  20722348.531   108896692.217    20722351.512    84854581.1524                 
                
  19250873.602   103015319.382    19250877.988    80123031.696    19250877.707  
  19250872.730  
  23175907.883   121790237.767    23175916.578    94901519.7204   23175917.180  
                
  22257614.242   118812668.720    22257619.582    92409852.585    22257619.004  
  22257613.090  
  22051095.352   117544721.340    22051100.633    91423653.296    22051101.312  
  22051094.383  
  24656544.984   129571012.726    24656549.309   100964438.9284                 
                
  22785419.570   121801138.490    22785426.770    94734252.536    22785425.867  
  22785418.457  
 21  8  9  0 39  0.0000000  0 17G17G22R15R16R 8G14G 1G24R24G 3G19R17
                                G 6R18R14G21R 1
  20424996.297   107334102.422    20425001.039    83636977.7674   20425001.371  
                
  22805415.789   119843301.572    22805418.547    93384414.9934                 
                
  19606215.977   104769668.962    19606220.977    81487515.219    19606220.480  
  19606215.539  
  21712337.242   115983429.484    21712340.930    90209316.773    21712339.828  
  21712336.395  
  22755031.648   121852159.397    22755036.117    94773901.085    22755036.047  
  22755030.969  
  20945347.688   110068552.329    20945353.371    85767723.3424   20945353.621  
                
  21875073.977   114954291.363    21875082.539    89574807.9744   21875082.441  
                
  23230389.547   122076526.180    23230397.734    95124597.8214   23230398.156  
                
  20603133.117   110174222.538    20603138.105    85691059.016    20603137.891  
  20603132.520  
  22385271.570   117635431.115    22385279.277    91664024.5334   22385279.672  
                
  20718762.711   108877848.615    20718765.688    84839897.8274                 
                
  19249359.906   103007219.282    19249364.297    80116731.617    19249364.008  
  19249359.047  
  23169263.117   121755319.245    23169271.848    94874310.5024   23169272.414  
                
  22251117.039   118777986.258    22251122.336    92382877.357    22251121.793  
  22251115.883  
  22059067.125   117587215.500    22059072.504    91456704.255    22059073.160  
  22059066.152  
  24662662.750   129603161.722    24662666.965   100989490.1134                 
                
  22780403.734   121774326.018    22780410.914    94713398.425    22780409.992  
  22780402.645  
 21  8  9  0 39 10.0000000  0 17G17G22R15R16R 8G14G 1G24R24G 3G19R17
                                G 6R18R14G21R 1
  20424946.641   107333841.474    20424951.383    83636774.4304   20424951.715  
                
  22806318.570   119848045.736    22806321.254    93388111.7404                 
                
  19608126.914   104779880.407    19608131.934    81495457.451    19608131.438  
  19608126.500  
  21706342.773   115951408.170    21706346.398    90184411.318    21706345.352  
  21706341.918  
  22755328.320   121853748.049    22755332.766    94775136.703    22755332.723  
  22755327.660  
  20949276.203   110089196.714    20949281.914    85783809.8634   20949282.129  
                
  21880807.789   114984422.722    21880816.332    89598286.9484   21880816.262  
                
  23229810.523   122073483.402    23229818.738    95122226.8104   23229819.141  
                
  20608389.297   110202329.590    20608394.270    85712920.044    20608394.059  
  20608388.719  
  22382655.203   117621682.064    22382662.891    91653310.9914   22382663.309  
                
  20715184.438   108859044.733    20715187.410    84825245.4494                 
                
  19247857.344   102999178.765    19247861.738    80110477.889    19247861.457  
  19247856.488  
  23162623.117   121720425.750    23162631.855    94847120.7704   23162632.391  
                
  22244625.172   118743332.290    22244630.426    92355924.279    22244629.895  
  22244624.055  
  22067045.062   117629742.462    22067050.492    91489780.757    22067051.137  
  22067044.074  
  24668781.789   129635317.462    24668785.930   101014546.5284                 
                
  22775399.539   121747575.688    22775406.676    94692592.636    22775405.766  
  22775398.426  
 21  8  9  0 39 20.0000000  0 17G17G22R15R16R 8G14G 1G24R24G 3G19R17
                                G 6R18R14G21R 1
  20424903.969   107333617.295    20424908.715    83636599.7444   20424909.047  
                
  22807233.586   119852854.262    22807236.207    93391858.6374                 
                
  19610054.547   104790181.103    19610059.586    81503469.104    19610059.082  
  19610054.160  
  21700359.023   115919444.087    21700362.594    90159550.368    21700361.570  
  21700358.160  
  22755641.445   121855424.825    22755645.875    94776440.853    22755645.875  
  22755640.801  
  20953214.484   110109892.516    20953220.199    85799936.4564   20953220.406  
                
  21886548.906   115014592.537    21886557.449    89621795.8754   21886557.379  
                
  23229244.219   122070507.452    23229252.418    95119907.8974   23229252.816  
                
  20613651.922   110230471.163    20613656.898    85734807.936    20613656.676  
  20613651.383  
  22380051.109   117607997.508    22380058.762    91642647.7064   22380059.203  
                
  20711613.750   108840280.694    20711616.719    84810624.1234                 
                
  19246365.938   102991197.995    19246370.336    80104270.617    19246370.051  
  19246365.078  
  23155987.906   121685557.431    23155996.648    94819950.6704   23155997.168  
                
  22238138.711   118708707.158    22238143.879    92328993.621    22238143.402  
  22238137.590  
  22075029.188   117672302.181    22075034.602    91522882.750    22075035.250  
  22075028.184  
  24674902.125   129667479.955    24674906.293   101039608.1844                 
                
  22770406.984   121720887.665    22770414.102    94671835.310    22770413.168  
  22770405.848  
 21  8  9  0 39 30.0000000  0 17G17G22R15R16R 8G14G 1G24R24G 3G19R17
                                G 6R18R14G21R 1
  20424868.289   107333429.762    20424873.039    83636453.6164   20424873.367  
                
  22808160.859   119857727.073    22808163.449    93395655.6394                 
                
  19611998.875   104800570.960    19612003.930    81511550.099    19612003.414  
  19611998.488  
  21694385.992   115887537.245    21694389.539    90134733.939    21694388.512  
  21694385.117  
  22755970.961   121857189.382    22755975.398    94777813.286    22755975.410  
  22755970.355  
  20957162.547   110130639.632    20957168.246    85816103.0224   20957168.465  
                
  21892297.320   115044800.607    21892305.875    89645334.6294   21892305.801  
                
  23228690.617   122067598.253    23228698.770    95117640.9954   23228699.203  
                
  20618921.008   110258647.207    20618925.996    85756722.619    20618925.754  
  20618920.488  
  22377459.297   117594377.428    22377466.895    91632034.6744   22377467.363  
                
  20708050.602   108821556.288    20708053.574    84796033.6804                 
                
  19244885.680   102983276.817    19244890.074    80098109.699    19244889.785  
  19244884.824  
  23149357.484   121650714.307    23149366.215    94792800.1914   23149366.746  
                
  22231657.633   118674110.794    22231662.758    92302085.362    22231662.344  
  22231656.500  
  22083019.453   117714894.524    22083024.816    91556010.128    22083025.473  
  22083018.449  
  24681023.711   129699649.047    24681027.891   101064674.9934                 
                
  22765426.141   121694262.141    22765433.234    94651126.604    22765432.266  
  22765424.973  
 21  8  9  0 39 40.0000000  0 17G17G22R15R16R 8G14G 1G24R24G 3G19R17
                                G 6R18R14G21R 1
  20424839.578   107333278.906    20424844.328    83636336.0634   20424844.660  
                
  22809100.352   119862664.169    22809102.945    93399502.7324                 
                
  19613959.867   104811049.894    19613964.941    81519700.369    19613964.430  
  19613959.492  
  21688423.648   115855687.543    21688427.195    90109961.950    21688426.152  
  21688422.781  
  22756316.922   121859041.966    22756321.383    94779254.175    22756321.410  
  22756316.324  
  20961120.352   110151437.995    20961126.070    85832309.5324   20961126.262  
                
  21898052.992   115075046.825    21898061.551    89668903.1214   21898061.484  
                
  23228149.727   122064755.821    23228157.859    95115426.1184   23228158.301  
                
  20624196.477   110286857.428    20624201.469    85778663.903    20624201.230  
  20624196.000  
  22374879.758   117580821.912    22374887.316    91621471.9444   22374887.805  
                
  20704495.055   108802871.802    20704498.035    84781474.3434                 
                
  19243416.531   102975415.132    19243420.891    80091995.052    19243420.605  
  19243415.684  
  23142731.875   121615896.463    23142740.617    94765669.4104   23142741.148  
                
  22225181.984   118639543.399    22225187.113    92275199.638    22225186.715  
  22225180.859  
  22091015.734   117757519.256    22091021.035    91589162.687    22091021.738  
  22091014.746  
  24687146.539   129731824.712    24687150.715   101089746.9534                 
                
  22760457.000   121667699.243    22760464.031    94630466.587    22760463.047  
  22760455.809  
 21  8  9  0 39 50.0000000  0 17G17G22R15R16R 8G14G 1G24R24G 3G19R17
                                G 6R18R14G21R 1
  20424817.867   107333164.811    20424822.617    83636247.1594   20424822.957  
                
  22810052.094   119867665.646    22810054.684    93403399.9814                 
                
  19615937.555   104821618.009    19615942.652    81527920.014    19615942.133  
  19615937.203  
  21682472.117   115823895.565    21682475.668    90085234.865    21682474.629  
  21682471.238  
  22756679.344   121860982.669    22756683.848    94780763.613    22756683.895  
  22756678.742  
  20965087.922   110172287.653    20965093.652    85848555.9954   20965093.824  
                
  21903815.914   115105331.179    21903824.469    89692501.3084   21903824.398  
                
  23227621.555   122061980.261    23227629.715    95113263.3444   23227630.117  
                
  20629478.391   110315102.066    20629483.391    85800631.941    20629483.141  
  20629477.930  
  22372312.539   117567331.098    22372320.086    91610959.6274   22372320.570  
                
  20700947.125   108784227.351    20700950.113    84766946.2024                 
                
  19241958.547   102967613.153    19241962.875    80085926.852    19241962.621  
  19241957.711  
  23136111.109   121581104.015    23136119.848    94738558.4134   23136120.387  
                
  22218711.758   118605004.988    22218716.910    92248336.437    22218716.496  
  22218710.652  
  22099018.055   117800176.455    22099023.387    91622340.485    22099024.105  
  22099017.082  
  24693270.602   129764006.952    24693274.777   101114823.9614                 
                
  22755499.641   121641199.269    22755506.605    94609855.518    22755505.656  
  22755498.430  
 21  8  9  0 40  0.0000000  0 17G17G22R15R16R 8G14G 1G24R24G 3G19R17
                                G 6R18R14G21R 1
  20424803.117   107333087.295    20424807.871    83636186.7524   20424808.215  
                
  22811016.039   119872731.223    22811018.566    93407347.1704                 
                
  19617931.852   104832274.920    19617936.973    81536208.723    19617936.445  
  19617931.504  
  21676531.328   115792161.011    21676534.852    90060552.441    21676533.836  
  21676530.441  
  22757058.141   121863011.239    22757062.680    94782341.382    22757062.715  
  22757057.531  
  20969065.195   110193188.334    20969070.926    85864842.2214   20969071.098  
                
  21909586.031   115135653.367    21909594.570    89716128.9814   21909594.504  
                
  23227106.070   122059271.321    23227114.270    95111152.4894   23227114.637  
                
  20634766.656   110343380.749    20634771.652    85822626.463    20634771.402  
  20634766.219  
  22369757.594   117553904.838    22369765.121    91600497.6184   22369765.621  
                
  20697406.766   108765622.674    20697409.750    84752449.0534                 
                
  19240511.680   102959870.678    19240515.992    80079904.924    19240515.746  
  19240510.836  
  23129495.117   121546336.814    23129503.883    94711467.1014   23129504.402  
                
  22212246.938   118570495.355    22212252.137    92221495.640    22212251.695  
  22212245.852  
  22107026.391   117842865.649    22107031.762    91655543.155    22107032.523  
  22107025.441  
  24699395.875   129796195.449    24699399.973   101139905.9184                 
                
  22750553.992   121614762.041    22750560.910    94589293.260    22750559.965  
  22750552.746  
 21  8  9  0 40 10.0000000  0 17G17G22R15R16R 8G14G 1G24R24G 3G19R17
                                G 6R18R14G21R 1
  20424795.375   107333046.632    20424800.137    83636155.0674   20424800.477  
                
  22811992.227   119877861.152    22811994.691    93411344.5064                 
                
  19619942.859   104843021.126    19619948.008    81544566.878    19619947.469  
  19619942.512  
  21670601.406   115760484.432    21670604.875    90035915.103    21670603.922  
  21670600.516  
  22757453.406   121865127.864    22757457.973    94783987.645    22757457.988  
  22757452.770  
  20973052.227   110214140.310    20973057.938    85881168.4174   20973058.141  
                
  21915363.383   115166013.557    21915371.883    89739786.2724   21915371.840  
                
  23226603.312   122056629.342    23226611.539    95109093.7924   23226611.887  
                
  20640061.312   110371693.615    20640066.285    85844647.574    20640066.062  
  20640060.902  
  22367215.008   117540543.505    22367222.508    91590086.1964   22367223.020  
                
  20693874.047   108747058.158    20693877.031    84737983.2014                 
                
  19239075.961   102952187.884    19239080.254    80073929.420    19239080.020  
  19239075.117  
  23122884.023   121511595.252    23122892.812    94684395.7574   23122893.289  
                
  22205787.578   118536014.940    22205792.773    92194677.554    22205792.352  
  22205786.488  
  22115040.820   117885587.148    22115046.227    91688770.954    22115047.016  
  22115039.898  
  24705522.422   129828390.592    24705526.332   101164993.0554                 
                
  22745620.172   121588388.051    22745627.016    94568780.167    22745626.078  
  22745618.887  
 21  8  9  0 40 20.0000000  0 17G17G22R15R16R 8G14G 1G24R24G 3G19R17
                                G 6R18R14G21R 1
  20424794.664   107333042.868    20424799.430    83636152.1364   20424799.770  
                
  22812980.695   119883055.583    22812983.105    93415392.1234                 
                
  19621970.555   104853856.452    19621975.715    81552994.354    19621975.172  
  19621970.191  
  21664682.383   115728866.009    21664685.801    90011322.999    21664684.863  
  21664681.484  
  22757865.180   121867332.828    22757869.738    94785702.617    22757869.770  
  22757864.516  
  20977049.039   110235143.626    20977054.750    85897534.6244   20977054.965  
                
  21921147.977   115196411.781    21921156.426    89763473.1964   21921156.426  
                
  23226113.312   122054054.378    23226121.559    95107087.3214   23226121.895  
                
  20645362.383   110400040.675    20645367.340    85866695.271    20645367.129  
  20645361.977  
  22364684.820   117527247.265    22364692.312    91579725.5034   22364692.832  
                
  20690349.000   108728533.870    20690351.984    84723548.6914                 
                
  19237651.445   102944564.988    19237655.723    80068000.507    19237655.496  
  19237650.605  
  23116277.828   121476879.456    23116286.598    94657344.5044   23116287.086  
                
  22199333.703   118501563.798    22199338.863    92167882.245    22199338.477  
  22199332.590  
  22123061.336   117928340.786    22123066.723    91722023.774    22123067.527  
  22123060.406  
  24711650.219   129860592.336    24711653.953   101190085.3194                 
                
  22740698.242   121562077.528    22740705.055    94548316.448    22740704.113  
  22740696.969  
 21  8  9  0 40 30.0000000  0 17G17G22R15R16R 8G14G 1G24R24G 3G19R17
                                G 6R18R14G21R 1
  20424800.883   107333075.550    20424805.660    83636177.6044   20424805.996  
                
  22813981.336   119888314.003    22813983.723    93419489.5754                 
                
  19624014.812   104864780.348    19624019.961    81561490.715    19624019.441  
  19624014.445  
  21658774.109   115697305.153    21658777.504    89986775.680    21658776.586  
  21658773.172  
  22758293.305   121869625.428    22758297.848    94787485.737    22758297.879  
  22758292.586  
  20981055.500   110256197.753    20981061.227    85913940.4144   20981061.434  
                
  21926939.680   115226847.434    21926948.121    89787189.2814   21926948.137  
                
  23225635.961   122051545.961    23225644.223    95105132.7174   23225644.547  
                
  20650669.727   110428421.373    20650674.656    85888769.148    20650674.453  
  20650669.340  
  22362166.914   117514015.684    22362174.406    91569415.1704   22362174.918  
                
  20686831.500   108710049.317    20686834.500    84709145.1454                 
                
  19236237.984   102937001.329    19236242.242    80062117.654    19236242.027  
  19236237.129  
  23109676.453   121442189.032    23109685.191    94630313.0124   23109685.711  
                
  22192885.242   118467141.616    22192890.348    92141109.463    22192890.004  
  22192884.129  
  22131087.766   117971125.919    22131093.117    91755301.089    22131093.930  
  22131086.809  
  24717779.148   129892800.070    24717782.781   101215182.2564                 
                
  22735788.078   121535830.051    22735794.891    94527901.774    22735793.938  
  22735786.785  
 21  8  9  0 40 40.0000000  0 17G17G22R15R16R 8G14G 1G24R24G 3G19R17
                                G 6R18R14G21R 1
  20424814.055   107333144.764    20424818.848    83636231.5334   20424819.180  
                
  22814994.156   119893636.469    22814996.562    93423636.9584                 
                
  19626075.711   104875793.117    19626080.859    81570056.200    19626080.340  
  19626075.352  
  21652876.742   115665802.534    21652880.141    89962273.646    21652879.242  
  21652875.770  
  22758737.836   121872005.908    22758742.395    94789337.223    22758742.414  
  22758737.082  
  20985071.656   110277302.742    20985077.402    85930385.8394   20985077.598  
                
  21932738.508   115257320.496    21932746.977    89810934.5154   21932746.965  
                
  23225171.305   122049104.206    23225179.598    95103230.0434   23225179.906  
                
  20655983.383   110456835.817    20655988.266    85910869.259    20655988.094  
  20655983.008  
  22359661.359   117500848.916    22359668.844    91559155.3744   22359669.359  
                
  20683321.617   108691604.728    20683324.641    84694772.7424                 
                
  19234835.648   102929497.152    19234839.891    80056281.067    19234839.676  
  19234834.797  
  23103079.961   121407524.201    23103088.730    94603301.4524   23103089.219  
                
  22186442.234   118432748.394    22186447.238    92114359.168    22186446.941  
  22186441.113  
  22139120.016   118013942.652    22139125.441    91788602.971    22139126.234  
  22139119.082  
  24723909.234   129925013.843    24723912.816   101240283.8784                 
                
  22730889.766   121509645.916    22730896.520    94507536.339    22730895.590  
  22730888.449  
 21  8  9  0 40 50.0000000  0 17G17G22R15R16R 8G14G 1G24R24G 3G19R17
                                G 6R18R14G21R 1
  20424834.273   107333251.020    20424839.086    83636314.3294   20424839.402  
                
  22816019.266   119899023.512    22816021.707    93427834.6434                 
                
  19628153.273   104886895.024    19628158.430    81578691.013    19628157.895  
  19628152.910  
  21646990.383   115634358.739    21646993.781    89937817.374    21646992.898  
  21646989.402  
  22759198.852   121874474.631    22759203.395    94791257.322    22759203.402  
  22759198.078  
  20989097.570   110298459.033    20989103.324    85946871.2464   20989103.520  
                
  21938544.531   115287831.380    21938553.023    89834709.2214   21938553.000  
                
  23224719.422   122046729.582    23224727.750    95101379.6824   23224728.039  
                
  20661303.422   110485284.373    20661308.266    85932995.904    20661308.109  
  20661303.062  
  22357168.234   117487747.525    22357175.703    91548946.5064   22357176.230  
                
  20679819.445   108673200.727    20679822.492    84680431.9684                 
                
  19233444.477   102922052.724    19233448.719    80050490.964    19233448.492  
  19233443.625  
  23096488.398   121372885.426    23096497.172    94576310.2234   23096497.672  
                
  22180004.758   118398384.747    22180009.730    92087631.894    22180009.434  
  22180003.656  
  22147158.242   118056791.350    22147163.781    91821929.716    22147164.523  
  22147157.320  
  24730040.531   129957234.135    24730044.105   101265390.5604                 
                
  22726003.445   121483525.882    22726010.156    94487220.773    22726009.215  
  22726002.125  
 21  8  9  0 41  0.0000000  0 17G17G22R15R16R 8G14G 1G24R24G 3G19R17
                                G 6R18R14G21R 1
  20424861.445   107333393.795    20424866.277    83636425.5794   20424866.582  
                
  22817056.570   119904474.599    22817059.035    93432082.2434                 
                
  19630247.445   104898085.592    19630252.590    81587394.786    19630252.062  
  19630247.070  
  21641114.922   115602973.083    21641118.328    89913406.311    21641117.449  
  21641113.941  
  22759676.219   121877030.950    22759680.746    94793245.574    22759680.770  
  22759675.422  
  20993133.141   110319666.083    20993138.914    85963396.2074   20993139.109  
                
  21944357.625   115318379.459    21944366.137    89858512.9054   21944366.117  
                
  23224280.227   122044421.574    23224288.578    95099581.2294   23224288.840  
                
  20666629.680   110513766.172    20666634.484    85955148.409    20666634.344  
  20666629.336  
  22354687.469   117474711.066    22354694.934    91538788.2324   22354695.469  
                
  20676324.906   108654836.779    20676327.973    84666122.3994                 
                
  19232064.422   102914667.740    19232068.637    80044747.084    19232068.414  
  19232063.559  
  23089901.742   121338272.307    23089910.512    94549338.9724   23089911.016  
                
  22173572.742   118364050.203    22173577.754    92060927.265    22173577.426  
  22173571.652  
  22155202.344   118099671.135    22155207.957    91855280.647    22155208.660  
  22155201.414  
  24736172.977   129989460.328    24736176.586   101290501.8944                 
                
  22721128.992   121457469.281    22721135.688    94466954.560    22721134.742  
  22721127.648  
 21  8  9  0 41 10.0000000  0 17G17G22R15R16R 8G14G 1G24R24G 3G19R17
                                G 6R18R14G21R 1
  20424895.570   107333573.102    20424900.422    83636565.3004   20424900.715  
                
  22818106.047   119909989.630    22818108.516    93436379.6614                 
                
  19632358.172   104909364.680    19632363.316    81596167.400    19632362.785  
  19632357.801  
  21635250.398   115571645.902    21635253.820    89889040.733    21635252.910  
  21635249.418  
  22760170.000   121879675.126    22760174.516    94795302.153    22760174.566  
  22760169.160  
  20997178.359   110340923.814    20997184.164    85979960.6554   20997184.348  
                
  21950177.781   115348964.603    21950186.266    89882345.4814   21950186.277  
                
  23223853.703   122042180.186    23223862.074    95097834.6874   23223862.324  
                
  20671962.211   110542281.526    20671966.973    85977327.014    20671966.836  
  20671961.875  
  22352219.070   117461739.592    22352226.527    91528680.6054   22352227.070  
                
  20672837.977   108636512.807    20672841.051    84651843.9844                 
                
  19230695.453   102907342.096    19230699.660    80039049.363    19230699.441  
  19230694.582  
  23083319.984   121303684.886    23083328.777    94522387.7584   23083329.254  
                
  22167146.188   118329744.861    22167151.262    92034245.362    22167150.883  
  22167145.086  
  22163252.305   118142582.063    22163257.973    91888655.810    22163258.676  
  22163251.371  
  24742306.547   130021692.357    24742310.180   101315617.7704                 
                
  22716266.469   121431476.423    22716273.090    94446737.883    22716272.184  
  22716265.105  
 21  8  9  0 41 20.0000000  0 17G17G22R15R16R 8G14G 1G24R24G 3G19R17
                                G 6R18R14G21R 1
  20424936.766   107333789.573    20424941.633    83636733.9804   20424941.914  
                
  22819167.781   119915569.140    22819170.258    93440727.3324                 
                
  19634485.594   104920732.955    19634490.711    81605009.391    19634490.207  
  19634485.230  
  21629396.969   115540378.047    21629400.402    89864721.302    21629399.457  
  21629395.988  
  22760680.258   121882407.589    22760684.762    94797427.394    22760684.797  
  22760679.422  
  21001233.320   110362232.764    21001239.168    85996565.0284   21001239.336  
                
  21956005.086   115379587.342    21956013.543    89906207.3524   21956013.586  
                
  23223439.977   122040006.007    23223448.359    95096140.5254   23223448.594  
                
  20677301.039   110570830.586    20677305.746    85999531.837    20677305.629  
  20677300.711  
  22349763.156   117448833.759    22349770.641    91518624.1284   22349771.160  
                
  20669358.773   108618229.462    20669361.863    84637597.2234                 
                
  19229337.688   102900076.428    19229341.906    80033398.286    19229341.664  
  19229336.812  
  23076743.234   121269123.862    23076751.988    94495457.0954   23076752.477  
                
  22160725.211   118295469.327    22160730.293    92007586.643    22160729.934  
  22160724.137  
  22171308.156   118185524.569    22171313.926    91922055.512    22171314.641  
  22171307.277  
  24748441.320   130053930.835    24748445.016   101340738.6294                 
                
  22711416.023   121405548.129    22711422.578    94426571.449    22711421.727  
  22711414.648  
 21  8  9  0 41 30.0000000  0 17G17G22R15R16R 8G14G 1G24R24G 3G19R17
                                G 6R18R14G21R 1
  20424984.859   107334042.312    20424989.742    83636930.9174   20424990.020  
                
  22820241.648   119921212.353    22820244.109    93445124.6254                 
                
  19636629.547   104932189.532    19636634.621    81613920.068    19636634.164  
  19636629.168  
  21623554.469   115509168.550    21623557.906    89840447.254    21623556.973  
  21623553.484  
  22761206.938   121885227.841    22761211.391    94799620.905    22761211.445  
  22761206.141  
  21005297.875   110383592.074    21005303.750    86013208.6294   21005303.906  
                
  21961839.375   115410246.731    21961847.840    89930097.7774   21961847.887  
                
  23223038.891   122037898.214    23223047.230    95094498.1004   23223047.492  
                
  20682646.055   110599412.699    20682650.711    86021762.365    20682650.609  
  20682645.715  
  22347319.594   117435992.837    22347327.086    91508618.2204   22347327.598  
                
  20665887.148   108599985.958    20665890.262    84623381.5144                 
                
  19227990.945   102892869.718    19227995.176    80027793.068    19227994.918  
  19227990.078  
  23070171.359   121234588.438    23070180.082    94468546.3844   23070180.582  
                
  22154309.703   118261222.886    22154314.789    91980950.545    22154314.422  
  22154308.637  
  22179369.742   118228497.606    22179375.613    91955478.967    22179376.328  
  22179368.922  
  24754577.148   130086174.784    24754580.941   101365863.7544                 
                
  22706577.500   121379683.560    22706584.043    94406454.590    22706583.188  
  22706576.090  
 21  8  9  0 41 40.0000000  0 17G17G22R15R16R 8G14G 1G24R24G 3G19R17
                                G 6R18R14G21R 1
  20425039.914   107334331.620    20425044.805    83637156.3564   20425045.078  
                
  22821327.688   119926919.537    22821330.137    93449571.7954                 
                
  19638790.055   104943734.627    19638795.109    81622899.581    19638794.656  
  19638789.664  
  21617723.031   115478018.087    21617726.496    89816219.115    21617725.543  
  21617722.051  
  22761749.977   121888135.774    22761754.418    94801882.635    22761754.469  
  22761749.223  
  21009372.055   110405002.041    21009377.930    86029891.6954   21009378.102  
                
  21967680.688   115440942.995    21967689.199    89954016.9404   21967689.215  
                
  23222650.492   122035857.122    23222658.773    95092907.6354   23222659.066  
                
  20687997.273   110628028.025    20688001.910    86044018.724    20688001.812  
  20687996.922  
  22344888.438   117423217.182    22344895.930    91498663.1734   22344896.445  
                
  20662423.180   108581782.686    20662426.309    84609197.1444                 
                
  19226655.312   102885722.491    19226659.547    80022234.115    19226659.285  
  19226654.469  
  23063604.430   121200079.032    23063613.098    94441655.9404   23063613.617  
                
  22147899.664   118227005.692    22147904.703    91954337.182    22147904.344  
  22147898.602  
  22187437.109   118271501.475    22187443.086    91988926.396    22187443.773  
  22187436.297  
  24760714.016   130118424.551    24760717.941   101390993.4424                 
                
  22701751.031   121353883.369    22701757.574    94386387.786    22701756.680  
  22701749.574  
 21  8  9  0 41 50.0000000  0 17G17G22R15R16R 8G14G 1G24R24G 3G19R17
                                G 6R18R14G21R 1
  20425102.078   107334658.301    20425106.973    83637410.9114   20425107.246  
                
  22822426.039   119932691.459    22822428.492    93454069.3864                 
                
  19640967.289   104955369.123    19640972.344    81631948.626    19640971.891  
  19640966.883  
  21611902.797   115446927.460    21611906.324    89792037.514    21611905.340  
  21611901.840  
  22762309.539   121891132.150    22762313.992    94804213.150    22762314.020  
  22762308.816  
  21013456.008   110426463.331    21013461.898    86046614.7664   21013462.066  
                
  21973529.133   115471676.784    21973537.664    89977965.3354   21973537.660  
                
  23222274.922   122033883.472    23222283.160    95091369.7264   23222283.504  
                
  20693354.812   110656677.162    20693359.434    86066301.377    20693359.316  
  20693354.449  
  22342469.867   117410507.601    22342477.352    91488759.6144   22342477.871  
                
  20658967.008   108563620.360    20658970.152    84595044.6864                 
                
  19225330.922   102878635.408    19225335.176    80016721.940    19225334.906  
  19225330.094  
  23057042.609   121165596.462    23057051.246    94414786.4084   23057051.789  
                
  22141495.305   118192818.826    22141500.281    91927747.397    22141499.938  
  22141494.230  
  22195510.273   118314536.577    22195516.406    92022398.115    22195517.086  
  22195509.523  
  24766852.172   130150680.695    24766856.125   101416128.0624                 
                
  22696936.711   121328148.273    22696943.285    94366371.639    22696942.359  
  22696935.188  
 21  8  9  0 42  0.0000000  0 17G17G22R15R16R 8G14G 1G24R24G 3G19R17
                                G 6R18R14G21R 1
  20425171.250   107335021.786    20425176.152    83637694.1504   20425176.422  
                
  22823536.609   119938527.569    22823539.078    93458616.9994                 
                
  19643161.109   104967092.215    19643166.152    81641066.579    19643165.703  
  19643160.707  
  21606093.680   115415896.236    21606097.277    89767902.135    21606096.246  
  21606092.738  
  22762885.578   121894216.731    22762890.043    94806612.259    22762890.078  
  22762884.875  
  21017549.625   110447975.369    21017555.543    86063377.3874   21017555.699  
                
  21979384.602   115502447.458    21979393.141    90001942.4724   21979393.148  
                
  23221912.094   122031976.712    23221920.340    95089883.9444   23221920.684  
                
  20698718.547   110685359.423    20698723.184    86088609.794    20698723.062  
  20698718.172  
  22340063.773   117397863.629    22340071.277    91478907.1834   22340071.766  
                
  20655518.539   108545498.567    20655521.703    84580923.8164                 
                
  19224017.656   102871607.848    19224021.934    80011256.064    19224021.645  
  19224016.828  
  23050485.797   121131140.246    23050494.434    94387937.4204   23050494.988  
                
  22135096.477   118158661.485    22135101.453    91901180.585    22135101.090  
  22135095.398  
  22203589.211   118357602.597    22203595.441    92055893.899    22203596.156  
  22203588.527  
  24772991.453   130182942.680    24772995.453   101441267.2284                 
                
  22692134.523   121302478.037    22692141.125    94346405.915    22692140.199  
  22692132.918  
 21  8  9  0 42 10.0000000  0 17G17G22R15R16R 8G14G 1G24R24G 3G19R17
                                G 6R18R14G21R 1
  20425247.156   107335420.676    20425252.062    83638004.9754   20425252.336  
                
  22824659.133   119944426.506    22824661.609    93463213.5644                 
                
  19645371.250   104978902.519    19645376.246    81650252.366    19645375.812  
  19645370.840  
  21600295.477   115384923.341    21600299.129    89743812.115    21600298.027  
  21600294.543  
  22763477.789   121897387.930    22763482.301    94809078.744    22763482.324  
  22763477.129  
  21021652.617   110469536.740    21021658.566    86080178.4424   21021658.715  
                
  21985246.797   115533253.525    21985255.352    90025947.1954   21985255.371  
                
  23221561.734   122030135.507    23221570.016    95088449.2454   23221570.316  
                
  20704088.250   110714073.615    20704092.914    86110943.041    20704092.766  
  20704087.859  
  22337669.922   117385283.937    22337677.402    91469104.8314   22337677.898  
                
  20652077.523   108527415.933    20652080.695    84566833.4574                 
                
  19222715.266   102864638.483    19222719.555    80005835.443    19222719.258  
  19222714.430  
  23043933.742   121096709.054    23043942.379    94361107.9344   23043942.934  
                
  22128702.977   118124532.559    22128708.012    91874635.887    22128707.586  
  22128701.910  
  22211673.719   118400697.603    22211679.902    92089412.255    22211680.641  
  22211673.031  
  24779131.555   130215209.106    24779135.664   101466409.8854                 
                
  22687344.203   121276871.281    22687350.871    94326489.560    22687349.949  
  22687342.570  
 21  8  9  0 42 20.0000000  0 17G17G22R15R16R 8G14G 1G24R24G 3G19R17
                                G 6R18R14G21R 1
  20425330.164   107335856.873    20425335.074    83638344.8654   20425335.344  
                
  22825793.977   119950390.191    22825796.449    93467860.5914                 
                
  19647598.078   104990802.003    19647603.031    81659507.523    19647602.629  
  19647597.660  
  21594508.547   115354010.610    21594512.188    89719768.887    21594511.082  
  21594507.621  
  22764086.539   121900647.690    22764091.090    94811614.111    22764091.086  
  22764085.918  
  21025765.359   110491149.270    21025771.309    86097019.3574   21025771.457  
                
  21991116.070   115564096.763    21991124.656    90049980.8864   21991124.660  
                
  23221224.203   122028361.683    23221232.480    95087067.0364   23221232.773  
                
  20709464.211   110742821.261    20709468.910    86133302.308    20709468.750  
  20709463.816  
  22335288.672   117372770.476    22335296.090    91459354.0904   22335296.629  
                
  20648644.328   108509374.344    20648647.504    84552775.0784                 
                
  19221424.086   102857729.151    19221428.391    80000461.524    19221428.102  
  19221423.270  
  23037386.836   121062304.828    23037395.488    94334299.4744   23037396.035  
                
  22122315.141   118090433.863    22122320.250    91848114.715    22122319.762  
  22122314.070  
  22219763.992   118443823.559    22219770.258    92122954.650    22219770.953  
  22219763.340  
  24785272.898   130247481.745    24785277.039   101491557.3914                 
                
  22682566.172   121251330.110    22682572.871    94306624.204    22682571.957  
  22682564.543  
 21  8  9  0 42 30.0000000  0 17G17G22R15R16R 8G14G 1G24R24G 3G19R17
                                G 6R18R14G21R 1
  20425420.172   107336329.865    20425425.082    83638713.4304   20425425.348  
                
  22826941.008   119956417.834    22826943.484    93472557.4524                 
                
  19649841.477   105002790.014    19649846.430    81668831.520    19649846.008  
  19649841.059  
  21588732.820   115323157.760    21588736.480    89695772.230    21588735.359  
  21588731.906  
  22764711.703   121903995.334    22764716.270    94814217.839    22764716.266  
  22764711.086  
  21029887.727   110512812.443    21029893.660    86113899.7484   21029893.840  
                
  21996992.312   115594976.609    21997000.930    90074043.1004   21997000.910  
                
  23220899.398   122026654.819    23220907.648    95085737.0014   23220907.996  
                
  20714846.375   110771602.068    20714851.090    86155687.358    20714850.914  
  20714845.965  
  22332919.953   117360322.836    22332927.309    91449654.6374   22332927.902  
                
  20645218.852   108491373.384    20645222.023    84538748.3594                 
                
  19220144.062   102850879.469    19220148.387    79995134.000    19220148.094  
  19220143.250  
  23030844.992   121027927.207    23030853.660    94307511.7434   23030854.191  
                
  22115932.922   118056365.130    22115938.035    91821616.804    22115937.527  
  22115931.848  
  22227860.039   118486979.913    22227866.348    92156520.675    22227867.004  
  22227859.305  
  24791415.297   130279760.129    24791419.461   101516709.3394                 
                
  22677800.352   121225854.178    22677807.078    94286809.611    22677806.160  
  22677798.734  
 21  8  9  0 42 40.0000000  0 17G17G22R15R16R 8G14G 1G24R24G 3G19R17
                                G 6R18R14G21R 1
  20425517.203   107336839.783    20425522.113    83639110.7704   20425522.371  
                
  22828100.250   119962509.676    22828102.727    93477304.3414                 
                
  19652101.469   105014866.736    19652106.402    81678224.526    19652105.984  
  19652101.051  
  21582968.375   115292365.162    21582972.070    89671822.438    21582970.961  
  21582967.488  
  22765353.320   121907431.185    22765357.902    94816890.171    22765357.922  
  22765352.715  
  21034019.750   110534526.357    21034025.691    86130819.6674   21034025.867  
                
  22002875.531   115625893.124    22002884.148    90098133.8824   22002884.137  
                
  23220587.344   122025015.025    23220595.582    95084459.2244   23220595.953  
                
  20720234.742   110800416.018    20720239.445    86178098.193    20720239.293  
  20720234.316  
  22330563.797   117347941.240    22330571.129    91440006.6544   22330571.746  
                
  20641801.141   108473413.234    20641804.312    84524753.4414                 
                
  19218875.180   102844089.447    19218879.512    79989852.868    19218879.215  
  19218874.352  
  23024308.242   120993576.409    23024316.914    94280744.8994   23024317.438  
                
  22109556.289   118022326.337    22109561.473    91795142.223    22109560.926  
  22109555.203  
  22235961.711   118530166.646    22235968.137    92190110.329    22235968.789  
  22235960.992  
  24797558.742   130312044.357    24797562.953   101541865.8704                 
                
  22673046.805   121200443.769    22673053.582    94267045.990    22673052.641  
  22673045.141  
 21  8  9  0 42 50.0000000  0 17G17G22R15R16R 8G14G 1G24R24G 3G19R17
                                G 6R18R14G21R 1
  20425621.117   107337385.854    20425626.027    83639536.2864   20425626.285  
                
  22829271.586   119968665.019    22829274.062    93482100.7104                 
                
  19654377.922   105027031.387    19654382.828    81687685.919    19654382.434  
  19654377.496  
  21577215.086   115261632.185    21577218.809    89647919.031    21577217.680  
  21577214.223  
  22766011.281   121910954.516    22766015.898    94819630.538    22766015.906  
  22766010.668  
  21038161.273   110556290.178    21038167.234    86147778.4774   21038167.398  
                
  22008765.555   115656845.403    22008774.148    90122252.5374   22008774.168  
                
  23220287.906   122023441.524    23220296.152    95083233.1204   23220296.539  
                
  20725629.094   110829261.935    20725633.797    86200533.900    20725633.676  
  20725628.688  
  22328220.078   117335624.977    22328227.395    91430409.5684   22328228.016  
                
  20638391.062   108455493.172    20638394.227    84510789.7644                 
                
  19217617.305   102837358.346    19217621.656    79984617.570    19217621.367  
  19217616.465  
  23017776.453   120959251.693    23017785.113    94253998.3884   23017785.648  
                
  22103185.164   117988316.973    22103190.363    91768690.507    22103189.793  
  22103184.086  
  22244068.906   118573382.733    22244075.449    92223722.798    22244076.047  
  22244068.184  
  24803703.156   130344333.501    24803707.379   101567026.2464                 
                
  22668305.367   121175098.186    22668312.199    94247332.785    22668311.227  
  22668303.738  
 21  8  9  0 43  0.0000000  0 17G17G22R15R16R 8G14G 1G24R24G 3G19R17
                                G 6R18R14G21R 1
  20425732.055   107337968.839    20425736.965    83639990.5554   20425737.223  
                
  22830455.117   119974884.490    22830457.625    93486947.0354                 
                
  19656670.922   105039284.480    19656675.816    81697216.100    19656675.430  
  19656670.500  
  21571473.109   115230959.622    21571476.855    89624062.610    21571475.699  
  21571472.238  
  22766685.688   121914565.931    22766690.328    94822439.409    22766690.332  
  22766685.074  
  21042312.414   110578104.552    21042318.379    86164776.6754   21042318.543  
                
  22014662.500   115687834.030    22014671.102    90146399.5114   22014671.121  
                
  23220001.219   122021934.957    23220009.465    95082059.1764   23220009.863  
                
  20731029.586   110858140.690    20731034.281    86222995.136    20731034.172  
  20731029.191  
  22325888.930   117323374.745    22325896.230    91420863.9394   22325896.840  
                
  20634988.766   108437613.959    20634991.926    84496857.9054                 
                
  19216370.547   102830686.717    19216374.922    79979428.520    19216374.629  
  19216369.684  
  23011249.781   120924953.789    23011258.371    94227272.7634   23011258.949  
                
  22096819.695   117954337.669    22096824.918    91742262.164    22096824.320  
  22096818.633  
  22252181.766   118616628.767    22252188.391    92257358.579    22252188.957  
  22252181.039  
  24809848.680   130376628.186    24809852.863   101592190.9104                 
                
  22663576.219   121149818.306    22663583.121    94227670.692    22663582.117  
  22663574.625  
 21  8  9  0 43 10.0000000  0 17G17G22R15R16R 8G14G 1G24R24G 3G19R17
                                G 6R18R14G21R 1
  20425849.961   107338588.426    20425854.875    83640473.3474   20425855.129  
                
  22831650.797   119981167.845    22831653.344    93491843.1504                 
                
  19658980.438   105051625.804    19658985.324    81706814.896    19658984.934  
  19658980.020  
  21565742.375   115200347.119    21565746.129    89600252.882    21565744.961  
  21565741.504  
  22767376.492   121918265.114    22767381.148    94825316.551    22767381.133  
  22767375.902  
  21046473.109   110599969.136    21046479.055    86181814.0154   21046479.242  
                
  22020566.281   115718858.627    22020574.910    90170574.5004   22020574.922  
                
  23219727.211   122020495.067    23219735.445    95080937.1984   23219735.848  
                
  20736436.117   110887051.782    20736440.805    86245481.541    20736440.688  
  20736435.746  
  22323570.305   117311190.339    22323577.594    91411369.6074   22323578.227  
                
  20631594.195   108419775.372    20631597.352    84482957.7184                 
                
  19215134.859   102824074.374    19215139.254    79974285.594    19215138.957  
  19215133.992  
  23004728.172   120890682.512    23004736.750    94200567.8844   23004737.340  
                
  22090459.789   117920388.117    22090465.047    91715856.989    22090464.422  
  22090458.723  
  22260300.109   118659904.250    22260306.789    92291017.280    22260307.355  
  22260299.395  
  24815995.164   130408928.103    24815999.371   101617359.6514                 
                
  22658859.352   121124604.093    22658866.332    94208059.637    22658865.277  
  22658857.801  
 21  8  9  0 43 20.0000000  0 17G17G22R15R16R 8G14G 1G24R24G 3G19R17
                                G 6R18R14G21R 1
  20425974.859   107339244.827    20425979.777    83640984.8274   20425980.027  
                
  22832858.648   119987515.112    22832861.223    93496789.0724                 
                
  19661306.461   105064055.367    19661311.340    81716482.336    19661310.953  
  19661306.055  
  21560022.984   115169795.177    21560026.742    89576490.260    21560025.539  
  21560022.125  
  22768083.688   121922052.138    22768088.336    94828262.020    22768088.320  
  22768083.148  
  21050643.367   110621884.016    21050649.289    86198890.5324   21050649.508  
                
  22026476.914   115749919.189    22026485.559    90194777.5324   22026485.555  
                
  23219465.930   122019121.973    23219474.125    95079867.2514   23219474.539  
                
  20741848.719   110915995.338    20741853.371    86267993.187    20741853.273  
  20741848.348  
  22321264.250   117299071.950    22321271.527    91401926.7164   22321272.191  
                
  20628207.375   108401977.530    20628210.516    84469089.2714                 
                
  19213910.289   102817521.474    19213914.699    79969188.884    19213914.398  
  19213909.418  
  22998211.664   120856438.047    22998220.254    94173883.8884   22998220.816  
                
  22084105.523   117886468.624    22084110.754    91689475.145    22084110.121  
  22084104.441  
  22268424.055   118703209.390    22268430.680    92324699.069    22268431.266  
  22268423.281  
  24822142.625   130441233.449    24822146.898   101642532.6194                 
                
  22654154.789   121099455.505    22654161.812    94188499.643    22654160.719  
  22654153.203  
 21  8  9  0 43 30.0000000  0 17G17G22R15R16R 8G14G 1G24R24G 3G19R17
                                G 6R18R14G21R 1
  20426106.758   107339937.972    20426111.676    83641524.9434   20426111.926  
                
  22834078.688   119993926.385    22834081.281    93501784.8694                 
                
  19663649.023   105076573.291    19663653.906    81726218.494    19663653.516  
  19663648.609  
  21554314.922   115139303.804    21554318.680    89552774.751    21554317.477  
  21554314.090  
  22768807.273   121925926.910    22768811.906    94831275.722    22768811.902  
  22768806.738  
  21054823.203   110643849.195    21054829.113    86216006.2394   21054829.344  
                
  22032394.398   115781015.744    22032403.031    90219008.6144   22032403.039  
                
  23219217.367   122017815.774    23219225.520    95078849.4194   23219225.965  
                
  20747267.398   110944971.419    20747271.992    86290530.137    20747271.926  
  20747267.016  
  22318970.781   117287019.760    22318978.035    91392535.3944   22318978.719  
                
  20624828.320   108384220.499    20624831.449    84455252.6264                 
                
  19212696.836   102811028.067    19212701.270    79964138.460    19212700.957  
  19212695.977  
  22991700.281   120822220.541    22991708.836    94147220.9024   22991709.406  
                
  22077756.883   117852579.287    22077762.199    91663116.797    22077761.512  
  22077755.773  
  22276553.461   118746544.028    22276560.137    92358403.765    22276560.707  
  22276552.684  
  24828291.102   130473544.176    24828295.453   101667709.8154                 
                
  22649462.562   121074372.922    22649469.559    94168990.982    22649468.488  
  22649460.977  
 21  8  9  0 43 40.0000000  0 17G17G22R15R16R 8G14G 1G24R24G 3G19R17
                                G 6R18R14G21R 1
  20426245.625   107340667.676    20426250.543    83642093.5444   20426250.789  
                
  22835310.875   120000401.485    22835313.449    93506830.3994                 
                
  19666008.055   105089179.233    19666012.922    81736023.111    19666012.531  
  19666007.641  
  21548618.258   115108873.218    21548622.004    89529106.524    21548620.789  
  21548617.418  
  22769547.281   121929889.627    22769551.930    94834357.830    22769551.910  
  22769546.738  
  21059012.578   110665864.471    21059018.488    86233160.9864   21059018.711  
                
  22038318.680   115812148.024    22038327.316    90243267.5354   22038327.324  
                
  23218981.508   122016576.302    23218989.621    95077883.5944   23218990.102  
                
  20752692.078   110973979.598    20752696.621    86313092.045    20752696.578  
  20752691.652  
  22316689.891   117275033.614    22316697.117    91383195.5464   22316697.824  
                
  20621457.031   108366504.179    20621460.141    84441447.7014                 
                
  19211494.477   102804593.940    19211498.918    79959134.139    19211498.605  
  19211493.602  
  22985194.023   120788029.924    22985202.543    94120578.8744   22985203.133  
                
  22071413.883   117818719.927    22071419.262    91636781.767    22071418.543  
  22071412.750  
  22284688.461   118789907.857    22284695.113    92392131.166    22284695.676  
  22284687.598  
  24834440.586   130505859.981    24834444.922   101692890.9374                 
                
  22644782.750   121049356.674    22644789.738    94149533.920    22644788.672  
  22644781.172  
 21  8  9  0 43 50.0000000  0 17G17G22R15R16R 8G14G 1G24R24G 3G19R17
                                G 6R18R14G21R 1
  20426391.430   107341433.901    20426396.340    83642690.6054   20426396.586  
                
  22836555.180   120006940.318    22836557.734    93511925.6024                 
                
  19668383.547   105101873.132    19668388.414    81745896.142    19668388.027  
  19668383.145  
  21542932.977   115078503.443    21542936.691    89505485.599    21542935.504  
  21542932.113  
  22770303.594   121933939.656    22770308.238    94837507.846    22770308.219  
  22770303.039  
  21063211.453   110687929.712    21063217.332    86250354.6734   21063217.574  
                
  22044249.711   115843315.807    22044258.359    90267554.1154   22044258.344  
                
  23218758.312   122015403.407    23218766.414    95076969.6574   23218766.902  
                
  20758122.742   111003019.787    20758127.238    86335678.858    20758127.219  
  20758122.297  
  22314421.562   117263113.485    22314428.785    91373907.1514   22314429.496  
                
  20618093.445   108348828.434    20618096.551    84427674.3894                 
                
  19210303.164   102798219.009    19210307.605    79954175.863    19210307.289  
  19210302.301  
  22978692.859   120753866.113    22978701.402    94093957.7324   22978701.980  
                
  22065076.484   117784890.530    22065081.859    91610470.022    22065081.156  
  22065075.359  
  22292828.820   118833300.601    22292835.535    92425881.051    22292836.082  
  22292827.949  
  24840590.984   130538180.744    24840595.332   101718075.9604                 
                
  22640115.266   121024406.362    22640122.266    94130128.128    22640121.211  
  22640113.719  
 21  8  9  0 44  0.0000000  0 17G17G22R15R16R 8G14G 1G24R24G 3G19R17
                                G 6R18R14G21R 1
  20426544.203   107342236.760    20426549.109    83643316.2024   20426549.355  
                
  22837811.609   120013542.946    22837814.129    93517070.5014                 
                
  19670775.516   105114655.058    19670780.387    81755837.633    19670779.984  
  19670775.121  
  21537259.102   115048194.648    21537262.781    89481912.096    21537261.613  
  21537258.238  
  22771076.336   121938077.681    22771080.984    94840726.305    22771080.980  
  22771075.766  
  21067419.852   110710044.982    21067425.680    86267587.3294   21067425.961  
                
  22050187.492   115874519.102    22050196.137    90291868.3554   22050196.109  
                
  23218547.812   122014297.207    23218555.910    95076107.6774   23218556.391  
                
  20763559.375   111032091.924    20763563.832    86358290.512    20763563.828  
  20763558.930  
  22312165.820   117251259.545    22312173.035    91364670.3204   22312173.754  
                
  20614737.609   108331193.447    20614740.715    84413932.8524                 
                
  19209122.906   102791903.225    19209127.324    79949263.581    19209127.027  
  19209122.059  
  22972196.805   120719729.292    22972205.402    94067357.6354   22972205.969  
                
  22058744.734   117751091.362    22058750.141    91584181.810    22058749.430  
  22058743.598  
  22300974.594   118876722.257    22300981.395    92459653.424    22300981.930  
  22300973.746  
  24846742.391   130570506.457    24846746.727   101743264.8074                 
                
  22635460.203   120999522.349    22635467.176    94110773.900    22635466.113  
  22635458.668  
 21  8  9  0 44 10.0000000  0 17G17G22R15R16R 8G14G 1G24R24G 3G19R17
                                G 6R18R14G21R 1
  20426703.984   107343076.415    20426708.879    83643970.4814   20426709.129  
                
  22839080.219   120020209.513    22839082.734    93522265.2094                 
                
  19673183.977   105127525.123    19673188.844    81765847.683    19673188.438  
  19673183.578  
  21531596.719   115017947.201    21531600.371    89458386.308    21531599.230  
  21531595.867  
  22771865.477   121942303.497    22771870.137    94844013.064    22771870.129  
  22771864.883  
  21071637.781   110732210.342    21071643.582    86284859.0314   21071643.891  
                
  22056132.047   115905757.962    22056140.676    90316210.3294   22056140.645  
                
  23218350.031   122013257.868    23218358.121    95075297.7964   23218358.621  
                
  20769002.031   111061196.183    20769006.473    86380927.152    20769006.473  
  20769001.586  
  22309922.711   117239472.013    22309929.918    91355485.2344   22309930.656  
                
  20611389.602   108313599.505    20611392.707    84400223.2874                 
                
  19207953.766   102785646.911    19207958.176    79944397.564    19207957.879  
  19207952.926  
  22965705.953   120685619.723    22965714.566    94040778.7684   22965715.137  
                
  22052418.664   117717322.349    22052424.074    91557917.034    22052423.336  
  22052417.512  
  22309125.883   118920172.768    22309132.645    92493448.240    22309133.172  
  22309124.969  
  24852894.797   130602837.247    24852899.086   101768457.6274                 
                
  22630817.586   120974704.959    22630824.555    94091471.499    22630823.516  
  22630816.062  
 21  8  9  0 44 20.0000000  0 17G17G22R15R16R 8G14G 1G24R24G 3G19R17
                                G 6R18R14G21R 1
  20426870.680   107343952.408    20426875.570    83644653.0764   20426875.828  
                
  22840360.891   120026939.486    22840363.414    93527509.3324                 
                
  19675608.836   105140482.774    19675613.711    81775925.855    19675613.289  
  19675608.445  
  21525945.750   114987760.707    21525949.367    89434907.923    21525948.234  
  21525944.910  
  22772670.938   121946616.693    22772675.586    94847367.764    22772675.602  
  22772670.305  
  21075865.172   110754425.352    21075870.957    86302169.4174   21075871.262  
                
  22062083.266   115937031.841    22062091.883    90340579.5864   22062091.848  
                
  23218164.891   122012284.932    23218172.969    95074539.6534   23218173.484  
                
  20774450.609   111090332.074    20774455.062    86403588.393    20774455.047  
  20774450.168  
  22307692.180   117227750.468    22307699.395    91346351.5744   22307700.121  
                
  20608049.305   108296046.118    20608052.398    84386545.3244                 
                
  19206795.641   102779449.502    19206800.047    79939577.361    19206799.750  
  19206794.816  
  22959220.219   120651536.981    22959228.820    94014220.7914   22959229.383  
                
  22046098.180   117683583.329    22046103.566    91531675.586    22046102.840  
  22046096.992  
  22317282.562   118963651.758    22317289.207    92527265.221    22317289.730  
  22317281.562  
  24859048.055   130635172.658    24859052.348   101793654.0084                 
                
  22626187.367   120949953.802    22626194.324    94072220.598    22626193.277  
  22626185.840  
 21  8  9  0 44 30.0000000  0 17G17G22R15R16R 8G14G 1G24R24G 3G19R17
                                G 6R18R14G21R 1
  20427044.531   107344865.997    20427049.418    83645364.9654   20427049.684  
                
  22841653.867   120033734.052    22841656.410    93532803.8044                 
                
  19678050.305   105153529.238    19678055.184    81786073.099    19678054.766  
  19678049.906  
  21520306.430   114957636.489    21520310.027    89411477.980    21520308.895  
  21520305.578  
  22773492.922   121951018.431    22773497.562    94850791.343    22773497.594  
  22773492.281  
  21080102.219   110776691.187    21080107.988    86319519.4044   21080108.301  
                
  22068041.359   115968341.903    22068049.961    90364977.0174   22068049.941  
                
  23217992.625   122011379.639    23218000.723    95073834.2234   23218001.207  
                
  20779905.250   111119500.449    20779909.730    86426274.903    20779909.699  
  20779904.828  
  22305474.453   117216096.248    22305481.695    91337270.3784   22305482.371  
                
  20604716.969   108278534.562    20604720.055    84372899.9554                 
                
  19205648.750   102773312.247    19205653.133    79934803.935    19205652.844  
  19205647.945  
  22952739.852   120617482.421    22952748.434    93987684.7734   22952749.000  
                
  22039783.555   117649875.614    22039789.012    91505458.506    22039788.234  
  22039782.379  
  22325444.578   119007160.160    22325451.230    92561105.078    22325451.785  
  22325443.633  
  24865202.367   130667513.813    24865206.773   101818854.8844                 
                
  22621569.805   120925270.343    22621576.742    94053022.352    22621575.723  
  22621568.336  
 21  8  9  0 44 40.0000000  0 17G17G22R15R16R 8G14G 1G24R24G 3G19R17
                                G 6R18R14G21R 1
  20427225.211   107345815.472    20427230.098    83646104.8154   20427230.352  
                
  22842958.820   120040591.600    22842961.371    93538147.3454                 
                
  19680508.078   105166662.820    19680512.957    81796288.101    19680512.551  
  19680507.680  
  21514678.492   114927573.101    21514682.094    89388095.361    21514680.961  
  21514677.621  
  22774331.195   121955507.333    22774335.816    94854282.714    22774335.828  
  22774330.500  
  21084348.617   110799006.161    21084354.359    86336907.6784   21084354.707  
                
  22074006.016   115999686.386    22074014.629    90389401.2734   22074014.598  
                
  23217832.914   122010540.316    23217841.027    95073180.2074   23217841.488  
                
  20785365.750   111148700.159    20785370.262    86448985.773    20785370.211  
  20785365.309  
  22303269.234   117204507.766    22303276.496    91328240.3904   22303277.145  
                
  20601392.289   108261063.247    20601395.371    84359285.9474                 
                
  19204512.797   102767233.502    19204517.172    79930076.030    19204516.879  
  19204512.004  
  22946264.523   120583454.425    22946273.117    93961169.4594   22946273.664  
                
  22033474.469   117616197.373    22033479.961    91479264.331    22033479.152  
  22033473.293  
  22333611.805   119050696.223    22333618.457    92594966.435    22333619.023  
  22333610.887  
  24871357.484   130699859.051    24871361.961   101844058.9544                 
                
  22616964.688   120900653.262    22616971.613    94033875.745    22616970.562  
  22616963.277  
 21  8  9  0 44 50.0000000  0 17G17G22R15R16R 8G14G 1G24R24G 3G19R17
                                G 6R18R14G21R 1
  20427412.852   107346801.566    20427417.738    83646873.1984   20427417.992  
                
  22844275.883   120047512.799    22844278.434    93543540.4834                 
                
  19682982.281   105179884.231    19682987.164    81806571.418    19682986.734  
  19682981.875  
  21509062.117   114897571.485    21509065.727    89364760.772    21509064.566  
  21509061.270  
  22775185.852   121960083.990    22775190.445    94857842.317    22775190.473  
  22775185.148  
  21088604.492   110821370.897    21088610.203    86354334.7374   21088610.578  
                
  22079977.328   116031065.892    22079985.957    90413852.8254   22079985.906  
                
  23217685.891   122009767.707    23217694.000    95072578.1634   23217694.449  
                
  20790832.117   111177931.293    20790836.668    86471721.095    20790836.598  
  20790831.664  
  22301076.672   117192985.785    22301083.961    91319262.2294   22301084.582  
                
  20598075.406   108243632.940    20598078.480    84345703.8844                 
                
  19203387.898   102761213.966    19203392.266    79925394.165    19203391.977  
  19203387.109  
  22939794.406   120549453.803    22939802.965    93934675.4674   22939803.523  
                
  22027171.102   117582549.645    22027176.566    91453093.881    22027175.785  
  22027169.938  
  22341784.320   119094260.437    22341790.973    92628849.693    22341791.539  
  22341783.434  
  24877513.461   130732209.073    24877518.320   101869266.7564                 
                
  22612372.047   120876102.993    22612378.965    94014781.088    22612377.910  
  22612370.680  
 21  8  9  0 45  0.0000000  0 17G17G22R15R16R 8G14G 1G24R24G 3G19R17
                                G 6R18R14G21R 1
  20427607.453   107347824.193    20427612.340    83647670.0504   20427612.590  
                
  22845605.047   120054497.563    22845607.559    93548983.1584                 
                
  19685472.883   105193193.203    19685477.762    81816922.836    19685477.332  
  19685472.469  
  21503457.305   114867631.541    21503460.922    89341474.143    21503459.762  
  21503456.500  
  22776056.852   121964748.086    22776061.418    94861469.952    22776061.422  
  22776056.156  
  21092869.805   110843785.222    21092875.527    86371800.4334   21092875.887  
                
  22085955.266   116062480.180    22085963.891    90438331.4754   22085963.852  
                
  23217551.523   122009061.610    23217559.625    95072027.9524   23217560.098  
                
  20796304.383   111207193.924    20796308.965    86494480.908    20796308.883  
  20796303.902  
  22298896.750   117181530.196    22298904.070    91310335.8134   22298904.660  
                
  20594766.297   108226243.458    20594769.383    84332153.6424                 
                
  19202274.062   102755253.532    19202278.430    79920758.274    19202278.133  
  19202273.289  
  22933329.484   120515480.466    22933338.012    93908202.7464   22933338.582  
                
  22020873.414   117548932.151    22020878.859    91426946.955    22020878.078  
  22020872.234  
  22349962.188   119137852.815    22349968.824    92662754.840    22349969.387  
  22349961.289  
  24883670.336   130764563.618    24883674.848   101894478.1394                 
                
  22607791.969   120851619.806    22607798.844    93995738.623    22607797.793  
  22607790.637  
 21  8  9  0 45 10.0000000  0 17G17G22R15R16R 8G14G 1G24R24G 3G19R17
                                G 6R18R14G21R 1
  20427809.008   107348883.416    20427813.891    83648495.4174   20427814.133  
                
  22846946.305   120061545.921    22846948.734    93554475.3724                 
                
  19687979.883   105206589.852    19687984.746    81827342.447    19687984.324  
  19687979.465  
  21497864.109   114837753.640    21497867.715    89318235.770    21497866.551  
  21497863.344  
  22776944.195   121969499.717    22776948.711    94865165.649    22776948.691  
  22776943.520  
  21097144.562   110866249.224    21097150.305    86389304.8304   21097150.652  
                
  22091939.828   116093929.297    22091948.430    90462837.2704   22091948.418  
                
  23217429.844   122008422.175    23217437.980    95071529.6964   23217438.430  
                
  20801782.539   111236488.106    20801787.145    86517265.256    20801787.023  
  20801782.027  
  22296729.492   117170141.224    22296736.832    91301461.2934   22296737.375  
                
  20591464.984   108208894.980    20591468.070    84318635.3524                 
                
  19201171.258   102749352.239    19201175.629    79916168.382    19201175.336  
  19201170.484  
  22926869.789   120481534.614    22926878.293    93881751.4364   22926878.883  
                
  22014581.398   117515345.086    22014586.824    91400823.702    22014586.055  
  22014580.191  
  22358145.344   119181473.016    22358151.949    92696681.631    22358152.480  
  22358144.387  
  24889828.109   130796922.742    24889832.422   101919693.0134                 
                
  22603224.445   120827203.803    22603231.277    93976748.402    22603230.262  
  22603223.145  
 21  8  9  0 45 20.0000000  0 17G17G22R15R16R 8G14G 1G24R24G 3G19R17
                                G 6R18R14G21R 1
  20428017.555   107349979.337    20428022.430    83649349.3794   20428022.684  
                
  22848299.680   120068657.919    22848302.055    93560017.1844                 
                
  19690503.320   105220074.307    19690508.176    81837830.353    19690507.754  
  19690502.887  
  21492282.531   114807937.855    21492286.172    89295045.734    21492285.004  
  21492281.758  
  22777847.953   121974339.210    22777852.398    94868929.687    22777852.395  
  22777847.273  
  21101428.789   110888762.980    21101434.535    86406847.9964   21101434.875  
                
  22097931.023   116125413.220    22097939.605    90487370.2034   22097939.609  
                
  23217320.875   122007849.502    23217329.051    95071083.4594   23217329.457  
                
  20807266.539   111265813.483    20807271.148    86540073.886    20807271.043  
  20807266.000  
  22294574.953   117158819.035    22294582.266    91292638.8084   22294582.797  
                
  20588171.516   108191587.672    20588174.590    84305149.1354                 
                
  19200079.555   102743510.270    19200083.910    79911624.628    19200083.625  
  19200078.762  
  22920415.359   120447616.410    22920423.855    93855321.6894   22920424.465  
                
  22008295.133   117481788.740    22008300.551    91374724.335    22008299.785  
  22008293.930  
  22366333.766   119225121.190    22366340.328    92730630.190    22366340.824  
  22366332.762  
  24895986.758   130829286.517    24895991.023   101944911.5434                 
                
  22598669.586   120802855.435    22598676.395    93957810.770    22598675.371  
  22598668.344  
 21  8  9  0 45 30.0000000  0 17G17G22R15R16R 8G14G 1G24R24G 3G19R17
                                G 6R18R14G21R 1
  20428233.023   107351111.649    20428237.887    83650231.7054   20428238.148  
                
  22849665.086   120075833.238    22849667.469    93565608.3454                 
                
  19693043.078   105233646.021    19693047.922    81848386.125    19693047.500  
  19693042.648  
  21486712.547   114778184.071    21486716.230    89271903.911    21486715.043  
  21486711.758  
  22778767.992   121979265.970    22778772.371    94872761.600    22778772.395  
  22778767.328  
  21105722.414   110911326.092    21105728.156    86424429.6324   21105728.516  
                
  22103928.766   116156931.563    22103937.352    90511929.9424   22103937.352  
                
  23217224.539   122007343.265    23217232.727    95070688.9784   23217233.117  
                
  20812756.320   111295169.852    20812760.953    86562906.601    20812760.832  
  20812755.746  
  22292433.062   117147563.329    22292440.324    91283868.1514   22292440.875  
                
  20584885.820   108174321.290    20584888.902    84291694.8154                 
                
  19198998.836   102737727.148    19199003.184    79907126.646    19199002.914  
  19198998.020  
  22913966.148   120413725.622    22913974.660    93828913.2964   22913975.273  
                
  22002014.547   117448262.669    22002019.977    91348648.516    22002019.211  
  22002013.348  
  22374527.289   119268796.955    22374533.844    92764600.207    22374534.328  
  22374526.254  
  24902146.195   130861654.600    24902150.293   101970133.4184                 
                
  22594127.312   120778574.442    22594134.148    93938925.565    22594133.156  
  22594126.129  
 21  8  9  0 45 40.0000000  0 17G17G22R15R16R 8G14G 1G24R24G 3G19R17
                                G 6R18R14G21R 1
  20428455.484   107352280.680    20428460.332    83651142.6404   20428460.605  
                
  22851042.633   120083072.250    22851045.027    93571249.1264                 
                
  19695599.234   105247305.339    19695604.078    81859010.030    19695603.672  
  19695598.793  
  21481154.289   114748492.849    21481158.004    89248810.743    21481156.793  
  21481153.496  
  22779704.445   121984280.483    22779708.766    94876661.753    22779708.801  
  22779703.832  
  21110025.484   110933938.811    21110031.234    86442049.9264   21110031.602  
                
  22109933.102   116188484.524    22109941.695    90536516.6634   22109941.684  
                
  23217140.914   122006903.811    23217149.133    95070346.5314   23217149.523  
                
  20818252.000   111324557.745    20818256.656    86585763.843    20818256.516  
  20818251.426  
  22290303.906   117136374.522    22290311.086    91275149.6004   22290311.684  
                
  20581607.992   108157096.202    20581611.074    84278272.6684                 
                
  19197929.180   102732003.229    19197933.531    79902674.708    19197933.266  
  19197928.348  
  22907522.242   120379862.651    22907530.801    93802526.5664   22907531.371  
                
  21995739.727   117414767.276    21995745.156    91322596.570    21995744.395  
  21995738.520  
  22382725.898   119312500.452    22382732.539    92798591.786    22382733.020  
  22382724.891  
  24908306.523   130894027.186    24908310.449   101995358.7834                 
                
  22589597.742   120754361.227    22589604.578    93920093.065    22589603.605  
  22589596.609  
 21  8  9  0 45 50.0000000  0 17G17G22R15R16R 8G14G 1G24R24G 3G19R17
                                G 6R18R14G21R 1
  20428684.945   107353486.519    20428689.777    83652082.2534   20428690.062  
                
  22852432.297   120090374.996    22852434.691    93576939.5754                 
                
  19698171.805   105261052.379    19698176.660    81869702.172    19698176.238  
  19698171.371  
  21475607.758   114718864.279    21475611.484    89225766.299    21475610.250  
  21475606.957  
  22780657.266   121989382.757    22780661.566    94880630.188    22780661.598  
  22780656.699  
  21114338.008   110956601.249    21114343.793    86459708.9484   21114344.148  
                
  22115944.039   116220072.111    22115952.625    90561130.3644   22115952.621  
                
  23217069.992   122006531.161    23217078.242    95070056.1434   23217078.605  
                
  20823753.508   111353976.772    20823758.176    86608645.302    20823758.035  
  20823752.922  
  22288187.508   117125252.747    22288194.590    91266483.2834   22288195.238  
                
  20578338.031   108139912.496    20578341.129    84264882.7744                 
                
  19196870.602   102726338.580    19196874.949    79898268.874    19196874.695  
  19196869.750  
  22901083.617   120346027.593    22901092.207    93776161.6094   22901092.762  
                
  21989470.703   117381302.924    21989476.109    91296568.755    21989475.367  
  21989469.523  
  22390929.688   119356231.516    22390936.391    92832604.806    22390936.855  
  22390928.699  
  24914467.734   130926404.298    24914471.570   102020587.7304                 
                
  22585080.898   120730216.047    22585087.707    93901313.504    22585086.738  
  22585079.781  
 21  8  9  0 46  0.0000000  0 17G17G22R15R16R 8G14G 1G24R24G 3G19R17
                                G 6R18R14G21R 1
  20428921.438   107354729.353    20428926.258    83653050.6894   20428926.559  
                
  22853834.102   120097741.524    22853836.484    93582679.7124                 
                
  19700760.805   105274887.184    19700765.672    81880462.570    19700765.242  
  19700760.379  
  21470073.008   114689298.718    21470076.762    89202770.872    21470075.520  
  21470072.195  
  22781626.484   121994572.810    22781630.758    94884666.873    22781630.793  
  22781625.938  
  21118660.008   110979313.468    21118665.824    86477406.7604   21118666.160  
                
  22121961.555   116251694.350    22121970.117    90585771.0564   22121970.129  
                
  23217011.812   122006225.426    23217020.051    95069817.9214   23217020.441  
                
  20829260.875   111383427.115    20829265.562    86631551.113    20829265.418  
  20829260.281  
  22286083.891   117114198.181    22286090.918    91257869.3464   22286091.602  
                
  20575075.992   108122770.392    20575079.102    84251525.2894                 
                
  19195823.133   102720733.395    19195827.480    79893909.289    19195827.230  
  19195822.273  
  22894650.359   120312220.704    22894658.957    93749818.5884   22894659.512  
                
  21983207.492   117347869.592    21983212.887    91270565.059    21983212.141  
  21983206.332  
  22399138.703   119399990.199    22399145.449    92866639.299    22399145.883  
  22399137.723  
  24920629.820   130958786.064    24920633.641   102045820.2754                 
                
  22580576.836   120706139.212    22580583.625    93882587.068    22580582.648  
  22580575.746  
 21  8  9  0 46 10.0000000  0 17G17G22R15R16R 8G14G 1G24R24G 3G19R17
                                G 6R18R14G21R 1
  20429164.836   107356008.403    20429169.656    83654047.3524   20429169.961  
                
  22855247.930   120105171.175    22855250.273    93588469.0474                 
                
  19703366.102   105288809.096    19703370.977    81891290.723    19703370.547  
  19703365.676  
  21464549.969   114659795.655    21464553.766    89179824.059    21464552.523  
  21464549.141  
  22782612.000   121999850.137    22782616.270    94888771.441    22782616.312  
  22782611.488  
  21122991.344   111002074.687    21122997.176    86495142.7844   21122997.504  
                
  22127985.523   116283350.481    22127994.082    90610438.1544   22127994.094  
                
  23216966.250   122005985.980    23216974.453    95069631.3554   23216974.895  
                
  20834773.977   111412908.139    20834778.691    86654480.794    20834778.523  
  20834773.387  
  22283992.953   117103210.233    22283999.961    91249307.3194   22284000.648  
                
  20571821.750   108105669.220    20571824.875    84238199.7044                 
                
  19194786.648   102715186.959    19194790.996    79889595.395    19194790.746  
  19194785.785  
  22888222.359   120278441.364    22888230.973    93723497.0364   22888231.516  
                
  21976949.984   117314466.679    21976955.363    91244585.039    21976954.629  
  21976948.809  
  22407352.828   119443775.625    22407359.504    92900694.646    22407359.922  
  22407351.820  
  24926792.633   130991171.791    24926796.551   102071055.8774                 
                
  22576085.461   120682130.151    22576092.234    93863913.357    22576091.254  
  22576084.371  
 21  8  9  0 46 20.0000000  0 17G17G22R15R16R 8G14G 1G24R24G 3G19R17
                                G 6R18R14G21R 1
  20429415.227   107357324.214    20429420.047    83655072.6564   20429420.348  
                
  22856673.852   120112664.407    22856676.176    93594307.9304                 
                
  19705987.773   105302818.466    19705992.648    81902186.893    19705992.211  
  19705987.336  
  21459038.734   114630355.612    21459042.570    89156926.261    21459041.309  
  21459037.887  
  22783613.906   122005215.189    22783618.156    94892944.266    22783618.207  
  22783613.418  
  21127332.086   111024885.388    21127337.926    86512917.3484   21127338.262  
                
  22134016.016   116315040.885    22134024.562    90635131.9704   22134024.582  
                
  23216933.398   122005813.318    23216941.582    95069496.8044   23216942.047  
                
  20840292.875   111442420.106    20840297.582    86677434.534    20840297.426  
  20840292.266  
  22281914.797   117092289.434    22281921.785    91240797.6054   22281922.465  
                
  20568575.391   108088609.503    20568578.520    84224906.4264                 
                
  19193761.227   102709699.702    19193765.570    79885327.525    19193765.332  
  19193760.340  
  22881799.695   120244690.130    22881808.301    93697197.3834   22881808.820  
                
  21970698.250   117281094.599    21970703.602    91218629.001    21970702.895  
  21970697.070  
  22415572.047   119487588.217    22415578.641    92934771.113    22415579.070  
  22415571.012  
  24932956.266   131023561.838    24932960.293   102096294.8694                 
                
  22571606.844   120658189.451    22571613.633    93845292.837    22571612.668  
  22571605.746  
 21  8  9  0 46 30.0000000  0 17G17G22R15R16R 8G14G 1G24R24G 3G19R17
                                G 6R18R14G21R 1
  20429672.586   107358676.670    20429677.414    83656126.5174   20429677.711  
                
  22858111.867   120120221.209    22858114.195    93600196.3524                 
                
  19708625.781   105316915.126    19708630.672    81913150.958    19708630.223  
  19708625.355  
  21453539.289   114600978.602    21453543.129    89134077.475    21453541.875  
  21453538.480  
  22784632.141   122010667.721    22784636.371    94897185.116    22784636.441  
  22784631.695  
  21131682.219   111047745.427    21131688.094    86530730.3434   21131688.410  
                
  22140052.992   116346765.364    22140061.496    90659852.3234   22140061.543  
                
  23216913.219   122005707.310    23216921.402    95069414.1934   23216921.875  
                
  20845817.516   111471962.827    20845822.215    86700412.201    20845822.070  
  20845816.906  
  22279849.414   117081435.758    22279856.383    91232340.1964   22279857.062  
                
  20565336.906   108071591.178    20565340.039    84211645.3984                 
                
  19192746.852   102704271.591    19192751.176    79881105.667    19192750.961  
  19192745.973  
  22875382.383   120210966.975    22875390.930    93670919.6034   22875391.465  
                
  21964452.320   117247753.493    21964457.621    91192697.043    21964456.953  
  21964451.152  
  22423796.305   119531427.947    22423802.922    92968868.653    22423803.289  
  22423795.270  
  24939120.688   131055956.090    24939124.793   102121537.1134                 
                
  22567141.016   120634317.239    22567147.832    93826725.591    22567146.867  
  22567139.832  
 21  8  9  0 46 40.0000000  0 17G17G22R15R16R 8G14G 1G24R24G 3G19R17
                                G 6R18R14G21R 1
  20429936.953   107360065.917    20429941.789    83657209.0504   20429942.074  
                
  22859562.016   120127841.784    22859564.355    93606134.4574                 
                
  19711280.148   105331099.201    19711285.043    81924183.019    19711284.586  
  19711279.738  
  21448051.758   114571665.227    21448055.578    89111278.174    21448054.344  
  21448051.012  
  22785666.734   122016207.854    22785670.930    94901494.104    22785671.016  
  22785666.344  
  21136041.773   111070654.938    21136047.695    86548581.8934   21136047.969  
                
  22146096.469   116378524.021    22146104.949    90684599.3314   22146105.000  
                
  23216905.758   122005668.132    23216913.957    95069383.6654   23216914.418  
                
  20851347.961   111501536.531    20851352.645    86723413.962    20851352.504  
  20851347.328  
  22277796.859   117070649.419    22277803.789    91223935.2804   22277804.461  
                
  20562106.352   108054614.492    20562109.480    84198416.8154                 
                
  19191743.555   102698902.690    19191747.863    79876929.855    19191747.664  
  19191742.695  
  22868970.461   120177272.156    22868978.980    93644663.9034   22868979.520  
                
  21958212.195   117214443.408    21958217.473    91166789.213    21958216.844  
  21958211.039  
  22432025.539   119575294.552    22432032.223    93002987.102    22432032.582  
  22432024.539  
  24945285.961   131088354.737    24945290.117   102146782.8474                 
                
  22562688.047   120610513.792    22562694.898    93808211.819    22562693.926  
  22562686.809  
 21  8  9  0 46 50.0000000  0 17G17G22R15R16R 8G14G 1G24R24G 3G19R17
                                G 6R18R14G21R 1
  20430208.195   107361491.374    20430213.031    83658319.7974   20430213.316  
                
  22861024.109   120135525.163    22861026.441    93612121.5054                 
                
  19713950.727   105345369.965    19713955.613    81935282.491    19713955.164  
  19713950.328  
  21442576.016   114542414.840    21442579.809    89088527.890    21442578.598  
  21442575.285  
  22786717.578   122021835.032    22786721.793    94905870.806    22786721.863  
  22786717.191  
  21140410.586   111093613.193    21140416.543    86566471.4434   21140416.801  
                
  22152146.297   116410316.079    22152154.738    90709372.3594   22152154.793  
                
  23216910.891   122005695.127    23216919.117    95069404.6894   23216919.547  
                
  20856884.023   111531140.368    20856888.680    86746439.165    20856888.559  
  20856883.395  
  22275757.000   117059929.896    22275763.852    91215582.3894   22275764.574  
                
  20558883.594   108037678.778    20558886.723    84185220.1584                 
                
  19190751.188   102693592.346    19190755.496    79872799.587    19190755.293  
  19190750.340  
  22862563.812   120143605.105    22862572.352    93618429.8434   22862572.887  
                
  21951977.820   117181164.024    21951983.121    91140905.261    21951982.473  
  21951976.633  
  22440259.695   119619187.391    22440266.430    93037125.957    22440266.773  
  22440258.734  
  24951451.906   131120757.096    24951456.125   102172031.3654                 
                
  22558247.883   120586778.739    22558254.797    93789751.235    22558253.828  
  22558246.547  
 21  8  9  0 47  0.0000000  0 17G17G22R15R16R 8G14G 1G24R24G 3G19R17
                                G 6R18R14G21R 1
  20430486.438   107362953.504    20430491.266    83659459.1164   20430491.559  
                
  22862498.266   120143271.879    22862500.559    93618157.9064                 
                
  19716637.648   105359727.996    19716642.535    81946449.849    19716642.090  
  19716637.266  
  21437112.180   114513228.002    21437115.961    89065827.021    21437114.758  
  21437111.422  
  22787784.758   122027549.682    22787788.977    94910315.536    22787789.055  
  22787784.340  
  21144788.773   111116620.652    21144794.734    86584399.3174   21144795.012  
                
  22158202.570   116442141.955    22158210.984    90734171.7274   22158211.047  
                
  23216928.703   122005788.766    23216936.953    95069477.6444   23216937.371  
                
  20862425.820   111560774.814    20862430.461    86769488.183    20862430.363  
  20862425.168  
  22273729.953   117049277.638    22273736.715    91207281.9324   22273737.500  
                
  20555668.734   108020784.584    20555671.863    84172055.8534                 
                
  19189769.875   102688341.124    19189774.184    79868715.300    19189773.996  
  19189769.039  
  22856162.555   120109966.336    22856171.098    93592217.8264   22856171.637  
                
  21945749.250   117147915.691    21945754.613    91115045.477    21945753.934  
  21945748.051  
  22448498.859   119663106.739    22448505.625    93071285.435    22448505.938  
  22448497.906  
  24957618.648   131153163.495    24957622.980   102197283.0734                 
                
  22553820.578   120563112.437    22553827.555    93771344.120    22553826.582  
  22553819.207  
 21  8  9  0 47 10.0000000  0 17G17G22R15R16R 8G14G 1G24R24G 3G19R17
                                G 6R18R14G21R 1
  20430771.609   107364452.111    20430776.426    83660626.8654   20430776.723  
                
  22863984.438   120151081.808    22863986.727    93624243.5704                 
                
  19719340.852   105374173.021    19719345.742    81957684.870    19719345.301  
  19719340.469  
  21431660.195   114484104.494    21431663.984    89043175.397    21431662.762  
  21431659.426  
  22788868.188   122033351.478    22788872.422    94914828.020    22788872.488  
  22788867.703  
  21149176.273   111139677.095    21149182.250    86602365.3554   21149182.523  
                
  22164265.211   116474001.361    22164273.609    90758997.2284   22164273.691  
                
  23216959.156   122005948.838    23216967.418    95069602.3754   23216967.824  
                
  20867973.281   111590439.588    20867977.934    86792560.766    20867977.836  
  20867972.586  
  22271715.688   117038692.550    22271722.363    91199033.8324   22271723.184  
                
  20552461.750   108003931.744    20552464.875    84158923.7704                 
                
  19188799.562   102683148.737    19188803.859    79864676.776    19188803.680  
  19188798.746  
  22849766.648   120076355.754    22849775.180    93566027.7714   22849775.738  
                
  21939526.477   117114698.237    21939531.809    91089209.693    21939531.176  
  21939525.270  
  22456742.961   119707052.371    22456749.758    93105465.368    22456750.035  
  22456742.023  
  24963786.125   131185573.713    24963790.562   102222537.7744                 
                
  22549406.172   120539514.972    22549413.195    93752990.553    22549412.223  
  22549404.781  
 21  8  9  0 47 20.0000000  0 17G17G22R15R16R 8G14G 1G24R24G 3G19R17
                                G 6R18R14G21R 1
  20431063.773   107365987.455    20431068.582    83661823.2424   20431068.895  
                
  22865482.688   120158955.146    22865485.000    93630378.6324                 
                
  19722060.352   105388705.116    19722065.254    81968987.601    19722064.805  
  19722059.977  
  21426220.203   114455045.042    21426224.027    89020573.612    21426222.754  
  21426219.418  
  22789968.000   122039240.966    22789972.242    94919408.715    22789972.301  
  22789967.441  
  21153573.133   111162782.646    21153579.164    86620369.6794   21153579.387  
                
  22170334.258   116505894.409    22170342.668    90783848.9384   22170342.750  
                
  23217002.305   122006175.574    23217010.586    95069779.0554   23217010.973  
                
  20873526.430   111620134.795    20873531.070    86815657.035    20873530.980  
  20873525.730  
  22269714.258   117028174.923    22269720.844    91190838.2744   22269721.691  
                
  20549262.688   107987120.542    20549265.801    84145824.1344                 
                
  19187840.281   102678015.436    19187844.582    79860684.206    19187844.398  
  19187839.480  
  22843376.172   120042773.643    22843384.684    93539859.9004   22843385.281  
                
  21933309.578   117081512.077    21933314.910    91063398.245    21933314.281  
  21933308.395  
  22464992.000   119751024.357    22464998.836    93139665.799    22464999.051  
  22464991.078  
  24969954.375   131217987.917    24969958.895   102247795.5814                 
                
  22545004.695   120515986.755    22545011.738    93734690.847    22545010.777  
  22545003.250  
 21  8  9  0 47 30.0000000  0 17G17G22R15R16R 8G14G 1G24R24G 3G19R17
                                G 6R18R14G21R 1
  20431362.898   107367559.376    20431367.699    83663048.1184   20431368.023  
                
  22866992.953   120166891.698    22866995.293    93636562.9644                 
                
  19724796.109   105403324.158    19724801.012    81980357.963    19724800.574  
  19724795.746  
  21420792.195   114426049.692    21420796.039    88998021.669    21420794.746  
  21420791.406  
  22791084.117   122045217.714    22791088.336    94924057.287    22791088.395  
  22791083.605  
  21157979.305   111185937.183    21157985.383    86638412.1734   21157985.570  
                
  22176409.672   116537820.883    22176418.098    90808726.7054   22176418.160  
                
  23217058.109   122006468.833    23217066.406    95070007.5754   23217066.770  
                
  20879085.234   111649860.288    20879089.879    86838776.851    20879089.805  
  20879084.504  
  22267725.648   117017724.712    22267732.160    91182695.2454   22267733.055  
                
  20546071.531   107970350.929    20546074.633    84132756.9044                 
                
  19186892.039   102672941.184    19186896.348    79856737.566    19186896.148  
  19186891.242  
  22836991.094   120009219.975    22836999.613    93513714.1844   22837000.238  
                
  21927098.508   117048357.091    21927103.859    91037611.075    21927103.242  
  21927097.320  
  22473245.875   119795022.515    22473252.801    93173886.566    22473253.004  
  22473245.023  
  24976123.328   131250405.946    24976127.910   102273056.3684                 
                
  22540616.156   120492527.655    22540623.207    93716444.893    22540622.266  
  22540614.637  
 21  8  9  0 47 40.0000000  0 17G17G22R15R16R 8G14G 1G24R24G 3G19R17
                                G 6R18R14G21R 1
  20431669.070   107369168.292    20431673.867    83664301.8214   20431674.199  
                
  22868515.344   120174891.872    22868517.672    93642796.8594                 
                
  19727548.203   105418030.446    19727553.094    81991796.193    19727552.684  
  19727547.859  
  21415376.211   114397118.468    21415380.047    88975519.615    21415378.746  
  21415375.410  
  22792216.641   122051282.304    22792220.840    94928774.193    22792220.891  
  22792216.148  
  21162394.852   111209141.019    21162400.938    86656493.0624   21162401.129  
                
  22182491.500   116569781.050    22182499.926    90833630.7194   22182499.965  
                
  23217126.656   122006829.013    23217134.965    95070288.2094   23217135.312  
                
  20884649.758   111679616.290    20884654.422    86861920.404    20884654.352  
  20884649.051  
  22265749.945   117007342.285    22265756.422    91174605.0554   22265757.324  
                
  20542888.367   107953623.291    20542891.457    84119722.3844                 
                
  19185954.859   102667926.110    19185959.160    79852836.948    19185958.953  
  19185954.066  
  22830611.508   119975695.129    22830620.078    93487590.9434   22830620.672  
                
  21920893.359   117015233.674    21920898.641    91011848.429    21920898.086  
  21920892.164  
  22481504.750   119839046.972    22481511.691    93208127.770    22481511.898  
  22481503.949  
  24982293.078   131282828.118    24982297.766   102298320.3844                 
                
  22536240.672   120469138.301    22536247.746    93698253.193    22536246.812  
  22536239.145  
 21  8  9  0 47 50.0000000  0 17G17G22R15R16R 8G14G 1G24R24G 3G19R17
                                G 6R18R14G21R 1
  20431982.102   107370813.306    20431986.895    83665583.6534   20431987.238  
                
  22870049.648   120182954.787    22870051.977    93649079.6444                 
                
  19730316.438   105432823.041    19730321.336    82003301.539    19730320.926  
  19730316.098  
  21409972.148   114368250.977    21409975.969    88953067.130    21409974.652  
  21409971.348  
  22793365.336   122057433.509    22793369.543    94933558.471    22793369.574  
  22793364.820  
  21166819.602   111232393.197    21166825.672    86674611.6304   21166825.891  
                
  22188579.555   116601773.957    22188587.961    90858560.2454   22188588.000  
                
  23217207.758   122007255.176    23217216.055    95070620.2864   23217216.406  
                
  20890219.828   111709401.946    20890224.508    86885087.019    20890224.430  
  20890219.113  
  22263786.992   116997026.865    22263793.438    91166567.0684   22263794.324  
                
  20539713.023   107936936.763    20539716.098    84106719.8944                 
                
  19185028.578   102662969.435    19185032.875    79848981.760    19185032.672  
  19185027.789  
  22824237.289   119942198.389    22824245.879    93461489.5914   22824246.441  
                
  21914693.953   116982140.917    21914699.184    90986109.630    21914698.664  
  21914692.758  
  22489768.375   119883096.663    22489775.312    93242388.612    22489775.520  
  22489767.590  
  24988463.414   131315253.602    24988468.219   102323586.9124                 
                
  22531878.109   120445818.027    22531885.172    93680115.198    22531884.266  
  22531876.566  
 21  8  9  0 48  0.0000000  0 17G17G22R15R16R 8G14G 1G24R24G 3G19R17
                                G 6R18R14G21R 1
  20432302.180   107372495.277    20432306.980    83666894.2784   20432307.309  
                
  22871596.047   120191081.226    22871598.383    93655411.9274                 
                
  19733100.961   105447702.635    19733105.887    82014874.550    19733105.473  
  19733100.609  
  21404580.203   114339448.234    21404584.012    88930664.992    21404582.727  
  21404579.422  
  22794530.422   122063672.484    22794534.660    94938410.999    22794534.660  
  22794529.832  
  21171253.719   111255694.520    21171259.805    86692768.5054   21171260.020  
                
  22194673.984   116633800.354    22194682.336    90883515.8574   22194682.422  
                
  23217301.578   122007748.171    23217309.848    95071004.4444   23217310.215  
                
  20895795.555   111739217.852    20895800.254    86908277.168    20895800.176  
  20895794.852  
  22261836.953   116986779.359    22261843.410    91158581.9924   22261844.266  
                
  20536545.680   107920292.240    20536548.758    84093750.1454                 
                
  19184113.391   102658072.013    19184117.691    79845172.655    19184117.484  
  19184112.598  
  22817868.586   119908730.627    22817877.188    93435410.8154   22817877.730  
                
  21908500.508   116949079.880    21908505.750    90960395.506    21908505.219  
  21908499.332  
  22498036.953   119927172.357    22498043.828    93276669.702    22498044.062  
  22498036.102  
  24994634.539   131347683.048    24994639.430   102348856.6134                 
                
  22527528.633   120422567.578    22527535.699    93662031.540    22527534.793  
  22527527.074  
 21  8  9  0 48 10.0000000  0 17G17G22R15R16R 8G14G 1G24R24G 3G19R17
                                G 6R18R14G21R 1
  20432629.180   107374213.687    20432633.988    83668233.2994   20432634.316  
                
  22873154.430   120199270.580    22873156.766    93661793.2334                 
                
  19735901.688   105462668.838    19735906.633    82026514.923    19735906.207  
  19735901.340  
  21399200.328   114310709.900    21399204.113    88908312.965    21399202.867  
  21399199.551  
  22795711.734   122069998.354    22795715.996    94943331.136    22795716.000  
  22795711.074  
  21175697.062   111279044.431    21175703.195    86710963.2264   21175703.363  
                
  22200774.664   116665859.566    22200782.988    90908497.0644   22200783.078  
                
  23217408.016   122008307.477    23217416.254    95071440.2594   23217416.645  
                
  20901376.852   111769063.504    20901381.551    86931490.442    20901381.469  
  20901376.156  
  22259899.742   116976599.233    22259906.242    91150649.4364   22259907.043  
                
  20533386.219   107903689.179    20533389.277    84080812.6944                 
                
  19183209.148   102653233.252    19183213.461    79841409.174    19183213.250  
  19183208.348  
  22811505.289   119875291.324    22811513.926    93409354.2284   22811514.461  
                
  21902312.875   116916049.944    21902318.148    90934705.586    21902317.594  
  21902311.715  
  22506310.242   119971273.463    22506317.082    93310970.555    22506317.336  
  22506309.363  
  25000806.344   131380115.859    25000811.270   102374128.9194                 
                
  22523192.172   120399386.800    22523199.191    93644002.039    22523198.336  
  22523190.609  
 21  8  9  0 48 20.0000000  0 17G17G22R15R16R 8G14G 1G24R24G 3G19R17
                                G 6R18R14G21R 1
  20432963.102   107375968.447    20432967.922    83669600.6444   20432968.234  
                
  22874724.758   120207522.772    22874727.137    93668223.5064                 
                
  19738718.586   105477721.484    19738723.547    82038222.534    19738723.117  
  19738718.238  
  21393832.453   114282035.711    21393836.238    88886010.826    21393834.953  
  21393831.668  
  22796909.312   122076411.279    22796913.605    94948318.960    22796913.590  
  22796908.621  
  21180149.641   111302442.824    21180155.797    86729195.7134   21180155.945  
                
  22206881.562   116697951.504    22206889.898    90933503.7494   22206889.973  
                
  23217527.055   122008933.027    23217535.285    95071927.6864   23217535.676  
                
  20906963.672   111798938.766    20906968.383    86954726.761    20906968.305  
  20906962.984  
  22257975.359   116966486.534    22257981.891    91142769.4234   22257982.648  
                
  20530234.648   107887127.618    20530237.691    84067907.5834                 
                
  19182315.852   102648453.073    19182320.184    79837691.255    19182319.957  
  19182315.035  
  22805147.414   119841880.557    22805156.062    93383319.8674   22805156.602  
                
  21896131.070   116883051.084    21896136.309    90909039.805    21896135.766  
  21896129.926  
  22514588.242   120015399.688    22514595.043    93345290.931    22514595.309  
  22514587.332  
  25006978.766   131412551.986    25006983.738   102399403.7864                 
                
  22518868.742   120376275.712    22518875.727    93626026.739    22518874.887  
  22518867.191  
 21  8  9  0 48 30.0000000  0 17G17G22R15R16R 8G14G 1G24R24G 3G19R17
                                G 6R18R14G21R 1
  20433303.984   107377759.796    20433308.812    83670996.4964   20433309.121  
                
  22876307.086   120215838.041    22876309.512    93674702.9434                 
                
  19741551.688   105492860.717    19741556.652    82049997.488    19741556.223  
  19741551.363  
  21388476.711   114253426.278    21388480.492    88863759.047    21388479.195  
  21388475.930  
  22798123.141   122082911.256    22798127.469    94953374.477    22798127.441  
  22798122.445  
  21184611.477   111325889.887    21184617.605    86747466.1404   21184617.773  
                
  22212994.727   116730076.293    22213003.070    90958536.0474   22213003.141  
                
  23217658.750   122009625.048    23217666.992    95072466.9244   23217667.387  
                
  20912556.031   111828843.617    20912560.754    86977986.081    20912560.676  
  20912555.324  
  22256063.867   116956441.592    22256070.434    91134942.1904   22256071.133  
                
  20527091.047   107870607.907    20527094.074    84055035.0854                 
                
  19181433.555   102643731.720    19181437.887    79834019.086    19181437.660  
  19181432.723  
  22798795.023   119808498.636    22798803.613    93357307.9914   22798804.223  
                
  21889955.148   116850083.665    21889960.355    90883398.493    21889959.840  
  21889954.027  
  22522870.969   120059551.346    22522877.809    93379631.104    22522878.039  
  22522870.059  
  25013151.828   131444991.540    25013156.836   102424681.3514                 
                
  22514558.438   120353234.641    22514565.383    93608105.909    22514564.535  
  22514556.945  
 21  8  9  0 48 40.0000000  0 17G17G22R15R16R 8G14G 1G24R24G 3G19R17
                                G 6R18R14G21R 1
  20433651.844   107379587.791    20433656.691    83672420.9124   20433656.988  
                
  22877901.422   120224216.402    22877903.898    93681231.5374                 
                
  19744401.000   105508086.547    19744405.977    82061839.795    19744405.539  
  19744400.660  
  21383133.125   114224881.799    21383136.918    88841557.793    21383135.621  
  21383132.328  
  22799353.320   122089498.701    22799357.625    94958498.038    22799357.617  
  22799352.633  
  21189082.570   111349385.592    21189088.676    86765774.4804   21189088.871  
                
  22219114.133   116762233.874    22219122.492    90983593.8934   22219122.535  
                
  23217803.086   122010383.581    23217811.352    95073057.9924   23217811.738  
                
  20918153.977   111858778.357    20918158.719    87001268.655    20918158.652  
  20918153.281  
  22254165.281   116946464.459    22254171.855    91127167.8034   22254172.531  
                
  20523955.406   107854130.050    20523958.422    84042195.1974                 
                
  19180562.266   102639069.284    19180566.605    79830392.746    19180566.375  
  19180561.422  
  22792448.156   119775145.697    22792456.723    93331318.6934   22792457.363  
                
  21883785.172   116817147.911    21883790.371    90857781.817    21883789.867  
  21883784.062  
  22531158.414   120103728.115    22531165.305    93413990.782    22531165.500  
  22531157.520  
  25019325.547   131477434.555    25019330.562   102449961.6164                 
                
  22510261.250   120330263.752    22510268.160    93590239.673    22510267.320  
  22510259.777  
 21  8  9  0 48 50.0000000  0 17G17G22R15R16R 8G14G 1G24R24G 3G19R17
                                G 6R18R14G21R 1
  20434006.703   107381452.585    20434011.562    83673873.9974   20434011.848  
                
  22879507.805   120232658.044    22879510.297    93687809.4414                 
                
  19747266.539   105523399.124    19747271.531    82073749.571    19747271.090  
  19747266.199  
  21377801.727   114196402.514    21377805.535    88819407.244    21377804.250  
  21377800.953  
  22800599.789   122096173.410    22800604.055    94963689.459    22800604.066  
  22800599.160  
  21193562.953   111372930.065    21193569.078    86784120.8044   21193569.258  
                
  22225239.789   116794424.303    22225248.160    91008677.3484   22225248.184  
                
  23217960.109   122011208.743    23217968.379    95073700.9784   23217968.773  
                
  20923757.508   111888742.928    20923762.289    87024574.421    20923762.215  
  20923756.805  
  22252279.648   116936555.349    22252286.230    91119446.4274   22252286.906  
                
  20520827.781   107837694.260    20520830.801    84029388.0974                 
                
  19179702.000   102634465.851    19179706.359    79826812.306    19179706.117  
  19179701.141  
  22786106.852   119741821.903    22786115.434    93305352.1204   22786116.059  
                
  21877621.102   116784243.666    21877626.270    90832189.643    21877625.785  
  21877620.020  
  22539450.688   120147930.155    22539457.527    93448370.114    22539457.719  
  22539449.766  
  25025499.938   131509881.169    25025504.965   102475244.6834                 
                
  22505977.242   120307363.314    22505984.070    93572428.210    22505983.297  
  22505975.797  
 21  8  9  0 49  0.0000000  0 17G17G22R15R16R 8G14G 1G24R24G 3G19R17
                                G 6R18R14G21R 1
  20434368.508   107383353.869    20434373.383    83675355.5134   20434373.656  
                
  22881126.148   120241162.562    22881128.645    93694436.3394                 
                
  19750148.227   105538798.001    19750153.207    82085726.476    19750152.770  
  19750147.883  
  21372482.555   114167988.470    21372486.395    88797307.433    21372485.098  
  21372481.785  
  22801862.500   122102935.069    22801866.676    94968948.540    22801866.734  
  22801861.914  
  21198052.539   111396522.962    21198058.703    86802504.8484   21198058.844  
                
  22231371.617   116826647.198    22231379.977    91033786.0804   22231380.008  
                
  23218129.750   122012100.251    23218138.027    95074395.6544   23218138.441  
                
  20929366.516   111918736.807    20929371.336    87047902.982    20929371.238  
  20929365.805  
  22250406.898   116926714.015    22250413.500    91111777.8554   22250414.148  
                
  20517708.102   107821300.257    20517711.125    84016613.5484                 
                
  19178852.734   102629921.264    19178857.105    79823277.621    19178856.863  
  19178851.871  
  22779771.062   119708527.067    22779779.656    93279408.0934   22779780.266  
                
  21871462.945   116751371.048    21871468.109    90806622.062    21871467.645  
  21871461.898  
  22547747.625   120192156.838    22547754.367    93482768.624    22547754.543  
  22547746.668  
  25031674.969   131542331.063    25031679.949   102500530.3104                 
                
  22501706.414   120284533.321    22501713.180    93554671.549    22501712.418  
  22501705.023  
 21  8  9  0 49 10.0000000  0 17G17G22R15R16R 8G14G 1G24R24G 3G19R17
                                G 6R18R14G21R 1
  20434737.281   107385291.818    20434742.168    83676865.6014   20434742.434  
                
  22882756.508   120249730.171    22882759.016    93701112.4044                 
                
  19753046.102   105554283.356    19753051.098    82097770.633    19753050.652  
  19753045.758  
  21367175.602   114139639.718    21367179.496    88775258.423    21367178.160  
  21367174.816  
  22803141.516   122109784.064    22803145.598    94974275.531    22803145.684  
  22803140.992  
  21202551.367   111420164.390    21202557.523    86820926.7364   21202557.680  
                
  22237509.633   116858902.652    22237517.973    91058920.1754   22237518.000  
                
  23218312.039   122013058.250    23218320.352    95075142.1404   23218320.777  
                
  20934981.070   111948760.378    20934985.914    87071254.636    20934985.809  
  20934980.363  
  22248547.094   116916940.725    22248553.699    91104162.3014   22248554.324  
                
  20514596.430   107804948.334    20514599.457    84003871.8064                 
                
  19178014.438   102625435.397    19178018.820    79819788.615    19178018.566  
  19178013.570  
  22773440.820   119675261.425    22773449.418    93253486.8274   22773450.020  
                
  21865310.734   116718530.197    21865315.930    90781079.197    21865315.422  
  21865309.703  
  22556049.227   120236408.393    22556055.867    93517186.481    22556056.086  
  22556048.215  
  25037850.641   131574784.312    25037855.516   102525818.5634                 
                
  22497448.766   120261773.822    22497455.535    93536969.715    22497454.738  
  22497447.383  
 21  8  9  0 49 20.0000000  0 17G17G22R15R16R 8G14G 1G24R24G 3G19R17
                                G 6R18R14G21R 1
  20435113.008   107387266.211    20435117.910    83678404.0864   20435118.164  
                
  22884398.812   120258360.607    22884401.340    93707837.4074                 
                
  19755960.094   105569854.809    19755965.109    82109881.754    19755964.652  
  19755959.734  
  21361880.875   114111356.270    21361884.812    88753260.191    21361883.441  
  21361880.094  
  22804436.773   122116719.951    22804440.762    94979670.114    22804440.902  
  22804436.297  
  21207059.383   111443854.084    21207065.492    86839386.2354   21207065.684  
                
  22243653.789   116891190.308    22243662.098    91084079.3794   22243662.145  
                
  23218506.961   122014082.516    23218515.332    95075940.2784   23218515.711  
                
  20940601.094   111978813.094    20940605.973    87094628.959    20940605.848  
  20940600.395  
  22246700.203   116907235.230    22246706.797    91096599.5894   22246707.434  
                
  20511492.727   107788638.252    20511495.758    83991162.6474                 
                
  19177187.102   102621008.125    19177191.477    79816345.180    19177191.234  
  19177186.227  
  22767116.109   119642024.821    22767124.707    93227588.1754   22767125.316  
                
  21859164.430   116685720.798    21859169.625    90755560.803    21859169.113  
  21859163.402  
  22564355.477   120280684.443    22564361.965    93551623.377    22564362.219  
  22564354.352  
  25044026.922   131607240.739    25044031.703   102551109.3014                 
                
  22493204.359   120239085.012    22493211.125    93519322.870    22493210.316  
  22493203.043  
 21  8  9  0 49 30.0000000  0 17G17G22R15R16R 8G14G 1G24R24G 3G19R17
                                G 6R18R14G21R 1
  20435495.656   107389277.044    20435500.562    83679970.9744   20435500.812  
                
  22886053.078   120267053.848    22886055.664    93714611.3604                 
                
  19758890.219   105585512.509    19758895.246    82122059.964    19758894.770  
  19758889.852  
  21356598.391   114083138.257    21356602.359    88731312.845    21356600.957  
  21356597.613  
  22805748.250   122123742.734    22805752.191    94985132.261    22805752.324  
  22805747.801  
  21211576.570   111467592.032    21211582.645    86857883.3184   21211582.867  
                
  22249804.070   116923510.110    22249812.336    91109263.6464   22249812.418  
                
  23218714.484   122015173.063    23218722.910    95076790.0534   23218723.266  
                
  20946226.547   112008894.900    20946231.441    87118025.915    20946231.309  
  20946225.859  
  22244866.242   116897597.695    22244872.820    91089089.8244   22244873.488  
                
  20508397.000   107772370.101    20508400.039    83978486.1704                 
                
  19176370.719   102616639.490    19176375.098    79812947.352    19176374.840  
  19176369.836  
  22760796.906   119608817.324    22760805.523    93201712.2264   22760806.129  
                
  21853024.031   116652942.989    21853029.133    90730066.951    21853028.703  
  21853022.996  
  22572666.180   120324984.887    22572672.621    93586079.273    22572672.906  
  22572665.047  
  25050203.766   131639700.221    25050208.445   102576402.3974                 
                
  22488973.141   120216466.773    22488979.816    93501730.918    22488979.062  
  22488971.887  
 21  8  9  0 49 40.0000000  0 17G17G22R15R16R 8G14G 1G24R24G 3G19R17
                                G 6R18R14G21R 1
  20435885.305   107391324.694    20435890.219    83681566.5504   20435890.469  
                
  22887719.344   120275810.219    22887722.004    93721434.4904                 
                
  19761836.484   105601256.489    19761841.500    82134305.279    19761841.035  
  19761836.105  
  21351328.242   114054986.137    21351332.238    88709416.760    21351330.844  
  21351327.492  
  22807075.984   122130852.652    22807079.871    94990662.198    22807080.023  
  22807075.527  
  21216102.992   111491378.485    21216109.090    86876418.2044   21216109.285  
                
  22255960.500   116955862.323    22255968.766    91134473.1384   22255968.844  
                
  23218934.672   122016330.197    23218943.129    95077691.7064   23218943.473  
                
  20951857.500   112039006.063    20951862.395    87141445.708    20951862.230  
  20951856.820  
  22243045.258   116888028.435    22243051.828    91081633.2624   22243052.508  
                
  20505309.297   107756144.132    20505312.355    83965842.5734                 
                
  19175565.359   102612329.847    19175569.738    79809595.408    19175569.488  
  19175564.477  
  22754483.328   119575639.328    22754491.945    93175859.2584   22754492.578  
                
  21846889.633   116620197.236    21846894.707    90704598.045    21846894.297  
  21846888.613  
  22580981.422   120369309.931    22580987.848    93620554.298    22580988.137  
  22580980.324  
  25056381.242   131672163.010    25056385.883   102601698.0894                 
                
  22484755.250   120193919.782    22484761.863    93484194.372    22484761.129  
  22484754.031  
 21  8  9  0 49 50.0000000  0 17G17G22R15R16R 8G14G 1G24R24G 3G19R17
                                G 6R18R14G21R 1
  20436281.867   107393408.623    20436286.781    83683190.3864   20436287.023  
                
  22889397.523   120284629.210    22889400.254    93728306.4144                 
                
  19764798.836   105617086.356    19764803.832    82146617.395    19764803.387  
  19764798.449  
  21346070.367   114026899.522    21346074.363    88687571.634    21346072.973  
  21346069.621  
  22808419.938   122138049.458    22808423.789    94996259.675    22808423.965  
  22808419.445  
  21220638.539   111515212.893    21220644.668    86894990.4604   21220644.828  
                
  22262122.992   116988246.282    22262131.277    91159707.3794   22262131.309  
                
  23219167.445   122017553.387    23219175.910    95078644.8454   23219176.250  
                
  20957493.828   112069146.004    20957498.711    87164887.884    20957498.539  
  20957493.168  
  22241237.203   116878527.035    22241243.797    91074229.5784   22241244.445  
                
  20502229.547   107739959.954    20502232.621    83953231.5194                 
                
  19174770.906   102608078.579    19174775.273    79806288.863    19174775.023  
  19174770.027  
  22748175.297   119542490.437    22748183.914    93150028.9684   22748184.547  
                
  21840761.125   116587482.909    21840766.227    90679153.576    21840765.812  
  21840760.117  
  22589301.172   120413658.958    22589307.555    93655047.971    22589307.863  
  22589300.125  
  25062559.242   131704628.541    25062563.875   102626995.8884                 
                
  22480550.609   120171443.517    22480557.211    93466712.823    22480556.418  
  22480549.438  
 21  8  9  0 50  0.0000000  0 17G17G22R15R16R 8G14G 1G24R24G 3G19R17
                                G 6R18R14G21R 1
  20436685.352   107395528.911    20436690.262    83684842.5634   20436690.500  
                
  22891087.625   120293510.777    22891090.402    93735227.1024                 
                
  19767777.234   105633002.017    19767782.203    82158996.233    19767781.781  
  19767776.844  
  21340824.812   113998878.763    21340828.789    88665777.710    21340827.418  
  21340824.078  
  22809780.094   122145332.977    22809783.930    95001924.624    22809784.070  
  22809779.570  
  21225183.219   111539095.268    21225189.336    86913600.0974   21225189.512  
                
  22268291.531   117020661.984    22268299.812    91184966.3734   22268299.836  
                
  23219412.797   122018842.703    23219421.254    95079649.5044   23219421.598  
                
  20963135.570   112099314.900    20963140.434    87188352.580    20963140.262  
  20963134.918  
  22239442.070   116869093.583    22239448.688    91066878.8324   22239449.328  
                
  20499157.766   107723817.645    20499160.867    83940653.1034                 
                
  19173987.398   102603885.809    19173991.746    79803027.820    19173991.504  
  19173986.543  
  22741872.828   119509370.762    22741881.457    93124221.4404   22741882.078  
                
  21834638.570   116554800.322    21834643.691    90653733.817    21834643.266  
  21834637.547  
  22597625.430   120458031.697    22597631.766    93689560.077    22597632.051  
  22597624.395  
  25068737.773   131737096.893    25068742.402   102652295.9404                 
                
  22476359.273   120149038.240    22476365.844    93449286.504    22476365.027  
  22476358.129  
 21  8  9  0 50 10.0000000  0 17G17G22R15R16R 8G14G 1G24R24G 3G19R17
                                G 6R18R14G21R 1
  20437095.867   107397686.196    20437100.770    83686523.5624   20437101.016  
                
  22892789.727   120302455.472    22892792.543    93742197.0074                 
                
  19770771.820   105649004.170    19770776.777    82171442.347    19770776.340  
  19770771.441  
  21335591.711   113970924.505    21335595.641    88644035.505    21335594.332  
  21335590.977  
  22811156.508   122152703.599    22811160.344    95007657.328    22811160.461  
  22811155.980  
  21229737.125   111563026.221    21229743.199    86932247.5714   21229743.414  
                
  22274466.195   117053109.976    22274474.496    91210250.5084   22274474.496  
                
  23219670.852   122020198.770    23219679.293    95080706.1754   23219679.652  
                
  20968782.773   112129513.063    20968787.625    87211840.038    20968787.465  
  20968782.113  
  22237660.000   116859728.761    22237666.656    91059581.5804   22237667.293  
                
  20496094.086   107707717.946    20496097.199    83928107.8774                 
                
  19173214.914   102599752.075    19173219.234    79799812.693    19173219.004  
  19173214.074  
  22735576.047   119476281.025    22735584.645    93098437.2264   22735585.266  
                
  21828522.078   116522150.114    21828527.207    90628339.230    21828526.766  
  21828521.043  
  22605954.297   120502428.830    22605960.504    93724091.169    22605960.848  
  22605953.254  
  25074916.953   131769568.607    25074921.598   102677598.6404                 
                
  22472181.359   120126704.888    22472187.859    93431916.129    22472187.086  
  22472180.207  
 21  8  9  0 50 20.0000000  0 17G17G22R15R16R 8G14G 1G24R24G 3G19R17
                                G 6R18R14G21R 1
  20437513.250   107399879.554    20437518.145    83688232.6754   20437518.398  
                
  22894503.703   120311462.503    22894506.570    93749215.4664                 
                
  19773782.406   105665091.790    19773787.379    82183954.939    19773786.914  
  19773782.035  
  21330370.930   113943035.975    21330374.844    88622344.434    21330373.555  
  21330370.156  
  22812549.086   122160160.750    22812552.934    95013457.346    22812553.051  
  22812548.547  
  21234300.109   111587004.817    21234306.176    86950932.1814   21234306.398  
                
  22280646.820   117085589.339    22280655.141    91235559.0814   22280655.121  
                
  23219941.430   122021620.706    23219949.871    95081814.1854   23219950.219  
                
  20974435.297   112159739.658    20974440.160    87235349.599    20974439.992  
  20974434.625  
  22235890.852   116850431.837    22235897.543    91052337.2204   22235898.148  
                
  20493038.359   107691660.014    20493041.477    83915595.2144                 
                
  19172453.312   102595676.584    19172457.621    79796642.869    19172457.391  
  19172452.492  
  22729284.820   119443220.429    22729293.434    93072675.7294   22729294.043  
                
  21822411.477   116489531.352    21822416.551    90602969.085    21822416.148  
  21822410.418  
  22614287.570   120546849.355    22614293.664    93758640.463    22614294.047  
  22614286.531  
  25081096.602   131802042.837    25081101.250   102702903.1994                 
                
  22468016.703   120104442.542    22468023.117    93414600.977    22468022.410  
  22468015.570  
 21  8  9  0 50 30.0000000  0 17G17G22R15R16R 8G14G 1G24R24G 3G19R17
                                G 6R18R14G21R 1
  20437937.680   107402109.925    20437942.566    83689970.6284   20437942.832  
                
  22896229.695   120320532.660    22896232.586    93756283.1214                 
                
  19776809.125   105681265.646    19776814.082    82196534.597    19776813.613  
  19776808.734  
  21325162.672   113915214.397    21325166.590    88600705.447    21325165.309  
  21325161.883  
  22813957.930   122167704.960    22813961.840    95019325.069    22813961.945  
  22813957.387  
  21238872.305   111611031.794    21238878.402    86969654.4914   21238878.598  
                
  22286833.539   117118100.729    22286841.852    91260892.6294   22286841.852  
                
  23220224.711   122023109.324    23220233.168    95082974.1414   23220233.500  
                
  20980093.289   112189995.435    20980098.176    87258881.849    20980098.000  
  20980092.605  
  22234134.773   116841203.601    22234141.477    91045146.3854   22234142.078  
                
  20489990.750   107675644.699    20489993.875    83903115.7474                 
                
  19171702.734   102591660.090    19171707.031    79793518.927    19171706.797  
  19171701.918  
  22722999.297   119410189.831    22723007.930    93046937.6104   22723008.508  
                
  21816306.945   116456945.042    21816312.031    90577624.193    21816311.637  
  21816305.883  
  22622625.367   120591293.822    22622631.352    93793208.374    22622631.746  
  22622624.285  
  25087276.859   131834520.301    25087281.551   102728210.3364                 
                
  22463865.531   120082252.091    22463871.891    93397341.737    22463871.191  
  22463864.461  
 21  8  9  0 50 40.0000000  0 17G17G22R15R16R 8G14G 1G24R24G 3G19R17
                                G 6R18R14G21R 1
  20438369.039   107404376.793    20438373.918    83691737.0184   20438374.184  
                
  22897967.594   120329665.403    22897970.508    93763399.5494                 
                
  19779851.875   105697525.181    19779856.793    82209180.899    19779856.340  
  19779851.488  
  21319966.828   113887459.148    21319970.781    88579118.046    21319969.473  
  21319966.008  
  22815382.977   122175335.979    22815386.945    95025260.330    22815387.035  
  22815382.488  
  21243453.602   111635106.672    21243459.742    86988414.1124   21243459.898  
                
  22293026.258   117150643.590    22293034.535    91286250.6894   22293034.574  
                
  23220520.570   122024664.104    23220529.051    95084185.6514   23220529.359  
                
  20985756.594   112220279.646    20985761.473    87282436.226    20985761.301  
  20985755.918  
  22232391.680   116832043.631    22232398.391    91038008.7474   22232399.016  
                
  20486951.141   107659671.497    20486954.273    83890669.0974                 
                
  19170963.086   102587702.072    19170967.375    79790440.469    19170967.133  
  19170962.273  
  22716719.391   119377188.817    22716728.004    93021222.5424   22716728.586  
                
  21810208.398   116424390.695    21810213.539    90552304.162    21810213.086  
  21810207.336  
  22630967.492   120635761.797    22630973.453    93827794.550    22630973.848  
  22630966.395  
  25093457.625   131867000.460    25093462.348   102753519.5554                 
                
  22459727.750   120060133.247    22459734.078    93380138.231    22459733.387  
  22459726.723  
 21  8  9  0 50 50.0000000  0 17G17G22R15R16R 8G14G 1G24R24G 3G19R17
                                G 6R18R14G21R 1
  20438807.430   107406680.508    20438812.305    83693532.1214   20438812.574  
                
  22899717.461   120338861.004    22899720.379    93770564.9474                 
                
  19782910.742   105713870.758    19782915.613    82221894.123    19782915.176  
  19782910.344  
  21314783.477   113859770.654    21314787.492    88557582.563    21314786.148  
  21314782.633  
  22816824.258   122183053.949    22816828.277    95031263.217    22816828.348  
  22816823.781  
  21248044.055   111659229.647    21248050.184    87007211.2254   21248050.355  
                
  22299225.008   117183218.117    22299233.277    91311633.4324   22299233.328  
                
  23220829.086   122026285.343    23220837.539    95085448.9504   23220837.855  
                
  20991425.312   112250592.775    20991430.203    87306013.102    20991430.023  
  20991424.648  
  22230661.648   116822952.265    22230668.387    91030924.5794   22230669.023  
                
  20483919.625   107643740.782    20483922.773    83878255.5564                 
                
  19170234.422   102583802.826    19170238.699    79787407.730    19170238.461  
  19170233.594  
  22710445.188   119344217.749    22710453.770    92995530.8184   22710454.375  
                
  21804115.883   116391868.481    21804121.066    90527009.119    21804120.578  
  21804114.812  
  22639314.086   120680253.345    22639319.992    93862399.062    22639320.363  
  22639312.918  
  25099638.922   131899483.562    25099643.676   102778831.0064                 
                
  22455603.406   120038086.412    22455609.695    93362990.713    22455609.023  
  22455602.367  
 21  8  9  0 51  0.0000000  0 17G17G22R15R16R 8G14G 1G24R24G 3G19R17
                                G 6R18R14G21R 1
  20439252.898   107409021.468    20439257.766    83695356.2454   20439258.039  
                
  22901479.391   120348119.958    22901482.293    93777779.7184                 
                
  19785985.758   105730302.665    19785990.613    82234674.486    19785990.184  
  19785985.359  
  21309612.758   113832149.617    21309616.801    88536099.532    21309615.422  
  21309611.906  
  22818281.852   122190859.366    22818285.941    95037334.104    22818286.020  
  22818281.289  
  21252643.766   111683401.202    21252649.848    87026046.2004   21252650.062  
                
  22305429.867   117215824.741    22305438.156    91337041.1724   22305438.191  
                
  23221150.336   122027973.520    23221158.738    95086764.4044   23221159.090  
                
  20997099.492   112280935.162    20997104.391    87329612.725    20997104.195  
  20997098.844  
  22228944.781   116813930.110    22228951.551    91023894.3294   22228952.172  
                
  20480896.305   107627853.112    20480899.457    83865875.5574                 
                
  19169516.836   102579962.889    19169521.102    79784421.108    19169520.875  
  19169516.000  
  22704176.805   119311277.245    22704185.344    92969862.8994   22704185.965  
                
  21798029.547   116359379.228    21798034.766    90501739.721    21798034.254  
  21798028.484  
  22647665.148   120724768.867    22647671.027    93897022.216    22647671.391  
  22647663.953  
  25105820.852   131931970.209    25105825.699   102804145.2774                 
                
  22451492.688   120016112.454    22451498.957    93345899.861    22451498.297  
  22451491.617  
 21  8  9  0 51 10.0000000  0 17G17G22R15R16R 8G14G 1G24R24G 3G19R17
                                G 6R18R14G21R 1
  20439705.211   107411398.407    20439710.070    83697208.4004   20439710.344  
                
  22903253.109   120357440.937    22903256.000    93785042.7994                 
                
  19789076.680   105746819.558    19789081.531    82247520.951    19789081.082  
  19789076.305  
  21304454.500   113804595.147    21304458.551    88514668.279    21304457.141  
  21304453.656  
  22819755.508   122198750.918    22819759.699    95043471.968    22819759.727  
  22819754.863  
  21257252.453   111707619.989    21257258.516    87044917.9704   21257258.746  
                
  22311640.555   117248462.066    22311648.875    91362472.8504   22311648.902  
                
  23221484.078   122029727.356    23221492.438    95088131.0264   23221492.820  
                
  21002778.867   112311305.367    21002783.758    87353233.998    21002783.574  
  21002778.230  
  22227240.844   116804975.913    22227247.645    91016917.0284   22227248.254  
                
  20477880.906   107612007.164    20477884.074    83853528.0664                 
                
  19168810.086   102576180.911    19168814.348    79781479.578    19168814.129  
  19168809.242  
  22697913.992   119278366.066    22697922.531    92944217.8464   22697923.156  
                
  21791949.133   116326921.580    21791954.395    90476494.916    21791953.887  
  21791948.066  
  22656020.445   120769306.929    22656026.277    93931662.913    22656026.645  
  22656019.219  
  25112003.188   131964458.909    25112008.078   102829461.0644                 
                
  22447395.383   119994210.061    22447401.672    93328864.682    22447401.043  
  22447394.270  
 21  8  9  0 51 20.0000000  0 17G17G22R15R16R 8G14G 1G24R24G 3G19R17
                                G 6R18R14G21R 1
  20440164.367   107413811.281    20440169.215    83699088.5634   20440169.496  
                
  22905038.625   120366823.841    22905041.516    93792354.1584                 
                
  19792183.500   105763421.421    19792188.340    82260433.510    19792187.887  
  19792183.121  
  21299308.648   113777106.954    21299312.703    88493288.590    21299311.285  
  21299307.824  
  22821245.281   122206728.666    22821249.559    95049676.887    22821249.566  
  22821244.547  
  21261870.117   111731885.917    21261876.207    87063826.4644   21261876.418  
                
  22317857.070   117281129.981    22317865.410    91387928.3584   22317865.418  
                
  23221830.297   122031546.751    23221838.629    95089548.7464   23221839.027  
                
  21008463.438   112341703.283    21008468.316    87376876.816    21008468.148  
  21008462.820  
  22225549.844   116796089.648    22225556.676    91009992.6734   22225557.281  
                
  20474873.461   107596202.956    20474876.637    83841213.1114                 
                
  19168114.148   102572456.833    19168118.422    79778583.074    19168118.184  
  19168113.289  
  22691656.789   119245484.234    22691665.316    92918595.6524   22691665.953  
                
  21785874.648   116294495.637    21785879.875    90451274.735    21785879.379  
  21785873.582  
  22664379.828   120813867.337    22664385.723    93966320.967    22664386.098  
  22664378.684  
  25118185.984   131996949.601    25118191.141   102854778.4904                 
                
  22443311.445   119972379.254    22443317.805    93311885.188    22443317.160  
  22443310.355  
 21  8  9  0 51 30.0000000  0 17G17G22R15R16R 8G14G 1G24R24G 3G19R17
                                G 6R18R14G21R 1
  20440630.383   107416260.192    20440635.223    83700996.8054   20440635.508  
                
  22906835.945   120376268.819    22906838.840    93799713.8734                 
                
  19795306.227   105780108.254    19795311.035    82273412.141    19795310.594  
  19795305.855  
  21294175.258   113749685.371    21294179.297    88471960.694    21294177.891  
  21294174.445  
  22822751.125   122214792.454    22822755.488    95055948.726    22822755.469  
  22822750.340  
  21266496.750   111756198.991    21266502.855    87082771.6994   21266503.051  
                
  22324079.398   117313828.408    22324087.758    91413407.6334   22324087.754  
                
  23222189.008   122033431.782    23222197.320    95091017.6124   23222197.727  
                
  21014153.203   112372128.965    21014158.086    87400541.227    21014157.906  
  21014152.609  
  22223871.789   116787271.449    22223878.656    91003121.3524   22223879.250  
                
  20471873.992   107580440.647    20471877.168    83828930.7934                 
                
  19167429.023   102568790.634    19167433.301    79775731.583    19167433.059  
  19167428.145  
  22685405.203   119212631.875    22685413.715    92892996.4264   22685414.348  
                
  21779806.094   116262101.340    21779811.301    90426079.171    21779810.832  
  21779805.023  
  22672743.531   120858450.119    22672749.391    94000996.437    22672749.758  
  22672742.359  
  25124369.172   132029442.183    25124374.211   102880097.3134                 
                
  22439240.961   119950620.185    22439247.348    93294961.493    22439246.695  
  22439239.875  
 21  8  9  0 51 40.0000000  0 17G17G22R15R16R 8G14G 1G24R24G 3G19R17
                                G 6R18R14G21R 1
  20441103.344   107418745.598    20441108.172    83702933.4834   20441108.457  
                
  22908645.156   120385776.190    22908648.062    93807122.2304                 
                
  19798444.922   105796880.418    19798449.715    82286457.158    19798449.297  
  19798444.566  
  21289054.492   113722331.120    21289058.508    88450685.171    21289057.145  
  21289053.664  
  22824273.148   122222942.777    22824277.555    95062287.874    22824277.512  
  22824272.355  
  21271132.445   111780559.645    21271138.512    87101754.0224   21271138.730  
                
  22330307.617   117346557.762    22330315.973    91438911.0314   22330315.977  
                
  23222560.305   122035382.929    23222568.602    95092537.9874   23222569.023  
                
  21019848.227   112402582.770    21019853.102    87424227.507    21019852.934  
  21019847.645  
  22222206.797   116778521.857    22222213.711    90996303.4964   22222214.270  
                
  20468882.602   107564720.798    20468885.781    83816681.5614                 
                
  19166754.797   102565182.739    19166759.070    79772925.449    19166758.824  
  19166753.918  
  22679159.336   119179809.578    22679167.809    92867420.6074   22679168.453  
                
  21773743.578   116229739.223    21773748.801    90400908.657    21773748.320  
  21773742.508  
  22681111.484   120903055.538    22681117.297    94035689.525    22681117.672  
  22681110.281  
  25130552.789   132061937.214    25130558.383   102905418.0914                 
                
  22435183.984   119928933.485    22435190.438    93278094.094    22435189.773  
  22435182.840  
 21  8  9  0 51 50.0000000  0 17G17G22R15R16R 8G14G 1G24R24G 3G19R17
                                G 6R18R14G21R 1
  20441583.328   107421267.898    20441588.145    83704898.9114   20441588.441  
                
  22910466.320   120395346.397    22910469.234    93814579.5114                 
                
  19801599.633   105813738.201    19801604.430    82299568.761    19801604.004  
  19801599.293  
  21283946.414   113695044.684    21283950.426    88429462.403    21283949.066  
  21283945.582  
  22825811.398   122231180.017    22825815.871    95068694.635    22825815.812  
  22825810.648  
  21275777.250   111804968.225    21275783.277    87120773.6824   21275783.531  
                
  22336541.773   117379318.338    22336550.137    91464438.7484   22336550.137  
                
  23222944.250   122037400.541    23222952.539    95094110.1474   23222952.961  
                
  21025548.594   112433065.092    21025553.465    87447935.980    21025553.305  
  21025548.031  
  22220554.938   116769841.284    22220561.898    90989539.4214   22220562.445  
                
  20465899.359   107549043.815    20465902.539    83804465.7344                 
                
  19166091.578   102561633.729    19166095.848    79770165.107    19166095.598  
  19166090.684  
  22672919.250   119147017.747    22672927.695    92841868.5414   22672928.348  
                
  21767687.203   116197409.872    21767692.441    90375763.608    21767691.938  
  21767686.121  
  22689483.711   120947683.973    22689489.527    94070400.504    22689489.883  
  22689482.500  
  25136736.836   132094434.958    25136742.422   102930740.9964                 
                
  22431140.711   119907319.948    22431147.215    93261283.578    22431146.492  
  22431139.539  
 21  8  9  0 52  0.0000000  0 17G17G22R15R16R 8G14G 1G24R24G 3G19R17
                                G 6R18R14G21R 1
  20442070.125   107423826.048    20442074.934    83706892.2814   20442075.219  
                
  22912299.203   120404978.269    22912302.137    93822084.8614                 
                
  19804770.164   105830680.535    19804774.941    82312746.122    19804774.520  
  19804769.828  
  21278850.828   113667824.990    21278854.836    88408291.539    21278853.488  
  21278849.945  
  22827365.641   122239502.804    22827370.172    95075167.921    22827370.066  
  22827364.984  
  21280430.961   111829423.622    21280436.988    87139829.8254   21280437.254  
                
  22342781.641   117412109.006    22342790.004    91489989.9104   22342790.008  
                
  23223340.633   122039483.575    23223348.891    95095733.2684   23223349.320  
                
  21031254.023   112463574.607    21031258.883    87471665.598    21031258.738  
  21031253.453  
  22218916.023   116761228.773    22218923.035    90982828.3774   22218923.582  
                
  20462924.086   107533408.689    20462927.273    83792282.5264                 
                
  19165439.172   102558142.576    19165443.430    79767449.769    19165443.188  
  19165438.273  
  22666684.758   119114255.397    22666693.191    92816339.4654   22666693.848  
                
  21761636.742   116165112.218    21761642.031    90350643.244    21761641.508  
  21761635.625  
  22697859.984   120992334.092    22697865.816    94105128.355    22697866.156  
  22697858.781  
  25142921.250   132126934.528    25142926.793   102956065.2764                 
                
  22427110.891   119885778.347    22427117.477    93244529.026    22427116.734  
  22427109.652  
 21  8  9  0 52 10.0000000  0 17G17G22R15R16R 8G14G 1G24R24G 3G19R17
                                G 6R18R14G21R 1
  20442564.008   107426421.371    20442568.801    83708914.6044   20442569.098  
                
  22914144.078   120414673.110    22914147.020    93829639.2844                 
                
  19807956.773   105847708.733    19807961.531    82325990.266    19807961.125  
  19807956.445  
  21273768.070   113640673.886    21273772.070    88387174.015    21273770.746  
  21273767.172  
  22828936.219   122247912.956    22828940.754    95081709.150    22828940.625  
  22828935.617  
  21285093.844   111853927.122    21285099.902    87158923.4514   21285100.133  
                
  22349027.461   117444930.970    22349035.832    91515565.4334   22349035.828  
                
  23223749.719   122041633.354    23223757.941    95097408.4084   23223758.406  
                
  21036964.812   112494112.712    21036969.645    87495417.456    21036969.520  
  21036964.234  
  22217290.320   116752685.678    22217297.371    90976171.4154   22217297.910  
                
  20459957.039   107517816.735    20459960.242    83780132.9544                 
                
  19164797.781   102554710.366    19164802.023    79764780.278    19164801.789  
  19164796.887  
  22660456.172   119081523.959    22660464.562    92790834.4614   22660465.211  
                
  21755592.484   116132847.670    21755597.793    90325548.615    21755597.266  
  21755591.363  
  22706240.469   121037007.088    22706246.367    94139874.006    22706246.711  
  22706239.363  
  25149106.281   132159436.920    25149111.758   102981391.8194                 
                
  22423094.820   119864310.315    22423101.500    93227831.695    22423100.746  
  22423093.566  
 21  8  9  0 52 20.0000000  0 17G17G22R15R16R 8G14G 1G24R24G 3G19R17
                                G 6R18R14G21R 1
  20443064.820   107429053.173    20443069.590    83710965.3544   20443069.895  
                
  22916000.812   120424430.289    22916003.758    93837242.2864                 
                
  19811159.289   105864821.973    19811164.031    82339300.562    19811163.648  
  19811158.965  
  21268697.977   113613590.363    21268701.980    88366109.058    21268700.668  
  21268697.090  
  22830522.906   122256409.392    22830527.422    95088317.492    22830527.305  
  22830522.344  
  21289765.719   111878477.959    21289771.805    87178053.9654   21289771.988  
                
  22355279.094   117477783.484    22355287.477    91541164.7914   22355287.465  
                
  23224171.359   122043849.102    23224179.566    95099134.9724   23224180.047  
                
  21042680.836   112524678.842    21042685.664    87519191.103    21042685.520  
  21042680.238  
  22215677.703   116744211.339    22215684.797    90969568.0434   22215685.312  
                
  20456998.078   107502267.309    20457001.289    83768016.5164                 
                
  19164167.281   102551336.433    19164171.496    79762156.100    19164171.270  
  19164166.398  
  22654233.352   119048822.816    22654241.656    92765353.0474   22654242.324  
                
  21749554.328   116100615.606    21749559.641    90300479.255    21749559.086  
  21749553.207  
  22714625.148   121081702.297    22714631.086    94174636.933    22714631.438  
  22714624.109  
  25155291.750   132191941.481    25155297.090   103006720.0414                 
                
  22419092.414   119842915.320    22419099.203    93211191.163    22419098.402  
  22419091.098  
 21  8  9  0 52 30.0000000  0 17G17G22R15R16R 8G14G 1G24R24G 3G19R17
                                G 6R18R14G21R 1
  20443572.602   107431721.548    20443577.359    83713044.6054   20443577.664  
                
  22917869.422   120434249.827    22917872.375    93844893.8644                 
                
  19814377.742   105882020.396    19814382.484    82352677.115    19814382.117  
  19814377.441  
  21263640.625   113586574.869    21263644.648    88345097.016    21263643.324  
  21263639.773  
  22832125.742   122264992.376    22832130.215    95094993.135    22832130.113  
  22832125.234  
  21294446.625   111903076.212    21294452.695    87197221.4234   21294452.879  
                
  22361536.539   117510666.545    22361544.922    91566787.9414   22361544.910  
                
  23224605.602   122046130.990    23224613.824    95100913.0644   23224614.281  
                
  21048402.023   112555272.590    21048406.836    87542986.235    21048406.703  
  21048401.414  
  22214078.211   116735805.952    22214085.332    90963018.3924   22214085.840  
                
  20454047.266   107486760.671    20454050.469    83755933.4274                 
                
  19163547.703   102548020.913    19163551.891    79759577.361    19163551.684  
  19163546.828  
  22648016.312   119016152.133    22648024.531    92739895.3804   22648025.250  
                
  21743522.258   116068416.086    21743527.496    90275435.170    21743526.965  
  21743521.117  
  22723014.078   121126419.517    22723019.945    94209416.963    22723020.293  
  22723013.000  
  25161477.664   132224448.329    25161482.961   103032050.0494                 
                
  22415103.664   119821593.399    22415110.543    93194607.454    22415109.727  
  22415102.273  
 21  8  9  0 52 40.0000000  0 17G17G22R15R16R 8G14G 1G24R24G 3G19R17
                                G 6R18R14G21R 1
  20444087.305   107434426.343    20444092.047    83715152.2344   20444092.363  
                
  22919749.828   120444131.473    22919752.773    93852593.8384                 
                
  19817612.062   105899303.604    19817616.812    82366119.600    19817616.434  
  19817611.758  
  21258595.961   113559627.234    21258599.992    88324137.754    21258598.656  
  21258595.105  
  22833744.656   122273661.556    22833749.062    95101735.814    22833748.984  
  22833744.184  
  21299136.500   111927721.599    21299142.539    87216425.6024   21299142.758  
                
  22367799.734   117543579.835    22367808.105    91592434.6484   22367808.105  
                
  23225052.367   122048478.740    23225060.645    95102742.4834   23225061.062  
                
  21054128.375   112585893.981    21054133.172    87566802.867    21054133.055  
  21054127.754  
  22212491.797   116727469.323    22212498.926    90956522.3204   22212499.461  
                
  20451104.531   107471296.515    20451107.730    83743883.4394                 
                
  19162938.992   102544763.603    19162943.168    79757043.900    19162942.957  
  19162938.133  
  22641805.062   118983511.761    22641813.238    92714461.3334   22641813.980  
                
  21737496.258   116036249.028    21737501.492    90250416.351    21737500.961  
  21737495.109  
  22731407.078   121171158.501    22731412.859    94244213.933    22731413.250  
  22731405.957  
  25167663.922   132256957.141    25167669.238   103057381.5764                 
                
  22411128.594   119800344.510    22411135.531    93178080.557    22411134.711  
  22411127.199  
 21  8  9  0 52 50.0000000  0 17G17G22R15R16R 8G14G 1G24R24G 3G19R17
                                G 6R18R14G21R 1
  20444608.961   107437167.679    20444613.688    83717288.3384   20444614.012  
                
  22921642.102   120454075.362    22921645.047    93860342.3374                 
                
  19820862.281   105916671.735    19820867.039    82379628.137    19820866.645  
  19820861.973  
  21253564.125   113532748.043    21253568.152    88303231.722    21253566.805  
  21253563.266  
  22835379.688   122282416.958    22835383.996    95108545.577    22835383.977  
  22835379.246  
  21303835.359   111952414.210    21303841.387    87235666.5904   21303841.625  
                
  22374068.703   117576523.397    22374077.078    91618104.9534   22374077.078  
                
  23225511.703   122050892.469    23225520.051    95104623.3074   23225520.398  
                
  21059859.898   112616542.988    21059864.695    87590640.979    21059864.586  
  21059859.266  
  22210918.508   116719201.640    22210925.641    90950079.9714   22210926.195  
                
  20448169.914   107455874.992    20448173.105    83731866.6694                 
                
  19162341.188   102541564.573    19162345.344    79754555.771    19162345.148  
  19162340.348  
  22635599.617   118950901.901    22635607.809    92689051.0694   22635608.531  
                
  21731476.383   116004114.643    21731481.691    90225422.971    21731481.137  
  21731475.195  
  22739804.109   121215919.309    22739809.887    94279027.873    22739810.285  
  22739802.965  
  25173850.555   132289468.057    25173855.914   103082714.7354                 
                
  22407167.273   119779169.051    22407174.262    93161610.752    22407173.398  
  22407165.840  
 21  8  9  0 53  0.0000000  0 17G17G22R15R16R 8G14G 1G24R24G 3G19R17
                                G 6R18R14G21R 1
  20445137.609   107439945.744    20445142.324    83719453.0624   20445142.648  
                
  22923546.227   120464081.611    22923549.137    93868139.3994                 
                
  19824128.398   105934124.872    19824133.164    82393202.797    19824132.762  
  19824128.086  
  21248545.094   113505937.307    21248549.125    88282378.929    21248547.750  
  21248544.215  
  22837030.844   122291258.781    22837035.094    95115422.539    22837035.078  
  22837030.402  
  21308543.227   111977154.193    21308549.273    87254944.4934   21308549.492  
                
  22380343.438   117609497.310    22380351.836    91643798.8994   22380351.820  
                
  23225983.617   122053372.378    23225992.004    95106555.6954   23225992.309  
                
  21065596.594   112647219.651    21065601.402    87614500.589    21065601.305  
  21065595.941  
  22209358.375   116711003.122    22209365.527    90943691.5264   22209366.078  
                
  20445243.445   107440496.326    20445246.637    83719883.2924                 
                
  19161754.297   102538423.997    19161758.430    79752113.095    19161758.242  
  19161753.477  
  22629400.016   118918322.829    22629408.207    92663664.7874   22629408.926  
                
  21725462.656   115972013.082    21725468.027    90200455.114    21725467.449  
  21725461.457  
  22748205.219   121260701.903    22748210.996    94313858.763    22748211.387  
  22748204.059  
  25180037.594   132321981.129    25180042.953   103108049.5844                 
                
  22403219.727   119758067.204    22403226.758    93145198.222    22403225.883  
  22403218.277  
 21  8  9  0 53 10.0000000  0 17G17G22R15R16R 8G14G 1G24R24G 3G19R17
                                G 6R18R14G21R 1
  20445673.195   107442760.254    20445677.898    83721646.1854   20445678.234  
                
  22925462.180   120474149.934    22925465.051    93875984.8464                 
                
  19827410.375   105951662.693    19827415.148    82406843.316    19827414.742  
  19827410.059  
  21243538.883   113479195.026    21243542.934    88261579.373    21243541.512  
  21243537.996  
  22838698.133   122300186.922    22838702.332    95122366.651    22838702.312  
  22838697.738  
  21313260.055   112001941.193    21313266.117    87274259.0234   21313266.324  
                
  22386623.891   117642501.263    22386632.320    91669516.2424   22386632.262  
                
  23226468.078   122055918.147    23226476.453    95108539.4134   23226476.762  
                
  21071338.398   112677923.611    21071343.223    87638381.436    21071343.113  
  21071337.766  
  22207811.383   116702873.565    22207818.559    90937356.8114   22207819.098  
                
  20442325.117   107425160.312    20442328.312    83707933.1544                 
                
  19161178.297   102535341.637    19161182.426    79749715.707    19161182.234  
  19161177.492  
  22623206.234   118885774.308    22623214.363    92638302.3204   22623215.133  
                
  21719455.031   115939944.045    21719460.457    90175512.551    21719459.852  
  21719453.836  
  22756610.297   121305505.823    22756616.105    94348706.230    22756616.504  
  22756609.164  
  25186225.039   132354496.128    25186230.312   103133385.9714                 
                
  22399285.969   119737039.025    22399293.004    93128842.994    22399292.105  
  22399284.539  
 21  8  9  0 53 20.0000000  0 17G17G22R15R16R 8G14G 1G24R24G 3G19R17
                                G 6R18R14G21R 1
  20446215.680   107445611.018    20446220.375    83723867.5564   20446220.707  
                
  22927389.898   120484280.183    22927392.738    93883878.5494                 
                
  19830708.148   105969285.018    19830712.902    82420549.571    19830712.531  
  19830707.844  
  21238545.461   113452521.095    21238549.555    88240833.000    21238548.094  
  21238544.559  
  22840381.438   122309200.881    22840385.562    95129377.509    22840385.555  
  22840381.105  
  21317985.781   112026775.008    21317991.828    87293610.0334   21317992.055  
                
  22392910.000   117675534.927    22392918.430    91695256.7574   22392918.355  
                
  23226965.023   122058529.618    23226973.371    95110574.3114   23226973.695  
                
  21077085.281   112708654.742    21077090.117    87662283.424    21077090.000  
  21077084.680  
  22206277.469   116694812.850    22206284.676    90931075.7354   22206285.207  
                
  20439414.875   107409866.905    20439418.078    83696016.2124                 
                
  19160613.133   102532317.342    19160617.258    79747363.487    19160617.059  
  19160612.352  
  22617018.242   118853256.260    22617026.316    92612963.5864   22617027.113  
                
  21713453.492   115907907.517    21713458.945    90150595.266    21713458.332  
  21713452.297  
  22765019.375   121350330.989    22765025.184    94383570.225    22765025.609  
  22765018.262  
  25192412.797   132387012.763    25192417.984   103158723.6204                 
                
  22395365.953   119716084.340    22395372.973    93112544.906    22395372.066  
  22395364.543  
 21  8  9  0 53 30.0000000  0 17G17G22R15R16R 8G14G 1G24R24G 3G19R17
                                G 6R18R14G21R 1
  20446765.102   107448498.252    20446769.789    83726117.3424   20446770.133  
                
  22929329.445   120494472.521    22929332.234    93891820.6164                 
                
  19834021.742   105986991.829    19834026.504    82434321.525    19834026.129  
  19834021.426  
  21233564.898   113425915.859    21233569.023    88220140.041    21233567.582  
  21233563.977  
  22842080.797   122318300.762    22842084.840    95136455.196    22842084.875  
  22842080.496  
  21322720.445   112051655.758    21322726.465    87312997.6224   21322726.723  
                
  22399201.789   117708598.438    22399210.172    91721020.5244   22399210.137  
                
  23227474.500   122061206.934    23227482.828    95112660.5294   23227483.164  
                
  21082837.258   112739413.098    21082842.086    87686206.579    21082841.969  
  21082836.668  
  22204756.703   116686821.215    22204763.957    90924848.4894   22204764.473  
                
  20436512.773   107394616.228    20436515.980    83684132.5724                 
                
  19160058.812   102529351.067    19160062.922    79745056.378    19160062.730  
  19160058.027  
  22610836.109   118820768.945    22610844.176    92587648.8084   22610844.965  
                
  21707458.094   115875903.775    21707463.539    90125703.479    21707462.914  
  21707456.883  
  22773432.391   121395177.134    22773438.176    94418450.532    22773438.633  
  22773431.312  
  25198600.867   132419531.245    25198606.035   103184062.6744                 
                
  22391459.773   119695203.469    22391466.781    93096304.238    22391465.855  
  22391458.391  
 21  8  9  0 53 40.0000000  0 17G17G22R15R16R 8G14G 1G24R24G 3G19R17
                                G 6R18R14G21R 1
  20447321.508   107451422.180    20447326.195    83728395.7264   20447326.535  
                
  22931280.820   120504727.030    22931283.574    93899811.1634                 
                
  19837351.203   106004783.418    19837355.984    82448159.423    19837355.602  
  19837350.871  
  21228597.281   113399379.735    21228601.398    88199500.844    21228599.980  
  21228596.344  
  22843796.281   122327487.077    22843800.281    95143600.096    22843800.344  
  22843795.934  
  21327464.078   112076583.645    21327470.113    87332421.9454   21327470.359  
                
  22405499.281   117741691.940    22405507.613    91746807.6684   22405507.625  
                
  23227996.555   122063950.321    23228004.895    95114798.2314   23228005.199  
                
  21088594.359   112770198.802    21088599.180    87710151.019    21088599.051  
  21088593.797  
  22203249.141   116678898.927    22203256.438    90918675.2844   22203256.930  
                
  20433618.852   107379408.560    20433622.055    83672282.4444                 
                
  19159515.406   102526443.183    19159519.508    79742794.693    19159519.324  
  19159514.621  
  22604659.891   118788312.653    22604667.910    92562358.2004   22604668.699  
                
  21701468.906   115843933.162    21701474.277    90100837.450    21701473.699  
  21701467.684  
  22781849.453   121440044.681    22781855.180    94453347.521    22781855.699  
  22781848.398  
  25204789.336   132452051.806    25204794.473   103209403.3414                 
                
  22387567.414   119674396.597    22387574.418    93080121.128    22387573.496  
  22387566.047  
 21  8  9  0 53 50.0000000  0 17G17G22R15R16R 8G14G 1G24R24G 3G19R17
                                G 6R18R14G21R 1
  20447884.859   107454382.591    20447889.543    83730702.5394   20447889.891  
                
  22933243.992   120515043.523    22933246.707    93907849.9944                 
                
  19840696.469   106022659.508    19840701.270    82462063.038    19840700.879  
  19840696.109  
  21223642.562   113372912.607    21223646.668    88178915.301    21223645.266  
  21223641.641  
  22845527.844   122336759.540    22845531.805    95150811.992    22845531.895  
  22845527.414  
  21332216.633   112101558.461    21332222.719    87351882.8224   21332222.926  
                
  22411802.430   117774815.175    22411810.699    91772617.9694   22411810.738  
                
  23228531.156   122066759.606    23228539.508    95116987.2824   23228539.785  
                
  21094356.516   112801011.583    21094361.316    87734116.516    21094361.195  
  21094355.961  
  22201754.750   116671045.890    22201762.070    90912556.0354   22201762.551  
                
  20430733.109   107364243.845    20430736.309    83660465.7854                 
                
  19158982.883   102523593.542    19158986.980    79740578.310    19158986.797  
  19158982.098  
  22598489.555   118755887.319    22598497.531    92537091.7084   22598498.344  
                
  21695485.859   115811995.365    21695491.219    90075996.932    21695490.652  
  21695484.660  
  22790270.438   121484933.158    22790276.125    94488260.763    22790276.691  
  22790269.387  
  25210978.133   132484574.105    25210983.223   103234745.3994                 
                
  22383688.953   119653663.984    22383695.934    93063995.771    22383694.992  
  22383687.570  
 21  8  9  0 54  0.0000000  0 17G17G22R15R16R 8G14G 1G24R24G 3G19R17
                                G 6R18R14G21R 1
  20448455.148   107457379.466    20448459.836    83733037.7684   20448460.188  
                
  22935218.938   120525421.916    22935221.625    93915937.0374                 
                
  19844057.508   106040619.827    19844062.324    82476032.167    19844061.922  
  19844057.129  
  21218700.742   113346514.379    21218704.836    88158383.341    21218703.449  
  21218699.840  
  22847275.430   122346117.899    22847279.344    95158090.695    22847279.461  
  22847274.969  
  21336978.078   112126580.004    21336984.199    87371380.1054   21336984.391  
                
  22418111.211   117807967.902    22418119.418    91798451.2594   22418119.465  
                
  23229078.258   122069634.630    23229086.598    95119227.5534   23229086.887  
                
  21100123.727   112831851.451    21100128.527    87758103.074    21100128.402  
  21100123.137  
  22200273.523   116663262.018    22200280.863    90906490.6854   22200281.332  
                
  20427855.523   107349122.013    20427858.723    83648682.5404                 
                
  19158461.211   102520801.989    19158465.316    79738407.103    19158465.125  
  19158460.418  
  22592325.086   118723492.844    22592333.051    92511849.2704   22592333.871  
                
  21689508.992   115780090.499    21689514.402    90051182.076    21689513.805  
  21689507.773  
  22798695.281   121529842.378    22798700.988    94523190.128    22798701.582  
  22798694.258  
  25217167.250   132517098.013    25217172.258   103260088.7174                 
                
  22379824.352   119633005.456    22379831.324    93047928.033    22379830.371  
  22379822.992  
 21  8  9  0 54 10.0000000  0 17G17G22R15R16R 8G14G 1G24R24G 3G19R17
                                G 6R18R14G21R 1
  20449032.375   107460412.829    20449037.062    83735401.4224   20449037.414  
                
  22937205.664   120535862.282    22937208.316    93924072.3774                 
                
  19847434.352   106058664.642    19847439.172    82490067.022    19847438.762  
  19847433.973  
  21213771.922   113320185.546    21213776.027    88137905.367    21213774.672  
  21213771.031  
  22849039.062   122355562.136    22849042.930    95165436.200    22849043.051  
  22849038.523  
  21341748.430   112151648.347    21341754.547    87390913.8664   21341754.746  
                
  22424425.602   117841150.159    22424433.730    91824307.5724   22424433.816  
                
  23229637.891   122072575.518    23229646.188    95121519.1504   23229646.512  
                
  21105895.961   112862718.253    21105900.777    87782110.575    21105900.656  
  21105895.328  
  22198805.477   116655547.467    22198812.828    90900479.3504   22198813.301  
                
  20424986.117   107334043.193    20424989.324    83636932.8144                 
                
  19157950.406   102518068.594    19157954.500    79736281.127    19157954.312  
  19157949.609  
  22586166.531   118691129.445    22586174.492    92486631.0474   22586175.309  
                
  21683538.297   115748218.632    21683543.703    90026392.875    21683543.125  
  21683537.047  
  22807124.008   121574772.322    22807129.730    94558135.629    22807130.355  
  22807123.000  
  25223356.688   132549623.633    25223361.578   103285433.3724                 
                
  22375973.664   119612421.339    22375980.633    93031918.153    22375979.660  
  22375972.316  
 21  8  9  0 54 20.0000000  0 17G17G22R15R16R 8G14G 1G24R24G 3G19R17
                                G 6R18R14G21R 1
  20449616.711   107463483.516    20449621.398    83737794.1644   20449621.746  
                
  22939204.375   120546365.504    22939207.008    93932256.7024                 
                
  19850827.141   106076794.650    19850831.988    82504168.135    19850831.566  
  19850826.754  
  21208856.328   113293927.348    21208860.457    88117482.332    21208859.094  
  21208855.445  
  22850818.953   122365093.453    22850822.785    95172849.452    22850822.902  
  22850818.320  
  21346527.867   112176764.380    21346533.980    87410484.7914   21346534.195  
                
  22430745.781   117874362.812    22430753.840    91850187.5654   22430753.953  
                
  23230210.234   122075583.163    23230218.508    95123862.7734   23230218.836  
                
  21111673.422   112893612.937    21111678.254    87806139.758    21111678.141  
  21111672.738  
  22197350.828   116647903.254    22197358.184    90894522.8194   22197358.676  
                
  20422125.078   107319008.337    20422128.277    83625217.3454                 
                
  19157450.633   102515394.219    19157454.723    79734201.063    19157454.523  
  19157449.836  
  22580014.078   118658798.134    22580022.066    92461437.8434   22580022.875  
                
  21677573.992   115716380.820    21677579.355    90001630.129    21677578.801  
  21677572.750  
  22815556.750   121619723.773    22815562.504    94593097.856    22815563.168  
  22815555.773  
  25229546.617   132582151.891    25229551.398   103310780.0644                 
                
  22372137.094   119591912.674    22372144.055    93015966.973    22372143.070  
  22372135.805  
 21  8  9  0 54 30.0000000  0 17G17G22R15R16R 8G14G 1G24R24G 3G19R17
                                G 6R18R14G21R 1
  20450207.617   107466588.750    20450212.312    83740213.8264   20450212.664  
                
  22941214.438   120556928.482    22941217.066    93940487.5804                 
                
  19854235.289   106095006.735    19854240.176    82518333.073    19854239.730  
  19854234.895  
  21203953.328   113267736.415    21203957.445    88097111.605    21203956.098  
  21203952.445  
  22852614.453   122374708.409    22852618.246    95180327.762    22852618.406  
  22852613.758  
  21351315.781   112201924.997    21351321.930    87430090.4504   21351322.121  
                
  22437071.141   117907602.712    22437079.137    91876088.7754   22437079.281  
                
  23230794.695   122078654.495    23230802.977    95126256.0084   23230803.301  
                
  21117455.508   112924532.386    21117460.395    87830188.205    21117460.277  
  21117454.852  
  22195908.977   116640326.314    22195916.324    90888618.7114   22195916.832  
                
  20419271.844   107304014.442    20419275.023    83613533.7904                 
                
  19156961.328   102512775.836    19156965.434    79732164.539    19156965.207  
  19156960.516  
  22573867.156   118626495.907    22573875.152    92436267.2784   22573875.957  
                
  21671615.453   115684573.780    21671620.754    89976891.323    21671620.223  
  21671614.211  
  22823992.969   121664693.641    22823998.738    94628074.406    22823999.402  
  22823991.977  
  25235736.438   132614679.688    25235741.129   103336126.3784                 
                
  22368314.094   119571476.485    22368321.023    93000072.158    22368320.047  
  22368312.863  
 21  8  9  0 54 40.0000000  0 17G17G22R15R16R 8G14G 1G24R24G 3G19R17
                                G 6R18R14G21R 1
  20450805.852   107469732.504    20450810.555    83742663.4954   20450810.902  
                
  22943236.641   120567555.264    22943239.289    93948768.1794                 
                
  19857659.539   106113304.889    19857664.434    82532564.968    19857663.973  
  19857659.145  
  21199063.742   113241617.129    21199067.852    88076796.605    21199066.520  
  21199062.848  
  22854426.344   122384411.126    22854430.117    95187874.350    22854430.301  
  22854425.570  
  21356112.938   112227134.176    21356119.125    87449733.9394   21356119.297  
                
  22443402.438   117940873.787    22443410.434    91902014.2784   22443410.547  
                
  23231392.031   122081793.533    23231400.348    95128702.0164   23231400.660  
                
  21123242.977   112955480.537    21123247.902    87854258.977    21123247.754  
  21123242.336  
  22194480.695   116632820.743    22194488.035    90882770.2284   22194488.543  
                
  20416427.148   107289065.479    20416430.301    83601885.2554                 
                
  19156483.242   102510217.463    19156487.352    79730174.696    19156487.105  
  19156482.426  
  22567726.555   118594226.864    22567734.543    92411122.5834   22567735.371  
                
  21665663.484   115652801.882    21665668.750    89952179.880    21665668.246  
  21665662.246  
  22832433.375   121709685.717    22832439.168    94663068.230    22832439.812  
  22832432.355  
  25241926.883   132647210.907    25241931.520   103361475.3634                 
                
  22364505.461   119551117.159    22364512.387    92984237.140    22364511.395  
  22364504.266  
 21  8  9  0 54 50.0000000  0 17G17G22R15R16R 8G14G 1G24R24G 3G19R17
                                G 6R18R14G21R 1
  20451410.984   107472912.480    20451415.703    83745141.4024   20451416.043  
                
  22945270.555   120578243.570    22945273.203    93957096.7184                 
                
  19861099.477   106131686.831    19861104.363    82546862.033    19861103.898  
  19861099.090  
  21194187.172   113215567.393    21194191.273    88056535.699    21194189.949  
  21194186.285  
  22856254.250   122394199.631    22856258.086    95195487.645    22856258.238  
  22856253.367  
  21360918.906   112252389.646    21360925.098    87469413.5224   21360925.266  
                
  22449739.219   117974173.715    22449747.203    91927962.2734   22449747.289  
                
  23232001.852   122084998.053    23232010.199    95131199.0284   23232010.492  
                
  21129035.383   112986455.033    21129040.340    87878350.252    21129040.184  
  21129034.785  
  22193065.602   116625384.393    22193072.922    90876975.6724   22193073.449  
                
  20413590.617   107274159.419    20413593.750    83590270.1484                 
                
  19156015.953   102507716.913    19156020.066    79728229.825    19156019.812  
  19156015.133  
  22561591.852   118561988.861    22561599.824    92386002.0674   22561600.652  
                
  21659717.711   115621062.995    21659722.934    89927494.082    21659722.453  
  21659716.465  
  22840877.523   121754697.681    22840883.312    94698077.529    22840883.945  
  22840876.480  
  25248117.656   132679743.360    25248122.188   103386825.3344                 
                
  22360710.766   119530832.336    22360717.672    92968460.040    22360716.688  
  22360709.617  
 21  8  9  0 55  0.0000000  0 17G17G22R15R16R 8G14G 1G24R24G 3G19R17
                                G 6R18R14G21R 1
  20452022.914   107476128.197    20452027.645    83747647.1554   20452027.977  
                
  22947316.062   120588992.815    22947318.699    93965472.7634                 
                
  19864554.969   106150151.936    19864559.879    82561223.784    19864559.410  
  19864554.574  
  21189323.555   113189586.812    21189327.660    88036328.591    21189326.332  
  21189322.680  
  22858098.016   122404073.038    22858101.926    95203166.988    22858102.059  
  22858097.066  
  21365733.562   112277690.796    21365739.730    87489128.6954   21365739.918  
                
  22456081.367   118007501.876    22456089.332    91953932.2614   22456089.422  
                
  23232624.008   122088267.467    23232632.359    95133746.6164   23232632.656  
                
  21134832.594   113017455.298    21134837.562    87902461.569    21134837.410  
  21134832.012  
  22191663.578   116618016.767    22191670.891    90871234.6664   22191671.434  
                
  20410762.141   107259295.682    20410765.254    83578688.0174                 
                
  19155559.352   102505273.518    19155563.469    79726329.403    19155563.199  
  19155558.527  
  22555462.977   118529781.428    22555470.922    92360905.3734   22555471.738  
                
  21653778.023   115589356.625    21653783.258    89902833.595    21653782.770  
  21653776.781  
  22849325.281   121799728.958    22849331.066    94733101.841    22849331.684  
  22849324.250  
  25254308.617   132712276.441    25254312.953   103412175.8304                 
                
  22356929.945   119510621.686    22356936.820    92952740.646    22356935.840  
  22356928.820  
 21  8  9  0 55 10.0000000  0 17G17G22R15R16R 8G14G 1G24R24G 3G19R17
                                G 6R18R14G21R 1
  20452641.703   107479379.941    20452646.445    83750180.9844   20452646.773  
                
  22949373.242   120599803.327    22949375.859    93973896.5354                 
                
  19868026.078   106168700.435    19868031.031    82575650.382    19868030.535  
  19868025.684  
  21184472.953   113163675.780    21184477.074    88016175.575    21184475.742  
  21184472.066  
  22859957.688   122414031.582    22859961.664    95210912.527    22859961.793  
  22859956.691  
  21370556.969   112303037.938    21370563.148    87508879.7054   21370563.328  
                
  22462428.945   118040858.523    22462436.891    91979924.4504   22462437.004  
                
  23233258.578   122091602.111    23233266.910    95136345.0384   23233267.227  
                
  21140634.648   113048481.429    21140639.648    87926592.993    21140639.480  
  21140634.094  
  22190274.703   116610718.209    22190282.008    90865547.4844   22190282.570  
                
  20407941.805   107244474.694    20407944.895    83567139.2014                 
                
  19155113.516   102502887.719    19155117.629    79724473.784    19155117.371  
  19155112.691  
  22549339.992   118497604.957    22549347.938    92335832.8064   22549348.730  
                
  21647844.484   115557683.048    21647849.699    89878198.602    21647849.238  
  21647843.258  
  22857776.641   121844779.505    22857782.406    94768141.156    22857783.047  
  22857775.613  
  25260499.867   132744810.407    25260503.918   103437526.9554                 
                
  22353163.062   119490485.553    22353169.898    92937079.202    22353168.918  
  22353161.941  
 21  8  9  0 55 20.0000000  0 17G17G22R15R16R 8G14G 1G24R24G 3G19R17
                                G 6R18R14G21R 1
  20453267.500   107482668.499    20453272.258    83752743.4934   20453272.566  
                
  22951442.203   120610675.829    22951444.770    93982368.6174                 
                
  19871512.914   106187333.037    19871517.898    82590142.403    19871517.379  
  19871512.516  
  21179635.578   113137835.460    21179639.703    87996077.545    21179638.355  
  21179634.703  
  22861833.414   122424076.062    22861837.461    95218724.900    22861837.570  
  22861832.402  
  21375389.266   112328431.740    21375395.480    87528667.0574   21375395.629  
                
  22468782.047   118074244.304    22468790.027    92005939.3294   22468790.117  
                
  23233905.680   122095002.685    23233913.988    95138994.8264   23233914.324  
                
  21146441.734   113079534.418    21146446.750    87950745.308    21146446.543  
  21146441.184  
  22188899.117   116603489.521    22188906.422    90859914.7464   22188906.992  
                
  20405129.734   107229697.188    20405132.797    83555624.2624                 
                
  19154678.562   102500560.203    19154682.672    79722663.492    19154682.418  
  19154677.758  
  22543223.055   118465460.261    22543231.004    92310785.0004   22543231.793  
                
  21641917.234   115526043.064    21641922.457    89853589.736    21641922.008  
  21641916.031  
  22866231.766   121889850.047    22866237.516    94803196.011    22866238.152  
  22866230.730  
  25266691.031   132777345.990    25266695.230   103462879.3804                 
                
  22349410.312   119470424.993    22349417.098    92921476.550    22349416.156  
  22349409.230  
 21  8  9  0 55 30.0000000  0 17G17G22R15R16R 8G14G 1G24R24G 3G19R17
                                G 6R18R14G21R 1
  20453900.289   107485993.813    20453905.062    83755334.6504   20453905.367  
                
  22953522.938   120621610.174    22953525.438    93990888.8774                 
                
  19875015.469   106206049.591    19875020.449    82604699.724    19875019.941  
  19875015.074  
  21174811.367   113112065.366    21174815.477    87976034.144    21174814.152  
  21174810.496  
  22863725.195   122434206.503    22863729.344    95226604.128    22863729.422  
  22863724.188  
  21380230.414   112353872.087    21380236.664    87548490.6994   21380236.785  
                
  22475140.680   118107659.057    22475148.719    92031976.7794   22475148.777  
                
  23234565.328   122098469.115    23234573.625    95141695.9484   23234573.996  
                
  21152253.766   113110613.966    21152258.758    87974918.297    21152258.566  
  21152253.203  
  22187536.844   116596330.713    22187544.137    90854336.4554   22187544.719  
                
  20402325.953   107214963.218    20402328.992    83544143.2474                 
                
  19154254.477   102498290.783    19154258.590    79720898.388    19154258.332  
  19154253.684  
  22537112.164   118433347.373    22537120.113    92285761.9834   22537120.922  
                
  21635996.273   115494436.591    21636001.523    89829006.950    21636001.066  
  21635995.094  
  22874690.625   121934940.522    22874696.371    94838266.368    22874697.023  
  22874689.555  
  25272882.227   132809883.213                                                  
                
  22345671.711   119450440.049    22345678.402    92905932.705    22345677.500  
  22345670.688  
 21  8  9  0 55 40.0000000  0 17G17G22R15R16R 8G14G 1G24R24G 3G19R17
                                G 6R18R14G21R 1
  20454539.984   107489355.427    20454544.773    83757954.0894   20454545.074  
                
  22955615.359   120632605.897    22955617.816    93999456.9694                 
                
  19878533.648   106224849.657    19878538.637    82619321.996    19878538.133  
  19878533.262  
  21170000.289   113086365.486    21170004.391    87956045.364    21170003.070  
  21169999.410  
  22865632.914   122444422.291    22865637.160    95234549.706    22865637.219  
  22865631.914  
  21385080.336   112379358.486    21385086.582    87568350.2244   21385086.703  
                
  22481504.719   118141102.253    22481512.809    92058036.3964   22481512.844  
                
  23235237.414   122102000.956    23235245.711    95144448.0274   23235246.074  
                
  21158070.695   113141719.615    21158075.672    87999111.568    21158075.473  
  21158070.098  
  22186187.781   116589241.353    22186195.066    90848812.2754   22186195.652  
                
  20399530.383   107200272.397    20399533.398    83532695.8564                 
                
  19153841.164   102496079.056    19153845.273    79719178.161    19153845.023  
  19153840.387  
  22531007.250   118401265.903    22531015.270    92260763.4424   22531016.047  
                
  21630081.539   115462863.363    21630086.785    89804449.994    21630086.309  
  21630080.383  
  22883153.086   121980050.329    22883158.863    94873351.763    22883159.508  
  22883151.980  
  25279073.617   132842421.367                                                  
                
  22341947.195   119430530.382    22341953.816    92890447.403    22341952.910  
  22341946.176  
 21  8  9  0 55 50.0000000  0 17G17G22R15R16R 8G14G 1G24R24G 3G19R17
                                G 6R18R14G21R 1
  20455186.570   107492753.227    20455191.371    83760601.7244   20455191.664  
                
  22957719.422   120643662.842    22957721.852    94008072.7704                 
                
  19882067.414   106243733.021    19882072.406    82634009.052    19882071.906  
  19882067.023  
  21165202.430   113060736.180    21165206.531    87936111.462    21165205.180  
  21165201.547  
  22867556.523   122454723.118    22867560.848    95242561.434    22867560.879  
  22867555.594  
  21389938.969   112404890.766    21389945.176    87588245.4984   21389945.328  
                
  22487874.133   118174573.675    22487882.254    92084118.0064   22487882.285  
                
  23235921.930   122105598.041    23235930.227    95147250.9504   23235930.586  
                
  21163892.445   113172851.130    21163897.430    88023324.977    21163897.215  
  21163891.879  
  22184851.922   116582221.358    22184859.211    90843342.1604   22184859.777  
                
  20396742.992   107185624.601    20396746.000    83521281.9914                 
                
  19153438.609   102493924.883    19153442.699    79717502.691    19153442.457  
  19153437.832  
  22524908.297   118369215.774    22524916.406    92235789.3434   22524917.129  
                
  21624172.992   115431323.114    21624178.211    89779918.695    21624177.734  
  21624171.844  
  22891619.094   122025179.069    22891624.957    94908451.874    22891625.547  
  22891617.969  
  25285265.648   132874960.265    25285271.094   103538955.3594                 
                
  22338236.734   119410695.895    22338243.273    92875020.562    22338242.391  
  22338235.715  
 21  8  9  0 56  0.0000000  0 17G17G22R15R16R 8G14G 1G24R24G 3G19R17
                                G 6R18R14G21R 1
  20455840.047   107496187.243    20455844.859    83763277.5754   20455845.148  
                
  22959835.156   120654781.061    22959837.562    94016736.3194                 
                
  19885616.750   106262699.576    19885621.754    82648760.809    19885621.250  
  19885616.348  
  21160417.719   113035177.140    21160421.820    87916232.207    21160420.473  
  21160416.840  
  22869496.078   122465109.208    22869500.398    95250639.495    22869500.410  
  22869495.258  
  21394806.352   112430468.957    21394812.539    87608176.5434   21394812.707  
                
  22494248.922   118208073.323    22494257.051    92110221.6224   22494257.109  
                
  23236618.875   122109260.458    23236627.137    95150104.7734   23236627.504  
                
  21169719.047   113204008.594    21169724.043    88047558.541    21169723.809  
  21169718.438  
  22183529.289   116575270.905    22183536.582    90837926.2194   22183537.156  
                
  20393963.820   107171019.962    20393966.824    83509901.7494                 
                
  19153046.828   102491828.410    19153050.926    79715872.101    19153050.695  
  19153046.055  
  22518815.344   118337197.173    22518823.453    92210839.7974   22518824.184  
                
  21618270.656   115399816.145    21618275.891    89755413.290    21618275.391  
  21618269.508  
  22900088.695   122070326.854    22900094.641    94943566.797    22900095.180  
  22900087.555  
  25291457.898   132907500.124    25291463.273   103564311.0674                 
                
  22334540.398   119390936.885    22334546.855    92859652.424    22334546.023  
  22334539.379  
 21  8  9  0 56 10.0000000  0 17G17G22R15R16R 8G14G 1G24R24G 3G19R17
                                G 6R18R14G21R 1
  20456500.523   107499658.069    20456505.355    83765982.1144   20456505.625  
                
  22961962.648   120665961.082    22961965.059    94025448.0124                 
                
  19889181.766   106281749.915    19889186.781    82663577.731    19889186.270  
  19889181.355  
  21155646.336   113009689.362    21155650.426    87896408.385    21155649.102  
  21155645.465  
  22871451.695   122475581.257    22871455.949    95258784.436    22871455.969  
  22871451.023  
  21399682.578   112456093.602    21399688.777    87628143.7874   21399688.941  
                
  22500629.180   118241601.707    22500637.316    92136347.6294   22500637.391  
                
  23237328.352   122112988.763    23237336.570    95153009.9504   23237336.973  
                
  21175550.562   113235192.335    21175555.559    88071812.568    21175555.332  
  21175549.926  
  22182220.008   116568390.584    22182227.305    90832564.9314   22182227.875  
                
  20391192.969   107156459.045    20391195.973    83498555.5924                 
                
  19152665.945   102489790.214    19152670.055    79714286.839    19152669.816  
  19152665.168  
  22512728.531   118305210.771    22512736.602    92185915.3284   22512737.355  
                
  21612374.719   115368343.244    21612379.957    89730934.382    21612379.438  
  21612373.582  
  22908561.953   122115494.128    22908567.965    94978696.890    22908568.465  
  22908560.812  
  25297650.180   132940041.479    25297655.562   103589667.8834                 
                
  22330858.305   119371253.950    22330864.730    92844343.494    22330863.922  
  22330857.270  
 21  8  9  0 56 20.0000000  0 17G17G22R15R16R 8G14G 1G24R24G 3G19R17
                                G 6R18R14G21R 1
  20457167.891   107503165.106    20457172.738    83768714.8654   20457173.008  
                
  22964101.789   120677202.294    22964104.223    94034207.3844                 
                
  19892762.336   106300883.365    19892767.348    82678459.303    19892766.844  
  19892761.918  
  21150888.211   112984272.334    21150892.262    87876639.583    21150890.953  
  21150887.344  
  22873423.164   122486138.219    22873427.340    95266995.435    22873427.355  
  22873422.621  
  21404567.516   112481764.042    21404573.738    87648146.7064   21404573.871  
                
  22507014.766   118275158.113    22507022.914    92162495.4694   22507022.988  
                
  23238050.250   122116782.329    23238058.445    95155965.9724   23238058.871  
                
  21181386.883   113266401.840    21181391.895    88096086.614    21181391.660  
  21181386.215  
  22180923.961   116561579.844    22180931.266    90827257.8614   22180931.816  
                
  20388430.344   107141941.317    20388433.336    83487243.0724                 
                
  19152295.812   102487809.570    19152299.918    79712746.341    19152299.699  
  19152295.035  
  22506647.734   118273256.015    22506655.793    92161015.5264   22506656.543  
                
  21606485.000   115336903.549    21606490.238    89706481.291    21606489.738  
  21606483.871  
  22917038.695   122160680.003    22917044.754    95013841.444    22917045.254  
  22917037.543  
  25303842.766   132972583.565    25303848.070   103615025.3774                 
                
  22327190.383   119351646.847    22327196.777    92829093.538    22327195.965  
  22327189.332  
 21  8  9  0 56 30.0000000  0 17G17G22R15R16R 8G14G 1G24R24G 3G19R17
                                G 6R18R14G21R 1
  20457842.188   107506708.547    20457847.051    83771475.9914   20457847.309  
                
  22966252.594   120688504.796    22966255.059    94043014.5364                 
                
  19896358.461   106320099.983    19896363.469    82693405.555    19896362.973  
  19896358.035  
  21146143.359   112958926.231    21146147.375    87856925.950    21146146.102  
  21146142.512  
  22875410.562   122496780.528    22875414.668    95275272.790    22875414.703  
  22875410.070  
  21409461.172   112507480.342    21409467.355    87668185.3664   21409467.512  
                
  22513405.680   118308742.601    22513413.871    92188665.1784   22513413.926  
                
  23238784.586   122120641.247    23238792.789    95158972.9254   23238793.219  
                
  21187228.031   113297637.129    21187233.031    88120380.719    21187232.793  
  21187227.324  
  22179641.188   116554838.878    22179648.523    90822005.1514   22179649.047  
                
  20385675.945   107127466.887    20385678.918    83475964.2944                 
                
  19151936.461   102485886.611    19151940.559    79711250.701    19151940.344  
  19151935.672  
  22500572.984   118241333.083    22500581.043    92136140.5384   22500581.773  
                
  21600601.570   115305497.405    21600606.828    89682054.315    21600606.301  
  21600600.449  
  22925518.977   122205884.650    22925525.066    95049000.605    22925525.527  
  22925517.824  
  25310035.672   133005126.558    25310040.875   103640383.5724                 
                
  22323536.664   119332115.701    22323543.031    92813902.642    22323542.215  
  22323535.547  
 21  8  9  0 56 40.0000000  0 17G17G22R15R16R 8G14G 1G24R24G 3G19R17
                                G 6R18R14G21R 1
  20458523.422   107510288.429    20458528.305    83774265.5084   20458528.547  
                
  22968415.062   120699868.612    22968417.547    94051869.4524                 
                
  19899970.148   106339399.715    19899975.141    82708416.457    19899974.664  
  19899969.719  
  21141411.844   112933651.331    21141415.859    87837267.699    21141414.578  
  21141411.012  
  22877413.852   122507507.964    22877417.914    95283616.353    22877417.965  
  22877413.367  
  21414363.555   112533242.494    21414369.684    87688259.7624   21414369.891  
                
  22519801.922   118342355.088    22519810.145    92214856.7234   22519810.199  
                
  23239531.359   122124565.568    23239539.605    95162030.8184   23239540.000  
                
  21193073.992   113328898.068    21193078.996    88144694.774    21193078.766  
  21193073.293  
  22178371.719   116548167.724    22178379.102    90816806.8544   22178379.590  
                
  20382929.828   107113035.908    20382932.781    83464719.3754                 
                
  19151587.898   102484021.399    19151592.012    79709799.982    19151591.785  
  19151587.105  
  22494504.336   118209442.109    22494512.398    92111290.4354   22494513.121  
                
  21594724.430   115274124.847    21594729.699    89657653.455    21594729.137  
  21594723.336  
  22934002.734   122251107.790    22934008.859    95084174.145    22934009.266  
  22934001.566  
  25316228.742   133037670.522    25316233.941   103665742.5084                 
                
  22319897.172   119312660.573    22319903.500    92798770.873    22319902.699  
  22319896.035  
 21  8  9  0 56 50.0000000  0 17G17G22R15R16R 8G14G 1G24R24G 3G19R17
                                G 6R18R14G21R 1
  20459211.539   107513904.534    20459216.441    83777083.2524   20459216.684  
                
  22970589.141   120711293.481    22970591.672    94060771.9384                 
                
  19903597.336   106358782.339    19903602.336    82723491.824    19903601.871  
  19903596.922  
  21136693.633   112908447.577    21136697.676    87817664.793    21136696.371  
  21136692.762  
  22879433.016   122518320.406    22879437.031    95292026.026    22879437.062  
  22879432.535  
  21419274.617   112559050.248    21419280.727    87708369.6954   21419280.953  
                
  22526203.453   118375995.319    22526211.715    92241069.8754   22526211.754  
                
  23240290.531   122128555.059    23240298.828    95165139.5054   23240299.176  
                
  21198924.727   113360184.595    21198929.742    88169028.738    21198929.496  
  21198924.035  
  22177115.492   116541566.267    22177122.914    90811662.8614   22177123.363  
                
  20380191.922   107098648.183    20380194.863    83453508.1644                 
                
  19151250.070   102482213.601    19151254.195    79708393.924    19151253.961  
  19151249.270  
  22488441.727   118177582.950    22488449.809    92086465.1234   22488450.531  
                
  21588853.539   115242785.726    21588858.727    89633278.586    21588858.215  
  21588852.430  
  22942489.914   122296349.383    22942496.086    95119362.036    22942496.477  
  22942488.730  
  25322421.742   133070215.000    25322427.012   103691101.8074                 
                
  22316271.875   119293281.386    22316278.156    92783698.173    22316277.387  
  22316270.727  
 21  8  9  0 57  0.0000000  0 17G17G22R15R16R 8G14G 1G24R24G 3G19R17
                                G 6R18R14G21R 1
  20459906.633   107517557.286    20459911.551    83779929.5494   20459911.777  
                
  22972774.914   120722779.801    22972777.496    94069722.3214                 
                
  19907240.102   106378248.140    19907245.117    82738631.883    19907244.641  
  19907239.688  
  21131988.852   112883315.539    21131992.902    87798117.658    21131991.578  
  21131987.953  
  22881468.125   122529218.276    22881472.156    95300502.156    22881472.160  
  22881467.621  
  21424194.414   112584903.935    21424200.562    87728515.4064   21424200.758  
                
  22532610.320   118409663.583    22532618.609    92267304.8774   22532618.633  
                
  23241062.172   122132610.058    23241070.473    95168299.2414   23241070.809  
                
  21204780.227   113391496.624    21204785.254    88193382.522    21204784.988  
  21204779.523  
  22175872.609   116535034.912    22175880.035    90806573.5034   22175880.484  
                
  20377462.352   107084304.186    20377465.273    83442331.0264                 
                
  19150923.062   102480463.769    19150927.176    79707032.940    19150926.953  
  19150922.254  
  22482385.250   118145756.039    22482393.359    92061664.9514   22482394.074  
                
  21582988.992   115211480.423    21582994.137    89608930.021    21582993.633  
  21582987.898  
  22950980.594   122341609.562    22950986.762    95154564.384    22950987.184  
  22950979.422  
  25328614.945   133102760.439    25328620.266   103716461.8684                 
                
  22312660.930   119273978.907    22312667.199    92768685.117    22312666.445  
  22312659.766  
 21  8  9  0 57 10.0000000  0 17G17G22R15R16R 8G14G 1G24R24G 3G19R17
                                G 6R18R14G21R 1
  20460608.664   107521246.433    20460613.605    83782804.2054   20460613.824  
                
  22974972.336   120734327.243    22974974.918    94078720.3304                 
                
  19910898.359   106397796.732    19910903.383    82753836.338    19910902.910  
  19910897.961  
  21127297.445   112858254.892    21127301.484    87778626.043    21127300.133  
  21127296.543  
  22883519.117   122540201.190    22883523.160    95309044.396    22883523.156  
  22883518.527  
  21429122.906   112610803.236    21429129.074    87748696.6634   21429129.254  
                
  22539022.461   118443359.530    22539030.750    92293561.4464   22539030.785  
                
  23241846.242   122136730.302    23241854.520    95171509.8254   23241854.887  
                
  21210640.531   113422834.230    21210645.562    88217756.207    21210645.301  
  21210639.852  
  22174643.039   116528573.448    22174650.461    90801538.6004   22174650.887  
                
  20374741.055   107070003.641    20374743.953    83431187.7404                 
                
  19150606.828   102478771.489    19150610.938    79705716.726    19150610.715  
  19150606.008  
  22476334.906   118113961.231    22476343.047    92036889.7954   22476343.738  
                
  21577130.789   115180208.953    21577135.926    89584607.775    21577135.410  
  21577129.711  
  22959474.688   122386887.948    22959480.883    95189780.893    22959481.316  
  22959473.520  
  25334808.344   133135306.484    25334813.625   103741822.4224                 
                
  22309064.289   119254752.785    22309070.598    92753731.491    22309069.812  
  22309063.098  
 21  8  9  0 57 20.0000000  0 16G17G22R15R16R 8G14G 1G24R24G 3G19R17
                                G 6R18R14R 1
  20461317.656   107524972.263    20461322.613    83785707.4494   20461322.824  
                
  22977181.406   120745936.034    22977183.953    94087766.1374                 
                
  19914572.172   106417428.473    19914577.191    82769105.467    19914576.707  
  19914571.777  
  21122619.516   112833266.279    21122623.512    87759190.453    21122622.195  
  21122618.617  
  22885585.992   122551269.264    22885590.035    95317652.865    22885590.023  
  22885585.309  
  21434060.109   112636748.404    21434066.246    87768913.6694   21434066.441  
                
  22545439.906   118477083.365    22545448.207    92319839.7524   22545448.246  
                
  23242642.766   122140916.066    23242651.016    95174771.4684   23242651.422  
                
  21216505.633   113454197.572    21216510.652    88242149.908    21216510.410  
  21216504.965  
  22173426.820   116522182.211    22173434.227    90796558.4254   22173434.648  
                
  20372028.102   107055746.996    20372030.969    83420078.6654                 
                
  19150301.391   102477137.086    19150305.496    79704445.525    19150305.277  
  19150300.555  
  22470290.727   118082198.892    22470298.871    92012139.9294   22470299.543  
                
  21571278.969   115148971.615    21571284.168    89560312.092    21571283.621  
  21571277.871  
  22967972.203   122432184.607    22967978.430    95225011.610    22967978.844  
  22967971.035  
  22305482.008   119235603.564    22305488.410    92738837.676    22305487.617  
  22305480.793  
 21  8  9  0 57 30.0000000  0 16G17G22R15R16R 8G14G 1G24R24G 3G19R17
                                G 6R18R14R 1
  20462033.578   107528734.444    20462038.551    83788639.0144   20462038.754  
                
  22979402.117   120757605.898    22979404.625    94096859.5324                 
                
  19918261.430   106437142.721    19918266.438    82784438.769    19918265.977  
  19918261.035  
  21117955.008   112808349.370    21117958.969    87739810.639    21117957.668  
  21117954.098  
  22887668.742   122562422.300    22887672.816    95326327.429    22887672.781  
  22887668.043  
  21439005.992   112662739.095    21439012.082    87789166.1554   21439012.320  
                
  22551862.594   118510834.711    22551870.938    92346139.4874   22551870.934  
                
  23243451.703   122145167.045    23243459.953    95178083.9124   23243460.367  
                
  21222375.469   113485586.144    21222380.480    88266563.236    21222380.242  
  21222374.797  
  22172223.930   116515860.990    22172231.305    90791632.7854   22172231.738  
                
  20369323.461   107041533.982    20369326.309    83409003.5894                 
                
  19150006.711   102475560.177    19150010.809    79703219.040    19150010.602  
  19150005.875  
  22464252.672   118050468.756    22464260.789    91987415.1604   22464261.488  
                
  21565433.453   115117767.905    21565438.691    89536042.571    21565438.117  
  21565432.363  
  22976473.109   122477499.226    22976479.379    95260256.301    22976479.777  
  22976471.926  
  22301914.055   119216530.888    22301920.488    92724003.358    22301919.723  
  22301912.793  
 21  8  9  0 57 40.0000000  0 16G17G22R15R16R 8G14G 1G24R24G 3G19R17
                                G 6R18R14R 1
  20462756.422   107532532.999    20462761.406    83791598.9194   20462761.590  
                
  22981634.430   120769336.740    22981636.922    94106000.4434                 
                
  19921966.172   106456939.714    19921971.156    82799836.422    19921970.734  
  19921965.781  
  21113303.938   112783504.245    21113307.883    87720486.669    21113306.590  
  21113303.051  
  22889767.375   122573660.312    22889771.453    95335068.094    22889771.402  
  22889766.660  
  21443960.508   112688775.227    21443966.598    87809454.0414   21443966.840  
                
  22558290.469   118544613.437    22558298.879    92372460.5574   22558298.809  
                
  23244273.039   122149483.183    23244281.305    95181447.1244   23244281.699  
                
  21228250.039   113517000.061    21228255.059    88290996.283    21228254.805  
  21228249.383  
  22171034.352   116509609.746    22171041.699    90786761.6914   22171042.156  
                
  20366627.102   107027364.508    20366629.934    83397962.4414                 
                
  19149722.781   102474040.839    19149726.879    79702037.330    19149726.664  
  19149721.941  
  22458220.773   118018770.908    22458228.879    91962715.5494   22458229.566  
                
  21559594.289   115086598.141    21559599.477    89511799.414    21559598.922  
  21559593.207  
  22984977.359   122522831.638    22984983.676    95295514.831    22984984.062  
  22984976.148  
  22298360.500   119197535.021    22298366.988    92709228.804    22298366.219  
  22298359.230  
