     2.11           OBSERVATION DATA    M (MIXED)           RINEX VERSION / TYPE
EFT-CORS.RU                             20210813 095556 UTC PGM / RUN BY / DATE 
IRKT                                                        MARKER NAME         
                                                            MARKER NUMBER       
IRKT                EFT-CORS.RU                             OBSERVER / AGENCY   
0                   TRIMBLE BD970       2.0                 REC # / TYPE / VERS 
0                   UNKNOWN EXT NONE                        ANT # / TYPE        
  -967349.5145  3789899.4449  5021728.6725                  APPROX POSITION XYZ 
        0.0000        0.0000        0.0000                  ANTENNA: DELTA H/E/N
     1     1                                                WAVELENGTH FACT L1/2
     6    C1    L1    P2    L2    C2    P1                  # / TYPES OF OBSERV 
    10.000                                                  INTERVAL            
  2021     8     9     0    30    0.0000000     GPS         TIME OF FIRST OBS   
  2021     8     9     3    30    0.0000000     GPS         TIME OF LAST OBS    
     0                                                      RCV CLOCK OFFS APPL 
                                                            END OF HEADER       
 21  8  9  0 30  0.0000000  0 17R18G 6R 1R 8G21G22G19G14G 1R17R16G24
                                R15R24R14G17G 3
  22626181.352   120780101.897    22626188.781    93940731.064    22626188.250  
  22626179.414  
  23532205.141   123662574.806    23532215.723    96360496.1904   23532215.801  
                
  23040095.391   123162509.508    23040102.488    95793110.056    23040101.715  
  23040093.590  
  22765009.352   121905564.974    22765014.188    94815485.501    22765014.234  
  22765008.805  
  24324670.641   127826994.815    24324677.098    99605474.9454                 
                
  22755080.406   119578783.452    22755085.148    93178305.1634                 
                
  20941754.391   110049671.953    20941759.270    85753010.9444                 
                
  20731927.773   108947031.012    20731934.727    84893819.1884   20731934.488  
                
  21567226.141   113336539.813    21567235.621    88314314.4444   21567235.527  
                
  19358204.281   103589682.478    19358208.738    80569798.513    19358208.516  
  19358202.961  
  22085920.578   117979031.250    22085924.363    91761487.794    22085923.141  
  22085919.555  
  23318055.047   122537200.689    23318065.031    95483579.0794   23318064.914  
                
  19537020.297   104399893.432    19537025.168    81199977.892    19537024.945  
  19537018.809  
  20325059.492   108687219.824    20325063.945    84535033.836    20325063.859  
  20325058.027  
  21616092.461   115225866.061    21616098.793    89620184.704    21616098.562  
  21616090.664  
  20442989.219   107428642.112    20442995.547    83710705.4524   20442995.457  
                
  22514335.578   118313635.795    22514344.984    92192522.6964   22514345.043  
                
 21  8  9  0 30 10.0000000  0 17R18G 6R 1R 8G21G22G19G14G 1R17R16G24
                                R15R24R14G17G 3
  22619439.719   120744114.808    22619447.199    93912741.133    22619446.660  
  22619437.809  
  23525343.164   123626515.041    23525353.668    96332397.7024   23525353.793  
                
  23034542.828   123132828.138    23034549.945    95770024.580    23034549.129  
  23034541.004  
  22764477.906   121902719.219    22764482.770    94813272.144    22764482.793  
  22764477.336  
  24330697.531   127858666.267    24330703.953    99630153.9824                 
                
  22755360.805   119580256.984    22755365.547    93179453.3674                 
                
  20937757.961   110028670.570    20937762.887    85736646.2274                 
                
  20735270.453   108964596.854    20735277.410    84907506.8454   20735277.180  
                
  21572540.430   113364466.576    21572549.922    88336075.5584   21572549.832  
                
  19356096.180   103578401.660    19356100.676    80561024.548    19356100.449  
  19356094.887  
  22079373.125   117944055.936    22079376.902    91734284.769    22079375.695  
  22079372.113  
  23316787.328   122530538.815    23316797.359    95478388.0054   23316797.223  
                
  19537979.750   104405020.437    19537984.609    81203965.558    19537984.383  
  19537978.301  
  20329914.820   108713183.458    20329919.273    84555227.764    20329919.176  
  20329913.383  
  21623682.555   115266325.377    21623688.871    89651653.024    21623688.645  
  21623680.691  
  20442524.312   107426199.050    20442530.617    83708801.7654   20442530.531  
                
  22511113.438   118296703.385    22511122.836    92179328.6124   22511122.906  
                
 21  8  9  0 30 20.0000000  0 17R18G 6R 1R 8G21G22G19G14G 1R17R16G24
                                R15R24R14G17G 3
  22612703.008   120708153.787    22612710.508    93884771.450    22612709.988  
  22612701.133  
  23518485.352   123590476.993    23518495.828    96304316.1184   23518495.973  
                
  23029000.562   123103201.668    23029007.664    95746981.793    23029006.855  
  23028998.727  
  22763962.867   121899961.089    22763967.750    94811126.930    22763967.758  
  22763962.254  
  24336726.352   127890347.871    24336732.762    99654840.9364                 
                
  22755653.586   119581795.494    22755658.328    93180652.2084                 
                
  20933768.664   110007706.691    20933773.633    85720310.7424                 
                
  20738623.430   108982216.779    20738630.383    84921236.6464   20738630.156  
                
  21577863.070   113392437.144    21577872.574    88357870.7974   21577872.477  
                
  19353999.242   103567180.437    19354003.762    80552296.927    19354003.547  
  19353997.961  
  22072834.938   117909130.065    22072838.738    91707120.209    22072837.500  
  22072833.926  
  23315532.250   122523943.228    23315542.332    95473248.5804   23315542.156  
                
  19538956.172   104410238.090    19538961.012    81208023.729    19538960.781  
  19538954.762  
  20334777.492   108739186.289    20334781.957    84575452.186    20334781.848  
  20334776.086  
  21631280.258   115306825.287    21631286.582    89683152.937    21631286.363  
  21631278.363  
  20442066.398   107423792.640    20442072.672    83706926.6434   20442072.602  
                
  22507902.906   118279831.870    22507912.285    92166181.9854   22507912.367  
                
 21  8  9  0 30 30.0000000  0 17R18G 6R 1R 8G21G22G19G14G 1R17R16G24
                                R15R24R14G17G 3
  22605971.109   120672218.600    22605978.648    93856821.888    22605978.141  
  22605969.270  
  23511631.633   123554460.462    23511642.035    96276251.2854   23511642.207  
                
  23023468.539   123073630.046    23023475.629    95723981.674    23023474.816  
  23023466.703  
  22763464.141   121897290.473    22763469.086    94809049.787    22763469.121  
  22763463.531  
  24342757.039   127922039.314    24342763.438    99679535.5584                 
                
  22755958.688   119583398.849    22755963.426    93181901.5784                 
                
  20929786.461   109986780.137    20929791.465    85704004.3464                 
                
  20741986.633   108999890.545    20741993.594    84935008.4044   20741993.371  
                
  21583193.969   113420451.196    21583203.492    88379699.9094   21583203.391  
                
  19351913.383   103556018.621    19351917.945    80543615.522    19351917.723  
  19351912.117  
  22066305.930   117874253.401    22066309.750    91679993.927    22066308.496  
  22066304.930  
  23314289.727   122517413.762    23314299.852    95468160.6794   23314299.629  
                
  19539949.500   104415546.124    19539954.312    81212152.190    19539954.086  
  19539948.125  
  20339647.508   108765228.449    20339651.977    84595707.193    20339651.855  
  20339646.105  
  21638885.484   115347365.432    21638891.816    89714684.149    21638891.598  
  21638883.543  
  20441615.406   107421422.713    20441621.656    83705079.9464   20441621.590  
                
  22504703.914   118263021.139    22504713.273    92153082.7224   22504713.367  
                
 21  8  9  0 30 40.0000000  0 17R18G 6R 1R 8G21G22G19G14G 1R17R16G24
                                R15R24R14G17G 3
  22599244.016   120636309.109    22599251.582    93828892.304    22599251.070  
  22599242.219  
  23504781.969   123518465.335    23504792.281    96248203.1564   23504792.500  
                
  23017946.773   123044113.150    23017953.832    95701024.096    23017953.016  
  23017944.898  
  22762981.703   121894706.994    22762986.695    94807040.400    22762986.738  
  22762981.109  
  24348789.555   127953740.326    24348795.934    99704237.6214                 
                
  22756276.086   119585066.795    22756280.809    93183201.2774                 
                
  20925811.367   109965890.871    20925816.398    85687726.9984                 
                
  20745360.055   109017617.962    20745367.008    84948821.9624   20745366.785  
                
  21588533.094   113448508.469    21588542.648    88401562.7194   21588542.543  
                
  19349838.594   103544916.029    19349843.195    80534980.169    19349842.980  
  19349837.352  
  22059786.172   117839426.134    22059790.023    91652906.066    22059788.742  
  22059785.188  
  23313059.750   122510950.232    23313069.918    95463124.1704   23313069.680  
                
  19540959.734   104420944.477    19540964.539    81216350.907    19540964.301  
  19540958.406  
  20344524.758   108791309.302    20344529.238    84615992.295    20344529.125  
  20344523.383  
  21646498.250   115387945.653    21646504.559    89746246.515    21646504.352  
  21646496.262  
  20441171.336   107419089.090    20441177.551    83703261.5304   20441177.488  
                
  22501516.484   118246271.094    22501525.812    92140030.7444   22501525.930  
                
 21  8  9  0 30 50.0000000  0 17R18G 6R 1R 8G21G22G19G14G 1R17R16G24
                                R15R24R14G17G 3
  22592521.797   120600425.579    22592529.375    93800982.902    22592528.852  
  22592520.059  
  23497936.406   123482491.731    23497946.645    96220171.7794   23497946.906  
                
  23012435.266   123014651.226    23012442.320    95678109.291    23012441.500  
  23012433.406  
  22762515.492   121892210.602    22762520.566    94805098.777    22762520.621  
  22762514.945  
  24354823.883   127985450.924    24354830.254    99728947.1684                 
                
  22756605.758   119586799.301    22756610.473    93184551.2884                 
                
  20921843.336   109945038.830    20921848.410    85671478.6624                 
                
  20748743.664   109035398.983    20748750.621    84962677.2944   20748750.398  
                
  21593880.422   113476608.866    21593890.016    88423459.1194   21593889.898  
                
  19347774.875   103533872.705    19347779.523    80526390.920    19347779.316  
  19347773.645  
  22053275.641   117804648.048    22053279.492    91625856.451    22053278.227  
  22053274.641  
  23311842.328   122504552.690    23311852.527    95458139.0774   23311852.285  
                
  19541986.852   104426433.129    19541991.652    81220619.854    19541991.406  
  19541985.570  
  20349409.242   108817428.871    20349413.746    84636307.516    20349413.633  
  20349407.902  
  21654118.484   115428565.776    21654124.801    89777839.931    21654124.598  
  21654116.488  
  20440734.164   107416791.776    20440740.359    83701471.4174   20440740.297  
                
  22498340.602   118229581.811    22498349.895    92127026.1134   22498350.059  
                
 21  8  9  0 31  0.0000000  0 17R18G 6R 1R 8G21G22G19G14G 1R17R16G24
                                R15R24R14G17G 3
  22585804.477   120564568.112    22585812.055    93773093.787    22585811.543  
  22585802.773  
  23491095.008   123446539.980    23491105.172    96192157.4614   23491105.484  
                
  23006934.141   122985244.627    23006941.180    95655237.515    23006940.363  
  23006932.277  
  22762065.688   121889801.880    22762070.809    94803225.336    22762070.871  
  22762065.172  
  24360860.094   128017171.366    24360866.449    99753664.3904                 
                
  22756947.789   119588596.676    22756952.516    93185951.8574                 
                
  20917882.492   109924224.426    20917887.582    85655259.6524                 
                
  20752137.547   109053233.873    20752144.496    84976574.6074   20752144.281  
                
  21599236.000   113504752.567    21599245.641    88445389.2694   21599245.508  
                
  19345722.281   103522888.807    19345726.973    80517847.891    19345726.758  
  19345721.059  
  22046774.461   117769919.871    22046778.301    91598845.650    22046777.043  
  22046773.477  
  23310637.555   122498221.462    23310647.758    95453205.6404   23310647.492  
                
  19543030.938   104432012.325    19543035.719    81224959.229    19543035.465  
  19543029.703  
  20354301.000   108843587.230    20354305.527    84656652.909    20354305.414  
  20354299.672  
  21661746.203   115469225.777    21661752.543    89809464.375    21661752.336  
  21661744.215  
  20440303.984   107414531.102    20440310.156    83699709.8524   20440310.098  
                
  22495176.391   118212953.688    22495185.660    92114069.1414   22495185.852  
                
 21  8  9  0 31 10.0000000  0 17R18G 6R 1R 8G21G22G19G14G 1R17R16G24
                                R15R24R14G17G 3
  22579092.062   120528736.885    22579099.609    93745225.067    22579099.117  
  22579090.391  
  23484257.789   123410610.161    23484267.836    96164160.1954   23484268.227  
                
  23001443.383   122955893.540    23001450.418    95632408.913    23001449.586  
  23001441.539  
  22761632.203   121887480.569    22761637.363    94801419.877    22761637.445  
  22761631.715  
  24366898.141   128048901.477    24366904.445    99778389.1484                 
                
  22757302.148   119590458.843    22757306.867    93187402.8944                 
                
  20913928.797   109903447.660    20913933.891    85639069.9744                 
                
  20755541.664   109071122.548    20755548.594    84990513.8144   20755548.395  
                
  21604599.789   113532939.440    21604609.477    88467353.0644   21604609.324  
                
  19343680.797   103511964.420    19343685.523    80509351.146    19343685.309  
  19343679.570  
  22040282.656   117735241.843    22040286.465    91571873.852    22040285.219  
  22040281.699  
  23309445.367   122491956.476    23309455.582    95448323.8344   23309455.328  
                
  19544091.930   104437681.934    19544096.691    81229368.923    19544096.445  
  19544090.734  
  20359200.023   108869784.490    20359204.555    84677028.540    20359204.434  
  20359198.691  
  21669381.406   115509925.603    21669387.738    89841119.777    21669387.512  
  21669379.398  
  20439880.758   107412307.014    20439886.906    83697976.7944   20439886.855  
                
  22492023.805   118196386.728    22492033.066    92101159.8224   22492033.262  
                
 21  8  9  0 31 20.0000000  0 17R18G 6R 1R 8G21G22G19G14G 1R17R16G24
                                R15R24R14G17G 3
  22572384.438   120492931.341    22572391.953    93717376.334    22572391.469  
  22572382.809  
  23477424.641   123374701.830    23477434.664    96136179.7054   23477435.082  
                
  22995962.930   122926597.628    22995969.973    95609623.229    22995969.102  
  22995961.105  
  22761214.977   121885246.404    22761220.164    94799682.196    22761220.250  
  22761214.520  
  24372937.914   128080640.733    24372944.188    99803121.0264                 
                
  22757668.758   119592385.435    22757673.473    93188904.1324                 
                
  20909982.188   109882708.151    20909987.270    85622909.3204                 
                
  20758955.914   109089064.539    20758962.832    85004494.5744   20758962.637  
                
  21609971.680   113561168.924    21609981.410    88489350.0614   21609981.227  
                
  19341650.344   103501099.095    19341655.113    80500900.338    19341654.902  
  19341649.109  
  22033800.148   117700613.441    22033803.914    91544940.639    22033802.641  
  22033799.223  
  23308265.711   122485757.332    23308275.898    95443493.3234   23308275.664  
                
  19545169.758   104443441.579    19545174.492    81233848.646    19545174.254  
  19545168.609  
  20364106.180   108896019.894    20364110.703    84697433.851    20364110.590  
  20364104.859  
  21677024.000   115550664.859    21677030.309    89872805.832    21677030.098  
  21677021.977  
  20439464.406   107410119.118    20439470.551    83696271.9464   20439470.504  
                
  22488882.781   118179880.592    22488892.066    92088297.8984   22488892.258  
                
 21  8  9  0 31 30.0000000  0 17R18G 6R 1R 8G21G22G19G14G 1R17R16G24
                                R15R24R14G17G 3
  22565681.773   120457152.123    22565689.238    93689548.063    22565688.762  
  22565680.160  
  23470595.703   123338815.600    23470605.664    96108216.4264   23470606.117  
                
  22990492.953   122897357.620    22990499.992    95586881.022    22990499.133  
  22990491.145  
  22760814.117   121883099.819    22760819.328    94798012.627    22760819.414  
  22760813.680  
  24378979.531   128112389.595    24378985.777    99827860.3904                 
                
  22758047.719   119594376.913    22758052.441    93190455.9454                 
                
  20906042.758   109862006.342    20906047.824    85606778.0504                 
                
  20762380.406   109107060.306    20762387.312    85018517.2304   20762387.121  
                
  21615351.758   113589441.446    21615361.543    88511380.5944   21615361.320  
                
  19339631.031   103490293.346    19339635.852    80492495.875    19339635.633  
  19339629.789  
  22027327.047   117666035.260    22027330.805    91518046.501    22027329.520  
  22027326.160  
  23307098.664   122479624.534    23307108.855    95438714.5364   23307108.656  
                
  19546264.570   104449291.880    19546269.281    81238398.877    19546269.043  
  19546263.465  
  20369019.539   108922293.837    20369024.055    84717869.138    20369023.953  
  20369018.207  
  21684673.984   115591443.604    21684680.320    89904522.642    21684680.094  
  21684672.012  
  20439055.039   107407967.875    20439061.176    83694595.6474   20439061.133  
                
  22485753.461   118163435.849    22485762.750    92075483.8114   22485762.914  
                
 21  8  9  0 31 40.0000000  0 17R18G 6R 1R 8G21G22G19G14G 1R17R16G24
                                R15R24R14G17G 3
  22558983.992   120421398.971    22558991.398    93661740.054    22558990.926  
  22558982.430  
  23463770.938   123302951.225    23463780.773    96080270.1534   23463781.316  
                
  22985033.383   122868173.259    22985040.422    95564182.082    22985039.555  
  22985031.609  
  22760429.578   121881040.691    22760434.816    94796411.095    22760434.887  
  22760429.180  
  24385022.906   128144147.714    24385029.125    99852606.9664                 
                
  22758438.969   119596432.959    22758443.691    93192058.0604                 
                
  20902110.422   109841341.789    20902115.453    85590675.8044                 
                
  20765815.062   109125109.474    20765821.949    85032581.4954   20765821.770  
                
  21620739.953   113617756.568    21620749.781    88533444.3134   21620749.520  
                
  19337622.758   103479546.703    19337627.637    80484137.382    19337627.406  
  19337621.520  
  22020863.312   117631507.228    22020867.074    91491191.375    22020865.773  
  22020862.445  
  23305944.203   122473557.789    23305954.379    95433987.1924   23305954.207  
                
  19547376.234   104455232.305    19547380.934    81243019.207    19547380.703  
  19547375.176  
  20373940.047   108948605.987    20373944.551    84738334.134    20373944.461  
  20373938.695  
  21692331.336   115632261.579    21692337.676    89936269.940    21692337.434  
  21692329.348  
  20438652.570   107405852.898    20438658.707    83692947.6114   20438658.672  
                
  22482635.750   118147052.270    22482645.059    92062717.3984   22482645.242  
                
 21  8  9  0 31 50.0000000  0 17R18G 6R 1R 8G21G22G19G14G 1R17R16G24
                                R15R24R14G17G 3
  22552291.172   120385672.339    22552298.523    93633952.686    22552298.059  
  22552289.652  
  23456950.398   123267109.244    23456960.207    96052341.3814   23456960.805  
                
  22979584.398   122839045.367    22979591.402    95541527.059    22979590.562  
  22979582.617  
  22760061.430   121879069.244    22760066.660    94794877.737    22760066.734  
  22760061.086  
  24391068.102   128175915.471    24391074.281    99877361.0734                 
                
  22758842.602   119598554.090    22758847.312    93193710.8934                 
                
  20898185.312   109820715.324    20898190.324    85574603.2464                 
                
  20769259.961   109143212.529    20769266.840    85046687.7654   20769266.664  
                
  21626136.328   113646114.696    21626146.203    88555541.5424   21626145.895  
                
  19335625.656   103468859.866    19335630.578    80475825.397    19335630.352  
  19335624.422  
  22014409.102   117597029.973    22014412.848    91464375.728    22014411.531  
  22014408.250  
  23304802.406   122467557.644    23304812.582    95429311.7564   23304812.418  
                
  19548504.898   104461263.543    19548509.582    81247710.171    19548509.348  
  19548503.875  
  20378867.828   108974956.997    20378872.312    84758829.350    20378872.227  
  20378866.461  
  21699996.125   115673119.117    21700002.453    89968048.001    21700002.215  
  21699994.117  
  20438257.109   107403774.740    20438263.258    83691328.2674   20438263.223  
                
  22479529.805   118130730.439    22479539.109    92049999.0924   22479539.293  
                
 21  8  9  0 32  0.0000000  0 17R18G 6R 1R 8G21G22G19G14G 1R17R16G24
                                R15R24R14G17G 3
  22545603.234   120349971.809    22545610.590    93606185.622    22545610.098  
  22545601.777  
  23450134.055   123231289.143    23450143.832    96024429.6304   23450144.477  
                
  22974145.812   122809973.165    22974152.797    95518915.357    22974151.957  
  22974144.059  
  22759709.570   121877185.024    22759714.789    94793412.233    22759714.840  
  22759709.258  
  24397115.008   128207692.130    24397121.137    99902122.0934                 
                
  22759258.492   119600739.618    22759263.199    93195413.9004                 
                
  20894267.359   109800126.301    20894272.324    85558559.8434                 
                
  20772714.992   109161368.793    20772721.859    85060835.4874   20772721.680  
                
  21631540.758   113674515.084    21631550.672    88577671.7074   21631550.336  
                
  19333639.602   103458232.047    19333644.562    80467559.316    19333644.344  
  19333638.371  
  22007964.328   117562603.132    22007968.070    91437599.292    22007966.750  
  22007963.465  
  23303673.188   122461623.451    23303683.336    95424687.6914   23303683.184  
                
  19549650.414   104467384.801    19549655.074    81252471.144    19549654.836  
  19549649.418  
  20383802.672   109001345.787    20383807.145    84779353.953    20383807.055  
  20383801.281  
  21707668.172   115714015.366    21707674.500    89999856.179    21707674.258  
  21707666.184  
  20437868.531   107401732.739    20437874.691    83689737.0964   20437874.648  
                
  22476435.500   118114469.771    22476444.793    92037328.4414   22476444.996  
                
 21  8  9  0 32 10.0000000  0 17R18G 6R 1R 8G21G22G19G14G 1R17R16G24
                                R15R24R14G17G 3
  22538920.289   120314297.798    22538927.621    93578439.175    22538927.145  
  22538918.867  
  23443321.969   123195491.394    23443331.672    95996535.2954   23443332.367  
                
  22968717.812   122780957.545    22968724.809    95496347.687    22968723.910  
  22968716.102  
  22759374.117   121875388.618    22759379.309    94792015.022    22759379.348  
  22759373.797  
  24403163.711   128239478.123    24403169.770    99926890.3814                 
                
  22759686.727   119602990.010    22759691.449    93197167.4624                 
                
  20890356.617   109779575.172    20890361.539    85542545.9824                 
                
  20776180.234   109179578.705    20776187.086    85075025.0194   20776186.902  
                
  21636953.289   113702958.063    21636963.227    88599835.0604   21636962.875  
                
  19331664.656   103447663.744    19331669.672    80459339.538    19331669.461  
  19331663.445  
  22001529.023   117528226.966    22001532.812    91410862.298    22001531.473  
  22001528.188  
  23302556.586   122455755.655    23302566.727    95420115.3824   23302566.590  
                
  19550812.852   104473596.513    19550817.516    81257302.486    19550817.273  
  19550811.898  
  20388744.664   109027772.780    20388749.148    84799908.282    20388749.066  
  20388743.250  
  21715347.531   115754950.668    21715353.883    90031694.757    21715353.633  
  21715345.555  
  20437486.930   107399727.345    20437493.113    83688174.4524   20437493.055  
                
  22473352.945   118098270.788    22473362.234    92024705.8614   22473362.438  
                
 21  8  9  0 32 20.0000000  0 17R18G 6R 1R 8G21G22G19G14G 1R17R16G24
                                R15R24R14G17G 3
  22532242.297   120278650.303    22532249.613    93550713.360    22532249.156  
  22532240.902  
  23436514.125   123159716.009    23436523.797    95968658.3804   23436524.512  
                
  22963300.383   122751998.406    22963307.371    95473823.919    22963306.512  
  22963298.680  
  22759054.969   121873679.627    22759060.129    94790685.805    22759060.168  
  22759054.656  
  24409214.141   128271273.339    24409220.160    99951665.8634                 
                
  22760127.297   119605305.208    22760132.031    93198971.5134                 
                
  20886453.062   109759061.878    20886457.949    85526561.6004                 
                
  20779655.656   109197842.101    20779662.492    85089256.2304   20779662.320  
                
  21642373.867   113731443.463    21642383.828    88622031.4814   21642383.473  
                
  19329700.844   103437154.990    19329705.902    80451166.061    19329705.691  
  19329699.629  
  21995103.289   117493901.955    21995107.105    91384165.089    21995105.766  
  21995102.445  
  23301452.617   122449954.211    23301462.727    95415594.7624   23301462.602  
                
  19551992.219   104479898.687    19551996.867    81262204.170    19551996.621  
  19551991.277  
  20393693.766   109054237.842    20393698.246    84820492.210    20393698.164  
  20393692.328  
  21723034.180   115795924.891    21723040.543    90063563.602    21723040.293  
  21723032.215  
  20437112.273   107397758.537    20437118.473    83686640.3094   20437118.406  
                
  22470282.125   118082133.519    22470291.418    92012131.3614   22470291.621  
                
 21  8  9  0 32 30.0000000  0 17R18G 6R 1R 8G21G22G19G14G 1R17R16G24
                                R15R24R14G17G 3
  22525569.219   120243029.059    22525576.551    93523007.964    22525576.109  
  22525567.863  
  23429710.492   123123962.802    23429720.117    95940798.7564   23429720.867  
                
  22957893.477   122723095.547    22957900.453    95451343.938    22957899.578  
  22957891.797  
  22758752.164   121872058.083    22758757.297    94789424.599    22758757.320  
  22758751.855  
  24415266.266   128303077.437    24415272.285    99976448.2634                 
                
  22760580.141   119607684.982    22760584.879    93200825.8864                 
                
  20882556.648   109738586.195    20882561.523    85510606.5304                 
                
  20783141.188   109216158.734    20783148.016    85103528.9304   20783147.855  
                
  21647802.469   113759970.943    21647812.445    88644260.6824   21647812.078  
                
  19327748.078   103426705.409    19327753.184    80443038.617    19327752.977  
  19327746.871  
  21988687.102   117459627.837    21988690.906    91357507.439    21988689.574  
  21988686.258  
  23300361.203   122444218.872    23300371.301    95411125.6734   23300371.191  
                
  19553188.453   104486291.024    19553193.102    81267175.986    19553192.844  
  19553187.531  
  20398649.938   109080740.736    20398654.422    84841105.568    20398654.316  
  20398648.477  
  21730728.078   115836937.582    21730734.406    90095462.327    21730734.160  
  21730726.102  
  20436744.516   107395826.002    20436750.746    83685134.4374   20436750.660  
                
  22467223.008   118066057.774    22467232.320    91999604.8134   22467232.504  
                
 21  8  9  0 32 40.0000000  0 17R18G 6R 1R 8G21G22G19G14G 1R17R16G24
                                R15R24R14G17G 3
  22518901.117   120207434.272    22518908.457    93495323.139    22518907.988  
  22518899.773  
  23422911.172   123088232.080    23422920.758    95912956.6404   23422921.539  
                
  22952497.250   122694249.698    22952504.180    95428908.286    22952503.344  
  22952495.562  
  22758465.758   121870524.289    22758470.871    94788231.641    22758470.887  
  22758465.441  
  24421320.156   128334890.623    24421326.172   100001237.7314                 
                
  22761045.328   119610129.528    22761050.059    93202730.7324                 
                
  20878667.484   109718148.465    20878672.332    85494681.0344                 
                
  20786636.906   109234528.784    20786643.719    85117843.2444   20786643.566  
                
  21653239.125   113788540.663    21653249.105    88666522.7884   21653248.734  
                
  19325806.414   103416315.134    19325811.547    80434957.295    19325811.344  
  19325805.207  
  21982280.500   117425404.880    21982284.293    91330889.582    21982282.980  
  21982279.633  
  23299282.445   122438549.915    23299292.527    95406708.3084   23299292.406  
                
  19554401.609   104492773.695    19554406.258    81272218.066    19554405.996  
  19554400.695  
  20403613.211   109107281.470    20403617.676    84861748.346    20403617.570  
  20403611.707  
  21738429.227   115877988.964    21738435.551    90127391.181    21738435.320  
  21738427.285  
  20436383.734   107393929.989    20436389.980    83683657.0194   20436389.883  
                
  22464175.664   118050043.871    22464184.984    91987126.4494   22464185.156  
                
 21  8  9  0 32 50.0000000  0 17R18G 6R 1R 8G21G22G19G14G 1R17R16G24
                                R15R24R14G17G 3
  22512237.977   120171866.104    22512245.340    93467659.017    22512244.875  
  22512236.672  
  23416116.062   123052523.670    23416125.660    95885131.9334   23416126.465  
                
  22947111.641   122665460.632    22947118.562    95406516.788    22947117.695  
  22947109.930  
  22758195.641   121869077.840    22758200.742    94787106.614    22758200.758  
  22758195.324  
  24427375.664   128366712.604    24427381.703   100026034.0784                 
                
  22761522.797   119612638.631    22761527.512    93204685.8704                 
                
  20874785.500   109697748.485    20874790.305    85478784.9444                 
                
  20790142.719   109252951.947    20790149.516    85132198.9494   20790149.363  
                
  21658683.742   113817152.260    21658693.738    88688817.5234   21658693.344  
                
  19323875.805   103405984.069    19323880.969    80426922.021    19323880.758  
  19323874.590  
  21975883.445   117391232.976    21975887.234    91304311.447    21975885.875  
  21975882.527  
  23298216.258   122432947.104    23298226.324    95402342.4864   23298226.219  
                
  19555631.594   104499346.379    19555636.227    81277330.150    19555635.969  
  19555630.688  
  20408583.477   109133859.701    20408587.926    84882420.293    20408587.836  
  20408581.965  
  21746137.523   115919078.562    21746143.832    90159349.750    21746143.613  
  21746135.578  
  20436029.836   107392070.253    20436036.105    83682207.8744   20436035.992  
                
  22461140.062   118034091.665    22461149.387    91974696.1554   22461149.547  
                
 21  8  9  0 33  0.0000000  0 17R18G 6R 1R 8G21G22G19G14G 1R17R16G24
                                R15R24R14G17G 3
  22505579.859   120136324.673    22505587.262    93440015.701    22505586.773  
  22505578.582  
  23409325.344   123016838.155    23409334.875    95857325.0424   23409335.730  
                
  22941736.773   122636729.014    22941743.711    95384170.012    22941742.820  
  22941735.102  
  22757941.938   121867719.231    22757947.020    94786049.919    22757947.043  
  22757941.605  
  24433432.961   128398543.752    24433439.016   100050837.5464                 
                
  22762012.625   119615212.696    22762017.348    93206691.6334                 
                
  20870910.781   109677386.761    20870915.543    85462918.6744                 
                
  20793658.750   109271428.730    20793665.523    85146596.4314   20793665.379  
                
  21664136.398   113845806.109    21664146.414    88711145.1994   21664146.008  
                
  19321956.359   103395712.707    19321961.539    80418933.188    19321961.332  
  19321955.125  
  21969496.109   117357113.010    21969499.906    91277773.707    21969498.527  
  21969495.145  
  23297162.781   122427410.986    23297172.797    95398028.6114   23297172.695  
                
  19556878.555   104506009.752    19556883.191    81282512.772    19556882.930  
  19556877.652  
  20413560.836   109160475.843    20413565.266    84903121.732    20413565.180  
  20413559.324  
  21753853.055   115960206.637    21753859.352    90191338.250    21753859.137  
  21753851.156  
  20435682.953   107390247.342    20435689.238    83680787.4214   20435689.113  
                
  22458116.320   118018201.722    22458125.637    91962314.3714   22458125.789  
                
 21  8  9  0 33 10.0000000  0 17R18G 6R 1R 8G21G22G19G14G 1R17R16G24
                                R15R24R14G17G 3
  22498926.688   120100809.740    22498934.109    93412392.990    22498933.605  
  22498925.422  
  23402538.859   122981174.934    23402548.324    95829535.5194   23402549.207  
                
  22936372.539   122608054.173    22936379.461    95361867.349    22936378.531  
  22936370.844  
  22757704.547   121866448.095    22757709.617    94785061.270    22757709.664  
  22757704.199  
  24439491.828   128430383.293    24439497.930   100075647.5644                 
                
  22762514.695   119617851.143    22762519.441    93208747.5794                 
                
  20867043.219   109657062.585    20867047.906    85447081.6554                 
                
  20797184.820   109289958.385    20797191.570    85161035.1144   20797191.426  
                
  21669596.930   113874501.445    21669606.957    88733505.2044   21669606.551  
                
  19320047.938   103385500.392    19320053.145    80410990.280    19320052.930  
  19320046.691  
  21963118.312   117323044.045    21963122.102    91251275.633    21963120.734  
  21963117.285  
  23296121.844   122421940.850    23296131.809    95393766.1674   23296131.742  
                
  19558142.328   104512762.979    19558146.953    81287765.274    19558146.691  
  19558141.422  
  20418545.172   109187129.364    20418549.586    84923852.244    20418549.496  
  20418543.660  
  21761575.633   116001372.425    21761581.941    90223356.097    21761581.734  
  21761573.781  
  20435342.930   107388460.560    20435349.234    83679395.1244   20435349.102  
                
  22455104.289   118002373.437    22455113.613    91949980.6454   22455113.758  
                
 21  8  9  0 33 20.0000000  0 17R18G 6R 1R 8G21G22G19G14G 1R17R16G24
                                R15R24R14G17G 3
  22492278.562   120065321.723    22492286.020    93384791.220    22492285.523  
  22492277.289  
  23395756.727   122945534.669    23395766.250    95801763.9074   23395767.117  
                
  22931019.086   122579436.994    22931026.004    95339609.544    22931025.070  
  22931017.379  
  22757483.578   121865264.829    22757488.637    94784140.954    22757488.688  
  22757483.219  
  24445552.422   128462231.832    24445558.562   100100464.5834                 
                
  22763029.125   119620554.549    22763033.898    93210854.1354                 
                
  20863182.930   109636776.650    20863187.543    85431274.4324                 
                
  20800721.086   109308541.530    20800727.809    85175515.4724   20800727.676  
                
  21675065.461   113903238.804    21675075.484    88755897.9554   21675075.102  
                
  19318150.648   103375347.668    19318155.875    80403093.724    19318155.672  
  19318149.379  
  21956750.297   117289027.320    21956754.102    91224818.205    21956752.742  
  21956749.207  
  23295093.586   122416537.338    23295103.523    95389555.6444   23295103.477  
                
  19559423.062   104519606.808    19559427.695    81293088.252    19559427.438  
  19559422.152  
  20423536.547   109213820.488    20423540.953    84944612.010    20423540.871  
  20423535.043  
  21769305.477   116042576.618    21769311.742    90255403.756    21769311.516  
  21769303.590  
  20435009.906   107386710.534    20435016.223    83678031.4734   20435016.086  
                
  22452104.141   117986607.512    22452113.449    91937695.5074   22452113.586  
                
 21  8  9  0 33 30.0000000  0 17R18G 6R 1R 8G21G22G19G14G 1R17R16G24
                                R15R24R14G17G 3
  22485635.438   120029860.276    22485642.914    93357210.105    22485642.426  
  22485634.125  
  23388978.914   122909917.070    23388988.438    95774009.9434   23388989.305  
                
  22925676.406   122550877.396    22925683.316    95317396.549    22925682.383  
  22925674.660  
  22757278.977   121864169.154    22757284.039    94783288.762    22757284.098  
  22757278.648  
  24451614.656   128494088.960    24451620.836   100125288.2984                 
                
  22763555.859   119623322.476    22763560.637    93213010.9534                 
                
  20859329.867   109616528.604    20859334.398    85415496.7334                 
                
  20804267.461   109327177.723    20804274.156    85190037.1634   20804274.035  
                
  21680541.930   113932017.711    21680551.922    88778323.0654   21680551.566  
                
  19316264.453   103365254.193    19316269.684    80395243.251    19316269.477  
  19316263.156  
  21950391.961   117255062.261    21950395.801    91198400.951    21950394.438  
  21950390.801  
  23294077.953   122411200.104    23294087.891    95385396.7594   23294087.840  
                
  19560720.656   104526540.683    19560725.281    81298481.258    19560725.020  
  19560719.738  
  20428534.898   109240548.867    20428539.293    84965400.746    20428539.199  
  20428533.402  
  21777042.375   116083818.597    21777048.637    90287480.854    21777048.402  
  21777040.527  
  20434683.820   107384996.837    20434690.129    83676696.1164   20434689.988  
                
  22449115.797   117970903.637    22449125.082    91925458.7204   22449125.219  
                
 21  8  9  0 33 40.0000000  0 17R18G 6R 1R 8G21G22G19G14G 1R17R16G24
                                R15R24R14G17G 3
  22478997.297   119994425.572    22479004.809    93329649.792    22479004.324  
  22478995.969  
  23382205.422   122874322.122    23382214.848    95746273.6224   23382215.781  
                
  22920344.461   122522375.192    22920351.344    95295228.159    22920350.387  
  22920342.648  
  22757090.680   121863160.826    22757095.723    94782504.493    22757095.801  
  22757090.383  
  24457678.477   128525954.477    24457684.676   100150118.5384                 
                
  22764094.836   119626154.909    22764099.613    93215218.0494                 
                
  20855483.984   109596318.428    20855488.453    85399748.5494                 
                
  20807823.883   109345866.857    20807830.559    85204600.1134   20807830.445  
                
  21686026.227   113960837.951    21686036.203    88800780.3894   21686035.863  
                
  19314389.258   103355219.727    19314394.496    80387438.663    19314394.289  
  19314387.930  
  21944043.312   117221149.069    21944047.203    91172024.051    21944045.867  
  21944042.145  
  23293074.898   122405929.066    23293084.855    95381289.4564   23293084.797  
                
  19562035.086   104533564.628    19562039.715    81303944.324    19562039.457  
  19562034.164  
  20433540.164   109267314.346    20433544.547    84986218.343    20433544.453  
  20433538.688  
  21784786.250   116125097.883    21784792.527    90319586.969    21784792.301  
  21784784.406  
  20434364.609   107383319.409    20434370.918    83675389.0274   20434370.777  
                
  22446139.250   117955261.804    22446148.496    91913270.2744   22446148.664  
                
 21  8  9  0 33 50.0000000  0 17R18G 6R 1R 8G21G22G19G14G 1R17R16G24
                                R15R24R14G17G 3
  22472364.219   119959017.857    22472371.781    93302110.491    22472371.309  
  22472362.848  
  23375436.328   122838750.309    23375445.754    95718555.3414   23375446.738  
                
  22915023.391   122493931.091    22915030.270    95273104.979    22915029.277  
  22915021.539  
  22756918.844   121862240.651    22756923.883    94781788.806    22756923.953  
  22756918.578  
  24463743.977   128557828.760    24463750.172   100174955.6194                 
                
  22764646.172   119629052.191    22764650.941    93217475.6744                 
                
  20851645.414   109576146.613    20851649.812    85384030.2544                 
                
  20811390.469   109364609.300    20811397.121    85219204.6014   20811397.016  
                
  21691518.484   113989699.849    21691528.457    88823270.1674   21691528.113  
                
  19312525.219   103345244.873    19312530.457    80379680.451    19312530.266  
  19312523.875  
  21937704.469   117187288.233    21937708.406    91145687.872    21937707.070  
  21937703.281  
  23292084.539   122400724.643    23292094.480    95377234.0544   23292094.426  
                
  19563366.438   104540678.933    19563371.059    81309477.669    19563370.809  
  19563365.500  
  20438552.445   109294117.242    20438556.820    85007065.038    20438556.734  
  20438550.992  
  21792537.273   116166415.125    21792543.562    90351722.595    21792543.309  
  21792535.430  
  20434052.391   107381678.640    20434058.688    83674110.5054   20434058.555  
                
  22443174.609   117939682.497    22443183.820    91901130.5564   22443184.000  
                
 21  8  9  0 34  0.0000000  0 17R18G 6R 1R 8G21G22G19G14G 1R17R16G24
                                R15R24R14G17G 3
  22465736.227   119923637.341    22465743.836    93274592.331    22465743.371  
  22465734.809  
  23368671.602   122803201.550    23368681.031    95690855.0274   23368682.004  
                
  22909713.148   122465544.954    22909720.027    95251026.882    22909719.008  
  22909711.203  
  22756763.406   121861408.323    22756768.445    94781141.439    22756768.504  
  22756763.145  
  24469811.086   128589711.664    24469817.266   100199799.4444                 
                
  22765209.820   119632014.226    22765214.586    93219783.7534                 
                
  20847814.117   109556013.034    20847818.453    85368341.7564                 
                
  20814967.148   109383404.875    20814973.789    85233850.4884   20814973.684  
                
  21697018.602   114018603.184    21697028.582    88845792.2354   21697028.230  
                
  19310672.281   103335329.469    19310677.520    80371968.478    19310677.320  
  19310670.910  
  21931375.469   117153479.930    21931379.418    91119392.531    21931378.098  
  21931374.234  
  23291106.828   122395586.739    23291116.746    95373230.4934   23291116.707  
                
  19564714.672   104547883.553    19564719.305    81315081.263    19564719.039  
  19564713.719  
  20443571.688   109320957.404    20443576.059    85027940.718    20443575.969  
  20443570.262  
  21800295.352   116207769.933    21800301.625    90383887.402    21800301.383  
  21800293.469  
  20433747.109   107380074.452    20433753.398    83672860.4894   20433753.262  
                
  22440221.852   117924165.690    22440231.039    91889039.5324   22440231.230  
                
 21  8  9  0 34 10.0000000  0 17R18G 6R 1R 8G21G22G19G14G 1R17R16G24
                                R15R24R14G17G 3
  22459113.203   119888283.402    22459120.891    93247094.869    22459120.438  
  22459111.777  
  23361911.234   122767675.586    23361920.621    95663172.4604   23361921.613  
                
  22904413.758   122437216.841    22904420.668    95228993.928    22904419.637  
  22904411.707  
  22756624.328   121860663.462    22756629.355    94780562.090    22756629.422  
  22756624.047  
  24475879.758   128621602.745    24475885.895   100224649.6254                 
                
  22765785.742   119635040.674    22765790.512    93222142.0244                 
                
  20843990.031   109535917.370    20843994.328    85352682.7964                 
                
  20818553.875   109402253.192    20818560.492    85248537.4744   20818560.395  
                
  21702526.547   114047547.490    21702536.512    88868346.2194   21702536.148  
                
  19308830.367   103325473.039    19308835.598    80364302.362    19308835.414  
  19308828.977  
  21925056.242   117119723.776    21925060.180    91093137.753    21925058.867  
  21925054.965  
  23290141.695   122390514.984    23290151.586    95369278.4844   23290151.559  
                
  19566079.758   104555178.067    19566084.387    81320754.757    19566084.113  
  19566078.762  
  20448597.789   109347834.175    20448602.141    85048844.862    20448602.062  
  20448596.379  
  21808060.359   116249161.712    21808066.629    90416080.991    21808066.375  
  21808058.484  
  20433448.742   107378506.482    20433455.004    83671638.6904   20433454.887  
                
  22437280.945   117908711.078    22437290.094    91876996.9654   22437290.277  
                
 21  8  9  0 34 20.0000000  0 17R18G 6R 1R 8G21G22G19G14G 1R17R16G24
                                R15R24R14G17G 3
  22452495.305   119852956.691    22452503.043    93219618.569    22452502.590  
  22452493.855  
  23355155.305   122732172.896    23355164.672    95635508.0304   23355165.660  
                
  22899125.367   122408947.217    22899132.258    95207006.402    22899131.215  
  22899123.195  
  22756501.648   121860006.417    22756506.672    94780051.048    22756506.730  
  22756501.340  
  24481950.062   128653502.287    24481956.176   100249506.4124                 
                
  22766373.992   119638131.898    22766378.773    93224550.7694                 
                
  20840173.266   109515860.075    20840177.539    85337053.7404                 
                
  20822150.727   109421154.632    20822157.332    85263265.8604   20822157.223  
                
  21708042.336   114076533.076    21708052.297    88890932.3804   21708051.922  
                
  19306999.609   103315676.219    19307004.828    80356682.622    19307004.645  
  19306998.184  
  21918746.898   117086020.412    21918750.836    91066924.044    21918749.516  
  21918745.602  
  23289189.258   122385509.816    23289199.129    95365378.3564   23289199.117  
                
  19567461.750   104562562.951    19567466.391    81326498.557    19567466.105  
  19567460.715  
  20453630.852   109374748.154    20453635.207    85069777.961    20453635.137  
  20453629.469  
  21815832.336   116290590.765    21815838.656    90448303.617    21815838.398  
  21815830.484  
  20433157.352   107376975.148    20433163.582    83670445.4424   20433163.488  
                
  22434351.977   117893319.167    22434361.082    91865003.2714   22434361.297  
                
 21  8  9  0 34 30.0000000  0 17R18G 6R 1R 8G21G22G19G14G 1R17R16G24
                                R15R24R14G17G 3
  22445882.453   119817656.982    22445890.227    93192163.259    22445889.773  
  22445880.996  
  23348403.742   122696693.296    23348413.070    95607861.6074   23348414.098  
                
  22893847.789   122380735.719    22893854.719    95185064.145    22893853.656  
  22893845.570  
  22756395.312   121859437.004    22756400.328    94779608.160    22756400.383  
  22756394.953  
  24488021.898   128685410.041    24488028.020   100274369.5924                 
                
  22766974.508   119641287.684    22766979.316    93227009.8324                 
                
  20836363.750   109495840.935    20836367.988    85321454.4094                 
                
  20825757.609   109440108.934    20825764.199    85278035.4314   20825764.098  
                
  21713565.906   114105559.614    21713575.844    88913550.4564   21713575.480  
                
  19305179.867   103305938.468    19305185.062    80349108.818    19305184.891  
  19305178.402  
  21912447.383   117052369.646    21912451.309    91040751.244    21912450.004  
  21912446.074  
  23288249.414   122380570.986    23288259.277    95361529.9304   23288259.270  
                
  19568860.555   104570037.777    19568865.211    81332312.308    19568864.930  
  19568859.484  
  20458670.781   109401698.932    20458675.137    85090739.677    20458675.059  
  20458669.402  
  21823611.297   116332056.915    21823617.605    90480555.028    21823617.359  
  21823609.402  
  20432872.852   107375480.132    20432879.062    83669280.4974   20432878.984  
                
  22431434.883   117877989.809    22431443.938    91853058.3324   22431444.164  
                
 21  8  9  0 34 40.0000000  0 17R18G 6R 1R 8G21G22G19G14G 1R17R16G24
                                R15R24R14G17G 3
  22439274.695   119782384.378    22439282.480    93164729.028    22439282.016  
  22439273.246  
  23341656.625   122661236.960    23341665.926    95580233.2934   23341666.984  
                
  22888581.219   122352582.927    22888588.148    95163167.525    22888587.117  
  22888578.922  
  22756305.367   121858955.308    22756310.383    94779233.495    22756310.426  
  22756304.977  
  24494095.305   128717326.010    24494101.465   100299239.1734                 
                
  22767587.336   119644508.129    22767592.141    93229519.2634                 
                
  20832561.500   109475860.038    20832565.719    85305884.8834                 
                
  20829374.562   109459116.081    20829381.141    85292846.1784   20829381.039  
                
  21719097.258   114134627.036    21719107.180    88936200.3854   21719106.828  
                
  19303371.227   103296260.116    19303376.410    80341581.213    19303376.230  
  19303369.738  
  21906157.852   117018771.990    21906161.723    91014619.708    21906160.402  
  21906156.523  
  23287322.219   122375698.616    23287332.062    95357733.2844   23287332.074  
                
  19570276.234   104577602.705    19570280.891    81338196.133    19570280.621  
  19570275.113  
  20463717.555   109428686.284    20463721.902    85111729.826    20463721.836  
  20463716.168  
  21831397.172   116373559.858    21831403.465    90512835.051    21831403.223  
  21831395.262  
  20432595.305   107374021.608    20432601.488    83668143.9794   20432601.426  
                
  22428529.711   117862723.102    22428538.715    91841162.2004   22428538.984  
                
 21  8  9  0 34 50.0000000  0 17R18G 6R 1R 8G21G22G19G14G 1R17R16G24
                                R15R24R14G17G 3
  22432672.062   119747139.177    22432679.852    93137316.119    22432679.391  
  22432670.641  
  23334913.961   122625804.119    23334923.270    95552623.3164   23334924.352  
                
  22883325.688   122324489.076    22883332.613    95141316.735    22883331.566  
  22883323.305  
  22756231.852   121858561.663    22756236.887    94778927.344    22756236.910  
  22756231.453  
  24500170.328   128749250.363    24500176.516   100324115.2774                 
                
  22768212.516   119647793.443    22768217.305    93232079.2544                 
                
  20828766.602   109455917.709    20828770.801    85290345.4094                 
                
  20833001.625   109478176.312    20833008.195    85307698.2914   20833008.098  
                
  21724636.422   114163735.498    21724646.340    88958882.3054   21724645.988  
                
  19301573.695   103286641.149    19301578.867    80334099.803    19301578.688  
  19301572.172  
  21899878.234   116985227.336    21899882.082    90988529.417    21899880.734  
  21899876.934  
  23286407.734   122370892.923    23286417.535    95353988.5904   23286417.582  
                
  19571708.812   104585257.965    19571713.492    81344150.226    19571713.223  
  19571707.645  
  20468771.227   109455710.497    20468775.562    85132748.649    20468775.492  
  20468769.844  
  21839189.992   116415099.876    21839196.273    90545143.937    21839196.035  
  21839188.059  
  20432324.734   107372599.734    20432330.902    83667036.0284   20432330.848  
                
  22425636.539   117847519.361    22425645.508    91829315.1444   22425645.801  
                
 21  8  9  0 35  0.0000000  0 17R18G 6R 1R 8G21G22G19G14G 1R17R16G24
                                R15R24R14G17G 3
  22426074.484   119711920.953    22426082.262    93109924.177    22426081.809  
  22426073.117  
  23328175.734   122590394.512    23328184.984    95525031.4104   23328186.086  
                
  22878081.125   122296454.027    22878088.082    95119511.708    22878087.039  
  22878078.750  
  22756174.680   121858255.541    22756179.746    94778689.252    22756179.770  
  22756174.254  
  24506246.859   128781182.725    24506253.094   100348997.6174                 
                
  22768849.945   119651143.197    22768854.707    93234689.4534                 
                
  20824978.914   109436013.286    20824983.109    85274835.4704                 
                
  20836638.680   109497289.171    20836645.254    85322591.4214   20836645.152  
                
  21730183.289   114192884.493    21730193.203    88981595.8014   21730192.848  
                
  19299787.211   103277081.349    19299792.363    80326664.402    19299792.184  
  19299785.664  
  21893608.516   116951735.727    21893612.383    90962480.400    21893611.031  
  21893607.258  
  23285505.875   122366153.663    23285515.664    95350295.6704   23285515.734  
                
  19573158.203   104593003.084    19573162.906    81350174.202    19573162.637  
  19573156.980  
  20473831.672   109482770.998    20473836.012    85153795.702    20473835.941  
  20473830.293  
  21846989.633   116456676.371    21846995.934    90577481.208    21846995.703  
  21846987.711  
  20432061.062   107371214.161    20432067.223    83665956.3614   20432067.172  
                
  22422755.281   117832378.310    22422764.230    91817516.9324   22422764.531  
                
 21  8  9  0 35 10.0000000  0 17R18G 6R 1R 8G21G22G19G14G 1R17R16G24
                                R15R24R14G17G 3
  22419482.000   119676729.927    22419489.762    93082553.397    22419489.312  
  22419480.715  
  23321441.930   122555008.177    23321451.129    95497457.6444   23321452.273  
                
  22872847.578   122268477.758    22872854.551    95097752.372    22872853.547  
  22872845.160  
  22756133.867   121858037.009    22756138.965    94778519.286    22756138.980  
  22756133.395  
  24512324.898   128813122.966    24512331.152   100373886.1034                 
                
  22769499.617   119654557.307    22769504.355    93237349.8014                 
                
  20821198.516   109416147.156    20821202.719    85259355.3704                 
                
  20840285.734   109516454.611    20840292.320    85337525.5254   20840292.219  
                
  21735737.852   114222073.916    21735747.758    89004340.8044   21735747.398  
                
  19298011.766   103267580.589    19298016.895    80319274.922    19298016.703  
  19298010.188  
  21887348.750   116918297.291    21887352.625    90936472.734    21887351.234  
  21887347.551  
  23284616.602   122361480.562    23284626.418    95346654.3004   23284626.484  
                
  19574624.414   104600838.054    19574629.125    81356268.053    19574628.852  
  19574623.121  
  20478898.953   109509868.008    20478903.277    85174871.147    20478903.203  
  20478897.543  
  21854796.086   116498289.069    21854802.379    90609846.612    21854802.141  
  21854794.141  
  20431804.297   107369864.819    20431810.438    83664904.9194   20431810.379  
                
  22419885.945   117817299.951    22419894.879    91805767.5724   22419895.195  
                
 21  8  9  0 35 20.0000000  0 17R18G 6R 1R 8G21G22G19G14G 1R17R16G24
                                R15R24R14G17G 3
  22412894.711   119641566.618    22412902.430    93055204.170    22412901.957  
  22412893.520  
  23314712.648   122519645.661    23314721.871    95469902.4604   23314723.016  
                
  22867625.164   122240561.046    22867632.164    95076039.372    22867631.203  
  22867622.723  
  22756109.539   121857906.758    22756114.676    94778417.977    22756114.695  
  22756109.039  
  24518404.492   128845071.445    24518410.781   100398781.0184                 
                
  22770161.633   119658036.245    22770166.359    93240060.6644                 
                
  20817425.508   109396319.922    20817429.730    85243905.5764                 
                
  20843942.898   109535673.087    20843949.492    85352500.9534   20843949.387  
                
  21741300.188   114251304.172    21741310.090    89027117.6214   21741309.758  
                
  19296247.461   103258139.458    19296252.566    80311931.822    19296252.367  
  19296245.871  
  21881099.062   116884912.571    21881102.914    90910506.845    21881101.531  
  21881097.891  
  23283740.055   122356874.287    23283749.898    95343064.9974   23283749.938  
                
  19576107.531   104608763.393    19576112.277    81362432.205    19576112.008  
  19576106.184  
  20483973.078   109537001.582    20483977.402    85195975.033    20483977.328  
  20483971.668  
  21862609.438   116539938.539    21862615.730    90642240.620    21862615.516  
  21862607.488  
  20431554.516   107368552.219    20431560.645    83663882.1174   20431560.582  
                
  22417028.656   117802284.892    22417037.594    91794067.5494   22417037.902  
                
 21  8  9  0 35 30.0000000  0 17R18G 6R 1R 8G21G22G19G14G 1R17R16G24
                                R15R24R14G17G 3
  22406312.523   119606430.344    22406320.172    93027875.937    22406319.668  
  22406311.383  
  23307987.852   122484306.608    23307997.027    95442365.5484   23307998.215  
                
  22862413.852   122212703.513    22862420.863    95054372.385    22862419.938  
  22862411.383  
  22756101.570   121857863.964    22756106.738    94778384.688    22756106.746  
  22756101.078  
  24524485.578   128877027.658    24524491.879   100423681.9484                 
                
  22770835.922   119661579.637    22770840.637    93242821.7544                 
                
  20813659.836   109376531.093    20813664.078    85228485.7064                 
                
  20847610.062   109554944.097    20847616.672    85367517.3234   20847616.562  
                
  21746870.203   114280574.694    21746880.090    89049925.8124   21746879.773  
                
  19294494.188   103248757.379    19294499.285    80304634.659    19294499.098  
  19294492.598  
  21874859.406   116851581.465    21874863.238    90884582.672    21874861.863  
  21874858.238  
  23282876.141   122352334.370    23282886.004    95339527.4064   23282886.043  
                
  19577607.453   104616778.471    19577612.215    81368666.151    19577611.957  
  19577606.047  
  20489053.961   109564171.349    20489058.285    85217107.079    20489058.219  
  20489052.574  
  21870429.539   116581623.913    21870435.828    90674662.549    21870435.602  
  21870427.586  
  20431311.656   107367275.932    20431317.773    83662887.6044   20431317.711  
                
  22414183.359   117787332.733    22414192.281    91782416.5274   22414192.598  
                
 21  8  9  0 35 40.0000000  0 17R18G 6R 1R 8G21G22G19G14G 1R17R16G24
                                R15R24R14G17G 3
  22399735.422   119571321.466    22399743.066    93000569.054    22399742.551  
  22399734.371  
  23301267.516   122448991.157    23301276.703    95414847.0414   23301277.898  
                
  22857213.641   122184905.483    22857220.664    95032751.691    22857219.699  
  22857211.176  
  22756110.008   121857909.176    22756115.211    94778419.848    22756115.203  
  22756109.555  
  24530568.148   128908991.709    24530574.457   100448588.9764                 
                
  22771522.492   119665187.614    22771527.191    93245633.1684                 
                
  20809901.461   109356780.733    20809905.742    85213095.8104                 
                
  20851287.227   109574267.704    20851293.844    85382574.6544   20851293.723  
                
  21752447.867   114309885.493    21752457.734    89072765.3764   21752457.438  
                
  19292751.992   103239434.488    19292757.051    80297383.514    19292756.848  
  19292750.367  
  21868629.797   116818304.080    21868633.605    90858700.266    21868632.219  
  21868628.629  
  23282024.867   122347860.927    23282034.750    95336041.6164   23282034.793  
                
  19579124.219   104624883.612    19579129.012    81374970.141    19579128.750  
  19579122.762  
  20494141.602   109591377.210    20494145.891    85238267.178    20494145.828  
  20494140.195  
  21878256.414   116623345.481    21878262.711    90707112.631    21878262.473  
  21878254.465  
  20431075.703   107366036.001    20431081.793    83661921.4204   20431081.738  
                
  22411350.039   117772443.644    22411358.938    91770814.6494   22411359.273  
                
 21  8  9  0 35 50.0000000  0 17R18G 6R 1R 8G21G22G19G14G 1R17R16G24
                                R15R24R14G17G 3
  22393163.531   119536240.249    22393171.141    92973283.669    22393170.645  
  22393162.562  
  23294551.750   122413699.558    23294560.930    95387347.0964   23294562.117  
                
  22852024.594   122157167.199    22852031.656    95011177.474    22852030.672  
  22852022.148  
  22756134.836   121858042.093    22756140.062    94778523.220    22756140.043  
  22756134.438  
  24536652.242   128940963.743    24536658.539   100473502.2304                 
                
  22772221.359   119668860.188    22772226.023    93248494.9104                 
                
  20806150.445   109337069.010    20806154.773    85197736.0334                 
                
  20854974.422   109593644.003    20854981.055    85397673.0634   20854980.930  
                
  21758033.195   114339236.588    21758043.070    89095636.3554   21758042.777  
                
  19291020.867   103230170.985    19291025.914    80290178.579    19291025.703  
  19291019.250  
  21862410.289   116785080.600    21862414.059    90832859.787    21862412.672  
  21862409.125  
  23281186.258   122343454.078    23281196.168    95332607.7204   23281196.199  
                
  19580657.836   104633078.735    19580662.629    81381344.113    19580662.367  
  19580656.312  
  20499236.016   109618619.286    20499240.281    85259455.451    20499240.219  
  20499234.617  
  21886090.031   116665103.069    21886096.367    90739590.758    21886096.113  
  21886088.125  
  20430846.719   107364832.624    20430852.789    83660983.7224   20430852.734  
                
  22408528.781   117757617.852    22408537.672    91759262.0984   22408538.027  
                
 21  8  9  0 36  0.0000000  0 17R18G 6R 1R 8G21G22G19G14G 1R17R16G24
                                R15R24R14G17G 3
  22386596.781   119501186.468    22386604.363    92946019.619    22386603.887  
  22386595.879  
  23287840.477   122378431.661    23287849.594    95359865.6244   23287850.844  
                
  22846846.766   122129488.649    22846853.809    94989649.683    22846852.840  
  22846844.309  
  22756176.094   121858263.026    22756181.355    94778695.064    22756181.344  
  22756175.770  
  24542737.758   128972943.325    24542744.043   100498421.3914                 
                
  22772932.500   119672597.226    22772937.121    93251406.8984                 
                
  20802406.758   109317395.831    20802411.145    85182406.2944                 
                
  20858671.602   109613072.770    20858678.254    85412812.3584   20858678.113  
                
  21763626.148   114368627.683    21763636.035    89118538.5034   21763635.727  
                
  19289300.828   103220966.686    19289305.832    80283019.683    19289305.633  
  19289299.199  
  21856200.906   116751911.158    21856204.621    90807061.332    21856203.238  
  21856199.711  
  23280360.305   122339113.687    23280370.234    95329225.6084   23280370.273  
                
  19582208.250   104641363.714    19582213.074    81387787.990    19582212.809  
  19582206.676  
  20504337.125   109645897.206    20504341.391    85280671.616    20504341.324  
  20504335.754  
  21893930.359   116706896.384    21893936.719    90772096.653    21893936.469  
  21893928.469  
  20430624.648   107363665.637    20430630.703    83660074.3854   20430630.660  
                
  22405719.539   117742855.227    22405728.434    91747758.7644   22405728.773  
                
 21  8  9  0 36 10.0000000  0 17R18G 6R 1R 8G21G22G19G14G 1R17R16G24
                                R15R24R14G17G 3
  22380035.180   119466160.241    22380042.758    92918777.008    22380042.273  
  22380034.355  
  23281133.742   122343187.613    23281142.875    95332402.7444   23281144.133  
                
  22841680.125   122101870.010    22841687.152    94968168.518    22841686.191  
  22841677.668  
  22756233.727   121858571.634    22756239.008    94778935.086    22756238.992  
  22756233.453  
  24548824.727   129004930.465    24548830.965   100523346.4054                 
                
  22773655.906   119676398.795    22773660.480    93254369.1614                 
                
  20798670.406   109297761.213    20798674.852    85167106.5984                 
                
  20862378.773   109632554.052    20862385.441    85427992.5714   20862385.289  
                
  21769226.703   114398058.775    21769236.605    89141471.8084   21769236.270  
                
  19287591.844   103211821.561    19287596.801    80275906.803    19287596.598  
  19287590.219  
  21850001.688   116718796.003    21850005.359    90781305.077    21850003.992  
  21850000.449  
  23279547.016   122334839.809    23279556.938    95325895.3084   23279556.977  
                
  19583775.484   104649738.490    19583780.316    81394301.689    19583780.074  
  19583773.848  
  20509444.953   109673211.042    20509449.207    85301915.701    20509449.133  
  20509443.582  
  21901777.398   116748725.322    21901783.750    90804630.224    21901783.496  
  21901775.512  
  20430409.500   107362535.067    20430415.535    83659193.4154   20430415.504  
                
  22402922.352   117728155.912    22402931.254    91736304.7564   22402931.582  
                
 21  8  9  0 36 20.0000000  0 17R18G 6R 1R 8G21G22G19G14G 1R17R16G24
                                R15R24R14G17G 3
  22373478.781   119431161.774    22373486.379    92891555.990    22373485.891  
  22373478.020  
  23274431.578   122307967.562    23274440.738    95304958.5814   23274441.980  
                
  22836524.742   122074311.570    22836531.770    94946734.176    22836530.812  
  22836522.297  
  22756307.789   121858968.161    22756313.094    94779243.497    22756313.043  
  22756307.539  
  24554913.148   129036925.324    24554919.379   100548277.4654                 
                
  22774391.609   119680264.941    22774396.152    93257381.7474                 
                
  20794941.461   109278165.413    20794945.973    85151837.1394                 
                
  20866095.945   109652087.894    20866102.641    85443213.7454   20866102.480  
                
  21774834.883   114427529.862    21774844.809    89164436.2814   21774844.453  
                
  19285893.945   103202735.747    19285898.875    80268840.063    19285898.668  
  19285892.328  
  21843812.570   116685734.872    21843816.281    90755590.880    21843814.930  
  21843811.312  
  23278746.414   122330632.592    23278756.328    95322616.9514   23278756.359  
                
  19585359.570   104658203.351    19585364.426    81400885.471    19585364.180  
  19585357.891  
  20514559.516   109700560.851    20514563.770    85323187.771    20514563.684  
  20514558.164  
  21909631.102   116790589.904    21909637.492    90837191.563    21909637.234  
  21909629.262  
  20430201.320   107361441.053    20430207.344    83658340.9414   20430207.328  
                
  22400137.242   117713520.072    22400146.164    91724900.2104   22400146.480  
                
 21  8  9  0 36 30.0000000  0 17R18G 6R 1R 8G21G22G19G14G 1R17R16G24
                                R15R24R14G17G 3
  22366927.516   119396190.834    22366935.148    92864356.394    22366934.648  
  22366926.844  
  23267733.977   122272771.521    23267743.098    95277533.0954   23267744.375  
                
  22831380.602   122046813.337    22831387.621    94925346.672    22831386.680  
  22831378.207  
  22756398.258   121859452.623    22756403.562    94779620.285    22756403.516  
  22756398.008  
  24561003.000   129068927.683    24561009.203   100573214.3514                 
                
  22775139.578   119684195.618    22775144.090    93260444.6214                 
                
  20791219.836   109258608.239    20791224.422    85136597.7964                 
                
  20869823.094   109671674.142    20869829.805    85458475.7424   20869829.641  
                
  21780450.602   114457040.705    21780460.555    89187431.7324   21780460.188  
                
  19284207.094   103193709.093    19284211.984    80261819.329    19284211.777  
  19284205.469  
  21837633.672   116652728.428    21837637.430    90729919.209    21837636.031  
  21837632.395  
  23277958.469   122326491.872    23277968.383    95319390.4184   23277968.410  
                
  19586960.453   104666757.966    19586965.316    81407539.044    19586965.074  
  19586958.734  
  20519680.727   109727946.307    20519684.984    85344487.569    20519684.891  
  20519679.402  
  21917491.422   116832489.902    21917497.844    90869780.452    21917497.566  
  21917489.613  
  20430000.070   107360383.468    20430006.074    83657516.8434   20430006.066  
                
  22397364.203   117698947.688    22397373.148    91713545.1124   22397373.441  
                
 21  8  9  0 36 40.0000000  0 17R18G 6R 1R 8G21G22G19G14G 1R17R16G24
                                R15R24R14G17G 3
  22360381.469   119361247.623    22360389.125    92837178.362    22360388.617  
  22360380.859  
  23261040.969   122237599.516    23261050.105    95250126.3524   23261051.371  
                
  22826247.758   122019375.398    22826254.770    94904006.063    22826253.816  
  22826245.406  
  22756505.133   121860024.782    22756510.418    94780065.286    22756510.375  
  22756504.863  
  24567094.289   129100937.440    24567100.449   100598156.9944                 
                
  22775899.844   119688190.784    22775904.312    93263557.7384                 
                
  20787505.586   109239089.718    20787510.230    85121388.5714                 
                
  20873560.211   109691312.751    20873566.938    85473778.5474   20873566.773  
                
  21786073.891   114486591.216    21786083.855    89210458.1004   21786083.480  
                
  19282531.328   103184741.681    19282536.184    80254844.675    19282535.973  
  19282529.684  
  21831465.031   116619776.591    21831468.828    90704290.012    21831467.418  
  21831463.699  
  23277183.203   122322417.735    23277193.109    95316215.7554   23277193.133  
                
  19588578.180   104675402.477    19588583.043    81414262.537    19588582.797  
  19588576.438  
  20524808.648   109755367.605    20524812.926    85365815.255    20524812.828  
  20524807.332  
  21925358.391   116874425.057    21925364.809    90902396.655    21925364.539  
  21925356.602  
  20429805.758   107359362.299    20429811.750    83656721.1314   20429811.750  
                
  22394603.266   117684438.840    22394612.223    91702239.5184   22394612.504  
                
 21  8  9  0 36 50.0000000  0 17R18G 6R 1R 8G21G22G19G14G 1R17R16G24
                                R15R24R14G17G 3
  22353840.641   119326332.347    22353848.328    92810022.066    22353847.828  
  22353840.098  
  23254352.555   122202451.721    23254361.680    95222738.4754   23254362.953  
                
  22821126.281   121991998.259    22821133.273    94882712.730    22821132.328  
  22821123.930  
  22756628.406   121860684.900    22756633.672    94780578.703    22756633.613  
  22756628.129  
  24573186.992   129132954.664    24573193.145   100623105.4564                 
                
  22776672.367   119692250.464    22776676.809    93266721.1294                 
                
  20783798.727   109219610.056    20783803.414    85106209.6184                 
                
  20877307.297   109711003.775    20877314.035    85489122.1834   20877313.867  
                
  21791704.719   114516181.402    21791714.680    89233515.3864   21791714.305  
                
  19280866.625   103175833.509    19280871.453    80247916.091    19280871.227  
  19280864.992  
  21825306.602   116586879.396    21825310.453    90678703.314    21825309.055  
  21825305.223  
  23276420.578   122318410.179    23276430.520    95313092.9924   23276430.520  
                
  19590212.711   104684136.902    19590217.582    81421055.972    19590217.355  
  19590210.980  
  20529943.234   109782824.492    20529947.520    85387170.600    20529947.422  
  20529941.887  
  21933231.945   116916395.458    21933238.359    90935040.279    21933238.102  
  21933230.184  
  20429618.383   107358377.649    20429624.371    83655953.8724   20429624.375  
                
  22391854.430   117669993.659    22391863.406    91690983.5414   22391863.684  
                
 21  8  9  0 37  0.0000000  0 17R18G 6R 1R 8G21G22G19G14G 1R17R16G24
                                R15R24R14G17G 3
  22347305.008   119291444.820    22347312.723    92782887.353    22347312.199  
  22347304.504  
  23247668.719   122167328.115    23247677.832    95195369.4554   23247679.129  
                
  22816016.148   121964681.703    22816023.086    94861466.515    22816022.152  
  22816013.805  
  22756768.102   121861432.978    22756773.312    94781160.538    22756773.258  
  22756767.766  
  24579281.078   129164979.330    24579287.223   100648059.7304                 
                
  22777457.164   119696374.606    22777461.570    93269934.7514                 
                
  20780099.242   109200169.181    20780103.961    85091060.8814                 
                
  20881064.328   109730747.104    20881071.078    85504506.5914   20881070.906  
                
  21797343.062   114545811.097    21797353.020    89256603.4554   21797352.641  
                
  19279212.977   103166984.520    19279217.770    80241033.541    19279217.527  
  19279211.367  
  21819158.461   116554037.221    21819162.375    90653159.418    21819161.004  
  21819157.023  
  23275670.656   122314469.248    23275680.602    95310022.1284   23275680.586  
                
  19591864.016   104692961.018    19591868.898    81427919.172    19591868.672  
  19591862.320  
  20535084.414   109810316.667    20535088.695    85408553.389    20535088.598  
  20535083.051  
  21941112.047   116958400.867    21941118.473    90967711.156    21941118.219  
  21941110.316  
  20429437.930   107357429.419    20429443.918    83655214.9964   20429443.922  
                
  22389117.719   117655612.179    22389126.703    91679777.1954   22389126.977  
                
 21  8  9  0 37 10.0000000  0 17R18G 6R 1R 8G21G22G19G14G 1R17R16G24
                                R15R24R14G17G 3
  22340774.555   119256584.821    22340782.293    92755774.030    22340781.762  
  22340774.027  
  23240989.469   122132228.364    23240998.617    95168019.0074   23240999.855  
                
  22810917.320   121937425.637    22810924.234    94840267.355    22810923.359  
  22810914.984  
  22756924.109   121862268.389    22756929.293    94781810.311    22756929.238  
  22756923.691  
  24585376.492   129197010.802    24585382.605   100673019.2954                 
                
  22778254.141   119700562.713    22778258.508    93273198.2094                 
                
  20776407.070   109180766.652    20776411.824    85075942.0274                 
                
  20884831.234   109750542.224    20884837.988    85519931.3374   20884837.797  
                
  21802988.820   114575479.695    21802998.781    89279721.8374   21802998.383  
                
  19277570.320   103158194.288    19277575.078    80234196.686    19277574.828  
  19277568.762  
  21813020.547   116521249.599    21813024.504    90627657.938    21813023.141  
  21813019.059  
  23274933.297   122310594.393    23274943.262    95307002.7564   23274943.238  
                
  19593532.078   104701874.514    19593536.953    81434851.872    19593536.719  
  19593530.410  
  20540232.172   109837843.926    20540236.441    85429963.465    20540236.340  
  20540230.789  
  21948998.641   117000440.725    21949005.066    91000408.799    21949004.801  
  21948996.918  
  20429264.336   107356517.119    20429270.324    83654504.1094   20429270.328  
                
  22386393.070   117641293.982    22386402.062    91668620.1514   22386402.328  
                
 21  8  9  0 37 20.0000000  0 17R18G 6R 1R 8G21G22G19G14G 1R17R16G24
                                R15R24R14G17G 3
  22334249.289   119221752.864    22334257.105    92728682.567    22334256.562  
  22334248.793  
  23234314.875   122097153.258    23234323.984    95140687.7724   23234325.250  
                
  22805829.961   121910230.918    22805836.855    94819115.912    22805835.973  
  22805827.660  
  22757096.609   121863192.115    22757101.754    94782528.749    22757101.699  
  22757096.094  
  24591473.297   129229049.861    24591479.418   100697984.8094                 
                
  22779063.430   119704815.656    22779067.746    93276512.1954                 
                
  20772722.344   109161403.392    20772727.145    85060853.7774                 
                
  20888608.125   109770389.919    20888614.891    85535397.0654   20888614.688  
                
  21808642.102   114605187.946    21808652.074    89302871.1154   21808651.664  
                
  19275938.766   103149463.626    19275943.508    80227406.175    19275943.250  
  19275937.293  
  21806892.992   116488517.476    21806897.000    90602199.631    21806895.633  
  21806891.480  
  23274208.664   122306786.499    23274218.668    95304035.5694   23274218.617  
                
  19595216.945   104710878.017    19595221.828    81441854.589    19595221.605  
  19595215.332  
  20545386.523   109865406.647    20545390.812    85451401.135    20545390.699  
  20545385.121  
  21956891.766   117042515.542    21956898.191    91033133.649    21956897.926  
  21956890.062  
  20429097.711   107355641.606    20429103.723    83653821.8954   20429103.711  
                
  22383680.609   117627039.984    22383689.621    91657513.1454   22383689.887  
                
 21  8  9  0 37 30.0000000  0 17R18G 6R 1R 8G21G22G19G14G 1R17R16G24
                                R15R24R14G17G 3
  22327729.352   119186948.997    22327737.188    92701612.918    22327736.637  
  22327728.848  
  23227644.961   122062102.598    23227654.070    95113375.5834   23227655.340  
                
  22800754.086   121883097.350    22800760.953    94798012.033    22800760.066  
  22800751.805  
  22757285.570   121864203.771    22757290.656    94783315.567    22757290.621  
  22757285.008  
  24597571.539   129261096.112    24597577.617   100722955.8824                 
                
  22779885.023   119709133.075    22779889.285    93279876.4174                 
                
  20769045.062   109142079.067    20769049.910    85045795.8724                 
                
  20892394.969   109790289.797    20892401.734    85550903.4534   20892401.543  
                
  21814302.867   114634935.359    21814312.855    89326050.9194   21814312.434  
                
  19274318.305   103140792.055    19274323.004    80220661.614    19274322.738  
  19274316.906  
  21800775.859   116455840.768    21800779.902    90576784.431    21800778.555  
  21800774.332  
  23273496.727   122303045.159    23273506.781    95301120.2454   23273506.719  
                
  19596918.633   104719971.164    19596923.516    81448927.033    19596923.301  
  19596917.086  
  20550547.516   109893004.649    20550551.816    85472866.239    20550551.695  
  20550546.082  
  21964791.422   117084624.996    21964797.832    91065885.433    21964797.547  
  21964789.738  
  20428938.070   107354802.560    20428944.086    83653168.0904   20428944.070  
                
  22380980.328   117612849.870    22380989.363    91646455.9224   22380989.629  
                
 21  8  9  0 37 40.0000000  0 17R18G 6R 1R 8G21G22G19G14G 1R17R16G24
                                R15R24R14G17G 3
  22321214.594   119152172.978    22321222.449    92674564.941    22321221.906  
  22321214.102  
  23220979.648   122027076.296    23220988.801    95086082.3784   23220990.043  
                
  22795689.594   121856024.904    22795696.434    94776955.691    22795695.531  
  22795687.340  
  22757490.875   121865303.125    22757495.879    94784170.595    22757495.887  
  22757490.301  
  24603671.070   129293149.397    24603677.098   100747932.4624                 
                
  22780718.820   119713514.796    22780723.055    93283290.7484                 
                
  20765375.133   109122793.588    20765380.027    85030768.2424                 
                
  20896191.680   109810241.680    20896198.445    85566450.3644   20896198.266  
                
  21819971.031   114664721.765    21819981.004    89349261.0924   21819980.594  
                
  19272708.836   103132179.555    19272713.516    80213963.004    19272713.246  
  19272707.523  
  21794669.086   116423219.637    21794673.176    90551412.454    21794671.848  
  21794667.543  
  23272797.398   122299370.326    23272807.520    95298256.7484   23272807.406  
                
  19598637.062   104729153.961    19598641.949    81456069.191    19598641.723  
  19598635.574  
  20555714.992   109920637.559    20555719.312    85494358.498    20555719.184  
  20555713.547  
  21972697.461   117126768.683    21972703.875    91098663.847    21972703.605  
  21972695.789  
  20428785.297   107353999.794    20428791.320    83652542.5514   20428791.289  
                
  22378292.172   117598723.607    22378301.230    91635448.4504   22378301.484  
                
 21  8  9  0 37 50.0000000  0 17R18G 6R 1R 8G21G22G19G14G 1R17R16G24
                                R15R24R14G17G 3
  22314705.117   119117425.022    22314712.969    92647538.773    22314712.398  
  22314704.613  
  23214319.023   121992074.547    23214328.160    95058808.3014   23214329.414  
                
  22790636.617   121829013.957    22790643.441    94755947.193    22790642.527  
  22790634.398  
  22757712.586   121866490.440    22757717.535    94785094.076    22757717.582  
  22757712.055  
  24609771.977   129325209.730    24609777.953   100772914.5064                 
                
  22781564.891   119717960.918    22781569.113    93286755.2674                 
                
  20761712.648   109103547.146    20761717.594    85015771.0204                 
                
  20899998.328   109830245.698    20900005.105    85582037.9044   20900004.926  
                
  21825646.625   114694547.171    21825656.570    89372501.6624   21825656.168  
                
  19271110.445   103123626.185    19271115.086    80207310.377    19271114.809  
  19271109.191  
  21788572.680   116390653.791    21788576.816    90526083.463    21788575.480  
  21788571.148  
  23272110.797   122295762.122    23272120.949    95295445.1544   23272120.812  
                
  19600372.266   104738426.396    19600377.168    81463281.091    19600376.945  
  19600370.867  
  20560889.062   109948305.607    20560893.395    85515878.087    20560893.262  
  20560887.559  
  21980609.984   117168946.753    21980616.387    91131468.987    21980616.105  
  21980608.293  
  20428639.469   107353233.456    20428645.508    83651945.4094   20428645.469  
                
  22375616.219   117584661.376    22375625.297    91624490.8774   22375625.562  
                
 21  8  9  0 38  0.0000000  0 17R18G 6R 1R 8G21G22G19G14G 1R17R16G24
                                R15R24R14G17G 3
  22308200.938   119082705.303    22308208.781    92620534.553    22308208.199  
  22308200.398  
  23207663.102   121957097.545    23207672.285    95031553.5134   23207673.496  
                
  22785595.172   121802064.686    22785602.000    94734986.653    22785601.070  
  22785592.977  
  22757950.734   121867765.674    22757955.633    94786085.922    22757955.680  
  22757950.230  
  24615874.203   129357277.160    24615880.199   100797902.1124                 
                
  22782423.227   119722471.531    22782427.418    93290270.0274                 
                
  20758057.602   109084339.808    20758062.602    85000804.2714                 
                
  20903814.891   109850301.876    20903821.668    85597666.0834   20903821.480  
                
  21831329.633   114724411.570    21831339.539    89395772.6124   21831339.148  
                
  19269523.109   103115132.098    19269527.727    80200703.867    19269527.441  
  19269521.922  
  21782486.742   116358143.917    21782490.945    90500798.030    21782489.582  
  21782485.242  
  23271436.867   122292220.624    23271447.055    95292685.5444   23271446.883  
                
  19602124.250   104747788.476    19602129.152    81470562.702    19602128.930  
  19602122.922  
  20566069.680   109976008.678    20566074.008    85537424.906    20566073.875  
  20566068.117  
  21988528.914   117211159.198    21988535.316    91164300.910    21988535.035  
  21988527.254  
  20428500.602   107352503.698    20428506.645    83651376.7644   20428506.602  
                
  22372952.477   117570663.368    22372961.566    91613583.3414   22372961.832  
                
 21  8  9  0 38 10.0000000  0 17R18G 6R 1R 8G21G22G19G14G 1R17R16G24
                                R15R24R14G17G 3
  22301702.055   119048013.985    22301709.914    92593552.467    22301709.328  
  22301701.504  
  23201011.898   121922145.281    23201021.129    95004318.0014   23201022.285  
                
  22780565.305   121775177.172    22780572.113    94714074.149    22780571.199  
  22780563.160  
  22758205.320   121869128.955    22758210.188    94787146.243    22758210.230  
  22758204.863  
  24621977.773   129389351.515    24621983.750   100822895.0944                 
                
  22783293.836   119727046.609    22783297.980    93293835.0264                 
                
  20754410.016   109065171.572    20754415.039    84985867.9884                 
                
  20907641.391   109870410.154    20907648.152    85613334.8534   20907647.973  
                
  21837020.039   114754314.820    21837029.898    89419073.8404   21837029.520  
                
  19267946.859   103106697.208    19267951.449    80194143.395    19267951.168  
  19267945.711  
  21776411.328   116325690.146    21776415.566    90475556.211    21776414.180  
  21776409.836  
  23270775.617   122288745.795    23270785.852    95289977.9004   23270785.648  
                
  19603893.039   104757240.336    19603897.945    81477914.150    19603897.723  
  19603891.801  
  20571256.820   110003746.607    20571261.141    85558998.843    20571261.008  
  20571255.266  
  21996454.258   117253405.712    21996460.645    91197159.301    21996460.371  
  21996452.582  
  20428368.680   107351810.458    20428374.727    83650836.5724   20428374.684  
                
  22370300.969   117556729.609    22370310.082    91602725.8714   22370310.320  
                
 21  8  9  0 38 20.0000000  0 17R18G 6R 1R 8G21G22G19G14G 1R17R16G24
                                R15R24R14G17G 3
  22295208.445   119013350.726    22295216.285    92566592.159    22295215.688  
  22295207.871  
  23194365.398   121887217.673    23194374.570    94977101.6714   23194375.727  
                
  22775546.969   121748351.445    22775553.750    94693209.706    22775552.887  
  22775544.863  
  22758476.305   121870579.937    22758481.137    94788274.761    22758481.188  
  22758475.875  
  24628082.609   129421432.589    24628088.574   100847893.3204                 
                
  22784176.656   119731685.901    22784180.758    93297450.0634                 
                
  20750769.820   109046042.274    20750774.871    84970962.0474                 
                
  20911477.734   109890570.238    20911484.488    85629043.9964   20911484.320  
                
  21842717.781   114784256.628    21842727.613    89442405.1124   21842727.234  
                
  19266381.656   103098321.460    19266386.215    80187628.915    19266385.934  
  19266380.535  
  21770346.305   116293291.950    21770350.598    90450357.627    21770349.184  
  21770344.863  
  23270127.062   122285337.498    23270137.297    95287322.0644   23270137.078  
                
  19605678.562   104766781.622    19605683.469    81485335.145    19605683.242  
  19605677.402  
  20576450.438   110031519.168    20576454.754    85580599.714    20576454.617  
  20576448.895  
  22004385.938   117295685.982    22004392.324    91230043.945    22004392.047  
  22004384.238  
  20428243.672   107351153.500    20428249.723    83650324.6534   20428249.684  
                
  22367661.672   117542859.979    22367670.805    91591918.3654   22367671.039  
                
 21  8  9  0 38 30.0000000  0 17R18G 6R 1R 8G21G22G19G14G 1R17R16G24
                                R15R24R14G17G 3
  22288720.172   118978715.927    22288728.008    92539654.005    22288727.414  
  22288719.590  
  23187723.648   121852315.139    23187732.887    94949904.9214   23187733.996  
                
  22770540.328   121721588.106    22770547.086    94672393.789    22770546.246  
  22770538.262  
  22758763.766   121872119.104    22758768.582    94789471.864    22758768.609  
  22758763.344  
  24634188.789   129453520.733    24634194.766   100872897.0674                 
                
  22785071.789   119736389.847    22785075.848    93301115.4854                 
                
  20747137.141   109026952.423    20747142.207    84956086.8494                 
                
  20915324.031   109910782.542    20915330.766    85644793.8294   20915330.602  
                
  21848422.914   114814237.286    21848432.723    89465766.6654   21848432.344  
                
  19264827.523   103090004.969    19264832.066    80181160.535    19264831.785  
  19264826.434  
  21764291.953   116260950.703    21764296.281    90425203.334    21764294.902  
  21764290.566  
  23269491.227   122281996.109    23269501.473    95284718.3714   23269501.238  
                
  19607480.906   104776412.695    19607485.805    81492825.978    19607485.578  
  19607479.812  
  20581650.617   110059326.815    20581654.938    85602227.882    20581654.812  
  20581649.074  
  22012324.031   117338000.357    22012330.391    91262955.102    22012330.121  
  22012322.297  
  20428125.641   107350533.232    20428131.695    83649841.3274   20428131.660  
                
  22365034.664   117529054.943    22365043.832    91581161.1994   22365044.047  
                
 21  8  9  0 38 40.0000000  0 17R18G 6R 1R 8G21G22G19G14G 1R17R16G24
                                R15R24R14G17G 3
  22282237.141   118944109.061    22282244.934    92512737.555    22282244.344  
  22282236.520  
  23181086.602   121817437.200    23181095.855    94922727.3054   23181096.926  
                
  22765545.234   121694886.658    22765551.984    94651626.025    22765551.141  
  22765543.234  
  22759067.516   121873745.643    22759072.309    94790736.943    22759072.336  
  22759067.074  
  24640296.195   129485615.315    24640302.188   100897905.8154                 
                
  22785979.109   119741157.818    22785983.129    93304830.7794                 
                
  20743511.852   109007901.400    20743516.910    84941241.9034                 
                
  20919180.125   109931046.385    20919186.844    85660583.8164   20919186.684  
                
  21854135.312   114844256.094    21854145.102    89489157.9374   21854144.734  
                
  19263284.383   103081747.243    19263288.891    80174737.849    19263288.617  
  19263283.316  
  21758248.078   116228665.337    21758252.406    90400092.479    21758251.055  
  21758246.730  
  23268868.008   122278721.007    23268878.258    95282166.3354   23268877.996  
                
  19609299.914   104786132.895    19609304.809    81500386.123    19609304.586  
  19609298.875  
  20586857.180   110087168.599    20586861.496    85623882.590    20586861.379  
  20586855.645  
  22020268.367   117380348.038    22020274.695    91295892.167    22020274.426  
  22020266.586  
  20428014.484   107349949.048    20428020.527    83649386.1114   20428020.504  
                
  22362419.836   117515313.950    22362429.020    91570453.9304   22362429.215  
                
 21  8  9  0 38 50.0000000  0 17R18G 6R 1R 8G21G22G19G14G 1R17R16G24
                                R15R24R14G17G 3
  22275759.477   118909530.990    22275767.246    92485843.525    22275766.652  
  22275758.863  
  23174454.328   121782584.508    23174463.613    94895569.3844   23174464.645  
                
  22760561.867   121668247.758    22760568.578    94630906.887    22760567.742  
  22760559.902  
  22759387.734   121875460.473    22759392.504    94792070.707    22759392.531  
  22759387.258  
  24646404.930   129517716.899    24646410.938   100922920.0224                 
                
  22786898.719   119745990.455    22786902.746    93308596.4764                 
                
  20739894.062   108988889.906    20739899.117    84926427.7624                 
                
  20923046.133   109951362.376    20923052.848    85676414.4474   20923052.699  
                
  21859855.062   114874313.600    21859864.828    89512579.3734   21859864.473  
                
  19261752.336   103073548.980    19261756.828    80168361.417    19261756.559  
  19261751.312  
  21752214.758   116196436.540    21752219.121    90375025.656    21752217.805  
  21752213.480  
  23268257.500   122275512.845    23268267.750    95279666.4674   23268267.480  
                
  19611135.711   104795942.893    19611140.613    81508016.127    19611140.383  
  19611134.754  
  20592070.234   110115045.230    20592074.559    85645564.415    20592074.441  
  20592068.715  
  22028219.023   117422729.531    22028225.367    91328855.545    22028225.113  
  22028217.215  
  20427910.305   107349401.631    20427916.363    83648959.5574   20427916.332  
                
  22359817.320   117501637.716    22359826.520    91559797.1414   22359826.719  
                
 21  8  9  0 39  0.0000000  0 17R18G 6R 1R 8G21G22G19G14G 1R17R16G24
                                R15R24R14G17G 3
  22269287.117   118874981.181    22269294.855    92458971.480    22269294.281  
  22269286.516  
  23167826.805   121747756.643    23167836.164    94868430.7904   23167837.109  
                
  22755590.117   121641671.071    22755596.836    94610236.163    22755595.992  
  22755588.230  
  22759724.375   121877263.205    22759729.141    94793472.849    22759729.188  
  22759723.852  
  24652514.883   129549824.871    24652520.918   100947939.2104                 
                
  22787830.547   119750887.208    22787834.562    93312412.1244                 
                
  20736283.734   108969917.514    20736288.770    84911644.0864                 
                
  20926921.961   109971729.926    20926928.664    85692285.2514   20926928.523  
                
  21865582.055   114904409.149    21865591.793    89536030.4474   21865591.473  
                
  19260231.289   103065409.568    19260235.777    80162030.768    19260235.512  
  19260230.324  
  21746192.078   116164264.462    21746196.434    90350002.934    21746195.148  
  21746190.848  
  23267659.641   122272371.078    23267669.863    95277218.3464   23267669.605  
                
  19612988.234   104805842.204    19612993.133    81515715.586    19612992.898  
  19612987.336  
  20597289.727   110142956.159    20597294.055    85667272.909    20597293.949  
  20597288.203  
  22036175.930   117465144.225    22036182.266    91361844.732    22036181.984  
  22036174.070  
  20427813.031   107348890.418    20427819.102    83648561.2094   20427819.074  
                
  22357227.055   117488025.764    22357236.250    91549190.4274   22357236.449  
                
 21  8  9  0 39 10.0000000  0 17R18G 6R 1R 8G21G22G19G14G 1R17R16G24
                                R15R24R14G17G 3
  22262820.070   118840459.695    22262827.766    92432121.461    22262827.207  
  22262819.469  
  23161204.070   121712953.895    23161213.375    94841311.7684   23161214.328  
                
  22750630.102   121615157.067    22750636.859    94589614.190    22750636.012  
  22750628.273  
  22760077.406   121879153.709    22760082.195    94794943.256    22760082.254  
  22760076.801  
  24658626.102   129581939.465    24658632.137   100972963.5564                 
                
  22788774.602   119755848.281    22788778.625    93316277.9024                 
                
  20732680.906   108950984.467    20732685.910    84896891.0594                 
                
  20930807.656   109992149.258    20930814.352    85708196.4024   20930814.211  
                
  21871316.328   114934542.909    21871326.043    89559511.2984   21871325.754  
                
  19258721.312   103057329.295    19258725.777    80155746.100    19258725.512  
  19258720.395  
  21740180.000   116132149.005    21740184.348    90325024.250    21740183.082  
  21740178.816  
  23267074.492   122269296.003    23267084.633    95274822.1694   23267084.391  
                
  19614857.469   104815830.760    19614862.363    81523484.460    19614862.129  
  19614856.633  
  20602515.648   110170901.413    20602519.980    85689008.096    20602519.887  
  20602514.121  
  22044139.062   117507592.125    22044145.387    91394859.750    22044145.105  
  22044137.172  
  20427722.703   107348415.699    20427728.785    83648191.2964   20427728.762  
                
  22354649.086   117474478.434    22354658.273    91538634.0734   22354658.484  
                
 21  8  9  0 39 20.0000000  0 17R18G 6R 1R 8G21G22G19G14G 1R17R16G24
                                R15R24R14G17G 3
  22256358.383   118805966.792    22256366.000    92405293.649    22256365.441  
  22256357.750  
  23154586.117   121678176.377    23154595.449    94814212.4054   23154596.352  
                
  22745681.820   121588705.790    22745688.598    94569040.992    22745687.723  
  22745680.055  
  22760446.891   121881132.257    22760451.711    94796482.122    22760451.762  
  22760446.168  
  24664738.570   129614060.648    24664744.621   100997993.0394                 
                
  22789730.906   119760873.679    22789734.918    93320193.7954                 
                
  20729085.562   108932090.801    20729090.523    84882168.7254                 
                
  20934703.188   110012620.356    20934709.867    85724147.8834   20934709.742  
                
  21877057.852   114964714.801    21877067.551    89583021.8564   21877067.273  
                
  19257222.383   103049308.178    19257226.840    80149507.451    19257226.578  
  19257221.527  
  21734178.586   116100090.604    21734182.926    90300089.949    21734181.695  
  21734177.473  
  23266502.008   122266287.626    23266512.078    95272477.9804   23266511.859  
                
  19616743.438   104825908.779    19616748.328    81531322.918    19616748.086  
  19616742.672  
  20607747.953   110198880.924    20607752.293    85710769.937    20607752.199  
  20607746.453  
  22052108.422   117550073.158    22052114.746    91427900.518    22052114.477  
  22052106.480  
  20427639.312   107347977.471    20427645.410    83647849.8144   20427645.379  
                
  22352083.430   117460995.812    22352092.621    91528128.1334   22352092.820  
                
 21  8  9  0 39 30.0000000  0 17R18G 6R 1R 8G21G22G19G14G 1R17R16G24
                                R15R24R14G17G 3
  22249902.039   118771502.426    22249909.562    92378488.044    22249908.996  
  22249901.371  
  23147972.961   121643424.082    23147982.387    94787132.7214   23147983.207  
                
  22740745.312   121562317.483    22740752.113    94548516.783    22740751.234  
  22740743.605  
  22760832.789   121883198.565    22760837.609    94798089.225    22760837.664  
  22760831.961  
  24670852.266   129646188.256    24670858.312   101023027.5264                 
                
  22790699.438   119765963.359    22790703.445    93324159.7834                 
                
  20725497.672   108913236.331    20725502.602    84867476.9404                 
                
  20938608.547   110033143.123    20938615.227    85740139.6484   20938615.117  
                
  21882806.609   114994924.682    21882816.309    89606562.0224   21882816.047  
                
  19255734.477   103041346.100    19255738.926    80143314.727    19255738.664  
  19255733.672  
  21728187.891   116068089.320    21728192.184    90275200.053    21728190.973  
  21728186.824  
  23265942.211   122263345.897    23265952.203    95270185.7324   23265952.012  
                
  19618646.133   104836076.188    19618651.023    81539230.901    19618650.781  
  19618645.426  
  20612986.672   110226894.637    20612991.012    85732558.375    20612990.926  
  20612985.188  
  22060083.984   117592587.212    22060090.312    91460966.971    22060090.043  
  22060082.004  
  20427562.852   107347575.638    20427568.965    83647536.6994   20427568.926  
                
  22349530.078   117447577.910    22349539.281    91517672.6374   22349539.480  
                
 21  8  9  0 39 40.0000000  0 17R18G 6R 1R 8G21G22G19G14G 1R17R16G24
                                R15R24R14G17G 3
  22243451.039   118737066.640    22243458.492    92351704.668    22243457.945  
  22243450.352  
  23141364.633   121608697.009    23141374.020    94760072.6404   23141374.812  
                
  22735820.570   121535992.105    22735827.391    94528041.519    22735826.562  
  22735818.938  
  22761235.070   121885352.706    22761239.883    94799764.648    22761239.949  
  22761234.176  
  24676967.141   129678322.150    24676973.188   101048066.9194                 
                
  22791680.188   119771117.181    22791684.195    93328175.7424                 
                
  20721917.266   108894421.217    20721922.164    84852815.8154                 
                
  20942523.719   110053717.402    20942530.391    85756171.5324   20942530.285  
                
  21888562.555   115025172.335    21888572.281    89630131.6144   21888571.996  
                
  19254257.570   103033442.861    19254262.008    80137167.765    19254261.750  
  19254256.809  
  21722207.836   116036144.910    21722212.098    90250354.397    21722210.879  
  21722206.812  
  23265395.086   122260470.698    23265404.988    95267945.3094   23265404.852  
                
  19620565.516   104846332.779    19620570.398    81547208.242    19620570.145  
  19620564.867  
  20618231.711   110254942.186    20618236.047    85754373.121    20618235.953  
  20618230.230  
  22068065.633   117635133.845    22068071.949    91494058.790    22068071.688  
  22068063.660  
  20427493.289   107347210.105    20427499.422    83647251.8634   20427499.379  
                
  22346989.047   117434224.694    22346998.246    91507267.5304   22346998.430  
                
 21  8  9  0 39 50.0000000  0 17R18G 6R 1R 8G21G22G19G14G 1R17R16G24
                                R15R24R14G17G 3
  22237005.445   118702659.594    22237012.816    92324943.627    22237012.289  
  22237004.719  
  23134761.109   121573995.340    23134770.562    94733032.3954   23134771.293  
                
  22730907.695   121509730.083    22730914.523    94507615.522    22730913.691  
  22730906.129  
  22761653.773   121887594.880    22761658.605    94801508.560    22761658.668  
  22761652.902  
  24683083.234   129710462.400    24683089.301   101073111.2554                 
                
  22792673.164   119776335.310    22792677.199    93332241.8204                 
                
  20718344.398   108875645.688    20718349.262    84838185.5354                 
                
  20946448.703   110074343.285    20946455.371    85772243.6254   20946455.273  
                
  21894325.688   115055457.792    21894335.438    89653730.6614   21894335.145  
                
  19252791.711   103025598.762    19252796.137    80131066.793    19252795.891  
  19252790.984  
  21716238.547   116004258.069    21716242.766    90225553.514    21716241.527  
  21716237.547  
  23264860.648   122257662.202    23264870.477    95265756.8774   23264870.363  
                
  19622501.633   104856678.765    19622506.512    81555255.116    19622506.254  
  19622501.039  
  20623483.125   110283023.855    20623487.457    85776214.408    20623487.363  
  20623481.641  
  22076053.445   117677713.299    22076059.754    91527176.114    22076059.516  
  22076051.449  
  20427430.680   107346881.056    20427436.816    83646995.4504   20427436.770  
                
  22344460.352   117420936.359    22344469.551    91496912.9894   22344469.723  
                
 21  8  9  0 40  0.0000000  0 17R18G 6R 1R 8G21G22G19G14G 1R17R16G24
                                R15R24R14G17G 3
  22230565.164   118668281.077    22230572.523    92298204.806    22230572.012  
  22230564.434  
  23128162.414   121539319.009    23128171.871    94706011.8854   23128172.578  
                
  22726006.633   121483531.258    22726013.492    94487238.691    22726012.645  
  22726005.121  
  22762088.883   121889924.867    22762093.734    94803320.767    22762093.797  
  22762088.043  
  24689200.484   129742608.756    24689206.570   101098160.3584                 
                
  22793678.328   119781617.534    22793682.402    93336357.8394                 
                
  20714779.008   108856909.499    20714783.855    84823585.9074                 
                
  20950383.469   110095020.590    20950390.145    85788355.7954   20950390.043  
                
  21900095.977   115085780.823    21900105.750    89677358.9904   21900105.461  
                
  19251336.867   103017813.616    19251341.285    80125011.682    19251341.039  
  19251336.168  
  21710279.984   115972428.542    21710284.168    90200797.211    21710282.922  
  21710278.992  
  23264338.867   122254920.252    23264348.621    95263620.2924   23264348.555  
                
  19624454.406   104867113.804    19624459.277    81563371.252    19624459.039  
  19624453.855  
  20628740.852   110311139.330    20628745.203    85798082.001    20628745.105  
  20628739.359  
  22084047.328   117720325.116    22084053.652    91560318.600    22084053.422  
  22084045.312  
  20427374.977   107346588.337    20427381.133    83646767.3554   20427381.082  
                
  22341943.992   117407712.837    22341953.188    91486608.9514   22341953.352  
                
 21  8  9  0 40 10.0000000  0 17R18G 6R 1R 8G21G22G19G14G 1R17R16G24
                                R15R24R14G17G 3
  22224130.359   118633931.529    22224137.676    92271488.483    22224137.180  
  22224129.605  
  23121568.625   121504668.349    23121578.098    94679011.3554   23121578.770  
                
  22721117.484   121457396.092    22721124.387    94466911.382    22721123.516  
  22721116.035  
  22762540.438   121892342.814    22762545.309    94805201.386    22762545.359  
  22762539.648  
  24695318.984   129774761.595    24695325.082   101123214.5074                 
                
  22794695.742   119786964.062    22794699.855    93340523.9714                 
                
  20711221.211   108838213.033    20711226.035    84809017.2324                 
                
  20954328.078   110115749.547    20954334.758    85804508.2194   20954334.664  
                
  21905873.445   115116141.559    21905883.234    89701016.7014   21905882.945  
                
  19249893.094   103010087.598    19249897.496    80119002.558    19249897.262  
  19249892.406  
  21704332.258   115940656.806    21704336.426    90176085.879    21704335.129  
  21704331.250  
  23263829.828   122252245.132    23263839.496    95261535.7794   23263839.461  
                
  19626423.938   104877638.337    19626428.812    81571557.005    19626428.562  
  19626423.422  
  20634004.945   110339288.722    20634009.309    85819975.967    20634009.211  
  20634003.430  
  22092047.359   117762969.597    22092053.684    91593486.509    22092053.445  
  22092045.340  
  20427326.234   107346332.200    20427332.406    83646567.7734   20427332.348  
                
  22339440.031   117394554.430    22339449.234    91476355.6574   22339449.383  
                
 21  8  9  0 40 20.0000000  0 17R18G 6R 1R 8G21G22G19G14G 1R17R16G24
                                R15R24R14G17G 3
  22217700.891   118599610.772    22217708.250    92244794.601    22217707.746  
  22217700.145  
  23114979.664   121470043.272    23114989.301    94652030.8174   23114989.844  
                
  22716240.234   121431324.637    22716247.168    94446633.617    22716246.324  
  22716238.840  
  22763008.422   121894848.826    22763013.309    94807150.494    22763013.348  
  22763007.703  
  24701438.648   129806920.647    24701444.777   101148273.5064                 
                
  22795725.375   119792374.867    22795729.523    93344740.1824                 
                
  20707670.914   108819556.131    20707675.730    84794479.3854                 
                
  20958282.469   110136529.981    20958289.152    85820700.7524   20958289.055  
                
  21911658.039   115146539.819    21911667.859    89724703.6544   21911667.566  
                
  19248460.352   103002420.726    19248464.746    80113039.432    19248464.516  
  19248459.695  
  21698395.336   115908942.903    21698399.484    90151419.513    21698398.211  
  21698394.289  
  23263333.445   122249636.672    23263343.062    95259503.2164   23263343.051  
                
  19628410.141   104888252.013    19628415.016    81579812.084    19628414.766  
  19628409.633  
  20639275.328   110367471.836    20639279.695    85841896.158    20639279.598  
  20639273.812  
  22100053.414   117805646.372    22100059.750    91626679.549    22100059.527  
  22100051.387  
  20427284.430   107346112.510    20427290.613    83646396.5854   20427290.551  
                
  22336948.453   117381461.131    22336957.656    91466153.0924   22336957.789  
                
 21  8  9  0 40 30.0000000  0 17R18G 6R 1R 8G21G22G19G14G 1R17R16G24
                                R15R24R14G17G 3
  22211276.867   118565318.932    22211284.246    92218123.185    22211283.758  
  22211276.105  
  23108395.617   121435443.819    23108405.199    94625070.1934   23108405.746  
                
  22711374.922   121405316.835    22711381.879    94426405.363    22711381.031  
  22711373.566  
  22763492.805   121897442.564    22763497.688    94809167.827    22763497.719  
  22763492.141  
  24707559.477   129839085.699    24707565.652   101173337.1734                 
                
  22796767.234   119797849.797    22796771.402    93349006.3624                 
                
  20704128.133   108800938.687    20704132.945    84779972.2934                 
                
  20962246.625   110157361.727    20962253.328    85836933.2814   20962253.234  
                
  21917449.742   115176975.390    21917459.590    89748419.6884   21917459.293  
                
  19247038.617   102994812.694    19247043.012    80107122.081    19247042.789  
  19247037.988  
  21692469.203   115877286.610    21692473.352    90126797.969    21692472.043  
  21692468.148  
  23262849.758   122247094.840    23262859.324    95257522.5684   23262859.320  
                
  19630412.992   104898954.659    19630417.875    81588136.368    19630417.617  
  19630412.492  
  20644552.016   110395688.540    20644556.383    85863842.476    20644556.285  
  20644550.492  
  22108065.500   117848355.165    22108071.859    91659897.483    22108071.625  
  22108063.461  
  20427249.547   107345929.184    20427255.738    83646253.7354   20427255.668  
                
  22334469.258   117368432.873    22334478.457    91456001.2154   22334478.602  
                
 21  8  9  0 40 40.0000000  0 17R18G 6R 1R 8G21G22G19G14G 1R17R16G24
                                R15R24R14G17G 3
  22204858.227   118531055.897    22204865.629    92191474.174    22204865.148  
  22204857.461  
  23101816.445   121400870.086    23101826.074    94598129.6294   23101826.582  
                
  22706521.547   121379372.946    22706528.535    94406226.812    22706527.672  
  22706520.227  
  22763993.602   121900124.269    22763998.465    94811253.580    22763998.504  
  22763992.953  
  24713681.430   129871256.763    24713687.625   101198405.5154                 
                
  22797821.273   119803388.865    22797825.453    93353322.5214                 
                
  20700592.898   108782360.921    20700597.680    84765496.1084                 
                
  20966220.562   110178244.857    20966227.273    85853205.8324   20966227.168  
                
  21923248.539   115207448.236    21923258.398    89772164.7504   21923258.098  
                
  19245627.914   102987263.746    19245632.305    80101250.671    19245632.082  
  19245627.312  
  21686553.969   115845688.551    21686558.090    90102221.709    21686556.785  
  21686552.887  
  23262378.750   122244619.687    23262388.273    95255593.8694   23262388.270  
                
  19632432.562   104909746.554    19632437.426    81596530.056    19632437.164  
  19632432.035  
  20649834.961   110423938.853    20649839.328    85885814.934    20649839.207  
  20649833.414  
  22116083.594   117891096.050    22116089.957    91693140.360    22116089.734  
  22116081.539  
  20427221.586   107345782.256    20427227.785    83646139.2454   20427227.707  
                
  22332002.453   117355469.809    22332011.629    91445900.1324   22332011.773  
                
 21  8  9  0 40 50.0000000  0 17R18G 6R 1R 8G21G22G19G14G 1R17R16G24
                                R15R24R14G17G 3
  22198444.984   118496821.690    22198452.441    92164847.599    22198451.953  
  22198444.219  
  23095242.164   121366322.014    23095251.879    94571209.0554   23095252.309  
                
  22701680.172   121353493.154    22701687.164    94386098.101    22701686.289  
  22701678.875  
  22764510.773   121902893.659    22764515.629    94813407.536    22764515.668  
  22764510.113  
  24719804.492   129903433.668    24719810.703   101223478.4254                 
                
  22798887.516   119808992.024    22798891.703    93357688.6194                 
                
  20697065.227   108763822.837    20697069.984    84751050.8404                 
                
  20970204.242   110199179.186    20970210.973    85869518.2854   20970210.867  
                
  21929054.391   115237958.159    21929064.266    89795938.7124   21929063.969  
                
  19244228.188   102979773.530    19244232.582    80095424.950    19244232.363  
  19244227.617  
  21680649.656   115814148.734    21680653.738    90077690.734    21680652.445  
  21680648.578  
  23261920.414   122242211.076    23261929.883    95253717.0284   23261929.902  
                
  19634468.758   104920627.358    19634473.613    81604992.898    19634473.348  
  19634468.207  
  20655124.172   110452222.578    20655128.531    85907813.372    20655128.414  
  20655122.602  
  22124107.656   117933868.766    22124114.027    91726408.020    22124113.801  
  22124105.609  
  20427200.539   107345671.662    20427206.750    83646053.0724   20427206.676  
                
  22329548.062   117342571.870    22329557.211    91435849.7964   22329557.367  
                
 21  8  9  0 41  0.0000000  0 17R18G 6R 1R 8G21G22G19G14G 1R17R16G24
                                R15R24R14G17G 3
  22192037.195   118462616.512    22192044.691    92138243.592    22192044.203  
  22192036.398  
  23088672.781   121331799.764    23088682.508    94544308.6324   23088682.934  
                
  22696850.773   121327677.390    22696857.793    94366019.207    22696856.941  
  22696849.516  
  22765044.320   121905750.740    22765049.160    94815629.719    22765049.188  
  22765043.668  
  24725928.711   129935616.507    24725934.906   101248555.9294                 
                
  22799965.977   119814659.341    22799970.164    93362104.7144                 
                
  20693545.117   108745324.525    20693549.863    84736636.5734                 
                
  20974197.680   110220164.806    20974204.422    85885870.6964   20974204.316  
                
  21934867.297   115268505.160    21934877.176    89819741.5624   21934876.891  
                
  19242839.500   102972342.349    19242843.906    80089645.146    19242843.691  
  19242838.961  
  21674756.211   115782667.065    21674760.273    90053205.000    21674758.996  
  21674755.125  
  23261474.758   122239869.116    23261484.172    95251892.1214   23261484.215  
                
  19636521.617   104931597.211    19636526.469    81613525.007    19636526.199  
  19636521.020  
  20660419.570   110480539.449    20660423.926    85929837.603    20660423.793  
  20660417.980  
  22132137.656   117976673.098    22132144.047    91759700.259    22132143.828  
  22132135.621  
  20427186.430   107345597.495    20427192.641    83645995.2754   20427192.562  
                
  22327106.078   117329739.231    22327115.207    91425850.3474   22327115.387  
                
 21  8  9  0 41 10.0000000  0 17R18G 6R 1R 8G21G22G19G14G 1R17R16G24
                                R15R24R14G17G 3
  22185634.812   118428440.362    22185642.371    92111662.187    22185641.895  
  22185634.020  
  23082108.344   121297303.404    23082118.160    94517428.3404   23082118.512  
                
  22692033.398   121301925.876    22692040.449    94345990.276    22692039.578  
  22692032.145  
  22765594.273   121908695.689    22765599.062    94817920.229    22765599.059  
  22765593.621  
  24732054.000   129967805.091    24732060.188   101273637.9404                 
                
  22801056.602   119820390.650    22801060.793    93366570.6744                 
                
  20690032.547   108726865.834    20690037.270    84722253.1674                 
                
  20978200.828   110241201.508    20978207.598    85902262.9334   20978207.492  
                
  21940687.227   115299089.028    21940697.094    89843573.1384   21940696.828  
                
  19241461.820   102964970.059    19241466.234    80083911.139    19241466.016  
  19241461.305  
  21668873.711   115751243.810    21668877.750    90028764.698    21668876.453  
  21668872.605  
  23261041.781   122237593.742    23261051.148    95250119.0934   23261051.199  
                
  19638591.102   104942655.897    19638595.934    81622126.203    19638595.676  
  19638590.430  
  20665721.219   110508889.724    20665725.555    85951887.806    20665725.422  
  20665719.578  
  22140173.586   118019509.042    22140179.988    91793017.077    22140179.762  
  22140171.539  
  20427179.234   107345559.689    20427185.441    83645965.8134   20427185.363  
                
  22324676.531   117316971.895    22324685.637    91415901.7724   22324685.809  
                
 21  8  9  0 41 20.0000000  0 17R18G 6R 1R 8G21G22G19G14G 1R17R16G24
                                R15R24R14G17G 3
  22179237.914   118394293.317    22179245.492    92085103.376    22179245.004  
  22179237.105  
  23075548.797   121262832.928    23075558.664    94490568.2674   23075558.996  
                
  22687228.078   121276238.860    22687235.160    94326011.517    22687234.254  
  22687226.859  
  22766160.602   121911728.349    22766165.348    94820278.961    22766165.328  
  22766159.945  
  24738180.398   129999999.482    24738186.578   101298724.4664                 
                
  22802159.398   119826185.923    22802163.613    93371086.4714                 
                
  20686527.523   108708446.836    20686532.242    84707900.7074                 
                
  20982213.711   110262289.330    20982220.500    85918694.9954   20982220.391  
                
  21946514.141   115329709.712    21946524.027    89867433.4124   21946523.770  
                
  19240095.141   102957656.696    19240099.574    80078222.971    19240099.359  
  19240094.660  
  21663002.195   115719879.280    21663006.219    90004370.068    21663004.887  
  21663001.094  
  23260621.461   122235384.967    23260630.824    95248397.9824   23260630.859  
                
  19640677.227   104953803.521    19640682.051    81630796.574    19640681.789  
  19640676.480  
  20671029.031   110537272.967    20671033.348    85973963.657    20671033.199  
  20671027.375  
  22148215.367   118062376.410    22148221.820    91826358.396    22148221.559  
  22148213.375  
  20427178.969   107345558.298    20427185.188    83645964.7354   20427185.109  
                
  22322259.422   117304269.938    22322268.520    91406004.1554   22322268.688  
                
 21  8  9  0 41 30.0000000  0 17R18G 6R 1R 8G21G22G19G14G 1R17R16G24
                                R15R24R14G17G 3
  22172846.477   118360175.565    22172854.113    92058567.381    22172853.613  
  22172845.715  
  23068994.273   121228388.639    23069004.125    94463728.5594   23069004.473  
                
  22682434.859   121250616.497    22682441.961    94306083.036    22682441.020  
  22682433.664  
  22766743.406   121914849.204    22766748.109    94822706.276    22766748.082  
  22766742.707  
  24744307.906   130032199.663    24744314.090   101323815.4934                 
                
  22803274.391   119832045.323    22803278.637    93375652.2464                 
                
  20683030.102   108690067.747    20683034.816    84693579.3374                 
                
  20986236.352   110283428.374    20986243.152    85935166.9604   20986243.039  
                
  21952348.078   115360367.266    21952357.965    89891322.4054   21952357.715  
                
  19238739.461   102950402.232    19238743.914    80072580.617    19238743.699  
  19238738.996  
  21657141.680   115688573.495    21657145.719    89980021.124    21657144.371  
  21657140.574  
  23260213.844   122233242.963    23260223.203    95246728.8834   23260223.211  
                
  19642780.023   104965040.194    19642784.816    81639536.193    19642784.562  
  19642779.168  
  20676343.055   110565689.504    20676347.363    85996065.413    20676347.207  
  20676341.402  
  22156263.094   118105275.204    22156269.516    91859724.095    22156269.262  
  22156261.090  
  20427185.648   107345593.425    20427191.871    83645992.1004   20427191.793  
                
  22319854.789   117291633.572    22319863.887    91396157.6504   22319864.055  
                
 21  8  9  0 41 40.0000000  0 17R18G 6R 1R 8G21G22G19G14G 1R17R16G24
                                R15R24R14G17G 3
  22166460.516   118326086.850    22166468.172    92032053.952    22166467.664  
  22166459.766  
  23062444.688   121193970.434    23062454.629    94436909.2044   23062454.910  
                
  22677653.789   121225059.021    22677660.910    94286205.026    22677659.973  
  22677652.598  
  22767342.594   121918057.731    22767347.273    94825201.787    22767347.270  
  22767341.863  
  24750436.492   130064405.496    24750442.688   101348910.9314                 
                
  22804401.594   119837968.737    22804405.855    93380267.8884                 
                
  20679540.266   108671728.485    20679544.977    84679289.0004                 
                
  20990268.703   110304618.462    20990275.527    85951678.7084   20990275.398  
                
  21958189.008   115391061.473    21958198.906    89915239.9544   21958198.645  
                
  19237394.828   102943206.754    19237399.289    80066984.133    19237399.074  
  19237394.344  
  21651292.195   115657326.623    21651296.266    89955718.016    21651294.914  
  21651291.102  
  23259818.922   122231167.570    23259828.250    95245111.6934   23259828.254  
                
  19644899.438   104976365.657    19644904.223    81648344.881    19644903.961  
  19644898.477  
  20681663.273   110594139.067    20681667.605    86018192.858    20681667.445  
  20681661.613  
  22164316.680   118148205.200    22164323.098    91893114.072    22164322.848  
  22164314.691  
  20427199.266   107345664.925    20427205.492    83646047.8104   20427205.406  
                
  22317462.648   117279062.755    22317471.746    91386362.2144   22317471.898  
                
 21  8  9  0 41 50.0000000  0 17R18G 6R 1R 8G21G22G19G14G 1R17R16G24
                                R15R24R14G17G 3
  22160080.047   118292027.500    22160087.707    92005563.359    22160087.195  
  22160079.297  
  23055900.117   121159578.389    23055909.984    94410110.2004   23055910.320  
                
  22672884.828   121199566.390    22672891.973    94266377.466    22672891.059  
  22672883.680  
  22767958.133   121921353.870    22767962.820    94827765.443    22767962.820  
  22767957.406  
  24756566.133   130096616.886    24756572.328   101374010.6904                 
                
  22805540.969   119843956.137    22805545.227    93384933.3924                 
                
  20676058.000   108653429.028    20676062.707    84665029.6804                 
                
  20994310.758   110325859.549    20994317.594    85968230.1934   20994317.453  
                
  21964036.898   115421792.212    21964046.820    89939185.9704   21964046.535  
                
  19236061.180   102936070.143    19236065.668    80061433.449    19236065.449  
  19236060.660  
  21645453.742   115626138.723    21645457.855    89931460.775    21645456.473  
  21645452.672  
  23259436.672   122229158.803    23259445.941    95243546.4234   23259445.961  
                
  19647035.492   104987780.036    19647040.270    81657222.729    19647040.000  
  19647034.430  
  20686989.633   110622621.474    20686993.984    86040345.833    20686993.832  
  20686987.945  
  22172376.023   118191166.045    22172382.457    91926528.056    22172382.223  
  22172374.059  
  20427219.797   107345772.831    20427226.035    83646131.8984   20427225.945  
                
  22315082.969   117266557.510    22315092.066    91376617.8854   22315092.223  
                
 21  8  9  0 42  0.0000000  0 17R18G 6R 1R 8G21G22G19G14G 1R17R16G24
                                R15R24R14G17G 3
  22153705.023   118257997.273    22153712.691    91979095.422    22153712.195  
  22153704.281  
  23049360.484   121125212.592    23049370.434    94383331.6914   23049370.754  
                
  22668128.055   121174138.882    22668135.227    94246600.546    22668134.320  
  22668126.941  
  22768590.078   121924737.981    22768594.805    94830397.545    22768594.820  
  22768589.383  
  24762696.820   130128833.813    24762703.051   101399114.7804                 
                
  22806692.500   119850007.539    22806696.762    93389648.7754                 
                
  20672583.320   108635169.528    20672588.043    84650801.5074                 
                
  20998362.508   110347151.611    20998369.355    85984821.3934   20998369.215  
                
  21969891.695   115452559.411    21969901.641    89963160.3924   21969901.344  
                
  19234738.523   102928992.369    19234743.023    80055928.515    19234742.809  
  19234737.961  
  21639626.383   115595009.997    21639630.520    89907249.544    21639629.156  
  21639625.332  
  23259067.094   122227216.686    23259076.297    95242033.0764   23259076.352  
                
  19649188.133   104999283.115    19649192.891    81666169.562    19649192.625  
  19649186.992  
  20692322.117   110651136.635    20692326.473    86062524.282    20692326.316  
  20692320.406  
  22180441.211   118234158.007    22180447.625    91959966.245    22180447.391  
  22180439.254  
  20427247.266   107345917.163    20427253.516    83646244.3634   20427253.414  
                
  22312715.789   117254117.960    22312724.883    91366924.7374   22312725.035  
                
 21  8  9  0 42 10.0000000  0 17R18G 6R 1R 8G21G22G19G14G 1R17R16G24
                                R15R24R14G17G 3
  22147335.500   118223996.482    22147343.172    91952650.384    22147342.676  
  22147334.773  
  23042825.898   121090873.174    23042835.871    94356573.7054   23042836.160  
                
  22663383.477   121148776.572    22663390.668    94226874.341    22663389.797  
  22663382.379  
  22769238.430   121928209.942    22769243.188    94833097.974    22769243.199  
  22769237.723  
  24768828.539   130161056.254    24768834.809   101424223.1744                 
                
  22807856.219   119856123.000    22807860.473    93394414.0754                 
                
  20669116.258   108616950.033    20669120.973    84636604.4984                 
                
  21002423.938   110368494.628    21002430.828    86001452.3234   21002430.676  
                
  21975753.422   115483363.017    21975763.398    89987163.1994   21975763.090  
                
  19233426.883   102921973.552    19233431.402    80050469.435    19233431.184  
  19233426.266  
  21633810.125   115563940.744    21633814.324    89883084.596    21633812.941  
  21633809.129  
  23258710.211   122225341.269    23258719.328    95240571.7174   23258719.445  
                
  19651357.375   105010874.948    19651362.137    81675185.432    19651361.863  
  19651356.160  
  20697660.750   110679684.774    20697665.109    86084728.389    20697664.969  
  20697659.027  
  22188512.148   118277180.643    22188518.566    91993428.282    22188518.320  
  22188510.211  
  20427281.656   107346097.938    20427287.926    83646385.2244   20427287.812  
                
  22310361.117   117241744.191    22310370.211    91357282.8514   22310370.359  
                
 21  8  9  0 42 20.0000000  0 17R18G 6R 1R 8G21G22G19G14G 1R17R16G24
                                R15R24R14G17G 3
  22140971.492   118190024.947    22140979.137    91926228.088    22140978.641  
  22140970.781  
  23036296.320   121056560.011    23036306.254    94329836.1944   23036306.590  
                
  22658651.133   121123479.533    22658658.336    94207198.897    22658657.492  
  22658650.066  
  22769903.203   121931769.656    22769907.984    94835866.625    22769908.004  
  22769902.441  
  24774961.312   130193284.081    24774967.629   101449335.7574                 
                
  22809032.148   119862302.446    22809036.402    93399229.2274                 
                
  20665656.820   108598770.428    20665661.520    84622438.5594                 
                
  21006495.078   110389888.460    21006501.969    86018122.8184   21006501.801  
                
  21981622.070   115514202.780    21981632.059    90011194.1654   21981631.746  
                
  19232126.250   102915013.480    19232130.773    80045056.038    19232130.547  
  19232125.594  
  21628005.023   115532930.820    21628009.234    89858965.756    21628007.863  
  21628004.035  
  23258366.023   122223532.395    23258375.027    95239162.1904   23258375.199  
                
  19653543.258   105022555.476    19653547.984    81684270.266    19653547.707  
  19653541.969  
  20703005.492   110708265.401    20703009.840    86106957.752    20703009.711  
  20703003.742  
  22196588.844   118320233.830    22196595.254    92026914.079    22196595.004  
  22196586.910  
  20427322.984   107346315.043    20427329.262    83646554.3894   20427329.141  
                
  22308018.992   117229436.139    22308028.070    91347692.1684   22308028.234  
                
 21  8  9  0 42 30.0000000  0 17R18G 6R 1R 8G21G22G19G14G 1R17R16G24
                                R15R24R14G17G 3
  22134612.977   118156082.899    22134620.598    91899828.736    22134620.105  
  22134612.285  
  23029771.750   121022273.335    23029781.734    94303119.3224   23029782.059  
                
  22653931.008   121098248.018    22653938.234    94187574.414    22653937.391  
  22653929.969  
  22770584.289   121935416.976    22770589.160    94838703.444    22770589.168  
  22770583.535  
  24781095.102   130225517.279    24781101.457   101474452.5084                 
                
  22810220.180   119868545.646    22810224.449    93404094.0524                 
                
  20662204.953   108580630.837    20662209.656    84608303.8114                 
                
  21010575.852   110411333.135    21010582.762    86034832.9464   21010582.582  
                
  21987497.555   115545078.718    21987507.562    90035253.3294   21987507.238  
                
  19230836.594   102908112.342    19230841.137    80039688.486    19230840.910  
  19230835.895  
  21622211.016   115501980.437    21622215.266    89834893.252    21622213.906  
  21622210.035  
  23258034.477   122221790.184    23258043.395    95237804.6144   23258043.625  
                
  19655745.672   105034324.595    19655750.395    81693424.023    19655750.105  
  19655744.336  
  20708356.336   110736878.773    20708360.699    86129212.586    20708360.574  
  20708354.598  
  22204671.250   118363317.612    22204677.637    92060423.663    22204677.406  
  22204669.316  
  20427371.203   107346568.538    20427377.508    83646751.9234   20427377.379  
                
  22305689.359   117217193.964    22305698.438    91338152.8204   22305698.609  
                
 21  8  9  0 42 40.0000000  0 17R18G 6R 1R 8G21G22G19G14G 1R17R16G24
                                R15R24R14G17G 3
  22128260.039   118122170.407    22128267.586    91873452.356    22128267.105  
  22128259.352  
  23023252.305   120988013.326    23023262.211    94276423.2124   23023262.582  
                
  22649223.227   121073082.270    22649230.461    94168001.084    22649229.590  
  22649222.195  
  22771281.844   121939152.251    22771286.789    94841608.650    22771286.777  
  22771281.117  
  24787229.930   130257755.951    24787236.352   101499573.5514                 
                
  22811420.422   119874852.840    22811424.719    93409008.7394                 
                
  20658760.758   108562531.441    20658765.461    84594200.3894                 
                
  21014666.359   110432828.730    21014673.273    86051582.7484   21014673.098  
                
  21993379.961   115575990.857    21993389.977    90059340.6974   21993389.641  
                
  19229557.969   102901270.117    19229562.535    80034366.763    19229562.312  
  19229557.234  
  21616428.266   115471090.010    21616432.562    89810867.375    21616431.188  
  21616427.312  
  23257715.664   122220114.739    23257724.508    95236499.0824   23257724.766  
                
  19657964.734   105046182.483    19657969.445    81702646.824    19657969.168  
  19657963.340  
  20713713.312   110765524.866    20713717.703    86151492.876    20713717.586  
  20713711.613  
  22212759.398   118406431.918    22212765.777    92093957.015    22212765.574  
  22212757.477  
  20427426.414   107346858.535    20427432.719    83646977.8874   20427432.582  
                
  22303372.320   117205017.858    22303381.402    91328664.9684   22303381.582  
                
 21  8  9  0 42 50.0000000  0 17R18G 6R 1R 8G21G22G19G14G 1R17R16G24
                                R15R24R14G17G 3
  22121912.602   118088287.489    22121920.109    91847098.997    22121919.613  
  22121911.945  
  23016737.875   120953779.888    23016747.816    94249747.8284   23016748.203  
                
  22644527.734   121047982.272    22644534.969    94148478.886    22644534.078  
  22644526.688  
  22771995.773   121942975.350    22772000.801    94844582.173    22772000.789  
  22771995.078  
  24793365.742   130289999.872    24793372.195   101524698.6644                 
                
  22812632.797   119881223.920    22812637.117    93413973.2124                 
                
  20655324.195   108544472.158    20655328.895    84580128.2134                 
                
  21018766.484   110454375.051    21018773.406    86068372.0774   21018773.215  
                
  21999269.180   115606938.932    21999279.203    90083456.0714   21999278.859  
                
  19228290.320   102894486.728    19228294.910    80029090.796    19228294.688  
  19228289.527  
  21610656.727   115440259.532    21610661.062    89786888.130    21610659.688  
  21610655.789  
  23257409.516   122218505.934    23257418.305    95235245.4544   23257418.609  
                
  19660200.352   105058128.998    19660205.066    81711938.555    19660204.789  
  19660198.930  
  20719076.289   110794203.160    20719080.707    86173798.212    20719080.598  
  20719074.621  
  22220853.211   118449576.405    22220859.582    92127513.807    22220859.371  
  22220851.266  
  20427488.508   107347184.885    20427494.824    83647232.1884   20427494.680  
                
  22301067.828   117192907.734    22301076.918    91319228.5164   22301077.113  
                
 21  8  9  0 43  0.0000000  0 17R18G 6R 1R 8G21G22G19G14G 1R17R16G24
                                R15R24R14G17G 3
  22115570.711   118054434.068    22115578.141    91820768.557    22115577.656  
  22115570.047  
  23010228.500   120919573.006    23010238.441    94223093.1324   23010238.840  
                
  22639844.523   121022948.086    22639851.793    94129007.904    22639850.906  
  22639843.504  
  22772726.086   121946886.158    22772731.160    94847623.908    22772731.172  
  22772725.375  
  24799502.547   130322248.894    24799509.043   101549827.7584                 
                
  22813857.305   119887658.782    22813861.621    93418987.3974                 
                
  20651895.250   108526452.973    20651899.953    84566087.2974                 
                
  21022876.258   110475972.001    21022883.184    86085200.8564   21022882.988  
                
  22005165.211   115637922.790    22005175.242    90107599.3304   22005174.895  
                
  19227033.641   102887761.963    19227038.262    80023860.428    19227038.027  
  19227032.793  
  21604896.406   115409489.055    21604900.781    89762955.554    21604899.445  
  21604895.527  
  23257116.047   122216963.675    23257124.801    95234043.6904   23257125.117  
                
  19662452.523   105070163.916    19662457.227    81721299.038    19662456.949  
  19662451.078  
  20724445.328   110822913.768    20724449.746    86196128.681    20724449.641  
  20724443.660  
  22228952.648   118492750.894    22228959.000    92161093.952    22228958.797  
  22228950.680  
  20427557.531   107347547.615    20427563.855    83647514.8394   20427563.711  
                
  22298775.898   117180863.580    22298784.984    91309843.4624   22298785.199  
                
 21  8  9  0 43 10.0000000  0 17R18G 6R 1R 8G21G22G19G14G 1R17R16G24
                                R15R24R14G17G 3
  22109234.453   118020610.690    22109241.836    91794461.507    22109241.344  
  22109233.777  
  23003724.344   120885393.330    23003734.215    94196459.6124   23003734.684  
                
  22635173.828   120997980.542    22635181.094    94109588.717    22635180.250  
  22635172.816  
  22773472.898   121950885.183    22773477.988    94850734.260    22773478.023  
  22773472.152  
  24805640.406   130354503.514    24805646.930   101574961.2274                 
                
  22815094.078   119894158.035    22815098.355    93424051.7474                 
                
  20648474.062   108508474.521    20648478.789    84552078.1314                 
                
  21026995.766   110497620.069    21027002.688    86102069.4694   21027002.500  
                
  22011068.156   115668942.873    22011078.199    90131770.8204   22011077.852  
                
  19225788.055   102881096.497    19225792.691    80018676.177    19225792.461  
  19225787.160  
  21599147.438   115378779.050    21599151.836    89739070.000    21599150.488  
  21599146.625  
  23256835.328   122215488.494    23256844.102    95232894.2064   23256844.414  
                
  19664721.367   105082287.843    19664726.070    81730728.756    19664725.789  
  19664719.910  
  20729820.484   110851657.048    20729824.918    86218484.552    20729824.812  
  20729818.828  
  22237057.766   118535955.708    22237064.109    92194697.702    22237063.910  
  22237055.820  
  20427633.586   107347947.252    20427639.910    83647826.2454   20427639.762  
                
  22296496.641   117168885.986    22296505.738    91300510.2844   22296505.949  
                
 21  8  9  0 43 20.0000000  0 17R18G 6R 1R 8G21G22G19G14G 1R17R16G24
                                R15R24R14G17G 3
  22102903.633   117986816.393    22102910.969    91768177.061    22102910.477  
  22102902.918  
  22997225.125   120851239.811    22997235.062    94169846.4984   22997235.492  
                
  22630515.336   120973078.364    22630522.609    94090220.376    22630521.754  
  22630514.336  
  22774235.953   121954971.288    22774241.047    94853912.335    22774241.070  
  22774235.207  
  24811779.141   130386762.706    24811785.637   101600098.2354                 
                
  22816342.867   119900720.476    22816347.102    93429165.3384                 
                
  20645060.414   108490535.704    20645065.156    84538099.8354                 
                
  21031124.773   110519318.104    21031131.680    86118977.0074   21031131.480  
                
  22016977.750   115699997.969    22016987.805    90155969.5874   22016987.453  
                
  19224553.320   102874489.213    19224557.980    80013537.176    19224557.738  
  19224552.379  
  21593409.641   115348128.787    21593414.047    89715230.912    21593412.727  
  21593408.840  
  23256567.172   122214079.306    23256575.988    95231796.1354   23256576.281  
                
  19667006.641   105094499.574    19667011.332    81740226.756    19667011.059  
  19667005.172  
  20735201.516   110880431.838    20735205.961    86240864.934    20735205.855  
  20735199.883  
  22245168.414   118579189.852    22245174.715    92228324.205    22245174.531  
  22245166.418  
  20427716.469   107348382.786    20427722.785    83648165.6184   20427722.633  
                
  22294229.844   117156973.941    22294238.953    91291228.1824   22294239.168  
                
 21  8  9  0 43 30.0000000  0 17R18G 6R 1R 8G21G22G19G14G 1R17R16G24
                                R15R24R14G17G 3
  22096578.453   117953052.230    22096585.773    91741916.081    22096585.293  
  22096577.707  
  22990731.117   120817113.547    22990740.969    94143254.6064   22990741.453  
                
  22625869.336   120948242.894    22625876.609    94070903.927    22625875.746  
  22625868.309  
  22775015.422   121959145.278    22775020.531    94857158.773    22775020.551  
  22775014.691  
  24817918.930   130419027.371    24817925.414   101625239.5114                 
                
  22817603.891   119907347.153    22817608.094    93434328.9804                 
                
  20641654.508   108472637.535    20641659.254    84524153.2094                 
                
  21035263.484   110541067.091    21035270.383    86135924.2614   21035270.191  
                
  22022894.203   115731089.064    22022904.258    90180196.4074   22022903.898  
                
  19223329.664   102867941.149    19223334.344    80008444.241    19223334.102  
  19223328.676  
  21587683.211   115317539.230    21587687.629    89691439.044    21587686.340  
  21587682.457  
  23256311.789   122212737.164    23256320.660    95230750.3034   23256320.949  
                
  19669308.531   105106800.173    19669313.230    81749793.887    19669312.953  
  19669307.082  
  20740588.648   110909239.201    20740593.109    86263270.651    20740593.008  
  20740587.055  
  22253284.711   118622454.083    22253291.008    92261974.118    22253290.816  
  22253282.688  
  20427806.352   107348855.095    20427812.660    83648533.6504   20427812.504  
                
  22291975.734   117145128.538    22291984.855    91281998.0094   22291985.082  
                
 21  8  9  0 43 40.0000000  0 17R18G 6R 1R 8G21G22G19G14G 1R17R16G24
                                R15R24R14G17G 3
  22090258.812   117919317.716    22090266.113    91715678.135    22090265.656  
  22090258.035  
  22984242.211   120783014.154    22984252.035    94116683.6434   22984252.543  
                
  22621235.781   120923474.080    22621243.059    94051639.322    22621242.172  
  22621234.738  
  22775811.258   121963407.035    22775816.371    94860473.471    22775816.379  
  22775810.516  
  24824059.602   130451296.885    24824066.102   101650384.5764                 
                
  22818877.008   119914037.505    22818881.211    93439542.2384                 
                
  20638256.227   108454779.539    20638260.973    84510237.8894                 
                
  21039411.766   110562866.461    21039418.645    86152910.7694   21039418.461  
                
  22028817.359   115762215.511    22028827.406    90204450.7774   22028827.051  
                
  19222116.945   102861451.722    19222121.648    80003396.909    19222121.410  
  19222115.906  
  21581968.102   115287010.259    21581972.512    89667694.290    21581971.227  
  21581967.383  
  23256069.031   122211461.530    23256077.969    95229756.3044   23256078.230  
                
  19671626.914   105119188.942    19671631.625    81759429.592    19671631.352  
  19671625.492  
  20745981.703   110938078.326    20745986.184    86285701.079    20745986.090  
  20745980.152  
  22261406.477   118665747.762    22261412.777    92295646.990    22261412.570  
  22261404.488  
  20427903.109   107349363.625    20427909.418    83648929.9114   20427909.266  
                
  22289734.203   117133349.330    22289743.340    91272819.4114   22289743.570  
                
 21  8  9  0 43 50.0000000  0 17R18G 6R 1R 8G21G22G19G14G 1R17R16G24
                                R15R24R14G17G 3
  22083944.773   117885612.902    22083952.051    91689463.278    22083951.605  
  22083943.961  
  22977758.391   120748941.566    22977768.238    94090133.6074   22977768.746  
                
  22616614.672   120898771.633    22616621.938    94032426.323    22616621.094  
  22616613.594  
  22776623.414   121967756.007    22776628.504    94863855.994    22776628.535  
  22776622.645  
  24830201.227   130483571.196    24830207.715   101675533.3734                 
                
  22820162.281   119920791.565    22820166.484    93444805.1344                 
                
  20634865.594   108436961.676    20634870.348    84496353.8574                 
                
  21043569.641   110584716.170    21043576.512    86169936.5124   21043576.328  
                
  22034747.250   115793377.205    22034757.266    90228732.6024   22034756.922  
                
  19220915.211   102855020.946    19220919.934    79998395.198    19220919.703  
  19220914.121  
  21576264.383   115256541.963    21576268.789    89643996.736    21576267.504  
  21576263.680  
  23255838.953   122210252.389    23255847.941    95228814.1124   23255848.203  
                
  19673961.820   105131665.929    19673966.539    81769133.908    19673966.273  
  19673960.430  
  20751380.711   110966949.247    20751385.207    86308156.239    20751385.133  
  20751379.207  
  22269533.766   118709070.721    22269540.043    92329342.611    22269539.852  
  22269531.754  
  20428006.789   107349908.451    20428013.098    83649354.4504   20428012.949  
                
  22287505.297   117121636.348    22287514.449    91263692.4254   22287514.680  
                
 21  8  9  0 44  0.0000000  0 17R18G 6R 1R 8G21G22G19G14G 1R17R16G24
                                R15R24R14G17G 3
  22077636.336   117851938.103    22077643.664    91663271.802    22077643.211  
  22077635.559  
  22971279.781   120714896.125    22971289.543    94063604.6774   22971290.098  
                
  22612006.047   120874135.982    22612013.324    94013265.285    22612012.453  
  22612004.957  
  22777451.992   121972192.959    22777457.070    94867306.961    22777457.105  
  22777451.188  
  24836343.766   130515850.388    24836350.254   101700685.9764                 
                
  22821459.688   119927609.419    22821463.902    93450117.7434                 
                
  20631482.656   108419184.229    20631487.414    84482501.3114                 
                
  21047737.117   110606616.333    21047743.969    86187001.5604   21047743.793  
                
  22040683.852   115824574.191    22040693.832    90253041.9344   22040693.508  
                
  19219724.430   102848648.839    19219729.172    79993439.120    19219728.945  
  19219723.277  
  21570572.055   115226134.604    21570576.469    89620346.582    21570575.191  
  21570571.395  
  23255621.555   122209109.887    23255630.566    95227923.8394   23255630.832  
                
  19676313.250   105144231.253    19676318.000    81778906.945    19676317.730  
  19676311.902  
  20756785.664   110995851.949    20756790.191    86330636.125    20756790.117  
  20756784.191  
  22277666.602   118752423.043    22277672.836    92363061.023    22277672.656  
  22277664.551  
  20428117.406   107350489.729    20428123.723    83649807.4034   20428123.578  
                
  22285289.039   117109989.825    22285298.199    91254617.2134   22285298.438  
                
 21  8  9  0 44 10.0000000  0 17R18G 6R 1R 8G21G22G19G14G 1R17R16G24
                                R15R24R14G17G 3
  22071333.398   117818292.650    22071340.723    91637103.115    22071340.242  
  22071332.617  
  22964806.195   120680877.398    22964816.059    94037096.6084   22964816.570  
                
  22607409.852   120849566.855    22607417.133    93994155.994    22607416.266  
  22607408.734  
  22778296.852   121976717.104    22778301.887    94870825.717    22778301.934  
  22778296.012  
  24842487.141   130548134.008    24842493.641   101725842.0244                 
                
  22822769.133   119934490.624    22822773.324    93455479.7144                 
                
  20628107.336   108401446.863    20628112.090    84468679.9924                 
                
  21051914.086   110628566.457    21051920.918    86204105.5464   21051920.758  
                
  22046627.055   115855805.955    22046637.012    90277378.3674   22046636.699  
                
  19218544.547   102842335.115    19218549.312    79988528.457    19218549.086  
  19218543.340  
  21564891.078   115195787.921    21564895.484    89596743.608    21564894.215  
  21564890.445  
  23255416.742   122208033.610    23255425.750    95227085.1834   23255426.074  
                
  19678681.125   105156884.448    19678685.879    81788748.306    19678685.621  
  19678679.812  
  20762196.484   111024786.035    20762201.031    86353140.403    20762200.961  
  20762195.008  
  22285804.758   118795803.961    22285811.020    92396801.718    22285810.816  
  22285802.738  
  20428234.867   107351107.064    20428241.188    83650288.4404   20428241.039  
                
  22283085.336   117098409.377    22283094.520    91245593.5004   22283094.758  
                
 21  8  9  0 44 20.0000000  0 17R18G 6R 1R 8G21G22G19G14G 1R17R16G24
                                R15R24R14G17G 3
  22065036.133   117784677.505    22065043.500    91610958.025    22065043.004  
  22065035.395  
  22958337.883   120646886.119    22958347.621    94010609.8814   22958348.188  
                
  22602826.258   120825064.949    22602833.535    93975098.970    22602832.668  
  22602825.105  
  22779158.086   121981329.015    22779163.125    94874412.766    22779163.195  
  22779157.242  
  24848631.453   130580422.591    24848637.988   101751001.9494                 
                
  22824090.734   119941435.749    22824094.895    93460891.5084                 
                
  20624739.758   108383750.167    20624744.523    84454890.3634                 
                
  21056100.688   110650567.155    21056107.500    86221248.9294   21056107.344  
                
  22052576.977   115887073.007    22052586.930    90301742.2994   22052586.621  
                
  19217375.688   102836080.326    19217380.465    79983663.617    19217380.250  
  19217374.418  
  21559221.602   115165502.629    21559226.004    89573188.390    21559224.734  
  21559220.992  
  23255224.648   122207024.144    23255233.641    95226298.5824   23255234.027  
                
  19681065.539   105169626.035    19681070.316    81798658.421    19681070.066  
  19681064.273  
  20767613.297   111053752.098    20767617.859    86375669.550    20767617.785  
  20767611.801  
  22293948.469   118839214.363    22293954.703    92430565.321    22293954.496  
  22293946.410  
  20428359.312   107351761.047    20428365.641    83650798.0384   20428365.488  
                
  22280894.344   117086895.695    22280903.555    91236621.8134   22280903.789  
                
 21  8  9  0 44 30.0000000  0 17R18G 6R 1R 8G21G22G19G14G 1R17R16G24
                                R15R24R14G17G 3
  22058744.516   117751092.479    22058751.918    91584836.349    22058751.441  
  22058743.805  
  22951874.727   120612922.129    22951884.484    93984144.4694   22951885.066  
                
  22598255.242   120800630.277    22598262.508    93956094.239    22598261.645  
  22598254.070  
  22780035.688   121986028.521    22780040.742    94878067.935    22780040.816  
  22780034.848  
  24854776.672   130612715.868    24854783.246   101776165.5364                 
                
  22825424.469   119948444.556    22825428.602    93466352.9164                 
                
  20621379.898   108366094.002    20621384.660    84441132.3194                 
                
  21060296.859   110672618.160    21060303.656    86238431.5254   21060303.512  
                
  22058533.570   115918375.085    22058543.535    90326133.5204   22058543.223  
                
  19216217.797   102829884.224    19216222.594    79978844.432    19216222.383  
  19216216.480  
  21553563.609   115135278.629    21553567.988    89549680.835    21553566.723  
  21553562.996  
  23255045.242   122206081.338    23255054.250    95225563.9304   23255054.676  
                
  19683466.453   105182455.778    19683471.266    81808637.115    19683471.012  
  19683465.258  
  20773035.961   111082749.526    20773040.551    86398223.103    20773040.492  
  20773034.477  
  22302097.586   118882653.628    22302103.777    92464351.385    22302103.555  
  22302095.516  
  20428490.711   107352451.517    20428497.039    83651336.0624   20428496.879  
                
  22278716.039   117075448.663    22278725.258    91227702.0614   22278725.492  
                
 21  8  9  0 44 40.0000000  0 17R18G 6R 1R 8G21G22G19G14G 1R17R16G24
                                R15R24R14G17G 3
  22052458.516   117717537.347    22052465.945    91558737.912    22052465.461  
  22052457.828  
  22945416.805   120578985.467    22945426.562    93957700.3104   22945427.109  
                
  22593696.836   120776263.088    22593704.105    93937142.001    22593703.262  
  22593695.633  
  22780929.664   121990815.745    22780934.762    94881791.342    22780934.828  
  22780928.824  
  24860922.773   130645013.769    24860929.398   101801332.7214                 
                
  22826770.312   119955516.957    22826774.438    93471863.8704                 
                
  20618027.742   108348478.316    20618032.516    84427405.8214                 
                
  21064502.586   110694719.343    21064509.367    86255653.2174   21064509.227  
                
  22064496.797   115949711.985    22064506.789    90350551.8784   22064506.445  
                
  19215070.883   102823746.798    19215075.684    79974070.875    19215075.469  
  19215069.512  
  21547917.094   115105115.998    21547921.453    89526221.025    21547920.211  
  21547916.488  
  23254878.492   122205205.081    23254887.535    95224881.1364   23254887.969  
                
  19685883.852   105195373.585    19685888.680    81818684.293    19685888.426  
  19685882.699  
  20778464.570   111111778.737    20778469.180    86420801.377    20778469.113  
  20778463.098  
  22310252.047   118926121.488    22310258.266    92498159.736    22310258.039  
  22310250.043  
  20428629.016   107353178.308    20428635.352    83651902.3974   20428635.195  
                
  22276550.398   117064068.226    22276559.629    91218834.2064   22276559.875  
                
 21  8  9  0 44 50.0000000  0 17R18G 6R 1R 8G21G22G19G14G 1R17R16G24
                                R15R24R14G17G 3
  22046178.062   117684012.006    22046185.527    91532662.666    22046185.078  
  22046177.434  
  22938963.953   120545075.720    22938973.688    93931277.1704   22938974.258  
                
  22589150.914   120751962.700    22589158.199    93918241.727    22589157.359  
  22589149.703  
  22781839.930   121995690.214    22781845.062    94885582.585    22781845.133  
  22781839.051  
  24867069.664   130677315.892    24867076.340   101826503.1884                 
                
  22828128.172   119962652.548    22828132.316    93477424.0504                 
                
  20614683.203   108330902.787    20614687.973    84413710.6114                 
                
  21068717.766   110716870.269    21068724.531    86272913.6644   21068724.406  
                
  22070466.547   115981083.249    22070476.562    90374997.0044   22070476.191  
                
  19213934.820   102817667.604    19213939.648    79969342.617    19213939.434  
  19213933.430  
  21542282.039   115075014.599    21542286.344    89502808.819    21542285.117  
  21542281.426  
  23254724.344   122204394.977    23254733.422    95224249.8714   23254733.836  
                
  19688317.641   105208379.055    19688322.496    81828799.662    19688322.250  
  19688316.547  
  20783898.938   111140838.761    20783903.555    86443403.606    20783903.504  
  20783897.469  
  22318411.805   118969617.511    22318418.027    92531989.937    22318417.824  
  22318409.789  
  20428774.156   107353941.079    20428780.496    83652496.7624   20428780.336  
                
  22274397.375   117052754.097    22274406.625    91210018.0164   22274406.871  
                
 21  8  9  0 45  0.0000000  0 17R18G 6R 1R 8G21G22G19G14G 1R17R16G24
                                R15R24R14G17G 3
  22039903.375   117650517.271    22039910.855    91506611.218    22039910.398  
  22039902.789  
  22932516.477   120511194.000    22932526.270    93904875.8204   22932526.770  
                
  22584617.766   120727730.483    22584625.066    93899394.476    22584624.223  
  22584616.535  
  22782766.648   122000652.674    22782771.805    94889442.274    22782771.871  
  22782765.730  
  24873217.516   130709623.018    24873224.254   101851677.5654                 
                
  22829498.250   119969852.267    22829502.449    93483034.2194                 
                
  20611346.508   108313368.292    20611351.266    84400047.3814                 
                
  21072942.586   110739071.788    21072949.344    86290213.5484   21072949.227  
                
  22076443.000   116012489.637    22076453.027    90399469.5054   22076452.645  
                
  19212809.844   102811647.603    19212814.688    79964660.401    19212814.469  
  19212808.410  
  21536658.633   115044975.358    21536662.906    89479444.988    21536661.688  
  21536658.016  
  23254582.953   122203651.932    23254592.105    95223670.8724   23254592.469  
                
  19690768.008   105221472.983    19690772.879    81838983.824    19690772.629  
  19690766.945  
  20789339.297   111169930.687    20789343.930    86466030.649    20789343.879  
  20789337.836  
  22326577.062   119013142.657    22326583.262    92565842.787    22326583.066  
  22326575.008  
  20428926.344   107354740.798    20428932.691    83653119.9154   20428932.523  
                
  22272257.164   117041507.200    22272266.426    91201254.2094   22272266.672  
                
 21  8  9  0 45 10.0000000  0 17R18G 6R 1R 8G21G22G19G14G 1R17R16G24
                                R15R24R14G17G 3
  22033634.312   117617052.528    22033641.789    91480583.081    22033641.328  
  22033633.781  
  22926074.164   120477339.490    22926083.871    93878495.7154   22926084.422  
                
  22580097.227   120703565.661    22580104.535    93880599.630    22580103.684  
  22580095.953  
  22783709.641   122005702.338    22783714.809    94893369.784    22783714.898  
  22783708.719  
  24879366.188   130741934.389    24879373.012   101876855.2424                 
                
  22830880.359   119977115.302    22830884.621    93488693.7264                 
                
  20608017.484   108295874.167    20608022.223    84386415.5964                 
                
  21077176.898   110761323.151    21077183.645    86307552.2614   21077183.531  
                
  22082425.977   116043930.377    22082436.012    90423968.7824   22082435.609  
                
  19211695.773   102805685.987    19211700.637    79960023.588    19211700.422  
  19211694.309  
  21531046.781   115014997.839    21531051.008    89456129.146    21531049.770  
  21531046.133  
  23254454.195   122202975.223    23254463.441    95223143.5514   23254463.742  
                
  19693234.773   105234654.627    19693239.660    81849236.212    19693239.414  
  19693233.754  
  20794785.453   111199053.721    20794790.105    86488681.891    20794790.055  
  20794784.008  
  22334747.523   119056695.765    22334753.723    92599717.413    22334753.504  
  22334745.496  
  20429085.406   107355576.655    20429091.754    83653771.2344   20429091.586  
                
  22270129.617   117030326.893    22270138.895    91192542.2884   22270139.133  
                
 21  8  9  0 45 20.0000000  0 17R18G 6R 1R 8G21G22G19G14G 1R17R16G24
                                R15R24R14G17G 3
  22027370.867   117583617.963    22027378.355    91454578.439    22027377.906  
  22027370.418  
  22919637.117   120443512.538    22919646.828    93852137.0324   22919647.355  
                
  22575589.352   120679468.653    22575596.684    93861857.543    22575595.844  
  22575588.070  
  22784668.992   122010839.527    22784674.164    94897365.358    22784674.242  
  22784668.074  
  24885515.656   130774250.033    24885522.531   101902036.2494                 
                
  22832274.539   119984441.732    22832278.832    93494402.6194                 
                
  20604696.156   108278420.550    20604700.879    84372815.3864                 
                
  21081420.680   110783624.418    21081427.430    86324929.8694   21081427.336  
                
  22088415.492   116075405.460    22088425.516    90448494.8184   22088425.113  
                
  19210592.633   102799782.921    19210597.516    79955432.324    19210597.297  
  19210591.121  
  21525446.477   114985082.120    21525450.652    89432861.366    21525449.387  
  21525445.820  
  23254338.055   122202364.950    23254347.426    95222668.0164   23254347.641  
                
  19695717.977   105247924.122    19695722.875    81859556.930    19695722.633  
  19695716.988  
  20800237.367   111228207.537    20800242.051    86511357.078    20800241.996  
  20800235.930  
  22342923.250   119100276.978    22342929.469    92633613.908    22342929.242  
  22342921.254  
  20429251.367   107356448.772    20429257.727    83654450.8064   20429257.559  
                
  22268014.773   117019213.355    22268024.078    91183882.3984   22268024.301  
                
 21  8  9  0 45 30.0000000  0 17R18G 6R 1R 8G21G22G19G14G 1R17R16G24
                                R15R24R14G17G 3
  22021113.102   117550213.638    22021120.574    91428597.309    22021120.125  
  22021112.719  
  22913205.281   120409713.203    22913215.023    93825799.9294   22913215.512  
                
  22571094.234   120655439.735    22571101.574    93843168.390    22571100.742  
  22571092.941  
  22785644.633   122016064.125    22785649.848    94901428.948    22785649.910  
  22785643.730  
  24891665.961   130806570.054    24891672.875   101927220.6684                 
                
  22833680.805   119991831.669    22833685.094    93500161.0044                 
                
  20601382.602   108261007.703    20601387.301    84359246.9374                 
                
  21085673.992   110805975.682    21085680.742    86342346.4284   21085680.648  
                
  22094411.555   116106914.945    22094421.562    90473047.6534   22094421.172  
                
  19209500.453   102793938.422    19209505.352    79950886.602    19209505.121  
  19209498.891  
  21519857.820   114955228.524    21519861.949    89409641.912    21519860.703  
  21519857.129  
  23254234.586   122201821.220    23254244.082    95222244.3374   23254244.219  
                
  19698217.609   105261281.386    19698222.516    81869945.904    19698222.266  
  19698216.645  
  20805695.078   111257392.375    20805699.801    86534056.390    20805699.738  
  20805693.641  
  22351104.266   119143886.345    22351110.508    92667532.287    22351110.289  
  22351102.289  
  20429424.258   107357357.322    20429430.617    83655158.7594   20429430.453  
                
  22265912.672   117008166.764    22265921.988    91175274.6704   22265922.207  
                
 21  8  9  0 45 40.0000000  0 17R18G 6R 1R 8G21G22G19G14G 1R17R16G24
                                R15R24R14G17G 3
  22014861.000   117516839.540    22014868.461    91402639.704    22014867.992  
  22014860.664  
  22906778.766   120375941.595    22906788.461    93799484.3824   22906788.977  
                
  22566611.852   120631478.839    22566619.180    93824532.152    22566618.363  
  22566610.570  
  22786636.602   122021376.187    22786641.867    94905560.578    22786641.922  
  22786635.680  
  24897817.070   130838894.313    24897824.012   101952408.4004                 
                
  22835099.148   119999285.096    22835103.445    93505968.8684                 
                
  20598076.797   108243635.568    20598081.469    84345710.2084                 
                
  21089936.781   110828376.770    21089943.543    86359801.8204   21089943.457  
                
  22100414.125   116138458.646    22100424.133    90497627.1514   22100423.750  
                
  19208419.188   102788152.420    19208424.102    79946386.384    19208423.879  
  19208417.578  
  21514280.836   114925437.231    21514284.910    89386470.902    21514283.676  
  21514280.102  
  23254143.789   122201344.012    23254153.391    95221872.4744   23254153.449  
                
  19700733.656   105274726.342    19700738.574    81880403.095    19700738.312  
  19700732.703  
  20811158.633   111286608.379    20811163.387    86556779.936    20811163.324  
  20811157.180  
  22359290.531   119187523.632    22359296.781    92701472.364    22359296.574  
  22359288.547  
  20429604.070   107358302.206    20429610.441    83655895.0304   20429610.273  
                
  22263823.297   116997187.107    22263832.629    91166719.1144   22263832.844  
                
 21  8  9  0 45 50.0000000  0 17R18G 6R 1R 8G21G22G19G14G 1R17R16G24
                                R15R24R14G17G 3
  22008614.602   117483495.866    22008622.004    91376705.738    22008621.555  
  22008614.285  
  22900357.461   120342197.585    22900367.258    93773190.3844   22900367.699  
                
  22562142.195   120607586.047    22562149.531    93805948.887    22562148.719  
  22562140.914  
  22787644.914   122026775.577    22787650.180    94909760.084    22787650.238  
  22787643.895  
  24903968.961   130871222.628    24903975.902   101977599.2744                 
                
  22836529.547   120006801.852    22836533.848    93511826.0724                 
                
  20594778.703   108226304.025    20594783.367    84332205.1214                 
                
  21094209.055   110850827.602    21094215.809    86377295.9554   21094215.746  
                
  22106423.180   116170036.340    22106433.184    90522233.1334   22106432.801  
                
  19207348.844   102782424.774    19207353.762    79941931.551    19207353.535  
  19207347.188  
  21508715.484   114895708.113    21508719.512    89363348.245    21508718.254  
  21508714.715  
  23254065.609   122200933.158    23254075.320    95221552.3204   23254075.324  
                
  19703266.109   105288258.941    19703271.020    81890928.434    19703270.762  
  19703265.145  
  20816627.891   111315854.940    20816632.668    86579527.251    20816632.605  
  20816626.426  
  22367481.977   119231188.522    22367488.211    92735433.920    22367487.996  
  22367479.973  
  20429790.773   107359283.310    20429797.152    83656659.5234   20429796.988  
                
  22261746.664   116986274.324    22261755.996    91158215.6544   22261756.199  
                
 21  8  9  0 46  0.0000000  0 17R18G 6R 1R 8G21G22G19G14G 1R17R16G24
                                R15R24R14G17G 3
  22002373.914   117450182.711    22002381.266    91350795.530    22002380.812  
  22002373.598  
  22893941.547   120308481.592    22893951.254    93746918.1584   22893951.727  
                
  22557685.383   120583761.830    22557692.723    93787418.944    22557691.898  
  22557684.090  
  22788669.539   122032262.429    22788674.801    94914027.639    22788674.844  
  22788668.480  
  24910121.656   130903555.224    24910128.590   102002793.4954                 
                
  22837972.023   120014382.121    22837976.348    93517732.7754                 
                
  20591488.414   108209013.457    20591493.062    84318731.9604                 
                
  21098490.812   110873328.381    21098497.590    86394829.0304   21098497.520  
                
  22112438.727   116201648.210    22112448.742    90546865.7454   22112448.348  
                
  19206289.477   102776755.862    19206294.410    79937522.395    19206294.176  
  19206287.789  
  21503161.852   114866041.662    21503165.867    89340274.358    21503164.605  
  21503161.055  
  23254000.102   122200588.919    23254009.934    95221284.0814   23254009.863  
                
  19705814.984   105301879.350    19705819.898    81901522.084    19705819.656  
  19705814.016  
  20822102.938   111345132.405    20822107.727    86602298.597    20822107.672  
  20822101.457  
  22375678.602   119274881.140    22375684.875    92769417.069    22375684.660  
  22375676.629  
  20429984.430   107360300.999    20429990.828    83657452.5294   20429990.660  
                
  22259682.812   116975428.771    22259692.141    91149764.5864   22259692.340  
                
 21  8  9  0 46 10.0000000  0 17R18G 6R 1R 8G21G22G19G14G 1R17R16G24
                                R15R24R14G17G 3
  21996138.922   117416899.975    21996146.230    91324908.983    21996145.754  
  21996138.625  
  22887530.852   120274793.399    22887540.691    93720667.6704   22887541.098  
                
  22553241.367   120560006.064    22553248.699    93768942.245    22553247.895  
  22553240.102  
  22789710.492   122037836.663    22789715.758    94918363.148    22789715.777  
  22789709.406  
  24916275.141   130935891.885    24916282.047   102027990.8664                 
                
  22839426.547   120022025.708    22839430.902    93523688.8174                 
                
  20588205.875   108191763.650    20588210.512    84305290.5574                 
                
  21102782.023   110895878.829    21102788.820    86412400.7974   21102788.754  
                
  22118460.711   116233293.959    22118470.746    90571524.7714   22118470.340  
                
  19205241.023   102771145.406    19205245.965    79933158.712    19205245.730  
  19205239.328  
  21497619.969   114836437.885    21497623.957    89317249.195    21497622.680  
  21497619.113  
  23253947.258   122200311.125    23253957.203    95221067.6054   23253957.035  
                
  19708380.266   105315587.394    19708385.172    81912183.894    19708384.926  
  19708379.285  
  20827583.727   111374440.622    20827588.531    86625093.871    20827588.477  
  20827582.238  
  22383880.367   119318601.118    22383886.691    92803421.498    22383886.469  
  22383878.430  
  20430184.992   107361354.951    20430191.398    83658273.7854   20430191.230  
                
  22257631.727   116964650.275    22257641.039    91141365.7764   22257641.238  
                
 21  8  9  0 46 20.0000000  0 17R18G 6R 1R 8G21G22G19G14G 1R17R16G24
                                R15R24R14G17G 3
  21989909.641   117383647.692    21989916.895    91299046.107    21989916.414  
  21989909.344  
  22881125.539   120241133.267    22881135.367    93694438.9984   22881135.750  
                
  22548810.188   120536318.974    22548817.516    93750518.976    22548816.707  
  22548808.953  
  22790767.805   122043498.437    22790773.039    94922766.745    22790773.070  
  22790766.742  
  24922429.391   130968232.622    24922436.254   102053191.4274                 
                
  22840893.164   120029732.748    22840897.555    93529694.2904                 
                
  20584931.148   108174554.802    20584935.773    84291881.0624                 
                
  21107082.703   110918479.031    21107089.531    86430011.3464   21107089.469  
                
  22124489.164   116264973.632    22124499.207    90596210.2254   22124498.793  
                
  19204203.523   102765593.492    19204208.469    79928840.549    19204208.227  
  19204201.820  
  21492089.812   114806896.889    21492093.816    89294272.881    21492092.520  
  21492088.906  
  23253907.078   122200099.893    23253917.160    95220902.9964   23253916.922  
                
  19710961.938   105329383.063    19710966.848    81922913.852    19710966.594  
  19710960.941  
  20833070.250   111403779.460    20833075.059    86647912.954    20833074.988  
  20833068.750  
  22392087.281   119362348.496    22392093.609    92837447.214    22392093.379  
  22392085.309  
  20430392.492   107362445.338    20430398.910    83659123.4344   20430398.734  
                
  22255593.422   116953939.018    22255602.730    91133019.3654   22255602.926  
                
 21  8  9  0 46 30.0000000  0 17R18G 6R 1R 8G21G22G19G14G 1R17R16G24
                                R15R24R14G17G 3
  21983686.047   117350425.901    21983693.273    91273206.970    21983692.777  
  21983685.754  
  22874725.531   120207501.069    22874735.395    93668232.1084   22874735.785  
                
  22544391.891   120512700.656    22544399.219    93732149.175    22544398.395  
  22544390.680  
  22791841.367   122049247.375    22791846.586    94927238.150    22791846.621  
  22791840.383  
  24928584.383   131000577.268    24928591.191   102078395.0434                 
                
  22842371.812   120037503.121    22842376.234    93535749.1204                 
                
  20581664.172   108157386.747    20581668.797    84278503.3524                 
                
  21111392.812   110941128.786    21111399.664    86447660.4974   21111399.594  
                
  22130524.008   116296686.946    22130534.043    90620921.8974   22130533.645  
                
  19203176.930   102760100.001    19203181.875    79924567.838    19203181.641  
  19203175.246  
  21486571.406   114777418.622    21486575.422    89271345.367    21486574.125  
  21486570.430  
  23253879.508   122199955.023    23253889.723    95220790.1004   23253889.359  
                
  19713559.969   105343266.118    19713564.879    81933711.779    19713564.621  
  19713558.945  
  20838562.445   111433148.693    20838567.254    86670755.681    20838567.188  
  20838560.957  
  22400299.328   119406123.158    22400305.645    92871494.135    22400305.426  
  22400297.340  
  20430606.875   107363571.978    20430613.312    83660001.3404   20430613.141  
                
  22253567.930   116943294.957    22253577.207    91124725.2844   22253577.398  
                
 21  8  9  0 46 40.0000000  0 17R18G 6R 1R 8G21G22G19G14G 1R17R16G24
                                R15R24R14G17G 3
  21977468.227   117317234.779    21977475.391    91247391.671    21977474.871  
  21977467.906  
  22868330.883   120173897.143    22868340.867    93642047.2664   22868341.180  
                
  22539986.523   120489151.454    22539993.855    93713833.155    22539993.004  
  22539985.355  
  22792931.273   122055083.748    22792936.445    94931777.546    22792936.480  
  22792930.387  
  24934740.172   131032926.091    24934746.938   102103601.9084                 
                
  22843862.594   120045337.139    22843867.016    93541853.5374                 
                
  20578405.031   108140259.818    20578409.676    84265157.7014                 
                
  21115712.406   110963828.340    21115719.285    86465348.4484   21115719.199  
                
  22136565.297   116328434.124    22136575.297    90645659.9494   22136574.930  
                
  19202161.305   102754665.115    19202166.238    79920340.697    19202166.004  
  19202159.625  
  21481064.898   114748003.830    21481068.898    89248467.182    21481067.602  
  21481063.875  
  23253864.609   122199876.775    23253874.930    95220729.1524   23253874.504  
                
  19716174.391   105357236.779    19716179.301    81944577.850    19716179.039  
  19716173.332  
  20844060.383   111462548.615    20844065.195    86693622.286    20844065.137  
  20844058.910  
  22408516.445   119449924.932    22408522.797    92905562.164    22408522.586  
  22408514.492  
  20430828.227   107364735.133    20430834.660    83660907.6914   20430834.488  
                
  22251555.258   116932718.340    22251564.539    91116483.7834   22251564.727  
                
 21  8  9  0 46 50.0000000  0 17R18G 6R 1R 8G21G22G19G14G 1R17R16G24
                                R15R24R14G17G 3
  21971256.133   117284074.238    21971263.266    91221600.161    21971262.730  
  21971255.801  
  22861941.609   120140321.213    22861951.562    93615884.1854   22861951.883  
                
  22535594.055   120465671.242    22535601.363    93695570.758    22535600.516  
  22535592.898  
  22794037.461   122061007.257    22794042.559    94936384.691    22794042.578  
  22794036.641  
  24940896.656   131065278.631    24940903.391   102128811.6704                 
                
  22845365.320   120053234.066    22845369.750    93548006.9874                 
                
  20575153.625   108123173.613    20575158.301    84251843.7784                 
                
  21120041.359   110986577.177    21120048.277    86483074.8154   21120048.184  
                
  22142612.930   116360214.618    22142622.895    90670423.9604   22142622.547  
                
  19201156.523   102749288.409    19201161.465    79916158.818    19201161.234  
  19201154.863  
  21475570.180   114718652.086    21475574.191    89225638.062    21475572.883  
  21475569.113  
  23253862.328   122199864.788    23253872.656    95220719.7984   23253872.188  
                
  19718805.109   105371294.563    19718810.016    81955511.677    19718809.766  
  19718804.004  
  20849563.953   111491978.657    20849568.758    86716512.309    20849568.691  
  20849562.488  
  22416738.594   119493753.477    22416744.957    92939650.997    22416744.734  
  22416736.629  
  20431056.445   107365934.444    20431062.887    83661842.2174   20431062.723  
                
  22249555.359   116922208.880    22249564.641    91108294.6024   22249564.816  
                
 21  8  9  0 47  0.0000000  0 17R18G 6R 1R 8G21G22G19G14G 1R17R16G24
                                R15R24R14G17G 3
  21965049.805   117250944.496    21965056.902    91195832.605    21965056.352  
  21965049.441  
  22855557.664   120106773.562    22855567.797    93589743.2124   22855568.039  
                
  22531214.523   120442260.176    22531221.816    93677362.164    22531220.957  
  22531213.406  
  22795159.945   122067018.113    22795165.008    94941059.806    22795165.035  
  22795159.246  
  24947053.891   131097635.086    24947060.613   102154024.4924                 
                
  22846880.102   120061194.275    22846884.543    93554209.7554                 
                
  20571910.055   108106128.521    20571914.758    84238561.8864                 
                
  21124379.773   111009375.599    21124386.715    86500839.8004   21124386.598  
                
  22148666.938   116392028.658    22148676.902    90695214.1224   22148676.578  
                
  19200162.711   102743970.297    19200167.645    79912022.503    19200167.406  
  19200161.062  
  21470087.336   114689363.777    21470091.371    89202858.279    21470090.074  
  21470086.270  
  23253872.711   122199919.329    23253883.020    95220762.3074   23253882.527  
                
  19721452.219   105385439.895    19721457.125    81966513.600    19721456.871  
  19721451.066  
  20855073.219   111521439.122    20855078.008    86739425.999    20855077.953  
  20855071.746  
  22424965.805   119537608.917    22424972.152    92973760.734    22424971.906  
  22424963.809  
  20431291.602   107367170.207    20431298.047    83662805.1544   20431297.891  
                
  22247568.320   116911766.908    22247577.598    91100158.0114   22247577.758  
                
 21  8  9  0 47 10.0000000  0 17R18G 6R 1R 8G21G22G19G14G 1R17R16G24
                                R15R24R14G17G 3
  21958849.164   117217845.188    21958856.258    91170088.727    21958855.684  
  21958848.801  
  22849179.125   120073254.022    22849189.203    93563624.0554   22849189.457  
                
  22526847.922   120418918.231    22526855.188    93659207.327    22526854.324  
  22526846.820  
  22796298.648   122073115.802    22796303.680    94945802.434    22796303.711  
  22796298.043  
  24953211.805   131129995.086    24953218.500   102179240.0594                 
                
  22848406.867   120069217.503    22848411.301    93560461.6084                 
                
  20568674.234   108089124.195    20568678.965    84225311.7544                 
                
  21128727.523   111032223.201    21128734.496    86518643.1284   21128734.371  
                
  22154727.258   116423875.811    22154737.227    90720030.0684   22154736.895  
                
  19199179.750   102738710.318    19199184.676    79907931.406    19199184.438  
  19199178.109  
  21464616.297   114660138.514    21464620.340    89180127.519    21464619.039  
  21464615.219  
  23253895.672   122200040.043    23253905.934    95220856.3724   23253905.418  
                
  19724115.625   105399672.337    19724120.520    81977583.268    19724120.258  
  19724114.426  
  20860588.062   111550929.530    20860592.844    86762362.977    20860592.789  
  20860586.578  
  22433197.930   119581490.793    22433204.305    93007891.085    22433204.055  
  22433195.980  
  20431533.633   107368442.099    20431540.066    83663796.2304   20431539.914  
                
  22245594.055   116901392.154    22245603.316    91092073.7904   22245603.480  
                
 21  8  9  0 47 20.0000000  0 17R18G 6R 1R 8G21G22G19G14G 1R17R16G24
                                R15R24R14G17G 3
  21952654.352   117184776.883    21952661.453    91144368.956    21952660.871  
  21952653.992  
  22842805.969   120039762.956    22842816.133    93537527.1634   22842816.383  
                
  22522494.367   120395645.968    22522501.602    93641106.686    22522500.727  
  22522493.266  
  22797453.727   122079301.083    22797458.746    94950613.194    22797458.781  
  22797453.211  
  24959370.469   131162358.958    24959377.180   102204458.6444                 
                
  22849945.703   120077304.090    22849950.152    93566762.8504                 
                
  20565446.281   108072161.120    20565451.047    84212093.7774                 
                
  21133084.742   111055120.377    21133091.734    86536485.0614   21133091.605  
                
  22160793.953   116455756.384    22160803.945    90744872.0664   22160803.590  
                
  19198207.758   102733508.911    19198212.680    79903885.870    19198212.438  
  19198206.133  
  21459157.258   114630977.248    21459161.332    89157446.546    21459160.023  
  21459156.203  
  23253931.336   122200227.355    23253941.504    95221002.3314   23253941.004  
                
  19726795.398   105413992.142    19726800.281    81988720.887    19726800.027  
  19726794.160  
  20866108.594   111580450.218    20866113.367    86785323.512    20866113.320  
  20866107.086  
  22441435.109   119625399.404    22441441.508    93042042.203    22441441.266  
  22441433.180  
  20431782.633   107369750.537    20431789.066    83664815.7904   20431788.914  
                
  22243632.695   116891085.070    22243641.922    91084042.3054   22243642.082  
                
 21  8  9  0 47 30.0000000  0 17R18G 6R 1R 8G21G22G19G14G 1R17R16G24
                                R15R24R14G17G 3
  21946465.266   117151739.219    21946472.340    91118673.015    21946471.730  
  21946464.891  
  22836438.188   120006300.133    22836448.402    93511452.2354   22836448.598  
                
  22518153.758   120372442.947    22518160.949    93623059.892    22518160.098  
  22518152.621  
  22798624.992   122085573.234    22798630.023    94955491.539    22798630.074  
  22798624.531  
  24965529.758   131194726.241    24965536.516   102229679.8994                 
                
  22851496.492   120085453.569    22851500.953    93573113.0854                 
                
  20562226.086   108055238.934    20562230.879    84198907.6574                 
                
  21137451.266   111078066.632    21137458.293    86554365.2514   21137458.152  
                
  22166866.883   116487669.861    22166876.887    90769739.6974   22166876.512  
                
  19197246.617   102728365.729    19197251.539    79899885.620    19197251.301  
  19197245.012  
  21453710.117   114601879.690    21453714.219    89134815.119    21453712.918  
  21453709.094  
  23253979.547   122200480.802    23253989.594    95221199.8324   23253989.164  
                
  19729491.422   105428398.884    19729496.297    81999926.120    19729496.039  
  19729490.152  
  20871634.688   111610000.716    20871639.441    86808307.227    20871639.387  
  20871633.164  
  22449677.195   119669334.233    22449683.602    93076213.697    22449683.359  
  22449675.242  
  20432038.484   107371095.065    20432044.926    83665863.4764   20432044.773  
                
  22241684.109   116880845.303    22241693.297    91076063.2774   22241693.477  
                
 21  8  9  0 47 40.0000000  0 17R18G 6R 1R 8G21G22G19G14G 1R17R16G24
                                R15R24R14G17G 3
  21940282.008   117118732.596    21940289.055    91093001.216    21940288.430  
  21940281.633  
  22830075.844   119972865.886    22830086.113    93485399.6074   22830086.301  
                
  22513826.234   120349309.863    22513833.375    93605067.494    22513832.535  
  22513825.074  
  22799812.625   122091932.884    22799817.652    94960437.921    22799817.711  
  22799812.137  
  24971689.766   131227097.272    24971696.559   102254904.0654                 
                
  22853059.344   120093666.347    22853063.832    93579512.6454                 
                
  20559013.766   108038358.061    20559018.574    84185753.7304                 
                
  21141827.211   111101062.299    21141834.254    86572283.9374   21141834.109  
                
  22172946.148   116519616.535    22172956.137    90794633.2044   22172955.766  
                
  19196296.406   102723280.941    19196301.320    79895930.787    19196301.082  
  19196294.816  
  21448274.922   114572845.903    21448279.074    89112233.296    21448277.746  
  21448273.953  
  23254040.445   122200800.787    23254050.340    95221449.1654   23254049.980  
                
  19732203.781   105442892.891    19732208.648    82011199.236    19732208.387  
  19732202.504  
  20877166.398   111639581.286    20877171.148    86831314.334    20877171.090  
  20877164.891  
  22457924.227   119713295.470    22457930.637    93110405.756    22457930.395  
  22457922.289  
  20432301.289   107372476.139    20432307.738    83666939.6394   20432307.594  
                
  22239748.430   116870673.285    22239757.582    91068137.0454   22239757.781  
                
 21  8  9  0 47 50.0000000  0 17R18G 6R 1R 8G21G22G19G14G 1R17R16G24
                                R15R24R14G17G 3
  21934104.500   117085756.847    21934111.551    91067353.449    21934110.934  
  21934104.105  
  22823718.969   119939460.298    22823729.316    93459369.2714   22823729.445  
                
  22509511.797   120326246.778    22509518.895    93587129.549    22509518.043  
  22509510.633  
  22801016.484   122098379.536    22801021.512    94965451.992    22801021.570  
  22801015.953  
  24977850.477   131259471.969    24977857.305   102280131.1004                 
                
  22854634.203   120101942.326    22854638.723    93585961.4584                 
                
  20555809.281   108021518.399    20555814.090    84172631.9204                 
                
  21146212.531   111124107.250    21146219.590    86590241.0144   21146219.438  
                
  22179031.672   116551596.202    22179041.637    90819552.4114   22179041.289  
                
  19195357.102   102718254.555    19195362.012    79892021.367    19195361.766  
  19195355.527  
  21442851.758   114543876.286    21442855.945    89089701.370    21442854.609  
  21442850.840  
  23254113.984   122201187.204    23254123.719    95221750.2614   23254123.414  
                
  19734932.445   105457474.018    19734937.297    82022540.098    19734937.039  
  19734931.156  
  20882703.734   111669191.853    20882708.461    86854344.763    20882708.402  
  20882702.230  
  22466176.148   119757282.839    22466182.566    93144618.141    22466182.344  
  22466174.250  
  20432571.031   107373893.630    20432577.488    83668044.1784   20432577.332  
                
  22237825.648   116860569.002    22237834.762    91060263.5784   22237834.965  
                
 21  8  9  0 48  0.0000000  0 17R18G 6R 1R 8G21G22G19G14G 1R17R16G24
                                R15R24R14G17G 3
  21927932.844   117052812.216    21927939.879    91041729.876    21927939.258  
  21927932.438  
  22817367.547   119906083.378    22817377.855    93433361.3004   22817378.023  
                
  22505210.469   120303253.654    22505217.523    93569245.998    22505216.660  
  22505209.270  
  22802236.641   122104913.481    22802241.699    94970533.966    22802241.754  
  22802236.051  
  24984011.852   131291850.202    24984018.723   102305360.8894                 
                
  22856221.094   120110281.456    22856225.605    93592459.4804                 
                
  20552612.656   108004720.022    20552617.445    84159542.2814                 
                
  21150607.219   111147201.431    21150614.312    86608236.4794   21150614.141  
                
  22185123.484   116583608.796    22185133.422    90844497.2794   22185133.094  
                
  19194428.719   102713286.564    19194433.617    79888157.380    19194433.371  
  19194427.160  
  21437440.602   114514970.975    21437444.863    89067219.476    21437443.527  
  21437439.762  
  23254200.164   122201640.052    23254209.770    95222103.1264   23254209.535  
                
  19737677.383   105472142.091    19737682.242    82033948.600    19737681.980  
  19737676.109  
  20888246.625   111698832.169    20888251.355    86877398.338    20888251.293  
  20888245.129  
  22474432.969   119801296.201    22474439.395    93178850.727    22474439.168  
  22474431.082  
  20432847.703   107375347.550    20432854.172    83669177.0994   20432854.000  
                
  22235915.758   116850532.504    22235924.859    91052442.9414   22235925.059  
                
 21  8  9  0 48 10.0000000  0 17R18G 6R 1R 8G21G22G19G14G 1R17R16G24
                                R15R24R14G17G 3
  21921766.992   117019898.468    21921774.020    91016130.309    21921773.375  
  21921766.520  
  22811021.539   119872735.014    22811031.969    93407375.5994   22811032.098  
                
  22500922.250   120280330.642    22500929.285    93551416.991    22500928.422  
  22500921.031  
  22803473.039   122111534.282    22803478.117    94975683.483    22803478.168  
  22803472.375  
  24990173.875   131324231.747    24990180.742   102330593.2434                 
                
  22857819.961   120118683.504    22857824.449    93599006.5304                 
                
  20549423.859   107987962.736    20549428.598    84146484.6574                 
                
  21155011.258   111170344.663    21155018.359    86626270.1394   21155018.172  
                
  22191221.508   116615654.029    22191231.406    90869467.5774   22191231.113  
                
  19193511.203   102708376.757    19193516.105    79884338.644    19193515.859  
  19193509.676  
  21432041.531   114486130.036    21432045.820    89044787.638    21432044.496  
  21432040.738  
  23254298.953   122202159.122    23254308.445    95222507.5964   23254308.273  
                
  19740438.594   105486897.114    19740443.445    82045424.720    19740443.184  
  19740437.328  
  20893795.062   111728502.071    20893799.781    86900474.922    20893799.723  
  20893793.555  
  22482694.641   119845335.413    22482701.078    93213103.429    22482700.840  
  22482692.746  
  20433131.281   107376837.761    20433137.762    83670338.3044   20433137.586  
                
  22234018.758   116840563.651    22234027.844    91044675.0114   22234028.043  
                
 21  8  9  0 48 20.0000000  0 17R18G 6R 1R 8G21G22G19G14G 1R17R16G24
                                R15R24R14G17G 3
  21915606.898   116987015.639    21915613.922    90990554.803    21915613.266  
  21915606.387  
  22804681.023   119839415.392    22804691.391    93381412.2494   22804691.559  
                
  22496647.141   120257477.874    22496654.152    93533642.621    22496653.336  
  22496645.891  
  22804725.664   122118242.136    22804730.781    94980900.710    22804730.824  
  22804724.934  
  24996336.516   131356616.608    24996343.375   102355828.1834                 
                
  22859430.789   120127148.493    22859435.246    93605602.6134                 
                
  20546242.891   107971246.692    20546247.562    84133459.1644                 
                
  21159424.578   111193536.873    21159431.719    86644341.9934   21159431.527  
                
  22197325.711   116647731.863    22197335.594    90894463.2944   22197335.324  
                
  19192604.555   102703525.142    19192609.453    79880565.162    19192609.207  
  19192603.043  
  21426654.445   114457353.277    21426658.785    89022405.729    21426657.465  
  21426653.738  
  23254410.328   122202744.469    23254419.742    95222963.7164   23254419.633  
                
  19743216.039   105501738.993    19743220.895    82056968.400    19743220.633  
  19743214.805  
  20899349.008   111758201.570    20899353.734    86923574.535    20899353.676  
  20899347.527  
  22490961.070   119889400.233    22490967.543    93247376.083    22490967.301  
  22490959.219  
  20433421.758   107378364.279    20433428.242    83671527.7994   20433428.055  
                
  22232134.625   116830662.564    22232143.703    91036959.8834   22232143.906  
                
 21  8  9  0 48 30.0000000  0 17R18G 6R 1R 8G21G22G19G14G 1R17R16G24
                                R15R24R14G17G 3
  21909452.648   116954163.924    21909459.660    90965003.493    21909458.977  
  21909452.098  
  22798345.977   119806124.580    22798356.355    93355471.3844   22798356.543  
                
  22492385.250   120234695.558    22492392.215    93515923.027    22492391.395  
  22492383.926  
  22805994.547   122125036.882    22805999.676    94986185.495    22805999.730  
  22805993.723  
  25002499.789   131389004.743    25002506.629   102381065.6724                 
                
  22861053.609   120135676.468    22861058.055    93612247.7874                 
                
  20543069.812   107954572.058    20543074.398    84120465.9424                 
                
  21163847.266   111216778.161    21163854.414    86662452.0634   21163854.207  
                
  22203436.133   116679842.284    22203445.992    90919484.3884   22203445.742  
                
  19191708.812   102698731.790    19191713.699    79876836.994    19191713.453  
  19191707.316  
  21421279.469   114428641.149    21421283.824    89000074.077    21421282.539  
  21421278.816  
  23254534.359   122203396.186    23254543.699    95223471.5364   23254543.633  
                
  19746009.766   105516667.721    19746014.617    82068579.621    19746014.352  
  19746008.543  
  20904908.453   111787930.435    20904913.168    86946696.983    20904913.117  
  20904906.973  
  22499232.352   119933490.766    22499238.820    93281668.713    22499238.578  
  22499230.516  
  20433719.164   107379927.145    20433725.652    83672745.6134   20433725.457  
                
  22230263.422   116820829.360    22230272.480    91029297.6554   22230272.699  
                
 21  8  9  0 48 40.0000000  0 17R18G 6R 1R 8G21G22G19G14G 1R17R16G24
                                R15R24R14G17G 3
  21903304.320   116921343.694    21903311.297    90939476.665    21903310.621  
  21903303.734  
  22792016.477   119772862.876    22792026.879    93329553.1714   22792027.023  
                
  22488136.570   120211983.891    22488143.539    93498258.400    22488142.715  
  22488135.207  
  22807279.773   122131919.082    22807284.906    94991538.296    22807284.969  
  22807278.895  
  25008663.711   131421396.302    25008670.520   102406305.8404                 
                
  22862688.445   120144267.539    22862692.898    93618942.1244                 
                
  20539904.648   107937938.939    20539909.156    84107505.0714                 
                
  21168279.297   111240068.570    21168286.449    86680600.4174   21168286.246  
                
  22209552.766   116711985.338    22209562.621    90944530.9134   22209562.359  
                
  19190823.984   102693996.891    19190828.859    79873154.290    19190828.625  
  19190822.523  
  21415916.664   114399993.966    21415921.027    88977792.933    21415919.746  
  21415916.059  
  23254671.039   122204114.384    23254680.340    95224031.1744   23254680.312  
                
  19748819.750   105531683.386    19748824.617    82080258.471    19748824.344  
  19748818.559  
  20910473.484   111817689.089    20910478.180    86969842.591    20910478.121  
  20910471.965  
  22507508.445   119977606.849    22507514.926    93315981.198    22507514.691  
  22507506.617  
  20434023.523   107381526.537    20434030.016    83673991.8984   20434029.816  
                
  22228405.180   116811064.262    22228414.215    91021688.4934   22228414.445  
                
 21  8  9  0 48 50.0000000  0 17R18G 6R 1R 8G21G22G19G14G 1R17R16G24
                                R15R24R14G17G 3
  21897161.742   116888554.315    21897168.668    90913973.824    21897167.992  
  21897161.141  
  22785692.438   119739629.948    22785702.840    93303657.4214   22785702.996  
                
  22483901.078   120189342.735    22483908.020    93480648.602    22483907.188  
  22483899.676  
  22808581.180   122138888.014    22808586.309    94996958.558    22808586.379  
  22808580.340  
  25014828.227   131453790.988    25014835.000   102431548.4384                 
                
  22864335.227   120152921.458    22864339.715    93625685.4374                 
                
  20536747.320   107921347.115    20536751.758    84094576.3814                 
                
  21172720.594   111263407.763    21172727.773    86698786.7994   21172727.547  
                
  22215675.523   116744160.631    22215685.375    90969602.5664   22215685.098  
                
  19189950.016   102689320.105    19189954.879    79869516.790    19189954.641  
  19189948.586  
  21410565.953   114371411.494    21410570.328    88955562.127    21410569.059  
  21410565.391  
  23254820.289   122204898.732    23254829.570    95224642.3574   23254829.598  
                
  19751645.953   105546785.730    19751650.828    82092004.729    19751650.547  
  19751644.793  
  20916043.984   111847477.033    20916048.672    86993010.980    20916048.609  
  20916042.434  
  22515789.250   120021748.191    22515795.750    93350313.338    22515795.527  
  22515787.461  
  20434334.773   107383162.187    20434341.266    83675266.4254   20434341.062  
                
  22226559.852   116801367.036    22226568.867    91014132.2204   22226569.105  
                
 21  8  9  0 49  0.0000000  0 17R18G 6R 1R 8G21G22G19G14G 1R17R16G24
                                R15R24R14G17G 3
  21891025.070   116855796.406    21891031.957    90888495.483    21891031.281  
  21891024.492  
  22779373.984   119706426.203    22779384.336    93277784.3534   22779384.500  
                
  22479678.852   120166772.597    22479685.797    93463094.063    22479684.957  
  22479677.457  
  22809898.844   122145943.959    22809903.980    95002446.501    22809904.043  
  22809898.066  
  25020993.391   131486188.979    25021000.133   102456793.5964                 
                
  22865994.008   120161638.368    22865998.520    93632477.8294                 
                
  20533597.906   107904796.831    20533602.281    84081680.0564                 
                
  21177171.234   111286795.954    21177178.406    86717011.3444   21177178.184  
                
  22221804.445   116776368.299    22221814.285    90994699.4434   22221813.996  
                
  19189086.977   102684701.797    19189091.828    79865924.775    19189091.590  
  19189085.594  
  21405227.484   114342894.329    21405231.863    88933382.124    21405230.598  
  21405226.945  
  23254982.188   122205749.491    23254991.457    95225305.2894   23254991.516  
                
  19754488.383   105561974.816    19754493.273    82103818.462    19754492.988  
  19754487.258  
  20921619.969   111877294.266    20921624.648    87016202.152    20921624.586  
  20921618.418  
  22524074.773   120065914.680    22524081.270    93384665.046    22524081.051  
  22524072.996  
  20434652.969   107384834.290    20434659.457    83676569.3634   20434659.254  
                
  22224727.484   116791737.918    22224736.496    91006629.0304   22224736.719  
                
 21  8  9  0 49 10.0000000  0 17R18G 6R 1R 8G21G22G19G14G 1R17R16G24
                                R15R24R14G17G 3
  21884894.172   116823069.300    21884901.008    90863041.081    21884900.328  
  21884893.637  
  22773060.930   119673250.955    22773071.203    93251933.5354   22773071.426  
                
  22475469.789   120144272.704    22475476.723    93445594.129    22475475.906  
  22475468.359  
  22811232.648   122153086.412    22811237.805    95008001.732    22811237.898  
  22811231.926  
  25027159.023   131518589.549    25027165.734   102482040.7824                 
                
  22867664.656   120170417.637    22867669.160    93639318.8124                 
                
  20530456.297   107888287.547    20530460.629    84068815.6784                 
                
  21181631.047   111310232.390    21181638.227    86735273.4984   21181638.012  
                
  22227939.383   116808607.605    22227949.207    91019820.9704   22227948.918  
                
  19188234.680   102680140.993    19188239.512    79862377.483    19188239.273  
  19188233.332  
  21399901.086   114314441.670    21399905.449    88911252.284    21399904.188  
  21399900.578  
  23255156.602   122206665.995    23255165.855    95226019.4284   23255165.973  
                
  19757346.922   105577249.971    19757351.824    82115699.135    19757351.547  
  19757345.836  
  20927201.336   111907140.322    20927206.008    87039415.748    20927205.957  
  20927199.801  
  22532364.930   120110105.712    22532371.406    93419035.824    22532371.180  
  22532363.141  
  20434977.969   107386542.184    20434984.457    83677900.1944   20434984.262  
                
  22222907.992   116782176.375    22222916.984    90999178.4724   22222917.207  
                
 21  8  9  0 49 20.0000000  0 17R18G 6R 1R 8G21G22G19G14G 1R17R16G24
                                R15R24R14G17G 3
  21878769.141   116790373.593    21878775.910    90837611.109    21878775.211  
  21878768.625  
  22766753.430   119640104.981    22766763.742    93226105.5254   22766763.945  
                
  22471274.055   120121844.089    22471280.988    93428149.654    22471280.188  
  22471272.594  
  22812582.695   122160315.838    22812587.883    95013624.609    22812587.984  
  22812582.000  
  25033325.258   131550993.367    25033331.980   102507290.5074                 
                
  22869347.273   120179259.850    22869351.727    93646208.8414                 
                
  20527322.594   107871819.887    20527326.902    84055983.7414                 
                
  21186100.164   111333717.696    21186107.344    86753573.7124   21186107.121  
                
  22234080.445   116840879.081    22234090.246    91044967.5684   22234089.977  
                
  19187393.258   102675638.448    19187398.082    79858875.514    19187397.852  
  19187391.953  
  21394586.930   114286054.409    21394591.281    88889173.309    21394590.023  
  21394586.426  
  23255343.648   122207648.871    23255352.906    95226785.2944   23255353.043  
                
  19760221.672   105592611.727    19760226.582    82127647.159    19760226.305  
  19760220.613  
  20932788.148   111937015.561    20932792.824    87062652.047    20932792.754  
  20932786.633  
  22540659.758   120154321.766    22540666.242    93453426.077    22540666.008  
  22540658.000  
  20435309.891   107388286.536    20435316.391    83679259.4344   20435316.195  
                
  22221101.445   116772683.024    22221110.445    90991781.0674   22221110.664  
                
 21  8  9  0 49 30.0000000  0 17R18G 6R 1R 8G21G22G19G14G 1R17R16G24
                                R15R24R14G17G 3
  21872650.016   116757709.194    21872656.672    90812205.457    21872655.961  
  21872649.520  
  22760451.531   119606988.208    22760461.754    93200300.2424   22760462.016  
                
  22467091.609   120099486.519    22467098.539    93410760.425    22467097.738  
  22467090.094  
  22813948.961   122167632.047    22813954.164    95019314.980    22813954.285  
  22813948.293  
  25039492.062   131583400.112    25039498.801   102532542.5094                 
                
  22871041.836   120188164.839    22871046.238    93653147.7924                 
                
  20524196.820   107855393.768    20524201.113    84043184.1664                 
                
  21190578.547   111357251.658    21190585.715    86771911.8494   21190585.492  
                
  22240227.594   116873182.490    22240237.367    91070139.0444   22240237.117  
                
  19186562.734   102671194.041    19186567.512    79855418.740    19186567.297  
  19186561.430  
  21389285.016   114257732.517    21389289.344    88867145.169    21389288.086  
  21389284.504  
  23255543.281   122208697.918    23255552.559    95227602.7274   23255552.719  
                
  19763112.609   105608060.015    19763117.543    82139662.497    19763117.258  
  19763111.590  
  20938380.398   111966919.741    20938385.059    87085910.841    20938384.988  
  20938378.895  
  22548959.219   120198562.533    22548965.738    93487835.558    22548965.527  
  22548957.496  
  20435648.742   107390067.151    20435655.234    83680646.9274   20435655.047  
                
  22219307.891   116763257.838    22219316.895    90984436.7754   22219317.113  
                
 21  8  9  0 49 40.0000000  0 17R18G 6R 1R 8G21G22G19G14G 1R17R16G24
                                R15R24R14G17G 3
  21866536.703   116725076.062    21866543.285    90786824.159    21866542.582  
  21866536.246  
  22754155.125   119573900.468    22754165.305    93174517.6004   22754165.613  
                
  22462922.477   120077200.132    22462929.387    93393426.568    22462928.574  
  22462920.949  
  22815331.383   122175034.794    22815336.590    95025072.651    22815336.719  
  22815330.723  
  25045659.398   131615809.597    25045666.145   102557796.6444                 
                
  22872748.312   120197132.417    22872752.688    93660135.5084                 
                
  20521078.891   107839008.977    20521083.180    84030416.7914                 
                
  21195066.133   111380834.071    21195073.297    86790287.7414   21195073.082  
                
  22246380.758   116905517.564    22246390.520    91095335.1964   22246390.270  
                
  19185743.008   102666807.607    19185747.777    79852007.073    19185747.555  
  19185741.727  
  21383995.312   114229475.938    21383999.613    88845167.839    21383998.352  
  21383994.793  
  23255755.484   122209813.002    23255764.785    95228471.6094   23255764.957  
                
  19766019.672   105623594.424    19766024.594    82151744.795    19766024.309  
  19766018.660  
  20943977.992   111996852.634    20943982.652    87109191.970    20943982.582  
  20943976.508  
  22557263.281   120242827.813    22557269.801    93522264.086    22557269.602  
  22557261.539  
  20435994.461   107391883.936    20436000.945    83682062.5984   20436000.762  
                
  22217527.266   116753900.633    22217536.281    90977145.4564   22217536.488  
                
 21  8  9  0 49 50.0000000  0 17R18G 6R 1R 8G21G22G19G14G 1R17R16G24
                                R15R24R14G17G 3
  21860429.359   116692474.521    21860435.832    90761467.386    21860435.102  
  21860428.891  
  22747864.352   119540842.298    22747874.488    93148757.9954   22747874.793  
                
  22458766.734   120054985.299    22458773.633    93376148.364    22458772.785  
  22458765.184  
  22816730.070   122182524.686    22816735.285    95030898.124    22816735.414  
  22816729.410  
  25051827.305   131648222.126    25051834.090   102583053.1524                 
                
  22874466.781   120206162.978    22874471.145    93667172.3074                 
                
  20517968.922   107822665.976    20517973.234    84017681.9914                 
                
  21199563.008   111404465.279    21199570.164    86808701.6664   21199569.961  
                
  22252540.016   116937884.595    22252549.777    91120556.2534   22252549.520  
                
  19184934.203   102662479.469    19184938.941    79848640.744    19184938.723  
  19184932.922  
  21378717.953   114201285.229    21378722.203    88823241.740    21378720.965  
  21378717.398  
  23255980.320   122210994.477    23255989.668    95229392.2334   23255989.836  
                
  19768942.930   105639215.429    19768947.871    82163894.470    19768947.586  
  19768941.945  
  20949581.039   112026814.571    20949585.691    87132495.696    20949585.625  
  20949579.551  
  22565571.992   120287117.842    22565578.520    93556711.878    22565578.305  
  22565570.258  
  20436347.133   107393737.229    20436353.621    83683506.7234   20436353.441  
                
  22215759.680   116744611.935    22215768.715    90969907.5194   22215768.910  
                
 21  8  9  0 50  0.0000000  0 17R18G 6R 1R 8G21G22G19G14G 1R17R16G24
                                R15R24R14G17G 3
  21854327.930   116659904.702    21854334.324    90736135.317    21854333.586  
  21854327.469  
  22741579.195   119507813.610    22741589.289    93123021.3714   22741589.625  
                
  22454624.398   120032842.148    22454631.277    93358925.914    22454630.430  
  22454622.820  
  22818144.969   122190101.433    22818150.199    95036791.153    22818150.355  
  22818144.305  
  25057995.758   131680637.621    25058002.609   102608312.0004                 
                
  22876197.188   120215256.316    22876201.570    93674258.0264                 
                
  20514866.891   107806364.715    20514871.223    84004979.7074                 
                
  21204069.133   111428145.106    21204076.289    86827153.4734   21204076.086  
                
  22258705.305   116970283.409    22258715.082    91145802.0744   22258714.812  
                
  19184136.258   102658209.567    19184140.992    79845319.709    19184140.766  
  19184134.984  
  21373452.945   114173160.526    21373457.148    88801366.979    21373455.922  
  21373452.352  
  23256217.766   122212242.229    23256227.172    95230364.5084   23256227.332  
                
  19771882.359   105654922.783    19771887.297    82176111.292    19771887.012  
  19771881.375  
  20955189.516   112056805.566    20955194.148    87155822.017    20955194.090  
  20955188.016  
  22573885.250   120331432.184    22573891.789    93591178.592    22573891.570  
  22573883.551  
  20436706.734   107395626.964    20436713.234    83684979.2504   20436713.047  
                
  22214005.117   116735391.641    22214014.156    90962722.8764   22214014.352  
                
 21  8  9  0 50 10.0000000  0 17R18G 6R 1R 8G21G22G19G14G 1R17R16G24
                                R15R24R14G17G 3
  21848232.375   116627366.257    21848238.711    90710827.655    21848237.973  
  21848231.922  
  22735299.609   119474814.211    22735309.617    93097307.5574   22735309.996  
                
  22450495.469   120010770.680    22450502.336    93341759.219    22450501.500  
  22450493.871  
  22819575.992   122197764.492    22819581.223    95042751.307    22819581.371  
  22819575.301  
  25064164.719   131713055.708    25064171.594   102633572.8314                 
                
  22877939.477   120224412.093    22877943.855    93681392.3824                 
                
  20511772.773   107790104.985    20511777.121    83992309.7844                 
                
  21208584.469   111451873.244    21208591.602    86845642.9064   21208591.402  
                
  22264876.570   117002713.598    22264886.391    91171072.3444   22264886.078  
                
  19183349.141   102653997.502    19183353.852    79842043.654    19183353.629  
  19183347.875  
  21368200.242   114145101.546    21368204.395    88779543.337    21368203.168  
  21368199.582  
  23256467.750   122213555.954    23256477.230    95231388.1964   23256477.359  
                
  19774837.883   105670716.239    19774842.824    82188395.096    19774842.547  
  19774836.914  
  20960803.289   112086824.981    20960807.902    87179170.448    20960807.848  
  20960801.793  
  22582203.039   120375770.586    22582209.590    93625663.993    22582209.387  
  22582201.340  
  20437073.211   107397552.842    20437079.719    83686479.9374   20437079.531  
                
  22212263.516   116726239.503    22212272.566    90955591.3474   22212272.773  
                
 21  8  9  0 50 20.0000000  0 17R18G 6R 1R 8G21G22G19G14G 1R17R16G24
                                R15R24R14G17G 3
  21842142.734   116594859.442    21842149.016    90685544.603    21842148.281  
  21842142.281  
  22729025.672   119441844.451    22729035.590    93071616.8374   22729036.039  
                
  22446379.984   119988771.103    22446386.840    93324648.441    22446385.992  
  22446378.375  
  22821023.242   122205514.414    22821028.445    95048779.019    22821028.613  
  22821022.520  
  25070334.234   131745476.616    25070341.113   102658835.8644                 
                
  22879693.703   120233630.561    22879698.086    93688575.5964                 
                
  20508686.602   107773887.079    20508690.977    83979672.4674                 
                
  21213109.016   111475649.879    21213116.148    86864170.1504   21213115.961  
                
  22271053.852   117035175.355    22271063.723    91196367.2124   22271063.375  
                
  19182572.883   102649843.613    19182577.590    79838812.853    19182577.367  
  19182571.648  
  21362959.914   114117108.675    21362964.020    88757771.114    21362962.816  
  21362959.207  
  23256730.359   122214935.938    23256739.891    95232463.5024   23256740.012  
                
  19777809.570   105686595.937    19777814.500    82200745.957    19777814.219  
  19777808.586  
  20966422.438   112116873.106    20966427.059    87202541.221    20966426.996  
  20966420.973  
  22590525.375   120420133.209    22590531.934    93660168.226    22590531.746  
  22590523.645  
  20437446.617   107399515.071    20437453.133    83688008.9454   20437452.938  
                
  22210534.953   116717155.892    22210544.016    90948513.2144   22210544.230  
                
 21  8  9  0 50 30.0000000  0 17R18G 6R 1R 8G21G22G19G14G 1R17R16G24
                                R15R24R14G17G 3
  21836059.039   116562384.220    21836065.242    90660286.096    21836064.535  
  21836058.555  
  22722757.320   119408904.155    22722767.262    93045949.0914   22722767.691  
                
  22442277.914   119966843.232    22442284.750    93307593.435    22442283.879  
  22442276.293  
  22822486.625   122213350.689    22822491.785    95054873.879    22822491.953  
  22822485.867  
  25076504.258   131777900.090    25076511.070   102684100.8674                 
                
  22881459.828   120242911.536    22881464.191    93695807.5134                 
                
  20505608.359   107757710.819    20505612.738    83967067.5864                 
                
  21217642.758   111499474.772    21217649.859    86882734.9784   21217649.695  
                
  22277237.062   117067668.343    22277246.984    91221686.4184   22277246.609  
                
  19181807.461   102645747.624    19181812.152    79835627.080    19181811.922  
  19181806.242  
  21357732.000   114089182.099    21357736.047    88736050.440    21357734.863  
  21357731.246  
  23257005.523   122216381.915    23257015.098    95233590.2314   23257015.191  
                
  19780797.320   105702561.572    19780802.250    82213163.672    19780801.969  
  19780796.324  
  20972046.906   112146949.682    20972051.527    87225934.116    20972051.469  
  20972045.461  
  22598852.156   120464519.543    22598858.715    93694690.914    22598858.516  
  22598850.418  
  20437826.914   107401513.551    20437833.430    83689566.1974   20437833.234  
                
  22208819.406   116708140.604    22208828.484    90941488.3164   22208828.684  
                
 21  8  9  0 50 40.0000000  0 17R18G 6R 1R 8G21G22G19G14G 1R17R16G24
                                R15R24R14G17G 3
  21829981.258   116529940.635    21829987.426    90635052.207    21829986.719  
  21829980.719  
  22716494.617   119375993.425    22716504.457    93020304.3704   22716504.941  
                
  22438189.336   119944987.425    22438196.172    93290594.474    22438195.297  
  22438187.707  
  22823966.188   122221273.633    22823971.289    95061036.151    22823971.453  
  22823965.414  
  25082674.703   131810326.119    25082681.523   102709367.9274                 
                
  22883237.836   120252254.998    22883242.164    93703088.1294                 
                
  20502538.055   107741576.245    20502542.426    83954495.1914                 
                
  21222185.672   111523347.909    21222192.762    86901337.4074   21222192.598  
                
  22283426.219   117100192.543    22283436.176    91247029.9434   22283435.797  
                
  19181052.852   102641709.562    19181057.520    79832486.362    19181057.281  
  19181051.672  
  21352516.469   114061321.736    21352520.480    88714381.290    21352519.281  
  21352515.684  
  23257293.258   122217893.947    23257302.891    95234768.4304   23257302.957  
                
  19783801.164   105718613.155    19783806.082    82225648.230    19783805.805  
  19783800.148  
  20977676.664   112177054.504    20977681.285    87249348.973    20977681.234  
  20977675.234  
  22607183.391   120508929.687    22607189.957    93729232.130    22607189.758  
  22607181.668  
  20438214.117   107403548.325    20438220.641    83691151.7304   20438220.438  
                
  22207116.875   116699193.741    22207125.984    90934516.7404   22207126.172  
                
 21  8  9  0 50 50.0000000  0 17R18G 6R 1R 8G21G22G19G14G 1R17R16G24
                                R15R24R14G17G 3
  21823909.430   116497528.889    21823915.602    90609843.105    21823914.895  
  21823908.859  
  22710237.617   119343112.725    22710247.395    92994683.0554   22710247.926  
                
  22434114.297   119923204.033    22434121.137    93273651.843    22434120.223  
  22434112.676  
  22825461.977   122229283.414    22825467.008    95067265.975    22825467.164  
  22825461.211  
  25088845.742   131842755.007    25088852.484   102734637.1654                 
                
  22885027.797   120261661.298    22885032.090    93710417.7094                 
                
  20499475.758   107725483.791    20499480.141    83941955.6254                 
                
  21226737.828   111547269.576    21226744.910    86919977.6634   21226744.758  
                
  22289621.367   117132748.216    22289631.352    91272397.9894   22289630.965  
                
  19180309.125   102637729.761    19180313.797    79829390.974    19180313.559  
  19180307.977  
  21347313.430   114033528.050    21347317.375    88692763.986    21347316.180  
  21347312.586  
  23257593.625   122219472.367    23257603.324    95235998.3664   23257603.344  
                
  19786821.164   105734751.116    19786826.074    82238199.971    19786825.793  
  19786820.117  
  20983311.828   112207188.144    20983316.438    87272786.234    20983316.371  
  20983310.371  
  22615519.102   120553363.745    22615525.676    93763791.967    22615525.488  
  22615517.402  
  20438608.320   107405619.804    20438614.840    83692765.8684   20438614.629  
                
  22205427.430   116690315.702    22205436.574    90927598.8014   22205436.738  
                
 21  8  9  0 51  0.0000000  0 17R18G 6R 1R 8G21G22G19G14G 1R17R16G24
                                R15R24R14G17G 3
  21817843.500   116465148.690    21817849.668    90584658.525    21817848.988  
  21817842.879  
  22703986.234   119310261.491    22703995.973    92969084.6884   22703996.512  
                
  22430052.742   119901492.784    22430059.586    93256765.316    22430058.695  
  22430051.113  
  22826973.828   122237379.358    22826978.805    95073562.807    22826978.945  
  22826973.062  
  25095017.219   131875186.203    25095023.902   102759908.1994                 
                
  22886829.578   120271129.762    22886833.844    93717795.7304                 
                
  20496421.359   107709432.860    20496425.742    83929448.4084                 
                
  21231299.086   111571239.151    21231306.148    86938655.2324   21231306.020  
                
  22295822.359   117165334.620    22295832.359    91297789.9784   22295831.969  
                
  19179576.180   102633807.621    19179580.828    79826340.405    19179580.598  
  19179575.043  
  21342122.781   114005800.603    21342126.656    88671198.199    21342125.473  
  21342121.887  
  23257906.500   122221116.518    23257916.262    95237279.5104   23257916.227  
                
  19789857.148   105750974.541    19789862.055    82250818.189    19789861.781  
  19789856.070  
  20988952.188   112237349.727    20988956.797    87296245.234    20988956.707  
  20988950.723  
  22623859.180   120597821.002    22623865.750    93798369.806    22623865.582  
  22623857.488  
  20439009.336   107407727.222    20439015.863    83694408.0134   20439015.656  
                
  22203750.984   116681505.936    22203760.156    90920734.0494   22203760.301  
                
 21  8  9  0 51 10.0000000  0 17R18G 6R 1R 8G21G22G19G14G 1R17R16G24
                                R15R24R14G17G 3
  21811783.617   116432800.603    21811789.797    90559498.924    21811789.125  
  21811782.953  
  22697740.570   119277440.370    22697750.289    92943509.8124   22697750.828  
                
  22426004.836   119879854.323    22426011.680    93239935.405    22426010.809  
  22426003.211  
  22828501.914   122245562.066    22828506.863    95079927.126    22828506.996  
  22828501.164  
  25101189.219   131907620.080    25101195.863   102785181.2974                 
                
  22888643.336   120280660.948    22888647.590    93725222.6224                 
                
  20493374.992   107693424.025    20493379.379    83916973.9974                 
                
  21235869.586   111595257.130    21235876.637    86957370.5354   21235876.520  
                
  22302029.320   117197952.304    22302039.340    91323206.3454   22302038.938  
                
  19178854.125   102629943.707    19178858.766    79823335.146    19178858.531  
  19178852.992  
  21336944.750   113978140.413    21336948.539    88649684.724    21336947.348  
  21336943.801  
  23258232.008   122222827.014    23258241.844    95238612.3594   23258241.742  
                
  19792909.273   105767284.063    19792914.156    82263503.373    19792913.883  
  19792908.152  
  20994597.898   112267539.765    20994602.504    87319726.366    20994602.434  
  20994596.430  
  22632203.750   120642301.956    22632210.305    93832966.055    22632210.145  
  22632202.016  
  20439417.344   107409871.228    20439423.859    83696078.6634   20439423.652  
                
  22202087.672   116672765.093    22202096.855    90913923.0024   22202096.996  
                
 21  8  9  0 51 20.0000000  0 17R18G 6R 1R 8G21G22G19G14G 1R17R16G24
                                R15R24R14G17G 3
  21805729.656   116400484.281    21805735.848    90534364.027    21805735.188  
  21805728.953  
  22691500.570   119244648.992    22691510.203    92917958.0884   22691510.781  
                
  22421970.438   119858288.219    22421977.277    93223161.767    22421976.406  
  22421968.809  
  22830046.117   122253831.215    22830051.062    95086358.674    22830051.176  
  22830045.383  
  25107361.586   131940056.215    25107368.258   102810456.2264                 
                
  22890468.891   120290254.382    22890473.168    93732698.0154                 
                
  20490336.539   107677456.922    20490340.938    83904532.0984                 
                
  21240449.156   111619323.022    21240456.195    86976123.1704   21240456.102  
                
  22308242.094   117230600.688    22308252.117    91348646.6414   22308251.723  
                
  19178142.852   102626137.542    19178147.469    79820374.790    19178147.234  
  19178141.719  
  21331779.164   113950546.811    21331782.883    88628223.026    21331781.668  
  21331778.191  
  23258570.031   122224603.354    23258579.930    95239996.5154   23258579.770  
                
  19795977.391   105783679.223    19795982.262    82276255.162    19795981.992  
  19795976.234  
  21000248.797   112297757.722    21000253.422    87343229.219    21000253.348  
  21000247.344  
  22640552.578   120686805.938    22640559.145    93867580.266    22640558.980  
  22640550.844  
  20439832.195   107412051.361    20439838.707    83697777.4704   20439838.520  
                
  22200437.359   116664092.741    22200446.574    90907165.3344   22200446.703  
                
 21  8  9  0 51 30.0000000  0 17R18G 6R 1R 8G21G22G19G14G 1R17R16G24
                                R15R24R14G17G 3
  21799681.680   116368199.810    21799687.879    90509253.903    21799687.246  
  21799680.934  
  22685266.266   119211887.599    22685275.883    92892429.7554   22685276.484  
                
  22417949.633   119836794.776    22417956.500    93206444.660    22417955.621  
  22417948.020  
  22831606.484   122262186.793    22831611.418    95092857.438    22831611.492  
  22831605.734  
  25113534.438   131972494.650    25113541.141   102835732.9294                 
                
  22892306.367   120299910.315    22892310.676    93740222.1124                 
                
  20487306.086   107661531.809    20487310.500    83892122.9194                 
                
  21245037.906   111643436.980    21245044.934    86994913.2514   21245044.848  
                
  22314460.742   117263279.854    22314470.781    91374110.9184   22314470.375  
                
  19177442.391   102622389.242    19177447.000    79817459.443    19177446.750  
  19177441.254  
  21326626.125   113923020.217    21326629.801    88606813.462    21326628.598  
  21326625.141  
  23258920.633   122226445.732    23258930.582    95241432.1304   23258930.359  
                
  19799061.586   105800160.161    19799066.430    82289073.659    19799066.164  
  19799060.379  
  21005904.984   112328003.828    21005909.617    87366753.951    21005909.543  
  21005903.535  
  22648905.789   120731333.162    22648912.332    93902212.537    22648912.184  
  22648904.059  
  20440253.984   107414267.855    20440260.496    83699504.6094   20440260.320  
                
  22198800.148   116655489.139    22198809.375    90900461.2354   22198809.504  
                
 21  8  9  0 51 40.0000000  0 17R18G 6R 1R 8G21G22G19G14G 1R17R16G24
                                R15R24R14G17G 3
  21793639.672   116335947.215    21793645.883    90484168.566    21793645.266  
  21793638.871  
  22679037.688   119179156.255    22679047.305    92866924.8194   22679047.895  
                
  22413942.453   119815374.134    22413949.332    93189784.166    22413948.461  
  22413940.859  
  22833182.969   122270628.738    22833187.930    95099423.384    22833188.000  
  22833182.211  
  25119708.438   132004935.410    25119715.141   102861011.4344                 
                
  22894155.703   120309628.585    22894160.047    93747794.7754                 
                
  20484283.633   107645648.737    20484288.082    83879746.5054                 
                
  21249635.781   111667598.910    21249642.789    87013740.7134   21249642.707  
                
  22320685.234   117295989.719    22320695.309    91399599.1194   22320694.883  
                
  19176752.727   102618698.711    19176757.324    79814589.032    19176757.082  
  19176751.594  
  21321485.664   113895560.859    21321489.316    88585456.186    21321488.094  
  21321484.676  
  23259283.781   122228354.109    23259293.773    95242919.1834   23259293.504  
                
  19802161.789   105816726.709    19802166.629    82301958.751    19802166.371  
  19802160.570  
  21011566.406   112358277.877    21011571.047    87390300.411    21011570.977  
  21011564.941  
  22657263.297   120775883.325    22657269.816    93936862.640    22657269.684  
  22657261.574  
  20440682.680   107416520.656    20440689.180    83701260.0334   20440689.008  
                
  22197176.023   116646954.311    22197185.258    90893810.7184   22197185.383  
                
 21  8  9  0 51 50.0000000  0 17R18G 6R 1R 8G21G22G19G14G 1R17R16G24
                                R15R24R14G17G 3
  21787603.617   116303726.437    21787609.848    90459107.977    21787609.223  
  21787602.766  
  22672814.797   119146454.794    22672824.363    92841443.1614   22672824.992  
                
  22409948.914   119794026.431    22409955.801    93173180.398    22409954.922  
  22409947.336  
  22834775.523   122279156.828    22834780.520    95106056.337    22834780.590  
  22834774.773  
  25125881.531   132037378.138    25125889.043   102886291.5274                 
                
  22896016.859   120319408.972    22896021.191    93755415.8334                 
                
  20481269.141   107629807.514    20481273.625    83867402.6984                 
                
  21254242.727   111691808.536    21254249.727    87032605.3454   21254249.652  
                
  22326915.492   117328729.954    22326925.590    91425110.9784   22326925.164  
                
  19176073.859   102615065.916    19176078.422    79811763.511    19176078.184  
  19176072.727  
  21316357.781   113868168.616    21316361.398    88564151.106    21316360.176  
  21316356.766  
  23259659.430   122230328.217    23259669.441    95244457.4534   23259669.113  
                
  19805277.961   105833378.559    19805282.781    82314910.177    19805282.531  
  19805276.711  
  21017232.992   112388579.662    21017237.664    87413868.457    21017237.602  
  21017231.535  
  22665625.078   120820456.230    22665631.590    93971530.420    22665631.508  
  22665623.332  
  20441118.234   107418809.558    20441124.734    83703043.5934   20441124.566  
                
  22195564.953   116638488.079    22195574.176    90887213.6544   22195574.305  
                
 21  8  9  0 52  0.0000000  0 17R18G 6R 1R 8G21G22G19G14G 1R17R16G24
                                R15R24R14G17G 3
  21781573.609   116271537.946    21781579.879    90434072.513    21781579.273  
  21781572.730  
  22666597.688   119113783.712    22666607.242    92815985.1874   22666607.879  
                
  22405969.062   119772751.912    22405975.980    93156633.569    22405975.094  
  22405967.488  
  22836384.203   122287771.183    22836389.211    95112756.376    22836389.305  
  22836383.473  
  25132056.188   132069823.946                                                  
                
  22897889.898   120329251.801    22897894.223    93763085.5644                 
                
  20478262.711   107614008.606    20478267.230    83855091.8624                 
                
  21258858.828   111716066.245    21258865.816    87051507.4384   21258865.750  
                
  22333151.602   117361500.883    22333161.719    91450646.7554   22333161.285  
                
  19175405.859   102611491.301    19175410.418    79808983.258    19175410.188  
  19175404.742  
  21311242.547   113840843.891    21311246.129    88542898.534    21311244.914  
  21311241.539  
  23260047.688   122232368.506    23260057.672    95246047.2894   23260057.316  
                
  19808410.172   105850116.107    19808414.992    82327928.267    19808414.738  
  19808408.910  
  21022904.805   112418909.344    21022909.492    87437458.200    21022909.438  
  21022903.344  
  22673991.156   120865052.008    22673997.680    94006216.008    22673997.594  
  22673989.406  
  20441560.758   107421134.992    20441567.258    83704855.6164   20441567.086  
                
  22193967.023   116630090.921    22193976.227    90880670.4164   22193976.375  
                
 21  8  9  0 52 10.0000000  0 17R18G 6R 1R 8G21G22G19G14G 1R17R16G24
                                R15R24R14G17G 3
  21775549.617   116239381.547    21775555.902    90409062.004    21775555.305  
  21775548.719  
  22660386.312   119081142.850    22660395.859    92790550.7684   22660396.516  
                
  22402002.914   119751550.683    22402009.855    93140143.742    22402008.965  
  22402001.332  
  22838009.016   122296472.035    22838014.055    95119523.707    22838014.133  
  22838008.340  
  25138231.094   132102270.734    25138237.023   102936857.1664                 
                
  22899774.750   120339156.830    22899779.047    93770803.7664                 
                
  20475264.266   107598251.760    20475268.844    83842813.8114                 
                
  21263484.031   111740371.781    21263491.000    87070446.7984   21263490.949  
                
  22339393.477   117394302.175    22339403.602    91476206.2004   22339403.180  
                
  19174748.641   102607974.425    19174753.184    79806247.904    19174752.965  
  19174747.562  
  21306139.969   113813586.935    21306143.559    88521698.689    21306142.371  
  21306138.992  
  23260448.500   122234474.752    23260458.406    95247688.5124   23260458.070  
                
  19811558.359   105866939.114    19811563.176    82341012.822    19811562.922  
  19811557.086  
  21028581.789   112449266.748    21028586.500    87461069.516    21028586.449  
  21028580.367  
  22682361.430   120909670.281    22682367.965    94040919.109    22682367.883  
  22682359.684  
  20442010.164   107423496.725    20442016.676    83706695.9264   20442016.500  
                
  22192382.195   116621762.659    22192391.391    90874180.8684   22192391.559  
                
 21  8  9  0 52 20.0000000  0 17R18G 6R 1R 8G21G22G19G14G 1R17R16G24
                                R15R24R14G17G 3
  21769531.648   116207257.206    21769537.930    90384076.410    21769537.328  
  21769530.699  
  22654180.703   119048532.178    22654190.250    92765139.8704   22654190.918  
                
  22398050.500   119730422.774    22398057.457    93123710.928    22398056.527  
  22398048.910  
  22839649.891   122305258.877    22839654.969    95126357.938    22839655.055  
  22839649.258  
  25144405.719   132134720.029    25144411.801   102962142.3524                 
                
  22901671.469   120349124.031    22901675.727    93778570.4044                 
                
  20472273.836   107582536.936    20472278.461    83830568.4964                 
                
  21268118.297   111764724.949    21268125.270    87089423.2824   21268125.242  
                
  22345641.109   117427133.657    22345651.242    91501789.1704   22345650.836  
                
  19174102.203   102604515.165    19174106.742    79803557.370    19174106.527  
  19174101.148  
  21301050.039   113786397.370    21301053.633    88500551.249    21301052.438  
  21301049.078  
  23260861.820   122236646.783    23260871.648    95249381.0004   23260871.336  
                
  19814722.508   105883847.339    19814727.332    82354163.667    19814727.082  
  19814721.234  
  21034263.977   112479651.906    21034268.707    87484702.412    21034268.648  
  21034262.602  
  22690735.930   120954311.001    22690742.453    94075639.663    22690742.352  
  22690734.168  
  20442466.477   107425894.628    20442473.008    83708564.4254   20442472.832  
                
  22190810.477   116613503.216    22190819.668    90867744.9504   22190819.848  
                
 21  8  9  0 52 30.0000000  0 17R18G 6R 1R 8G21G22G19G14G 1R17R16G24
                                R15R24R14G17G 3
  21763519.672   116175165.007    21763525.973    90359115.838    21763525.387  
  21763518.699  
  22647980.859   119015951.890    22647990.426    92739752.6514   22647991.086  
                
  22394111.797   119709368.265    22394118.770    93107335.212    22394117.828  
  22394110.242  
  22841306.883   122314132.040    22841311.984    95133259.288    22841312.055  
  22841306.262  
  25150580.422   132167171.445    25150586.785   102987429.1664                 
                
  22903579.984   120359153.432    22903584.270    93786385.5264                 
                
  20469291.453   107566864.425    20469296.125    83818356.1574                 
                
  21272761.648   111789125.877    21272768.602    87108436.9634   21272768.586  
                
  22351894.500   117459995.403    22351904.645    91527395.7124   22351904.242  
                
  19173466.555   102601113.722    19173471.086    79800911.803    19173470.871  
  19173465.531  
  21295972.797   113759275.675    21295976.418    88479456.600    21295975.242  
  21295971.844  
  23261287.695   122238884.773    23261297.418    95251124.8874   23261297.129  
                
  19817902.641   105900840.981    19817907.453    82367380.937    19817907.203  
  19817901.355  
  21039951.289   112510064.467    21039956.035    87508356.612    21039955.984  
  21039949.938  
  22699114.594   120998973.997    22699121.117    94110377.546    22699121.020  
  22699112.836  
  20442929.688   107428328.872    20442936.246    83710461.2394   20442936.062  
                
  22189251.898   116605312.838    22189261.082    90861362.8344   22189261.266  
                
 21  8  9  0 52 40.0000000  0 17R18G 6R 1R 8G21G22G19G14G 1R17R16G24
                                R15R24R14G17G 3
  21757513.734   116143104.906    21757520.027    90334180.206    21757519.430  
  21757512.711  
  22641786.781   118983401.873    22641796.352    92714389.0104   22641797.012  
                
  22390186.828   119688387.128    22390193.805    93091016.559    22390192.867  
  22390185.293  
  22842979.930   122323091.148    22842985.027    95140227.484    22842985.109  
  22842979.348  
  25156756.039   132199624.639    25156762.180   103012717.3354                 
                
  22905500.320   120369244.780    22905504.621    93794248.8944                 
                
  20466317.055   107551233.926    20466321.777    83806176.5544                 
                
  21277414.016   111813574.236    21277420.977    87127487.6254   21277420.969  
                
  22358153.570   117492887.063    22358163.754    91553025.5684   22358163.352  
                
  19172841.680   102597769.889    19172846.207    79798311.042    19172845.988  
  19172840.672  
  21290908.219   113732221.674    21290911.871    88458414.612    21290910.711  
  21290907.273  
  23261726.062   122241188.425    23261735.645    95252919.9504   23261735.414  
                
  19821098.680   105917919.624    19821103.492    82380664.315    19821103.250  
  19821097.395  
  21045643.711   112540504.443    21045648.488    87532032.137    21045648.434  
  21045642.383  
  22707497.383   121043659.004    22707503.930    94145132.545    22707503.844  
  22707495.625  
  20443399.789   107430799.281    20443406.371    83712386.2304   20443406.172  
                
  22187706.414   116597191.307    22187715.613    90855034.3724   22187715.777  
                
 21  8  9  0 52 50.0000000  0 17R18G 6R 1R 8G21G22G19G14G 1R17R16G24
                                R15R24R14G17G 3
  21751513.852   116111077.220    21751520.176    90309269.822    21751519.566  
  21751512.809  
  22635598.547   118950882.437    22635608.109    92689049.1974   22635608.781  
                
  22386275.695   119667479.856    22386282.664    93074755.353    22386281.715  
  22386274.160  
  22844669.086   122332136.434    22844674.172    95147262.703    22844674.250  
  22844668.543  
  25162931.992   132232079.895    25162937.898   103038007.0904                 
                
  22907432.500   120379398.368    22907436.836    93802160.7714                 
                
  20463350.727   107535645.732    20463355.473    83794029.9154                 
                
  21282075.492   111838070.319    21282082.441    87146575.4644   21282082.426  
                
  22364418.406   117525808.859    22364428.613    91578678.8974   22364428.215  
                
  19172227.625   102594483.888    19172232.121    79795755.262    19172231.906  
  19172226.629  
  21285856.469   113705236.093    21285860.148    88437425.827    21285858.969  
  21285855.523  
  23262177.008   122243558.058    23262186.410    95254766.4134   23262186.273  
                
  19824310.680   105935083.544    19824315.512    82394014.032    19824315.254  
  19824309.410  
  21051341.320   112570971.962    21051346.094    87555729.083    21051346.043  
  21051340.004  
  22715884.383   121088366.251    22715890.926    94179904.815    22715890.828  
  22715882.578  
  20443876.844   107433306.135    20443883.441    83714339.6214   20443883.230  
                
  22186174.117   116589138.976    22186183.320    90848759.8214   22186183.461  
                
 21  8  9  0 53  0.0000000  0 17R18G 6R 1R 8G21G22G19G14G 1R17R16G24
                                R15R24R14G17G 3
  21745519.992   116079081.762    21745526.348    90284384.500    21745525.738  
  21745518.930  
  22629416.102   118918393.533    22629425.672    92663733.1774   22629426.352  
                
  22382378.344   119646646.340    22382385.316    93058551.528    22382384.355  
  22382376.824  
  22846374.289   122341267.686    22846379.312    95154364.774    22846379.422  
  22846373.770  
  25169108.453   132264536.923    25169114.113   103063298.3044                 
                
  22909376.469   120389613.953    22909380.844    93810120.9624                 
                
  20460392.414   107520099.723    20460397.180    83781916.1444                 
                
  21286745.992   111862613.911    21286752.930    87165700.3184   21286752.918  
                
  22370688.898   117558760.499    22370699.137    91604355.4884   22370698.723  
                
  19171624.328   102591255.527    19171628.809    79793244.313    19171628.590  
  19171623.336  
  21280817.453   113678318.599    21280821.188    88416490.003    21280820.016  
  21280816.516  
  23262640.469   122245993.507    23262649.676    95256664.1484   23262649.664  
                
  19827538.594   105952332.508    19827543.434    82407429.884    19827543.168  
  19827537.332  
  21057043.992   112601466.691    21057048.781    87579447.202    21057048.723  
  21057042.715  
  22724275.445   121133095.302    22724282.000    94214694.074    22724281.887  
  22724273.641  
  20444360.781   107435849.280    20444367.406    83716321.2934   20444367.184  
                
  22184654.953   116581155.722    22184664.164    90842539.1074   22184664.285  
                
 21  8  9  0 53 10.0000000  0 17R18G 6R 1R 8G21G22G19G14G 1R17R16G24
                                R15R24R14G17G 3
  21739532.188   116047118.509    21739538.539    90259524.211    21739537.949  
  21739531.094  
  22623239.469   118885935.171    22623249.062    92638440.9644   22623249.727  
                
  22378494.852   119625886.902    22378501.828    93042405.302    22378500.883  
  22378493.328  
  22848095.586   122350485.102    22848100.516    95161533.865    22848100.625  
  22848095.070  
  25175284.992   132296995.760    25175290.676   103088590.8324                 
                
  22911332.219   120399891.525    22911336.609    93818129.4554                 
                
  20457442.133   107504595.953    20457446.922    83769835.2894                 
                
  21291425.516   111887204.894    21291432.449    87184862.1084   21291432.438  
                
  22376965.062   117591741.905    22376975.324    91630055.2694   22376974.879  
                
  19171031.812   102588084.844    19171036.273    79790778.226    19171036.062  
  19171030.828  
  21275791.242   113651469.461    21275795.016    88395607.337    21275793.867  
  21275790.285  
  23263116.422   122248494.699    23263125.422    95258613.1214   23263125.551  
                
  19830782.406   105969666.433    19830787.266    82420911.823    19830786.992  
  19830781.164  
  21062751.742   112631988.563    21062756.539    87603186.426    21062756.488  
  21062750.500  
  22732670.570   121177846.001    22732677.117    94249500.165    22732676.996  
  22732668.750  
  20444851.617   107438428.678    20444858.258    83718331.2164   20444858.020  
                
  22183148.938   116573241.569    22183158.137    90836372.2424   22183158.262  
                
 21  8  9  0 53 20.0000000  0 17R18G 6R 1R 8G21G22G19G14G 1R17R16G24
                                R15R24R14G17G 3
  21733550.492   116015187.738    21733556.824    90234689.160    21733556.238  
  21733549.418  
  22617068.695   118853507.541    22617078.316    92613172.6844   22617078.949  
                
  22374625.234   119605201.573    22374632.191    93026316.720    22374631.234  
  22374623.742  
  22849832.938   122359788.424    22849837.758    95168769.773    22849837.867  
  22849832.402  
  25181462.141   132329456.364                                                  
                
  22913299.820   120410231.211    22913304.188    93826186.3374                 
                
  20454499.945   107489134.633    20454504.750    83757787.5144                 
                
  21296114.094   111911843.360    21296121.004    87204060.8764   21296120.984  
                
  22383246.898   117624753.066    22383257.188    91655778.2434   22383256.711  
                
  19170450.109   102584971.978    19170454.543    79788357.099    19170454.320  
  19170449.117  
  21270777.859   113624688.855    21270781.699    88374777.983    21270780.555  
  21270776.875  
  23263604.930   122251061.719    23263613.723    95260613.3794   23263613.977  
                
  19834042.141   105987085.422    19834047.023    82434459.918    19834046.750  
  19834040.922  
  21068464.602   112662537.725    21068469.410    87626946.879    21068469.367  
  21068463.371  
  22741069.805   121222618.509    22741076.340    94284323.199    22741076.207  
  22741067.953  
  20445349.383   107441044.417    20445356.035    83720369.4524   20445355.801  
                
  22181656.102   116565396.675    22181665.285    90830259.3414   22181665.410  
                
 21  8  9  0 53 30.0000000  0 17R18G 6R 1R 8G21G22G19G14G 1R17R16G24
                                R15R24R14G17G 3
  21727574.797   115983289.104    21727581.117    90209879.117    21727580.512  
  21727573.746  
  22610903.695   118821110.358    22610913.293    92587928.1374   22610913.938  
                
  22370769.430   119584590.176    22370776.375    93010285.643    22370775.379  
  22370767.953  
  22851586.227   122369177.212    22851590.930    95176072.147    22851591.012  
  22851585.641  
  25187639.273   132361918.420                                                  
                
  22915279.125   120420632.568    22915283.465    93834291.2864                 
                
  20451565.742   107473715.339    20451570.570    83745772.4874                 
                
  21300811.578   111936528.846    21300818.500    87223296.3174   21300818.492  
                
  22389534.297   117657793.528    22389544.578    91681524.0464   22389544.109  
                
  19169879.070   102581916.260    19169883.492    79785980.436    19169883.266  
  19169878.078  
  21265777.242   113597976.529    21265781.156    88354001.737    21265780.016  
  21265776.230  
  23264105.852   122253694.199    23264114.492    95262664.7144   23264114.848  
                
  19837317.664   106004588.867    19837322.574    82448073.704    19837322.320  
  19837316.484  
  21074182.453   112693113.635    21074187.270    87650728.126    21074187.234  
  21074181.215  
  22749472.977   121267412.049    22749479.500    94319162.584    22749479.352  
  22749471.098  
  20445853.984   107443696.149    20445860.648    83722435.7374   20445860.414  
                
  22180176.383   116557620.729    22180185.555    90824200.1654   22180185.672  
                
 21  8  9  0 53 40.0000000  0 17R18G 6R 1R 8G21G22G19G14G 1R17R16G24
                                R15R24R14G17G 3
  21721605.234   115951423.244    21721611.566    90185094.585    21721610.941  
  21721604.230  
  22604744.617   118788744.172    22604754.227    92562707.7384   22604754.871  
                
  22366927.539   119564053.124    22366934.480    92994312.397    22366933.500  
  22366926.082  
  22853355.625   122378652.210    22853360.238    95183441.584    22853360.301  
  22853354.992  
  25193816.461   132394382.925                                                  
                
  22917270.258   120431096.005    22917274.590    93842444.6144                 
                
  20448639.648   107458338.626    20448644.508    83733790.6394                 
                
  21305518.141   111961261.873    21305525.059    87242568.7864   21305525.055  
                
  22395827.359   117690863.709    22395837.645    91707293.0074   22395837.168  
                
  19169318.852   102578918.391    19169323.262    79783648.763    19169323.031  
  19169317.863  
  21260789.539   113571333.170    21260793.531    88333279.143    21260792.410  
  21260788.512  
  23264619.391   122256392.641    23264627.797    95264767.3414   23264628.297  
                
  19840609.125   106022177.360    19840614.055    82461753.639    19840613.801  
  19840607.977  
  21079905.406   112723716.731    21079910.246    87674530.527    21079910.203  
  21079904.176  
  22757880.211   121312227.229    22757886.762    94354018.819    22757886.605  
  22757878.332  
  20446365.547   107446384.368    20446372.219    83724530.4574   20446371.977  
                
  22178709.898   116549914.267    22178719.055    90818195.1324   22178719.180  
                
 21  8  9  0 53 50.0000000  0 17R18G 6R 1R 8G21G22G19G14G 1R17R16G24
                                R15R24R14G17G 3
  21715641.695   115919589.614    21715648.027    90160335.110    21715647.410  
  21715640.727  
  22598591.367   118756408.677    22598600.988    92537511.2584   22598601.621  
                
  22363099.570   119543590.476    22363106.480    92978397.001    22363105.535  
  22363098.121  
  22855141.023   122388212.938    22855145.555    95190877.694    22855145.629  
  22855140.359  
  25199994.391   132426846.708                                                  
                
  22919273.117   120441621.089    22919277.445    93850645.9744                 
                
  20445721.602   107443004.224    20445726.492    83721841.7554                 
                
  21310233.633   111986041.959    21310240.551    87261877.9314   21310240.555  
                
  22402125.969   117723963.147    22402136.266    91733084.7694   22402135.789  
                
  19168769.367   102575978.005    19168773.754    79781361.787    19168773.535  
  19168768.371  
  21255814.703   113544758.492    21255818.738    88312609.947    21255817.621  
  21255813.625  
  23265145.344   122259156.599    23265153.539    95266921.0704   23265154.234  
                
  19843916.406   106039850.407    19843921.352    82475499.327    19843921.098  
  19843915.289  
  21085633.328   112754346.506    21085638.184    87698353.672    21085638.145  
  21085632.105  
  22766291.375   121357063.418    22766297.941    94388891.392    22766297.773  
  22766289.488  
  20446883.953   107449108.669    20446890.625    83726653.2814   20446890.383  
                
  22177256.555   116542276.969    22177265.707    90812243.9944   22177265.832  
                
 21  8  9  0 54  0.0000000  0 17R18G 6R 1R 8G21G22G19G14G 1R17R16G24
                                R15R24R14G17G 3
  21709684.336   115887788.818    21709690.633    90135601.173    21709690.016  
  21709683.367  
  22592444.047   118724104.284    22592453.656    92512339.0044   22592454.293  
                
  22359285.594   119523202.532    22359292.480    92962539.710    22359291.496  
  22359284.141  
  22856942.484   122397859.605    22856946.969    95198380.657    22856947.059  
  22856941.805  
  25206173.047   132459313.753                                                  
                
  22921287.773   120452208.172    22921292.098    93858895.6444                 
                
  20442811.688   107427712.510    20442816.605    83709926.1344                 
                
  21314958.156   112010869.394    21314965.074    87281223.9734   21314965.078  
                
  22408430.203   117757092.061    22408440.500    91758899.4994   22408440.027  
                
  19168230.680   102573095.369    19168235.047    79779119.743    19168234.832  
  19168229.688  
  21250852.789   113518252.826    21250856.875    88291994.435    21250855.723  
  21250851.676  
  23265683.859   122261986.430    23265691.816    95269126.1174   23265692.723  
                
  19847239.539   106057608.184    19847244.508    82489310.928    19847244.258  
  19847238.449  
  21091366.344   112785003.428    21091371.203    87722197.934    21091371.160  
  21091365.105  
  22774706.539   121401920.899    22774713.105    94423780.528    22774712.926  
  22774704.641  
  20447409.328   107451869.475    20447416.000    83728804.5544   20447415.762  
                
  22175816.461   116534709.210    22175825.605    90806347.0394   22175825.723  
                
 21  8  9  0 54 10.0000000  0 16R18G 6R 1R 8G22G19G14G 1R17R16G24R15
                                R24R14G17G 3
  21703733.055   115856020.510    21703739.352    90110892.507    21703738.715  
  21703732.098  
  22586302.578   118691830.746    22586312.180    92487190.8244   22586312.836  
                
  22355485.539   119502889.141    22355492.422    92946740.427    22355491.438  
  22355484.129  
  22858759.898   122407591.771    22858764.367    95205950.123    22858764.453  
  22858759.227  
  22923314.172   120462856.946    22923318.504    93867193.3894                 
                
  20439909.836   107412463.202    20439914.805    83698043.5684                 
                
  21319691.633   112035743.870    21319698.543    87300606.6544   21319698.555  
                
  22414739.969   117790250.084    22414750.262    91784736.9184   22414749.805  
                
  19167702.734   102570270.176    19167707.090    79776922.369    19167706.871  
  19167701.742  
  21245903.820   113491816.272    21245907.961    88271432.665    21245906.824  
  21245902.656  
  23266234.844   122264881.811    23266242.613    95271382.2614   23266243.719  
                
  19850578.500   106075450.554    19850583.500    82503188.326    19850583.250  
  19850577.449  
  21097104.312   112815686.921    21097109.191    87746062.870    21097109.141  
  21097103.059  
  22783125.609   121446799.238    22783132.191    94458685.902    22783132.016  
  22783123.699  
  20447941.555   107454666.378    20447948.238    83730983.9644   20447948.000  
                
  22174389.547   116527210.723    22174398.688    90800504.0684   22174398.812  
                
 21  8  9  0 54 20.0000000  0 16R18G 6R 1R 8G22G19G14G 1R17R16G24R15
                                R24R14G17G 3
  21697787.867   115824284.769    21697794.145    90086209.171    21697793.477  
  21697786.910  
  22580167.031   118659588.220    22580176.633    92462066.7724   22580177.262  
                
  22351699.469   119482650.489    22351706.340    92930999.261    22351705.355  
  22351698.090  
  22860593.328   122417409.738    22860597.793    95213586.320    22860597.867  
  22860592.645  
  22925352.305   120473567.380    22925356.629    93875539.1704                 
                
  20437016.062   107397256.355    20437021.074    83686194.0804                 
                
  21324434.016   112060665.299    21324440.945    87320025.9494   21324440.945  
                
  22421055.258   117823437.155    22421065.543    91810596.9664   22421065.094  
                
  19167185.484   102567502.328    19167189.836    79774769.600    19167189.609  
  19167184.500  
  21240967.812   113465449.123    21240972.027    88250924.897    21240970.895  
  21240966.633  
  23266798.289   122267842.741    23266805.914    95273689.4724   23266807.133  
                
  19853933.242   106093377.282    19853938.250    82517131.332    19853938.000  
  19853932.219  
  21102847.266   112846397.028    21102852.137    87769948.490    21102852.082  
  21102845.957  
  22791548.555   121491698.273    22791555.145    94493607.370    22791554.992  
  22791546.656  
  20448480.641   107457499.324    20448487.332    83733191.4554   20448487.082  
                
  22172975.828   116519781.605    22172984.957    90794715.1494   22172985.086  
                
 21  8  9  0 54 30.0000000  0 16R18G 6R 1R 8G22G19G14G 1R17R16G24R15
                                R24R14G17G 3
  21691848.789   115792581.571    21691855.051    90061551.136    21691854.379  
  21691847.816  
  22574037.398   118627376.799    22574046.973    92436966.9734   22574047.613  
                
  22347927.430   119462486.794    22347934.285    92915316.394    22347933.312  
  22347926.055  
  22862442.750   122427313.273    22862447.234    95221289.067    22862447.301  
  22862442.094  
  22927402.172   120484339.516    22927406.500    93883933.0504                 
                
  20434130.406   107382092.112    20434135.465    83674377.7954                 
                
  21329185.391   112085633.793    21329192.305    87339481.8944   21329192.301  
                
  22427376.094   117856653.290    22427386.383    91836479.6684   22427385.934  
                
  19166679.016   102564792.039    19166683.352    79772661.598    19166683.125  
  19166678.035  
  21236044.797   113439151.233    21236049.074    88230470.991    21236047.961  
  21236043.570  
  23267374.219   122270869.303    23267381.746    95276047.8394   23267383.062  
                
  19857303.805   106111388.471    19857308.820    82531140.025    19857308.578  
  19857302.801  
  21108595.227   112877133.849    21108600.094    87793854.894    21108600.035  
  21108593.883  
  22799975.422   121536618.106    22799982.027    94528545.003    22799981.875  
  22799973.527  
  20449026.672   107460368.712    20449033.367    83735427.3404   20449033.109  
                
  22171575.344   116512421.989    22171584.469    90788980.3874   22171584.586  
                
 21  8  9  0 54 40.0000000  0 16R18G 6R 1R 8G22G19G14G 1R17R16G24R15
                                R24R14G17G 3
  21685915.828   115760911.096    21685922.078    90036918.548    21685921.395  
  21685914.852  
  22567913.695   118595196.506    22567923.199    92411891.4114   22567923.875  
                
  22344169.422   119442398.217    22344176.293    92899691.968    22344175.297  
  22344168.055  
  22864308.117   122437302.277    22864312.629    95229058.291    22864312.719  
  22864307.523  
  22929463.773   120495173.290    22929468.082    93892374.9454                 
                
  20431252.820   107366970.334    20431257.918    83662594.5894                 
                
  21333945.641   112110649.140    21333952.570    87358974.3704   21333952.562  
                
  22433702.406   117889898.275    22433712.703    91862384.8404   22433712.266  
                
  19166183.250   102562139.115    19166187.566    79770598.209    19166187.352  
  19166182.270  
  21231134.758   113412922.781    21231139.105    88210071.101    21231137.996  
  21231133.496  
  23267962.633   122273961.379    23267970.055    95278457.2464   23267971.480  
                
  19860690.109   106129483.900    19860695.145    82545214.245    19860694.891  
  19860689.125  
  21114348.109   112907897.109    21114352.969    87817781.861    21114352.930  
  21114346.773  
  22808406.102   121581558.347    22808412.734    94563498.507    22808412.551  
  22808404.215  
  20449579.594   107463274.366    20449586.289    83737691.4794   20449586.027  
                
  22170188.070   116505131.827    22170197.195    90783299.7444   22170197.309  
                
 21  8  9  0 54 50.0000000  0 16R18G 6R 1R 8G22G19G14G 1R17R16G24R15
                                R24R14G17G 3
  21679989.008   115729273.434    21679995.258    90012311.502    21679994.570  
  21679988.027  
  22561795.898   118563047.391    22561805.453    92386840.1734   22561806.090  
                
  22340425.477   119422384.696    22340432.336    92884125.897    22340431.348  
  22340424.129  
  22866189.500   122447377.031    22866194.078    95236894.223    22866194.180  
  22866188.973  
  22931537.086   120506068.658    22931541.383    93900864.8434                 
                
  20428383.359   107351891.219    20428388.484    83650844.6304                 
                
  21338714.844   112135711.363    21338721.762    87378503.3554   21338721.762  
                
  22440034.203   117923172.066    22440044.512    91888312.4554   22440044.066  
                
  19165698.219   102559543.649    19165702.531    79768579.515    19165702.316  
  19165697.238  
  21226237.742   113386763.934    21226242.152    88189725.363    21226241.055  
  21226236.430  
  23268563.523   122277119.029    23268570.906    95280917.7324   23268572.363  
                
  19864092.195   106147663.590    19864097.246    82559354.002    19864096.992  
  19864091.230  
  21120105.930   112938686.742    21120110.793    87841729.349    21120110.738  
  21120104.613  
  22816840.625   121626518.991    22816847.270    94598467.868    22816847.059  
  22816838.727  
  20450139.422   107466216.235    20450146.117    83739983.8414   20450145.848  
                
  22168814.023   116497911.195    22168823.156    90777673.2774   22168823.266  
                
 21  8  9  0 55  0.0000000  0 16R18G 6R 1R 8G22G19G14G 1R17R16G24R15
                                R24R14G17G 3
  21674068.352   115697668.515    21674074.570    89987729.893    21674073.863  
  21674067.324  
  22555684.055   118530929.395    22555693.539    92361813.1584   22555694.195  
                
  22336695.586   119402446.313    22336702.438    92868618.265    22336701.434  
  22336694.277  
  22868086.812   122457537.062    22868091.453    95244796.479    22868091.551  
  22868086.305  
  22933622.102   120517025.418    22933626.371    93909402.5714                 
                
  20425521.977   107336854.554    20425527.121    83639127.7494                 
                
  21343492.914   112160820.214    21343499.824    87398068.6744   21343499.820  
                
  22446371.445   117956474.397    22446381.770    91914262.3054   22446381.301  
                
  19165223.883   102557005.350    19165228.180    79766605.278    19165227.957  
  19165222.910  
  21221353.805   113360674.735    21221358.223    88169433.744    21221357.121  
  21221352.391  
  23269176.836   122280341.979    23269184.254    95283429.1144   23269185.676  
                
  19867510.008   106165927.288    19867515.059    82573559.091    19867514.785  
  19867509.043  
  21125868.648   112969502.544    21125873.508    87865697.186    21125873.445  
  21125867.324  
  22825278.906   121671499.762    22825285.582    94633452.910    22825285.352  
  22825277.047  
  20450706.117   107469194.213    20450712.805    83742304.3404   20450712.539  
                
  22167453.188   116490759.968    22167462.324    90772100.8944   22167462.422  
                
 21  8  9  0 55 10.0000000  0 16R18G 6R 1R 8G22G19G14G 1R17R16G24R15
                                R24R14G17G 3
  21668153.875   115666096.708    21668160.121    89963174.073    21668159.398  
  21668152.832  
  22549578.234   118498843.018    22549587.668    92336810.7804   22549588.359  
                
  22332979.812   119382583.455    22332986.676    92853169.394    22332985.672  
  22332978.562  
  22870000.102   122467782.681    22870004.828    95252765.314    22870004.926  
  22869999.617  
  22935718.859   120528043.988    22935723.148    93917988.4844                 
                
  20422668.781   107321860.905    20422673.957    83627444.3934                 
                
  21348279.938   112185976.096    21348286.852    87417670.6514   21348286.832  
                
  22452714.180   117989805.623    22452724.535    91940234.6804   22452724.051  
                
  19164760.344   102554524.796    19164764.625    79764675.959    19164764.398  
  19164759.375  
  21216482.977   113334655.646    21216487.426    88149196.685    21216486.332  
  21216481.535  
  23269802.672   122283630.723    23269810.191    95285991.7714   23269811.531  
                
  19870943.594   106184275.332    19870948.648    82587829.795    19870948.383  
  19870942.645  
  21131636.305   113000344.735    21131641.160    87889685.556    21131641.094  
  21131634.977  
  22833720.992   121716500.788    22833727.680    94668453.708    22833727.426  
  22833719.168  
  20451279.758   107472208.711    20451286.449    83744653.3004   20451286.191  
                
  22166105.656   116483678.629    22166114.801    90766582.9774   22166114.910  
                
 21  8  9  0 55 20.0000000  0 16R18G 6R 1R 8G22G19G14G 1R17R16G24R15
                                R24R14G17G 3
  21662245.555   115634557.661    21662251.789    89938643.702    21662251.055  
  21662244.484  
  22543478.336   118466787.899    22543487.754    92311832.7844   22543488.457  
                
  22329278.164   119362796.035    22329285.031    92837779.195    22329284.016  
  22329276.945  
  22871929.312   122478113.543    22871934.109    95260800.440    22871934.195  
  22871928.809  
  22937827.305   120539123.960    22937831.617    93926622.2314                 
                
  20419823.688   107306909.833    20419828.895    83615794.2094                 
                
  21353075.812   112211178.535    21353082.723    87437308.8984   21353082.715  
                
  22459062.312   118023165.239    22459072.672    91966229.1784   22459072.188  
                
  19164307.484   102552101.473    19164311.766    79762791.157    19164311.535  
  19164306.543  
  21211625.266   113308706.656    21211629.750    88129014.149    21211628.684  
  21211623.793  
  23270440.914   122286984.758    23270448.559    95288605.3264   23270449.820  
                
  19874392.891   106202707.275    19874397.949    82602165.748    19874397.688  
  19874391.922  
  21137408.844   113031213.136    21137413.699    87913694.314    21137413.641  
  21137407.523  
  22842166.812   121761521.651    22842173.496    94703469.914    22842173.254  
  22842164.980  
  20451860.273   107475259.339    20451866.961    83747030.4124   20451866.707  
                
  22164771.352   116476666.821    22164780.496    90761119.2294   22164780.613  
                
 21  8  9  0 55 30.0000000  0 16R18G 6R 1R 8G22G19G14G 1R17R16G24R15
                                R24R14G17G 3
  21656343.328   115603051.300    21656349.590    89914138.775    21656348.863  
  21656342.273  
  22537384.414   118434764.114    22537393.820    92286879.1834   22537394.488  
                
  22325590.641   119343084.138    22325597.508    92822447.728    22325596.492  
  22325589.457  
  22873874.453   122488529.696    22873879.285    95268901.888    22873879.363  
  22873873.914  
  22939947.422   120550265.200    22939951.770    93935303.7084                 
                
  20416986.703   107292001.418    20416991.926    83604177.2634                 
                
  21357880.539   112236427.470    21357887.441    87456983.3714   21357887.430  
                
  22465415.828   118056553.137    22465426.188    91992245.7134   22465425.699  
                
  19163865.305   102549735.253    19163869.578    79760950.760    19163869.348  
  19163864.359  
  21206780.594   113282827.334    21206785.113    88108885.802    21206784.051  
  21206779.105  
  23271091.594   122290404.103    23271099.375    95291269.7534   23271100.578  
                
  19877857.859   106221222.994    19877862.906    82616566.857    19877862.629  
  19877856.859  
  21143186.250   113062107.476    21143191.086    87937723.240    21143191.023  
  21143184.945  
  22850616.344   121806562.258    22850623.039    94738501.467    22850622.789  
  22850614.523  
  20452447.672   107478346.101    20452454.352    83749435.6744   20452454.102  
                
  22163450.273   116469724.547    22163459.430    90755709.6804   22163459.543  
                
 21  8  9  0 55 40.0000000  0 16R18G 6R 1R 8G22G19G14G 1R17R16G24R15
                                R24R14G17G 3
  21650447.281   115571577.796    21650453.543    89889659.389    21650452.816  
  21650446.219  
  22531296.453   118402771.684    22531305.809    92261950.0174   22531306.508  
                
  22321917.258   119323447.873    22321924.129    92807175.089    22321923.137  
  22321916.086  
  22875835.484   122499030.929    22875840.355    95277069.522    22875840.418  
  22875834.918  
  22942079.195   120561467.684    22942083.562    93944032.8944                 
                
  20414157.852   107277135.705    20414163.062    83592593.5914                 
                
  21362694.094   112261722.816    21362700.992    87476694.0144   21362700.957  
                
  22471774.695   118089969.193    22471785.023    92018284.1934   22471784.562  
                
  19163433.789   102547426.141    19163438.055    79759154.786    19163437.828  
  19163432.848  
  21201949.031   113257018.090    21201953.566    88088811.957    21201952.520  
  21201947.516  
  23271754.672   122293888.674    23271762.656    95293985.0144   23271763.727  
                
  19881338.500   106239822.471    19881343.527    82631033.108    19881343.266  
  19881337.469  
  21148968.492   113093027.703    21148973.312    87961772.300    21148973.250  
  21148967.199  
  22859069.539   121851622.439    22859076.258    94773548.242    22859076.004  
  22859067.727  
  20453041.922   107481468.937    20453048.594    83751869.0504   20453048.355  
                
  22162142.445   116462851.850    22162151.590    90750354.3324   22162151.723  
                
 21  8  9  0 55 50.0000000  0 16R18G 6R 1R 8G22G19G14G 1R17R16G24R15
                                R24R14G17G 3
  21644557.461   115540137.630    21644563.750    89865205.939    21644563.027  
  21644556.410  
  22525214.570   118370811.257    22525223.934    92237045.8034   22525224.633  
                
  22318258.125   119303887.805    22318265.023    92791961.722    22318264.027  
  22318256.984  
  22877812.492   122509617.710    22877817.375    95285303.676    22877817.430  
  22877811.934  
  22944222.711   120572731.949    22944227.105    93952810.2424                 
                
  20411337.227   107262313.279    20411342.434    83581043.6564                 
                
  21367516.570   112287065.097    21367523.488    87496441.2444   21367523.449  
                
  22478139.023   118123413.926    22478149.324    92044345.0204   22478148.887  
                
  19163013.062   102545174.749    19163017.336    79757403.703    19163017.113  
  19163012.109  
  21197130.797   113231280.001    21197135.324    88068793.450    21197134.266  
  21197129.238  
  23272430.297   122297439.095    23272438.523    95296751.5684   23272439.449  
                
  19884834.891   106258506.200    19884839.922    82645564.911    19884839.664  
  19884833.852  
  21154755.672   113123974.387    21154760.477    87985841.939    21154760.426  
  21154754.363  
  22867526.430   121896702.529    22867533.195    94808610.553    22867532.945  
  22867524.668  
  20453643.156   107484628.473    20453649.820    83754331.0264   20453649.586  
                
  22160847.953   116456049.333    22160857.082    90745053.6764   22160857.254  
                
 21  8  9  0 56  0.0000000  0 16R18G 6R 1R 8G22G19G14G 1R17R16G24R15
                                R24R14G17G 3
  21638673.789   115508730.191    21638680.070    89840777.932    21638679.348  
  21638672.742  
  22519138.656   118338882.168    22519148.008    92212165.9954   22519148.711  
                
  22314613.148   119284403.392    22314620.055    92776807.179    22314619.082  
  22314612.012  
  22879805.344   122520289.365    22879810.223    95293603.851    22879810.273  
  22879804.797  
  22946377.828   120584057.195    22946382.223    93961635.1074                 
                
  20408524.703   107247533.415    20408529.887    83569526.8824                 
                
  21372347.828   112312453.528    21372354.742    87516224.4184   21372354.707  
                
  22484508.625   118156886.447    22484518.906    92070427.5024   22484518.477  
                
  19162602.969   102542980.305    19162607.254    79755696.917    19162607.031  
  19162602.008  
  21192325.656   113205611.876    21192330.160    88048829.362    21192329.078  
  21192324.059  
  23273118.289   122301054.526    23273126.770    95299568.7834   23273127.535  
                
  19888346.883   106277273.239    19888351.895    82660161.488    19888351.637  
  19888345.801  
  21160547.633   113154946.643    21160552.410    88009931.469    21160552.371  
  21160546.293  
  22875986.938   121941801.794    22875993.711    94843687.761    22875993.445  
  22875985.215  
  20454251.211   107487823.863    20454257.875    83756820.9394   20454257.645  
                
  22159566.688   116449316.293    22159575.812    90739807.1554   22159576.004  
                
 21  8  9  0 56 10.0000000  0 16R18G 6R 1R 8G22G19G14G 1R17R16G24R15
                                R24R14G17G 3
  21632796.344   115477356.032    21632802.648    89816375.815    21632801.922  
  21632795.316  
  22513068.781   118306984.805    22513078.176    92187310.9204   22513078.852  
                
  22310982.406   119264995.008    22310989.316    92761711.782    22310988.348  
  22310981.273  
  22881814.164   122531046.360    22881819.004    95301970.382    22881819.051  
  22881813.590  
  22948544.609   120595443.679    22948548.988    93970507.6974                 
                
  20405720.352   107232796.445    20405725.520    83558043.5314                 
                
  21377187.930   112337888.364    21377194.855    87536043.7604   21377194.824  
                
  22490883.586   118190387.038    22490893.852    92096531.8494   22490893.430  
                
  19162203.602   102540843.171    19162207.887    79754034.700    19162207.668  
  19162202.621  
  21187533.781   113180014.488    21187538.273    88028920.282    21187537.207  
  21187532.160  
  23273818.711   122304735.289    23273827.430    95302436.9134   23273828.059  
                
  19891874.547   106296123.913    19891879.535    82674823.112    19891879.266  
  19891873.406  
  21166344.430   113185944.622    21166349.168    88034040.997    21166349.133  
  21166343.051  
  22884451.109   121986920.426    22884457.871    94878780.002    22884457.594  
  22884449.395  
  20454866.172   107491055.463    20454872.828    83759339.0694   20454872.598  
                
  22158298.719   116442653.100    22158307.855    90734615.0634   22158308.051  
                
 21  8  9  0 56 20.0000000  0 16R18G 6R 1R 8G22G19G14G 1R17R16G24R15
                                R24R14G17G 3
  21626925.062   115446014.833    21626931.398    89791999.359    21626930.688  
  21626924.074  
  22507004.953   118275119.173    22507014.344    92162480.5724   22507015.039  
                
  22307365.945   119245662.943    22307372.867    92746675.746    22307371.926  
  22307364.824  
  22883838.812   122541888.213    22883843.613    95310402.924    22883843.672  
  22883838.211  
  22950723.039   120606891.367    22950727.398    93979427.9764                 
                
  20402924.164   107218102.351    20402929.301    83546593.5974                 
                
  21382036.852   112363369.511    21382043.789    87555899.1904   21382043.742  
                
  22497263.867   118223915.529    22497274.133    92122657.9364   22497273.730  
                
  19161814.906   102538763.182    19161819.215    79752416.936    19161818.996  
  19161813.910  
  21182755.141   113154487.879    21182759.641    88009066.269    21182758.566  
  21182753.535  
  23274531.578   122308481.331    23274540.508    95305355.9034   23274541.031  
                
  19895417.828   106315058.104    19895422.805    82689549.707    19895422.523  
  19895416.629  
  21172146.016   113216968.314    21172150.738    88058170.544    21172150.715  
  21172144.621  
  22892918.836   122032058.046    22892925.629    94913887.026    22892925.352  
  22892917.148  
  20455488.008   107494323.225    20455494.668    83761885.3774   20455494.438  
                
  22157044.055   116436059.737    22157053.211    90729477.3904   22157053.387  
                
 21  8  9  0 56 30.0000000  0 16R18G 6R 1R 8G22G19G14G 1R17R16G24R15
                                R24R14G17G 3
  21621059.984   115414706.699    21621066.320    89767648.593    21621065.625  
  21621059.023  
  22500947.125   118243285.213    22500956.527    92137674.9024   22500957.219  
                
  22303763.719   119226407.026    22303770.633    92731698.920    22303769.699  
  22303762.586  
  22885879.305   122552815.017    22885884.078    95318901.550    22885884.152  
  22885878.684  
  22952913.078   120618400.115    22952917.422    93988395.8134                 
                
  20400136.094   107203451.007    20400141.164    83535176.9624                 
                
  21386894.523   112388896.761    21386901.465    87575790.5344   21386901.410  
                
  22503649.398   118257471.723    22503659.688    92148805.6034   22503659.277  
                
  19161436.859   102536740.189    19161441.168    79750843.489    19161440.961  
  19161435.832  
  21177989.727   113129031.955    21177994.195    87989267.210    21177993.102  
  21177988.125  
  23275256.812   122312292.487    23275265.926    95308325.6134   23275266.312  
                
  19898976.695   106334075.617    19898981.641    82704341.088    19898981.355  
  19898975.414  
  21177952.383   113248017.518    21177957.059    88082319.908    21177957.031  
  21177950.949  
  22901390.086   122077214.593    22901396.910    94949008.775    22901396.645  
  22901388.418  
  20456116.703   107497627.071    20456123.359    83764459.7994   20456123.129  
                
  22155802.633   116429536.129    22155811.801    90724394.0594   22155811.984  
                
 21  8  9  0 56 40.0000000  0 16R18G 6R 1R 8G22G19G14G 1R17R16G24R15
                                R24R14G17G 3
  21615201.156   115383431.996    21615207.531    89743323.852    21615206.848  
  21615200.219  
  22494895.430   118211483.374    22494904.895    92112894.2684   22494905.547  
                
  22300175.812   119207227.687    22300182.738    92716781.677    22300181.809  
  22300174.691  
  22887935.695   122563826.942    22887940.480    95327466.396    22887940.566  
  22887935.094  
  22955114.805   120629970.234    22955119.176    93997411.4864                 
                
  20397356.266   107188842.926    20397361.262    83523794.0464                 
                
  21391761.039   112414470.452    21391768.000    87595718.0764   21391767.918  
                
  22510040.266   118291055.884    22510050.578    92174975.0704   22510050.152  
                
  19161069.539   102534774.605    19161073.863    79749314.706    19161073.664  
  19161068.484  
  21173237.664   113103647.329    21173242.098    87969523.626    21173240.996  
  21173236.078  
  23275994.484   122316169.084    23276003.805    95311346.3524   23276004.074  
                
  19902551.203   106353176.722    19902556.137    82719197.505    19902555.844  
  19902549.848  
  21183763.547   113279092.436    21183768.199    88106489.280    21183768.180  
  21183762.074  
  22909864.914   122122390.142    22909871.746    94984145.302    22909871.473  
  22909863.270  
  20456752.344   107500967.387    20456758.996    83767062.6444   20456758.762  
                
  22154574.578   116423082.675    22154583.762    90719365.4014   22154583.938  
                
 21  8  9  0 56 50.0000000  0 16R18G 6R 1R 8G22G19G14G 1R17R16G24R15
                                R24R14G17G 3
  21609348.594   115352190.590    21609354.973    89719024.985    21609354.301  
  21609347.691  
  22488849.820   118179713.535    22488859.309    92088138.5604   22488859.949  
                
  22296602.211   119188124.844    22296609.156    92701923.922    22296608.238  
  22296601.082  
  22890007.969   122574923.859    22890012.781    95336097.334    22890012.867  
  22890007.355  
  22957328.172   120641601.479    22957332.570    94006474.7824                 
                
  20394584.633   107174277.876    20394589.523    83512444.6564                 
                
  21396636.352   112440090.330    21396643.312    87615681.5984   21396643.230  
                
  22516436.398   118324667.736    22516446.715    92201166.1024   22516446.297  
                
  19160712.898   102532866.092    19160717.246    79747830.305    19160717.043  
  19160711.820  
  21168498.938   113078333.942    21168503.312    87949835.433    21168502.219  
  21168497.355  
  23276744.594   122320110.921    23276754.082    95314417.9134   23276754.254  
                
  19906141.336   106372361.217    19906146.250    82734118.762    19906145.949  
  19906139.898  
  21189579.523   113310192.997    21189584.145    88130678.590    21189584.125  
  21189578.016  
  22918343.289   122167584.632    22918350.113    95019296.565    22918349.828  
  22918341.656  
  20457394.875   107504343.945    20457401.531    83769693.7274   20457401.297  
                
  22153359.859   116416699.231    22153369.051    90714391.2864   22153369.215  
                
 21  8  9  0 57  0.0000000  0 16R18G 6R 1R 8G22G19G14G 1R17R16G24R15
                                R24R14G17G 3
  21603502.188   115320982.145    21603508.594    89694751.772    21603507.926  
  21603501.305  
  22482810.242   118147975.447    22482819.738    92063407.6024   22482820.402  
                
  22293042.961   119169098.568    22293049.887    92687125.705    22293048.980  
  22293041.797  
  22892096.070   122586105.542    22892100.922    95344794.200    22892101.027  
  22892095.383  
  22959553.109   120653293.592    22959557.539    94015585.5174                 
                
  20391821.148   107159755.676    20391825.918    83501128.6574                 
                
  21401520.398   112465756.069    21401527.371    87635680.8634   21401527.285  
                
  22522837.734   118358306.916    22522848.051    92227378.4444   22522847.637  
                
  19160366.898   102531014.534    19160371.246    79746390.205    19160371.031  
  19160365.777  
  21163773.539   113053091.686    21163777.852    87930202.571    21163776.754  
  21163771.969  
  23277507.062   122324117.710    23277516.680    95317540.0844   23277516.746  
                
  19909746.992   106391628.706    19909751.895    82749104.574    19909751.578  
  19909745.488  
  21195400.141   113341318.420    21195404.734    88154887.252    21195404.703  
  21195398.613  
  22926825.141   122212797.517    22926831.938    95054462.119    22926831.664  
  22926823.508  
  20458044.281   107507756.524    20458050.926    83772352.8674   20458050.684  
                
  22152158.406   116410385.564    22152167.598    90709471.5404   22152167.766  
                
 21  8  9  0 57 10.0000000  0 16R18G 6R 1R 8G22G19G14G 1R17R16G24R15
                                R24R14G17G 3
  21597662.094   115289807.393    21597668.512    89670504.756    21597667.863  
  21597661.211  
  22476776.828   118116269.666    22476786.379    92038701.8114   22476787.027  
                
  22289498.094   119150149.287    22289505.031    92672387.379    22289504.137  
  22289496.906  
  22894200.031   122597372.227    22894204.945    95353557.195    22894205.051  
  22894199.250  
  22961789.695   120665046.945    22961794.117    94024743.9694                 
                
  20389065.898   107145276.729    20389070.539    83489846.3594                 
                
  21406413.227   112491468.036    21406420.215    87655716.1534   21406420.129  
                
  22529244.328   118391973.752    22529254.629    92253612.3304   22529254.234  
                
  19160031.578   102529220.215    19160035.941    79744994.628    19160035.730  
  19160030.426  
  21159061.523   113027920.962    21159065.781    87910625.330    21159064.664  
  21159059.996  
  23278281.984   122328189.848    23278291.688    95320713.1664   23278291.684  
                
  19913368.227   106410979.497    19913373.129    82764155.184    19913372.816  
  19913366.680  
  21201225.547   113372469.511    21201230.133    88179115.877    21201230.102  
  21201224.000  
  22935310.484   122258029.111    22935317.297    95089642.239    22935317.035  
  22935308.859  
  20458700.602   107511205.538    20458707.234    83775040.4114   20458706.992  
                
  22150970.312   116404142.136    22150979.508    90704606.5394   22150979.680  
                
 21  8  9  0 57 20.0000000  0 16R18G 6R 1R 8G22G19G14G 1R17R16G24R15
                                R24R14G17G 3
  21591828.219   115258665.857    21591834.648    89646283.578    21591833.996  
  21591827.324  
  22470749.453   118084595.743    22470759.043    92014020.8584   22470759.676  
                
  22285967.586   119131276.677    22285974.523    92657708.679    22285973.613  
  22285966.367  
  22896319.766   122608723.321    22896324.742    95362385.823    22896324.844  
  22896318.918  
  22964037.828   120676860.957    22964042.219    94033949.6874                 
                
  20386318.812   107130840.723    20386323.348    83478597.5214                 
                
  21411314.750   112517225.712    21411321.766    87675787.0614   21411321.691  
                
  22535656.078   118425667.691    22535666.367    92279867.3424   22535666.004  
                
  19159706.875   102527482.673    19159711.238    79743643.200    19159711.020  
  19159705.680  
  21154362.867   113002821.587    21154367.078    87891103.602    21154365.969  
  21154361.375  
  23279069.219   122332326.855    23279078.984    95323936.7934   23279078.902  
                
  19917004.969   106430413.144    19917009.871    82779270.239    19917009.551  
  19917003.406  
  21207055.648   113403645.633    21207060.219    88203363.960    21207060.191  
  21207054.082  
  22943799.195   122303278.703    22943806.012    95124836.356    22943805.734  
  22943797.590  
  20459363.766   107514690.511    20459370.395    83777755.9744   20459370.156  
                
  22149795.508   116397968.502    22149804.699    90699795.9154   22149804.867  
                
 21  8  9  0 57 30.0000000  0 16R18G 6R 1R 8G22G19G14G 1R17R16G24R15
                                R24R14G17G 3
  21586000.648   115227557.919    21586007.082    89622088.530    21586006.445  
  21585999.750  
  22464728.289   118052954.334    22464737.891    91989365.2354   22464738.527  
                
  22282451.508   119112481.240    22282458.457    92643090.020    22282457.562  
  22282450.305  
  22898455.398   122620159.500    22898460.414    95371280.628    22898460.523  
  22898454.551  
  22966297.617   120688736.234    22966301.965    94043203.1514                 
                
  20383580.008   107116448.240    20383584.465    83467382.6144                 
                
  21416225.086   112543029.634    21416232.125    87695894.0084   21416232.031  
                
  22542073.078   118459389.205    22542083.367    92306143.8464   22542083.023  
                
  19159392.875   102525802.400    19159397.254    79742336.334    19159397.035  
  19159391.660  
  21149677.695   112977794.165    21149681.855    87871637.823    21149680.754  
  21149676.242  
  23279868.922   122336529.260    23279878.734    95327211.3884   23279878.598  
                
  19920657.281   106449929.922    19920662.188    82794449.943    19920661.863  
  19920655.711  
  21212890.508   113434847.172    21212895.066    88227631.817    21212895.039  
  21212888.938  
  22952291.406   122348546.898    22952298.215    95160044.947    22952297.938  
  22952289.801  
  20460033.891   107518212.001    20460040.504    83780499.9894   20460040.273  
                
  22148634.117   116391865.316    22148643.293    90695040.1954   22148643.484  
                
 21  8  9  0 57 40.0000000  0 16R18G 6R 1R 8G22G19G14G 1R17R16G24R15
                                R24R14G17G 3
  21580179.328   115196483.387    21580185.758    89597919.464    21580185.121  
  21580178.418  
  22458713.227   118021345.024    22458722.875    91964734.6194   22458723.484  
                
  22278949.844   119093762.847    22278956.797    92628531.269    22278955.910  
  22278948.641  
  22900606.820   122631680.268    22900611.867    95380241.227    22900611.996  
  22900606.020  
  22968568.961   120700672.194    22968573.273    94052503.8944                 
                
  20380849.383   107102098.742    20380853.773    83456201.1954                 
                
  21421144.102   112568879.215    21421151.168    87716036.5324   21421151.062  
                
  22548495.211   118493137.708    22548505.523    92332441.3744   22548505.180  
                
  19159089.500   102524178.998    19159093.879    79741073.693    19159093.668  
  19159088.250  
  21145005.883   112952838.236    21145010.016    87852227.662    21145008.926  
  21145004.473  
  23280680.953   122340796.516    23280690.789    95330536.5334   23280690.617  
                
  19924325.094   106469529.559    19924330.004    82809694.098    19924329.680  
  19924323.547  
  21218730.031   113466073.748    21218734.590    88251919.151    21218734.555  
  21218728.480  
  22960786.984   122393833.001    22960793.777    95195267.453    22960793.523  
  22960785.355  
  20460710.867   107521769.530    20460717.480    83783272.0884   20460717.254  
                
  22147486.031   116385832.088    22147495.191    90690338.9744   22147495.387  
                
 21  8  9  0 57 50.0000000  0 16R18G 6R 1R 8G22G19G14G 1R17R16G24R15
                                R24R14G17G 3
  21574364.328   115165442.504    21574370.738    89573776.559    21574370.102  
  21574363.375  
  22452704.312   117989768.104    22452713.992    91940129.2554   22452714.586  
                
  22275462.672   119075121.956    22275469.637    92614032.809    22275468.719  
  22275461.480  
  22902774.047   122643285.653    22902779.105    95389267.632    22902779.219  
  22902773.285  
  22970851.891   120712669.051    22970856.180    94061852.0874                 
                
  20378127.008   107087792.550    20378131.320    83445053.5134                 
                
  21426071.859   112594774.709    21426078.949    87736214.8264   21426078.812  
                
  22554922.531   118526913.424    22554932.863    92358760.1014   22554932.500  
                
  19158796.797   102522612.661    19158801.180    79739855.428    19158800.961  
  19158795.508  
  21140347.586   112927954.425    21140351.672    87832873.582    21140350.582  
  21140346.199  
  23281505.375   122345128.897    23281515.164    95333912.4194   23281514.988  
                
  19928008.422   106489212.071    19928013.332    82825002.708    19928013.012  
  19928006.906  
  21224574.242   113497325.338    21224578.793    88276225.939    21224578.762  
  21224572.699  
  22969285.922   122439137.131    22969292.703    95230503.989    22969292.449  
  22969284.281  
  20461394.742   107525363.311    20461401.352    83786072.4384   20461401.121  
                
  22146351.312   116379869.130    22146360.477    90685692.5214   22146360.672  
                
