     2.11           OBSERVATION DATA    M (MIXED)           RINEX VERSION / TYPE
EFT-CORS.RU                             20210813 095122 UTC PGM / RUN BY / DATE 
USSB                                                        MARKER NAME         
                                                            MARKER NUMBER       
USSB                EFT-CORS.RU                             OBSERVER / AGENCY   
0                   TRIMBLE BD970       2.0                 REC # / TYPE / VERS 
0                   UNKNOWN EXT NONE                        ANT # / TYPE        
  -912023.1940  3761226.2140  5053259.2690                  APPROX POSITION XYZ 
        0.0000        0.0000        0.0000                  ANTENNA: DELTA H/E/N
     1     1                                                WAVELENGTH FACT L1/2
     6    C1    L1    P2    L2    C2    P1                  # / TYPES OF OBSERV 
    10.000                                                  INTERVAL            
  2021     8     9     0    30    0.0000000     GPS         TIME OF FIRST OBS   
  2021     8     9     2    30    0.0000000     GPS         TIME OF LAST OBS    
     0                                                      RCV CLOCK OFFS APPL 
                                                            END OF HEADER       
 21  8  9  0 30  0.0000000  0 16R 1G 6R18G14R15G 1G22G19G24R16R14R 8
                                R24G17R17G 3
  23077406.734   123361834.865    23077413.922    95948222.562    23077412.938  
  23077404.199  
  23547755.133   123744296.388                    96424202.789    23547765.629  
                
  22608353.172   120684931.057    22608359.977    93866086.526    22608359.398  
  22608352.121  
  20762403.289   109107166.352                    85018631.820    20762409.566  
                
  19525926.062   104340609.888    19525931.168    81153873.002    19525930.793  
  19525924.996  
  21574742.859   113376043.509                    88345046.508    21574752.340  
                
  22780361.789   119711636.075    22780365.496    93281791.7634                 
                
  20914468.078   109906286.691    20914472.695    85641287.3784                 
                
  23254504.102   122203245.920                    95223349.366    23254513.895  
                
  22023770.531   117647030.822    22023775.129    91503271.419    22023773.906  
  22023769.410  
  21661650.578   115468765.419    21661657.336    89809078.422    21661657.195  
  21661649.160  
  22750719.648   121829071.245    22750726.570    94755972.058    22750726.234  
  22750717.664  
  20324587.289   108684707.330    20324592.309    84532597.453    20324592.199  
  20324586.004  
  20434727.023   107385213.654                    83676824.902    20434733.199  
                
  19342492.914   103505608.388    19342498.121    80504421.869    19342497.926  
  19342491.746  
  22560415.078   118555805.201                    92381215.714    22560424.711  
                
 21  8  9  0 30 10.0000000  0 16R 1G 6R18G14R15G 1G22G19G24R16R14R 8
                                R24G17R17G 3
  23071779.641   123331755.976    23071787.105    95924827.884    23071786.035  
  23071777.406  
  23540859.508   123708059.687                    96395966.413    23540869.984  
                
  22601555.961   120648647.130    22601562.742    93837865.715    22601562.160  
  22601554.969  
  20765830.984   109125178.979                    85032667.635    20765837.273  
                
  19526975.227   104346216.239    19526980.324    81158233.488    19526979.957  
  19526974.141  
  21580039.938   113403879.816                    88366737.115    21580049.430  
                
  22780562.977   119712693.336    22780566.641    93282615.6004                 
                
  20910491.883   109885391.657    20910496.531    85625005.5434                 
                
  23253258.594   122196700.731                    95218249.223    23253268.383  
                
  22017258.273   117612243.523    22017262.906    91476214.641    22017261.672  
  22017257.164  
  21669280.016   115509434.585    21669286.777    89840709.986    21669286.645  
  21669278.570  
  22750092.914   121825716.814    22750100.234    94753363.021    22750099.832  
  22750091.227  
  20329475.883   108710848.822    20329480.918    84552929.721    20329480.809  
  20329474.598  
  20434313.984   107383043.107                    83675133.564    20434320.141  
                
  19340367.508   103494234.959    19340372.707    80495575.874    19340372.508  
  19340366.316  
  22557121.516   118538497.417                    92367729.138    22557131.129  
                
 21  8  9  0 30 20.0000000  0 16R 1G 6R18G14R15G 1G22G19G24R16R14R 8
                                R24G17R17G 3
  23066163.133   123301731.041    23066170.383    95901475.189    23066169.328  
  23066160.699  
  23533967.922   123671844.222                    96367746.585    23533978.379  
                
  22594763.641   120612389.239    22594770.375    93809665.126    22594769.785  
  22594762.711  
  20769268.844   109143245.023                    85046745.053    20769275.137  
                
  19528041.250   104351912.745    19528046.348    81162664.104    19528045.984  
  19528040.152  
  21585345.438   113431760.337                    88388462.183    21585354.938  
                
  22780776.469   119713815.351    22780780.145    93283489.8924                 
                
  20906522.938   109864534.714    20906527.605    85608753.3754                 
                
  23252025.703   122190221.885                    95213200.770    23252035.480  
                
  22010755.312   117577505.915    22010759.930    91449196.500    22010758.699  
  22010754.195  
  21676916.891   115550143.365    21676923.645    89872372.361    21676923.504  
  21676915.426  
  22749482.266   121822449.897    22749490.152    94750822.037    22749489.801  
  22749481.395  
  20334371.906   108737030.021    20334376.934    84573292.866    20334376.824  
  20334370.617  
  20433908.000   107380909.618                    83673471.109    20433914.152  
                
  19338253.375   103482921.797    19338258.555    80486776.748    19338258.348  
  19338252.133  
  22553839.398   118521249.871                    92354289.515    22553849.004  
                
 21  8  9  0 30 30.0000000  0 16R 1G 6R18G14R15G 1G22G19G24R16R14R 8
                                R24G17R17G 3
  23060556.469   123271760.235    23060563.777    95878164.575    23060562.730  
  23060554.125  
  23527080.359   123635649.962                    96339543.305    23527090.828  
                
  22587976.180   120576157.343    22587982.902    93781484.776    22587982.312  
  22587975.328  
  20772716.836   109161364.337                    85060863.997    20772723.160  
                
  19529124.125   104357699.317    19529129.223    81167164.765    19529128.863  
  19529123.035  
  21590659.320   113459684.938                    88410221.589    21590668.836  
                
  22781002.305   119715002.182    22781006.023    93284414.7034                 
                
  20902561.242   109843715.837    20902565.934    85592530.8734                 
                
  23250805.453   122183809.384                    95208204.009    23250815.207  
                
  22004261.641   117542817.903    22004266.227    91422216.939    22004265.020  
  22004260.508  
  21684561.164   115590891.559    21684567.898    89904065.381    21684567.758  
  21684559.707  
  22748889.500   121819270.435    22748896.332    94748349.149    22748896.012  
  22748887.984  
  20339275.398   108763251.206    20339280.438    84593687.122    20339280.328  
  20339274.109  
  20433509.055   107378813.172                    83671837.513    20433515.199  
                
  19336150.500   103471668.912    19336155.664    80478024.511    19336155.449  
  19336149.215  
  22550568.758   118504062.618                    92340896.874    22550578.363  
                
 21  8  9  0 30 40.0000000  0 16R 1G 6R18G14R15G 1G22G19G24R16R14R 8
                                R24G17R17G 3
  23054959.750   123241843.532    23054967.238    95854896.004    23054966.156  
  23054957.730  
  23520196.875   123599477.081                    96311356.657    23520207.301  
                
  22581193.570   120539951.457    22581200.336    93753324.678    22581199.727  
  22581192.770  
  20776174.977   109179536.961                    85075024.477    20776181.332  
                
  19530223.898   104363576.110    19530228.988    81171735.597    19530228.633  
  19530222.797  
  21595981.578   113487653.562                    88432015.311    21595991.129  
                
  22781240.477   119716253.790    22781244.211    93285389.9644                 
                
  20898606.805   109822935.159    20898611.523    85576338.1384                 
                
  23249597.820   122177463.245                    95203258.967    23249607.551  
                
  21997777.336   117508179.911    21997781.898    91395276.276    21997780.688  
  21997776.172  
  21692212.852   115631679.168    21692219.543    89935789.036    21692219.402  
  21692211.395  
  22748312.055   121816178.349    22748318.863    94745944.184    22748318.520  
  22748310.629  
  20344186.305   108789511.981    20344191.336    84614112.155    20344191.234  
  20344185.004  
  20433117.172   107376753.791                    83670232.792    20433123.312  
                
  19334058.898   103460476.312    19334064.039    80469319.157    19334063.812  
  19334057.590  
  22547309.625   118486935.775                    92327551.279    22547319.195  
                
 21  8  9  0 30 50.0000000  0 16R 1G 6R18G14R15G 1G22G19G24R16R14R 8
                                R24G17R17G 3
  23049373.273   123211981.221    23049380.891    95831669.760    23049379.785  
  23049371.492  
  23513317.469   123563325.620                    96283186.703    23513327.859  
                
  22574415.883   120503771.881    22574422.699    93725185.048    22574422.098  
  22574415.105  
  20779643.258   109197762.855                    85089226.464    20779649.645  
                
  19531340.547   104369543.078    19531345.629    81176376.563    19531345.270  
  19531339.449  
  21601312.188   113515666.091                    88453843.260    21601321.785  
                
  22781490.953   119717570.109    22781494.746    93286415.6824                 
                
  20894659.641   109802192.674    20894664.379    85560175.1654                 
                
  23248402.812   122171183.493                    95198365.667    23248412.535  
                
  21991302.344   117473591.703    21991306.895    91368374.341    21991305.668  
  21991301.156  
  21699871.898   115672506.094    21699878.566    89967543.290    21699878.418  
  21699870.457  
  22747750.719   121813173.652    22747757.680    94743607.149    22747757.340  
  22747749.523  
  20349104.602   108815812.339    20349109.652    84634567.992    20349109.555  
  20349103.324  
  20432732.352   107374731.514                    83668656.989    20432738.488  
                
  19331978.562   103449344.046    19331983.688    80460660.729    19331983.445  
  19331977.254  
  22544061.992   118469869.404                    92314252.824    22544071.559  
                
 21  8  9  0 31  0.0000000  0 16R 1G 6R18G14R15G 1G22G19G24R16R14R 8
                                R24G17R17G 3
  23043797.141   123182173.389    23043804.754    95808485.908    23043803.629  
  23043795.406  
  23506442.172   123527195.712                    96255033.528    23506452.523  
                
  22567643.109   120467618.467    22567649.961    93697065.753    22567649.340  
  22567642.285  
  20783121.672   109216042.024                    85103469.974    20783128.090  
                
  19532474.055   104375600.205    19532479.137    81181087.661    19532478.781  
  19532472.965  
  21606651.133   113543722.469                    88475705.382    21606660.781  
                
  22781753.789   119718951.256    22781757.609    93287491.8654                 
                
  20890719.766   109781488.489    20890724.508    85544042.0364                 
                
  23247220.461   122164970.210                    95193524.157    23247230.168  
                
  21984836.758   117439053.734    21984841.301    91341511.490    21984840.090  
  21984835.527  
  21707538.273   115713372.084    21707544.918    89999327.924    21707544.762  
  21707536.848  
  22747206.352   121810256.523    22747212.891    94741338.252    22747212.562  
  22747204.840  
  20354030.273   108842152.112    20354035.328    84655054.468    20354035.238  
  20354029.008  
  20432354.594   107372746.385                    83667110.127    20432360.742  
                
  19329909.484   103438271.991    19329914.594    80452049.135    19329914.348  
  19329908.188  
  22540825.883   118452863.637                    92301001.596    22540835.449  
                
 21  8  9  0 31 10.0000000  0 16R 1G 6R18G14R15G 1G22G19G24R16R14R 8
                                R24G17R17G 3
  23038231.156   123152420.155    23038238.863    95785344.539    23038237.754  
  23038229.484  
  23499570.953   123491087.249                    96226897.054    23499581.266  
                
  22560875.227   120431491.250    22560882.102    93668966.856    22560881.484  
  22560874.363  
  20786610.188   109234374.277                    85117754.845    20786616.641  
                
  19533624.391   104381747.260    19533629.469    81185868.698    19533629.113  
  19533623.309  
  21611998.375   113571822.465                    88497601.486    21612008.062  
                
  22782028.883   119720396.964    22782032.738    93288618.3934                 
                
  20886787.156   109760822.527    20886791.895    85527938.6984                 
                
  23246050.719   122158823.245                    95188734.334    23246060.441  
                
  21978380.617   117404566.161    21978385.133    91314687.817    21978383.902  
  21978379.340  
  21715211.938   115754276.910    21715218.555    90031142.759    21715218.391  
  21715210.512  
  22746678.188   121807426.695    22746684.426    94739137.272    22746684.121  
  22746676.504  
  20358963.312   108868531.260    20358968.371    84675571.590    20358968.285  
  20358962.070  
  20431983.883   107370798.247                    83665592.095    20431990.035  
                
  19327851.648   103427260.143    19327856.766    80443484.370    19327856.520  
  19327850.387  
  22537601.305   118435918.408                    92287797.534    22537610.863  
                
 21  8  9  0 31 20.0000000  0 16R 1G 6R18G14R15G 1G22G19G24R16R14R 8
                                R24G17R17G 3
  23032675.453   123122721.800    23032683.199    95762245.803    23032682.109  
  23032673.781  
  23492703.859   123455000.471                    96198777.502    23492714.156  
                
  22554112.320   120395390.363    22554119.164    93640888.390    22554118.555  
  22554111.438  
  20790108.828   109252759.733                    85132081.161    20790115.305  
                
  19534791.609   104387984.472    19534796.676    81190719.855    19534796.328  
  19534790.520  
  21617353.922   113599966.093                    88519531.585    21617363.648  
                
  22782316.305   119721907.500    22782320.180    93289795.4594                 
                
  20882861.859   109740194.990    20882866.582    85511865.2994                 
                
  23244893.656   122152742.779                    95183996.303    23244903.387  
                
  21971933.898   117370129.046    21971938.418    91287903.406    21971937.168  
  21971932.582  
  21722892.914   115795220.803    21722899.512    90062987.992    21722899.336  
  21722891.512  
  22746165.617   121804684.446    22746172.344    94737004.454    22746172.035  
  22746164.457  
  20363903.688   108894949.678    20363908.746    84696119.244    20363908.652  
  20363902.473  
  20431620.234   107368887.302                    83664103.052    20431626.406  
                
  19325805.094   103416308.645    19325810.219    80434966.544    19325809.988  
  19325803.855  
  22534388.297   118419033.960                    92274640.838    22534397.840  
                
 21  8  9  0 31 30.0000000  0 16R 1G 6R18G14R15G 1G22G19G24R16R14R 8
                                R24G17R17G 3
  23027130.016   123093078.438    23027137.828    95739189.888    23027136.738  
  23027128.391  
  23485840.875   123418935.390                    96170674.883    23485851.184  
                
  22547354.328   120359315.857    22547361.172    93612830.463    22547360.586  
  22547353.473  
  20793617.570   109271198.294                    85146448.867    20793624.078  
                
  19535975.703   104394311.902    19535980.770    81195641.190    19535980.414  
  19535974.621  
  21622717.773   113628153.282                    88541495.602    21622727.504  
                
  22782616.094   119723482.835    22782619.938    93291022.9704                 
                
  20878943.859   109719605.807    20878948.562    85495821.7904                 
                
  23243749.234   122146728.802                    95179310.079    23243758.977  
                
  21965496.656   117335742.470    21965501.168    91261158.297    21965499.922  
  21965495.285  
  21730581.141   115836203.316    21730587.727    90094863.270    21730587.543  
  21730579.770  
  22745670.148   121802029.701    22745676.605    94734939.655    22745676.324  
  22745668.742  
  20368851.391   108921407.207    20368856.434    84716697.314    20368856.344  
  20368850.199  
  20431263.656   107367013.475                    83662642.928    20431269.844  
                
  19323769.828   103405417.498    19323774.961    80426495.652    19323774.727  
  19323768.605  
  22531186.859   118402210.329                    92261531.518    22531196.379  
                
 21  8  9  0 31 40.0000000  0 16R 1G 6R18G14R15G 1G22G19G24R16R14R 8
                                R24G17R17G 3
  23021594.938   123063490.252    23021602.730    95716176.845    23021601.641  
  23021593.297  
  23478982.062   123382892.137                    96142589.240    23478992.355  
                
  22540601.297   120323267.801    22540608.125    93584793.106    22540607.539  
  22540600.473  
  20797136.430   109289689.953                    85160857.941    20797142.961  
                
  19537176.656   104400729.382    19537181.727    81200632.556    19537181.367  
  19537175.582  
  21628089.875   113656383.869                    88563493.469    21628099.625  
                
  22782928.203   119725122.957    22782932.016    93292300.9904                 
                
  20875033.141   109699054.860    20875037.816    85479808.0694                 
                
  23242617.469   122140781.323                    95174675.669    23242627.207  
                
  21959068.914   117301406.695    21959073.434    91234452.704    21959072.176  
  21959067.512  
  21738276.609   115877224.450    21738283.176    90126768.592    21738282.992  
  21738275.262  
  22745190.805   121799462.735    22745197.297    94732943.122    22745197.004  
  22745189.391  
  20373806.398   108947903.860    20373811.438    84737305.814    20373811.340  
  20373805.227  
  20430914.141   107365176.722                    83661211.688    20430920.336  
                
  19321745.812   103394586.567    19321750.953    80418071.591    19321750.711  
  19321744.582  
  22527997.031   118385447.634                    92248469.673    22528006.512  
                
 21  8  9  0 31 50.0000000  0 16R 1G 6R18G14R15G 1G22G19G24R16R14R 8
                                R24G17R17G 3
  23016070.188   123033957.355    23016077.922    95693206.819    23016076.805  
  23016068.543  
  23472127.391   123346870.669                    96114520.587    23472137.691  
                
  22533853.195   120287246.080    22533860.012    93556776.244    22533859.422  
  22533852.363  
  20800665.367   109308234.609                    85175308.314    20800671.918  
                
  19538394.461   104407236.973    19538399.539    81205694.017    19538399.172  
  19538393.395  
  21633470.227   113684657.735                    88585525.031    21633479.977  
                
  22783252.617   119726827.784    22783256.395    93293629.4504                 
                
  20871129.750   109678542.397    20871134.406    85463824.3414                 
                
  23241498.352   122134900.303                    95170093.059    23241508.086  
                
  21952650.695   117267121.736    21952655.207    91207786.630    21952653.930  
  21952649.258  
  21745979.297   115918283.978    21745985.832    90158703.746    21745985.625  
  21745977.934  
  22744727.758   121796983.081    22744734.273    94731014.517    22744734.031  
  22744726.414  
  20378768.727   108974439.658    20378773.777    84757944.769    20378773.668  
  20378767.562  
  20430571.664   107363376.999                    83659809.312    20430577.883  
                
  19319733.062   103383815.934    19319738.219    80409694.435    19319737.980  
  19319731.828  
  22524818.773   118368745.843                    92235455.307    22524828.227  
                
 21  8  9  0 32  0.0000000  0 16R 1G 6R18G14R15G 1G22G19G24R16R14R 8
                                R24G17R17G 3
  23010555.758   123004479.689    23010563.426    95670279.754    23010562.270  
  23010554.094  
  23465276.883   123310871.090                    96086468.971    23465287.176  
                
  22527110.062   120251250.933    22527116.859    93528780.057    22527116.262  
  22527109.172  
  20804204.383   109326832.221                    85189799.945    20804210.957  
                
  19539629.117   104413834.569    19539634.191    81210825.476    19539633.832  
  19539628.035  
  21638858.781   113712974.759                    88607590.227    21638868.543  
                
  22783589.336   119728597.289    22783593.039    93295008.2914                 
                
  20867233.672   109658068.407    20867238.293    85447870.5904                 
                
  23240391.875   122129085.747                    95165562.244    23240401.582  
                
  21946242.039   117232887.902    21946246.555    91181160.326    21946245.273  
  21946240.582  
  21753689.164   115959381.764    21753695.656    90190668.652    21753695.469  
  21753687.770  
  22744281.125   121794591.058    22744287.602    94729154.035    22744287.379  
  22744279.797  
  20383738.312   109001014.228    20383743.379    84778613.871    20383743.266  
  20383737.148  
  20430236.227   107361614.309                    83658435.783    20430242.461  
                
  19317731.562   103373105.517    19317736.727    80401364.105    19317736.484  
  19317730.324  
  22521652.125   118352105.055                    92222488.476    22521661.562  
                
 21  8  9  0 32 10.0000000  0 16R 1G 6R18G14R15G 1G22G19G24R16R14R 8
                                R24G17R17G 3
  23005051.797   122975057.849    23005059.355    95647396.101    23005058.195  
  23005050.090  
  23458430.578   123274893.607                    96058434.583    23458440.859  
                
  22520371.938   120215282.451    22520378.664    93500804.589    22520378.078  
  22520370.988  
  20807753.500   109345482.918                    85204332.952    20807760.109  
                
  19540880.633   104420522.300    19540885.711    81216027.044    19540885.348  
  19540879.539  
  21644255.562   113741334.980                    88629689.072    21644265.312  
                
  22783938.398   119730431.646    22783942.004    93296437.6654                 
                
  20863344.953   109637633.068    20863349.535    85431946.9484                 
                
  23239298.086   122123337.810                    95161083.321    23239307.766  
                
  21939842.969   117198705.184    21939847.465    91154573.764    21939846.164  
  21939841.496  
  21761406.195   116000517.807    21761412.672    90222663.341    21761412.484  
  21761404.781  
  22743850.836   121792286.848    22743857.320    94727361.883    22743857.098  
  22743849.719  
  20388715.156   109027627.658    20388720.234    84799313.200    20388720.113  
  20388713.996  
  20429907.875   107359888.786                    83657091.223    20429914.125  
                
  19315741.352   103362455.487    19315746.520    80393080.751    19315746.273  
  19315740.129  
  22518497.125   118335525.490                    92209569.345    22518506.543  
                
 21  8  9  0 32 20.0000000  0 16R 1G 6R18G14R15G 1G22G19G24R16R14R 8
                                R24G17R17G 3
  22999558.211   122945691.631    22999565.699    95624555.700    22999564.504  
  22999556.543  
  23451588.469   123238938.104                    96030417.321    23451598.738  
                
  22513638.836   120179340.584    22513645.449    93472849.784    22513644.836  
  22513637.855  
  20811312.672   109364186.448                    85218907.117    20811319.301  
                
  19542149.000   104427300.044    19542154.074    81221298.619    19542153.723  
  19542147.891  
  21649660.500   113769738.111                    88651821.374    21649670.258  
                
  22784299.758   119732330.673    22784303.312    93297917.4624                 
                
  20859463.547   109617236.193    20859468.113    85416053.2894                 
                
  23238216.945   122117656.356                    95156656.207    23238226.609  
                
  21933453.508   117164573.896    21933457.977    91128027.207    21933456.672  
  21933452.043  
  21769130.359   116041691.859    21769136.816    90254687.580    21769136.648  
  21769128.906  
  22743436.883   121790070.017    22743443.410    94725637.685    22743443.211  
  22743436.000  
  20393699.234   109054279.712    20393704.316    84820042.566    20393704.199  
  20393698.074  
  20429586.562   107358200.314                    83655775.529    20429592.832  
                
  19313762.406   103351865.756    19313767.578    80384844.296    19313767.336  
  19313761.199  
  22515353.781   118319007.067                    92196697.842    22515363.168  
                
 21  8  9  0 32 30.0000000  0 17R 1G 6R18G14R15G 1G21G22G19G24R16R14
                                R 8R24G17R17G 3
  22994075.078   122916381.194    22994082.496    95601758.688    22994081.316  
  22994073.480  
  23444750.562   123203004.751                    96002417.323    23444760.832  
                
  22506910.719   120143425.366    22506917.254    93444915.705    22506916.621  
  22506909.766  
  20814881.906   109382942.858                    85233522.493    20814888.559  
                
  19543434.227   104434167.861    19543439.293    81226640.239    19543438.941  
  19543433.098  
  21655073.594   113798184.136                    88673987.127    21655083.352  
                
  24420801.930   128332215.191                                                  
                
  22784673.461   119734294.529    22784676.957    93299447.7504                 
                
  20855589.492   109596877.914    20855594.062    85400189.7014                 
                
  23237148.477   122112041.487                    95152280.975    23237158.133  
                
  21927073.711   117130494.117    21927078.137    91101520.708    21927076.824  
  21927072.230  
  21776861.633   116082903.797    21776868.090    90286741.285    21776867.930  
  21776860.152  
  22743039.305   121787940.900    22743045.879    94723981.721    22743045.676  
  22743038.617  
  20398690.562   109080970.514    20398695.637    84840802.052    20398695.504  
  20398689.387  
  20429272.320   107356548.910                    83654488.717    20429278.598  
                
  19311794.727   103341336.316    19311799.902    80376654.730    19311799.660  
  19311793.539  
  22512222.086   118302549.930                    92183874.108    22512231.453  
                
 21  8  9  0 32 40.0000000  0 17R 1G 6R18G14R15G 1G21G22G19G24R16R14
                                R 8R24G17R17G 3
  22988602.438   122887126.914    22988609.848    95579005.357    22988608.664  
  22988600.926  
  23437916.859   123167093.527                    95974434.575    23437927.129  
                
  22500187.523   120107536.682    22500194.094    93417002.329    22500193.453  
  22500186.625  
  20818461.180   109401752.077                    85248179.021    20818467.855  
                
  19544736.273   104441125.589    19544741.348    81232051.805    19544741.000  
  19544735.152  
  21660494.812   113826672.908                    88696186.178    21660504.527  
                
  24426862.930   128364062.205                                                  
                
  22785059.469   119736323.052    22785062.961    93301028.4294                 
                
  20851722.789   109576558.271    20851727.367    85384356.2154                 
                
  23236092.656   122106493.133                    95147957.585    23236102.324  
                
  21920703.539   117096465.842    21920707.953    91075054.272    21920706.656  
  21920702.059  
  21784599.992   116124153.587    21784606.449    90318824.440    21784606.285  
  21784598.508  
  22742658.102   121785899.553    22742664.715    94722393.988    22742664.535  
  22742657.461  
  20403689.078   109107699.727    20403694.137    84861591.414    20403694.016  
  20403687.926  
  20428965.102   107354934.517                    83653230.757    20428971.391  
                
  19309838.273   103330866.971    19309843.453    80368511.916    19309843.219  
  19309837.105  
  22509102.062   118286154.104                    92171098.148    22509111.410  
                
 21  8  9  0 32 50.0000000  0 17R 1G 6R18G14R15G 1G21G22G19G24R16R14
                                R 8R24G17R17G 3
  22983140.320   122857928.879    22983147.816    95556295.803    22983146.699  
  22983138.875  
  23431087.414   123131204.633                    95946469.223    23431097.684  
                
  22493469.414   120071675.076    22493476.027    93389110.013    22493475.387  
  22493468.566  
  20822050.523   109420614.164                    85262876.745    20822057.223  
                
  19546055.156   104448173.283    19546060.242    81237533.342    19546059.895  
  19546054.059  
  21665924.188   113855204.443                    88718418.566    21665933.840  
                
  24432922.789   128395919.190                                                  
                
  22785457.828   119738416.435    22785461.320    93302659.6354                 
                
  20847863.469   109556277.395    20847868.059    85368552.9364                 
                
  23235049.531   122101011.420                    95143686.118    23235059.211  
                
  21914343.055   117062489.316    21914347.469    91048628.091    21914346.168  
  21914341.598  
  21792345.430   116165441.046    21792351.887    90350936.893    21792351.707  
  21792343.934  
  22742293.297   121783945.892    22742299.910    94720874.430    22742299.730  
  22742292.699  
  20408694.773   109134467.370    20408699.832    84882410.686    20408699.719  
  20408693.664  
  20428664.961   107353357.250                    83652001.714    20428671.250  
                
  19307893.102   103320457.997    19307898.289    80360416.054    19307898.051  
  19307891.938  
  22505993.742   118269819.764                    92158370.086    22506003.082  
                
 21  8  9  0 33  0.0000000  0 16R 1G 6R18G14R15G 1G22G19G24R16R14R 8
                                R24G17R17G 3
  22977688.773   122828787.368    22977696.367    95533630.203    22977695.266  
  22977687.348  
  23424262.242   123095338.150                    95918521.318    23424272.508  
                
  22486756.297   120035840.152    22486762.965    93361238.437    22486762.305  
  22486755.492  
  20825649.914   109439529.061                    85277615.626    20825656.629  
                
  19547390.906   104455311.068    19547395.984    81243084.940    19547395.629  
  19547389.820  
  21671361.664   113883778.595                    88740684.150    21671371.250  
                
  22785868.477   119740574.523    22785871.965    93304341.2784                 
                
  20844011.523   109536035.273    20844016.133    85352779.8524                 
                
  23234019.078   122095596.353                    95139466.585    23234028.781  
                
  21907992.320   117028564.861    21907996.730    91022242.419    21907995.445  
  21907990.918  
  21800097.898   116206765.938    21800104.355    90383078.448    21800104.168  
  21800096.391  
  22741944.867   121782079.862    22741951.473    94719423.077    22741951.281  
  22741944.348  
  20413707.633   109161273.335    20413712.699    84903259.754    20413712.594  
  20413706.520  
  20428371.883   107351817.108                    83650801.607    20428378.176  
                
  19305959.219   103310109.363    19305964.398    80352367.113    19305964.164  
  19305958.031  
  22502897.125   118253546.972                    92145689.997    22502906.477  
                
 21  8  9  0 33 10.0000000  0 16R 1G 6R18G14R15G 1G22G19G24R16R14R 8
                                R24G17R17G 3
  22972247.766   122799702.274    22972255.441    95511008.495    22972254.328  
  22972246.387  
  23417441.336   123059494.090                    95890590.907    23417451.609  
                
  22480048.266   120000032.338    22480054.973    93333387.943    22480054.285  
  22480047.449  
  20829259.336   109458496.704                    85292395.595    20829266.055  
                
  19548743.477   104462538.766    19548748.566    81248706.484    19548748.211  
  19548742.406  
  21676807.250   113912395.256                    88762982.821    21676816.777  
                
  22786291.469   119742797.398    22786294.926    93306073.4004                 
                
  20840166.938   109515831.865    20840171.590    85337036.9414                 
                
  23233001.297   122090247.916                    95135298.977    23233011.012  
                
  21901651.297   116994692.269    21901655.703    90995897.066    21901654.426  
  21901649.941  
  21807857.375   116248128.221    21807863.840    90415249.087    21807863.648  
  21807855.871  
  22741612.875   121780301.817    22741619.457    94718040.129    22741619.273  
  22741612.371  
  20418727.672   109188117.745    20418732.781    84924138.739    20418732.660  
  20418726.555  
  20428085.852   107350314.076                    83649630.425    20428092.164  
                
  19304036.602   103299821.078    19304041.781    80344365.116    19304041.559  
  19304035.395  
  22499812.242   118237335.820                    92133057.937    22499821.586  
                
 21  8  9  0 33 20.0000000  0 17R 1G 6R18G14R15G 1G21G22G19G24R16R14
                                R 8R24G17R17G 3
  22966817.359   122770673.847    22966825.109    95488430.868    22966823.988  
  22966816.051  
  23410624.711   123023672.520                    95862677.992    23410634.957  
                
  22473345.234   119964251.337    22473351.996    93305558.332    22473351.316  
  22473344.391  
  20832878.797   109477517.034                    85307216.612    20832885.512  
                
  19550112.891   104469856.495    19550117.992    81254398.046    19550117.633  
  19550111.832  
  21682260.883   113941054.284                    88785314.548    21682270.359  
                
  24451123.492   128491541.812                                                  
                
  22786726.789   119745085.001    22786730.215    93307855.9524                 
                
  20836329.734   109495667.207    20836334.414    85321324.2164                 
                
  23231996.211   122084966.110                    95131183.271    23232005.918  
                
  21895320.078   116960872.078    21895324.496    90969592.476    21895323.234  
  21895318.750  
  21815623.828   116289527.816    21815630.344    90447448.786    21815630.145  
  21815622.363  
  22741297.258   121778611.442    22741303.781    94716725.372    22741303.617  
  22741296.746  
  20423754.828   109215000.190    20423759.973    84945047.296    20423759.844  
  20423753.684  
  20427806.906   107348848.134                    83648488.126    20427813.207  
                
  19302125.242   103289593.004    19302130.418    80336409.943    19302130.195  
  19302124.016  
  22496739.086   118221186.309                    92120473.904    22496748.438  
                
 21  8  9  0 33 30.0000000  0 17R 1G 6R18G14R15G 1G21G22G19G24R16R14
                                R 8R24G17R17G 3
  22961397.672   122741702.455    22961405.426    95465897.563    22961404.336  
  22961396.383  
  23403812.383   122987873.512                    95834782.672    23403822.625  
                
  22466647.281   119928497.275    22466654.039    93277749.644    22466653.383  
  22466646.406  
  20836508.289   109496590.019                    85322078.656    20836514.984  
                
  19551499.133   104477264.092    19551504.238    81260159.504    19551503.875  
  19551498.070  
  21687722.570   113969755.605                    88807679.210    21687732.012  
                
  24457191.539   128523435.118                                                  
                
  22787174.414   119747437.284    22787177.820    93309688.8874                 
                
  20832499.914   109475541.350    20832504.625    85305641.7254                 
                
  23231003.797   122079750.954                    95127119.508    23231013.504  
                
  21888998.641   116927104.106    21889003.055    90943328.503    21889001.809  
  21888997.332  
  21823397.305   116330964.648    21823403.832    90479677.398    21823403.625  
  21823395.840  
  22740998.031   121777008.929    22741004.473    94715478.950    22741004.270  
  22740997.562  
  20428789.125   109241920.718    20428794.266    84965985.459    20428794.141  
  20428787.934  
  20427535.000   107347419.242                    83647374.697    20427541.281  
                
  19300225.164   103279425.253    19300230.340    80328501.690    19300230.105  
  19300223.918  
  22493677.680   118205098.566                    92107938.018    22493687.055  
                
 21  8  9  0 33 40.0000000  0 17R 1G 6R18G14R15G 1G21G22G19G24R16R14
                                R 8R24G17R17G 3
  22955988.617   122712787.880    22955996.352    95443408.443    22955995.207  
  22955987.312  
  23397004.344   122952097.104                    95806904.977    23397014.605  
                
  22459954.422   119892770.387    22459961.156    93249962.076    22459960.504  
  22459953.512  
  20840147.766   109515715.575                    85336981.677    20840154.441  
                
  19552902.188   104484761.625    19552907.297    81265990.915    19552906.930  
  19552901.105  
  21693192.273   113998499.071                    88830076.726    21693201.715  
                
  24463262.008   128555337.465                                                  
                
  22787634.336   119749854.298    22787637.770    93311572.2984                 
                
  20828677.469   109455454.322    20828682.207    85289989.5024                 
                
  23230024.062   122074602.410                    95123107.653    23230033.762  
                
  21882687.016   116893388.606    21882691.445    90917105.350    21882690.199  
  21882685.715  
  21831177.641   116372438.167    21831184.215    90511934.566    21831184.008  
  21831176.188  
  22740715.148   121775493.987    22740721.520    94714300.669    22740721.344  
  22740714.836  
  20433830.523   109268879.220    20433835.648    84986953.148    20433835.531  
  20433829.293  
  20427270.141   107346027.392                    83646290.130    20427276.406  
                
  19298336.289   103269317.574    19298341.480    80320640.172    19298341.254  
  19298335.039  
  22490628.047   118189072.639                    92095450.281    22490637.422  
                
 21  8  9  0 33 50.0000000  0 17R 1G 6R18G14R15G 1G21G22G19G24R16R14
                                R 8R24G17R17G 3
  22950590.227   122683930.469    22950598.000    95420963.827    22950596.781  
  22950588.949  
  23390200.625   122916343.375                    95779044.944    23390210.898  
                
  22453266.617   119857070.510    22453273.359    93222195.519    22453272.695  
  22453265.664  
  20843797.258   109534893.695                    85351925.651    20843803.906  
                
  19554322.070   104492348.984    19554327.188    81271892.187    19554326.820  
  19554320.969  
  21698669.992   114027284.593                    88852506.980    21698679.402  
                
  24469334.477   128587248.841                                                  
                
  22788106.617   119752335.974    22788110.023    93313506.0644                 
                
  20824862.438   109435406.222    20824867.199    85274367.6114                 
                
  23229057.000   122069520.515                    95119147.748    23229066.715  
                
  21876385.242   116859725.705    21876389.688    90890923.101    21876388.457  
  21876383.965  
  21838964.914   116413948.677    21838971.539    90544220.510    21838971.332  
  21838963.457  
  22740448.750   121774067.118    22740455.004    94713190.841    22740454.793  
  22740448.480  
  20438878.984   109295875.563    20438884.105    85007950.296    20438883.988  
  20438877.766  
  20427012.328   107344672.570                    83645234.424    20427018.574  
                
  19296458.711   103259270.221    19296463.906    80312825.560    19296463.684  
  19296457.438  
  22487590.188   118173108.590                    92083010.767    22487599.578  
                
 21  8  9  0 34  0.0000000  0 17R 1G 6R18G14R15G 1G21G22G19G24R16R14
                                R 8R24G17R17G 3
  22945202.516   122655130.259    22945210.297    95398563.691    22945208.988  
  22945201.285  
  23383401.258   122880612.465                    95751202.674    23383411.516  
                
  22446583.938   119821397.982    22446590.684    93194450.246    22446590.020  
  22446582.965  
  20847456.750   109554124.397                    85366910.600    20847463.375  
                
  19555758.773   104500026.299    19555763.906    81277863.431    19555763.531  
  19555757.660  
  21704155.703   114056112.160                    88874970.002    21704165.094  
                
  24475408.539   128619169.170                                                  
                
  22788591.188   119754882.407    22788594.621    93315490.2934                 
                
  20821054.828   109415397.099    20821059.582    85258776.0974                 
                
  23228102.656   122064505.380                    95115239.845    23228112.375  
                
  21870093.375   116826115.706    21870097.824    90864781.998    21870096.613  
  21870092.086  
  21846759.078   116455495.962    21846765.750    90576535.060    21846765.535  
  21846757.605  
  22740198.719   121772728.125    22740204.863    94712149.404    22740204.648  
  22740198.543  
  20443934.539   109322909.827    20443939.645    85028976.935    20443939.535  
  20443933.312  
  20426761.594   107343354.885                    83644207.652    20426767.816  
                
  19294592.398   103249283.199    19294597.590    80305057.876    19294597.367  
  19294591.113  
  22484564.133   118157206.590                    92070619.606    22484573.555  
                
 21  8  9  0 34 10.0000000  0 17R 1G 6R18G14R15G 1G21G22G19G24R16R14
                                R 8R24G17R17G 3
  22939825.625   122626387.588    22939833.309    95376208.276    22939831.898  
  22939824.379  
  23376606.211   122844904.332                    95723378.166    23376616.488  
                
  22439906.336   119785752.503    22439913.055    93166725.984    22439912.395  
  22439905.367  
  20851126.211   109573407.524                    85381936.401    20851132.820  
                
  19557212.281   104507793.388    19557217.422    81283904.500    19557217.055  
  19557211.168  
  21709649.367   114084981.519                    88897465.594    21709658.785  
                
  24481483.773   128651098.859                                                  
                
  22789088.047   119757493.505    22789091.516    93317524.9394                 
                
  20817254.625   109395426.881    20817259.355    85243214.8864                 
                
  23227160.992   122059556.856                    95111383.842    23227170.711  
                
  21863811.375   116792558.490    21863815.832    90838681.962    21863814.617  
  21863810.078  
  21854560.094   116497079.677    21854566.809    90608877.933    21854566.586  
  21854558.598  
  22739965.102   121771476.941    22739971.137    94711176.245    22739970.961  
  22739965.086  
  20448997.109   109349981.604    20449002.211    85050032.754    20449002.105  
  20448995.879  
  20426517.891   107342074.220                    83643209.730    20426524.086  
                
  19292737.305   103239356.270    19292742.500    80297336.938    19292742.281  
  19292736.035  
  22481549.867   118141366.556                    92058276.731    22481559.320  
                
 21  8  9  0 34 20.0000000  0 16R 1G 6R18G14R15G 1G22G19G24R16R14R 8
                                R24G17R17G 3
  22934459.477   122597702.533    22934467.188    95353897.703    22934465.746  
  22934458.250  
  23369815.531   122809219.137                    95695571.539    23369825.840  
                
  22433233.844   119750134.365    22433240.555    93139023.006    22433239.902  
  22433232.852  
  20854805.664   109592743.144                    85397003.104    20854812.254  
                
  19558682.625   104515650.441    19558687.777    81290015.541    19558687.410  
  19558681.496  
  21715150.969   114113892.690                    88919993.806    21715160.434  
                
  22789597.273   119760169.366    22789600.766    93319610.0014                 
                
  20813461.844   109375495.729    20813466.562    85227684.1224                 
                
  23226232.016   122054675.078                    95107579.852    23226241.730  
                
  21857539.344   116759054.423    21857543.766    90812623.242    21857542.551  
  21857538.047  
  21862367.938   116538699.825    21862374.707    90641249.142    21862374.484  
  21862366.395  
  22739747.898   121770313.579    22739753.828    94710271.396    22739753.695  
  22739747.953  
  20454066.727   109377091.172    20454071.832    85071117.970    20454071.727  
  20454065.473  
  20426281.242   107340830.675                    83642240.736    20426287.418  
                
  19290893.516   103229489.779    19290898.699    80289663.002    19290898.484  
  19290892.262  
  22478547.445   118125588.716                    92045982.315    22478556.906  
                
 21  8  9  0 34 30.0000000  0 16R 1G 6R18G14R15G 1G22G19G24R16R14R 8
                                R24G17R17G 3
  22929104.109   122569075.074    22929111.836    95331631.918    22929110.414  
  22929102.891  
  23363029.227   122773556.928                    95667782.821    23363039.559  
                
  22426566.484   119714543.563    22426573.188    93111341.272    22426572.527  
  22426565.453  
  20858495.094   109612131.195                    85412110.668    20858501.664  
                
  19560169.758   104523597.228    19560174.922    81296196.371    19560174.551  
  19560168.602  
  21720660.523   114142845.564                    88942554.481    21720669.996  
                
  22790118.773   119762909.898    22790122.375    93321745.4954                 
                
  20809676.492   109355603.614    20809681.199    85212183.7804                 
                
  23225315.750   122049860.033                    95103827.860    23225325.434  
                
  21851277.258   116725603.508    21851281.656    90786605.868    21851280.422  
  21851275.961  
  21870182.625   116580356.403    21870189.441    90673648.687    21870189.219  
  21870181.055  
  22739547.086   121769238.109    22739552.957    94709434.916    22739552.824  
  22739547.180  
  20459143.391   109404238.332    20459148.492    85092232.420    20459148.398  
  20459142.121  
  20426051.641   107339624.151                    83641300.594    20426057.805  
                
  19289060.961   103219683.399    19289066.125    80282035.817    19289065.910  
  19289059.711  
  22475556.859   118109873.107                    92033736.381    22475566.309  
                
 21  8  9  0 34 40.0000000  0 17R 1G 6R18G14R15G 1G21G22G19G24R16R14
                                R 8R24G17R17G 3
  22923759.602   122540505.640    22923767.336    95309411.256    22923765.926  
  22923758.398  
  23356247.328   122737917.807                    95640012.076    23356257.668  
                
  22419904.258   119678980.171    22419910.941    93083680.864    22419910.277  
  22419903.215  
  20862194.484   109631571.636                    85427259.064    20862201.051  
                
  19561673.703   104531633.838    19561678.875    81302447.058    19561678.512  
  19561672.539  
  21726177.984   114171840.006                    88965147.561    21726187.504  
                
  24499723.344   128746943.578                                                  
                
  22790652.641   119765715.215    22790656.355    93323931.4274                 
                
  20805898.586   109335750.595    20805903.262    85196713.8954                 
                
  23224412.172   122045111.720                    95100127.877    23224421.832  
                
  21845025.195   116692206.152    21845029.578    90760630.147    21845028.328  
  21845023.879  
  21878004.055   116622049.057    21878010.910    90706076.307    21878010.691  
  21878002.473  
  22739362.695   121768250.526    22739368.469    94708666.780    22739368.359  
  22739362.820  
  20464227.023   109431422.794    20464232.105    85113375.875    20464232.012  
  20464225.754  
  20425829.109   107338454.744                    83640389.370    20425835.262  
                
  19287239.672   103209937.372    19287244.828    80274455.583    19287244.613  
  19287238.438  
  22472578.133   118094219.803                    92021539.009    22472587.598  
                
 21  8  9  0 34 50.0000000  0 17R 1G 6R18G14R15G 1G21G22G19G24R16R14
                                R 8R24G17R17G 3
  22918425.898   122511994.254    22918433.754    95287235.802    22918432.367  
  22918424.754  
  23349469.836   122702301.863                    95612259.401    23349480.195  
                
  22413247.164   119643444.258    22413253.855    93056041.854    22413253.207  
  22413246.129  
  20865903.859   109651064.478                    85442448.284    20865910.422  
                
  19563194.469   104539760.320    19563199.652    81308767.656    19563199.297  
  19563193.297  
  21731703.352   114200875.970                    88987772.990    21731712.914  
                
  24505805.039   128778907.720                                                  
                
  22791198.805   119768585.320    22791202.688    93326167.8704                 
                
  20802128.141   109315936.778    20802132.785    85181274.5624                 
                
  23223521.305   122040430.201                    95096479.956    23223530.922  
                
  21838783.109   116658862.108    21838787.504    90734695.909    21838786.270  
  21838781.805  
  21885832.305   116663777.941    21885839.180    90738532.089    21885838.969  
  21885830.711  
  22739194.711   121767350.946    22739200.473    94707967.135    22739200.383  
  22739194.848  
  20469317.656   109458644.640    20469322.723    85134548.425    20469322.633  
  20469316.398  
  20425613.648   107337322.459                    83639507.074    20425619.793  
                
  19285429.648   103200251.551    19285434.785    80266922.167    19285434.562  
  19285428.406  
  22469611.273   118078628.893                    92009390.269    22469620.773  
                
 21  8  9  0 35  0.0000000  0 17R 1G 6R18G14R15G 1G21G22G19G24R16R14
                                R 8R24G17R17G 3
  22913103.117   122483541.117    22913111.012    95265105.623    22913109.629  
  22913101.984  
  23342696.727   122666709.030                    95584524.734    23342707.102  
                
  22406595.188   119607935.664    22406601.871    93028424.090    22406601.211  
  22406594.137  
  20869623.164   109670609.519                    85457678.181    20869629.727  
                
  19564732.000   104547976.439    19564737.188    81315157.976    19564736.840  
  19564730.816  
  21737236.562   114229953.197                    89010430.567    21737246.168  
                
  24511889.375   128810880.381                                                  
                
  22791757.242   119771520.004    22791761.285    93328454.6634                 
                
  20798365.070   109296161.764    20798369.691    85165865.4834                 
                
  23222643.141   122035815.473                    95092884.087    23222652.758  
                
  21832551.055   116625571.667    21832555.484    90708803.362    21832554.250  
  21832549.797  
  21893667.258   116705542.635    21893674.164    90771015.742    21893673.949  
  21893665.680  
  22739043.172   121766539.179    22739048.898    94707335.748    22739048.812  
  22739043.254  
  20474415.211   109485903.574    20474420.254    85155749.819    20474420.164  
  20474413.961  
  20425405.211   107336227.168                    83638653.605    20425411.359  
                
  19283630.859   103190625.916    19283635.992    80259435.571    19283635.762  
  19283629.613  
  22466656.281   118063100.381                    91997290.141    22466665.801  
                
 21  8  9  0 35 10.0000000  0 17R 1G 6R18G14R15G 1G21G22G19G24R16R14
                                R 8R24G17R17G 3
  22907791.273   122455146.298    22907799.105    95243020.790    22907797.754  
  22907790.156  
  23335928.047   122631139.485                    95556808.234    23335938.449  
                
  22399948.391   119572454.744    22399955.066    93000827.845    22399954.395  
  22399947.332  
  20873352.422   109690206.823                    85472948.794    20873358.977  
                
  19566286.328   104556282.319    19566291.516    81321618.098    19566291.180  
  19566285.141  
  21742777.641   114259071.745                    89033120.334    21742787.266  
                
  24517974.914   128842861.537                                                  
                
  22792327.977   119774519.344    22792332.117    93330791.8134                 
                
  20794609.484   109276426.072    20794614.082    85150487.0264                 
                
  23221777.656   122031267.407                    95089340.154    23221787.281  
                
  21826329.086   116592335.068    21826333.531    90682952.687    21826332.289  
  21826327.871  
  21901508.906   116747343.046    21901515.824    90803527.168    21901515.602  
  21901507.328  
  22738908.023   121765815.367    22738913.762    94706772.767    22738913.648  
  22738908.086  
  20479519.766   109513199.924    20479524.781    85176980.311    20479524.695  
  20479518.535  
  20425203.828   107335168.916                    83637828.996    20425209.984  
                
  19281843.320   103181060.482    19281848.461    80251995.796    19281848.230  
  19281842.082  
  22463713.203   118047634.399                    91985238.730    22463722.727  
                
 21  8  9  0 35 20.0000000  0 17R 1G 6R18G14R15G 1G21G22G19G24R16R14
                                R 8R24G17R17G 3
  22902490.352   122426809.975    22902498.152    95220981.470    22902496.789  
  22902489.281  
  23329163.820   122595593.231                    95529109.849    23329174.211  
                
  22393306.789   119537001.468    22393313.465    92973253.082    22393312.801  
  22393305.723  
  20877091.594   109709856.299                    85488260.066    20877098.148  
                
  19567857.453   104564677.902    19567862.641    81328147.995    19567862.309  
  19567856.266  
  21748326.547   114288231.401                    89055842.139    21748336.203  
                
  24524062.289   128874851.099                                                  
                
  22792911.062   119777583.272    22792915.207    93333179.2354                 
                
  20790861.391   109256729.726    20790865.957    85135139.2264                 
                
  23220924.883   122026786.085                    95085848.233    23220934.535  
                
  21820117.180   116559152.281    21820121.637    90657143.874    21820120.391  
  21820116.008  
  21909357.258   116789179.148    21909364.168    90836066.350    21909363.961  
  21909355.672  
  22738789.273   121765179.566    22738795.043    94706278.280    22738794.941  
  22738789.340  
  20484631.219   109540533.174    20484636.219    85198239.508    20484636.129  
  20484630.000  
  20425009.492   107334147.669                    83637033.219    20425015.656  
                
  19280067.055   103171555.272    19280072.188    80244602.849    19280071.957  
  19280065.812  
  22460782.008   118032230.953                    91973236.069    22460791.531  
                
 21  8  9  0 35 30.0000000  0 17R 1G 6R18G14R15G 1G21G22G19G24R16R14
                                R 8R24G17R17G 3
  22897200.414   122398532.375    22897208.223    95198987.810    22897206.824  
  22897199.379  
  23322404.062   122560070.495                    95501429.795    23322414.453  
                
  22386670.320   119501575.697    22386677.031    92945699.744    22386676.367  
  22386669.242  
  20880840.711   109729558.012                    85503612.041    20880847.273  
                
  19569445.359   104573163.150    19569450.543    81334747.626    19569450.203  
  19569444.168  
  21753883.297   114317432.221                    89078596.009    21753892.977  
                
  24530150.484   128906849.056                                                  
                
  22793506.438   119780711.945    22793510.602    93335617.1634                 
                
  20787120.805   109237072.813    20787125.348    85119822.1614                 
                
  23220084.852   122022371.643                    95082408.390    23220094.496  
                
  21813915.445   116526023.810    21813919.902    90631377.301    21813918.637  
  21813914.273  
  21917212.258   116831050.681    21917219.156    90868633.091    21917218.938  
  21917210.652  
  22738687.023   121764631.666    22738692.723    94705852.116    22738692.633  
  22738687.109  
  20489749.625   109567903.556    20489754.613    85219527.579    20489754.523  
  20489748.414  
  20424822.234   107333163.565                    83636266.371    20424828.402  
                
  19278302.031   103162110.290    19278307.176    80237256.758    19278306.957  
  19278300.809  
  22457862.773   118016890.277                    91961282.305    22457872.277  
                
 21  8  9  0 35 40.0000000  0 17R 1G 6R18G14R15G 1G21G22G19G24R16R14
                                R 8R24G17R17G 3
  22891921.531   122370313.605    22891929.273    95177039.879    22891927.750  
  22891920.520  
  23315648.766   122524571.183                    95473768.000    23315659.168  
                
  22380039.062   119466177.619    22380045.773    92918167.919    22380045.125  
  22380037.934  
  20884599.750   109749311.831                    85519004.605    20884606.301  
                
  19571050.047   104581738.133    19571055.238    81341417.059    19571054.891  
  19571048.871  
  21759447.820   114346673.945                    89101381.762    21759457.520  
                
  24536241.281   128938855.373                                                  
                
  22794114.070   119783905.281    22794118.262    93338105.5104                 
                
  20783387.688   109217455.183    20783392.223    85104535.6994                 
                
  23219257.523   122018023.943                    95079020.559    23219267.156  
                
  21807723.852   116492949.492    21807728.293    90605652.843    21807727.012  
  21807722.660  
  21925073.938   116872957.695    21925080.797    90901227.405    21925080.582  
  21925072.301  
  22738601.180   121764171.929    22738606.855    94705494.540    22738606.750  
  22738601.359  
  20494874.891   109595310.702    20494879.855    85240844.249    20494879.773  
  20494873.699  
  20424642.008   107332216.429                    83635528.338    20424648.184  
                
  19276548.242   103152725.448    19276553.406    80229957.439    19276553.188  
  19276547.039  
  22454955.469   118001612.319                    91949377.407    22454964.973  
                
 21  8  9  0 35 50.0000000  0 17R 1G 6R18G14R15G 1G21G22G19G24R16R14
                                R 8R24G17R17G 3
  22886653.625   122342153.755    22886661.379    95155137.817    22886659.789  
  22886652.648  
  23308897.938   122489095.395                    95446124.545    23308908.352  
                
  22373413.008   119430807.345    22373419.730    92890657.721    22373419.059  
  22373411.836  
  20888368.695   109769117.709                    85534437.757    20888375.262  
                
  19572671.508   104590402.675    19572676.699    81348156.137    19572676.348  
  19572670.332  
  21765020.125   114375956.527                    89124199.326    21765029.832  
                
  24542333.945   128970869.947                                                  
                
  22794734.016   119787163.188    22794738.215    93340644.1644                 
                
  20779662.070   109197876.919    20779666.617    85089279.9004                 
                
  23218442.891   122013743.013                    95075684.755    23218452.512  
                
  21801542.430   116459929.437    21801546.832    90579970.587    21801545.566  
  21801541.223  
  21932942.188   116914899.877    21932949.012    90933849.090    21932948.797  
  21932940.547  
  22738531.742   121763799.896    22738537.414    94705205.185    22738537.305  
  22738531.895  
  20500007.062   109622754.647    20500011.980    85262189.531    20500011.902  
  20500005.883  
  20424468.820   107331306.341                    83634819.177    20424475.016  
                
  19274805.727   103143400.840    19274810.898    80222704.968    19274810.688  
  19274804.539  
  22452060.125   117986397.154                    91937521.424    22452069.629  
                
 21  8  9  0 36  0.0000000  0 17R 1G 6R18G14R15G 1G21G22G19G24R16R14
                                R 8R24G17R17G 3
  22881396.812   122314053.059    22881404.480    95133281.731    22881402.805  
  22881395.801  
  23302151.609   122453643.248                    95418499.509    23302162.035  
                
  22366792.156   119395464.895    22366798.910    92863169.169    22366798.238  
  22366790.957  
  20892147.531   109788975.614                    85549911.442    20892154.109  
                
  19574309.742   104599156.880    19574314.930    81354964.957    19574314.586  
  19574308.566  
  21770600.164   114405279.852                    89147048.680    21770609.914  
                
  24548427.391   129002892.623                                                  
                
  22795366.312   119790485.772    22795370.453    93343233.1404                 
                
  20775943.953   109178338.096    20775948.539    85074054.8544                 
                
  23217640.969   122009528.916                    95072401.047    23217650.594  
                
  21795371.219   116426963.999    21795375.570    90554330.804    21795374.289  
  21795369.992  
  21940817.031   116956877.178    21940823.836    90966498.091    21940823.602  
  21940815.391  
  22738478.781   121763516.215    22738484.426    94704984.529    22738484.316  
  22738478.918  
  20505146.070   109650235.241    20505150.969    85283563.326    20505150.914  
  20505144.934  
  20424302.695   107330433.350                    83634138.924    20424308.902  
                
  19273074.461   103134136.498    19273079.645    80215499.371    19273079.426  
  19273073.285  
  22449176.742   117971244.888                    91925714.470    22449186.242  
                
 21  8  9  0 36 10.0000000  0 17R 1G 6R18G14R15G 1G21G22G19G24R16R14
                                R 8R24G17R17G 3
  22876151.016   122286011.517    22876158.652    95111471.668    22876156.840  
  22876150.039  
  23295409.789   122418214.723                    95390892.864    23295420.203  
                
  22360176.516   119360150.224    22360183.289    92835702.223    22360182.645  
  22360175.348  
  20895936.266   109808885.489                    85565425.618    20895942.848  
                
  19575964.711   104608000.506    19575969.898    81361843.330    19575969.551  
  19575963.535  
  21776187.945   114434643.776                    89169929.649    21776197.703  
                
  24554522.492   129034923.259                                                  
                
  22796010.836   119793872.889    22796014.953    93345872.5014                 
                
  20772233.328   109158838.607    20772237.953    85058860.4454                 
                
  23216851.766   122005381.568                    95069169.333    23216861.379  
                
  21789210.242   116394053.213    21789214.570    90528733.540    21789213.281  
  21789209.004  
  21948698.414   116998889.335    21948705.184    90999174.203    21948704.965  
  21948696.781  
  22738442.227   121763320.313    22738447.828    94704832.150    22738447.723  
  22738442.414  
  20510291.914   109677752.386    20510296.816    85304965.553    20510296.758  
  20510290.805  
  20424143.617   107329597.340                    83633487.487    20424149.836  
                
  19271354.422   103124932.237    19271359.613    80208340.498    19271359.395  
  19271353.250  
  22446305.320   117956155.508                    91913956.514    22446314.797  
                
 21  8  9  0 36 20.0000000  0 17R 1G 6R18G14R15G 1G21G22G19G24R16R14
                                R 8R24G17R17G 3
  22870916.344   122258029.399    22870924.086    95089707.862    22870922.238  
  22870915.371  
  23288672.461   122382809.935                    95363304.722    23288682.844  
                
  22353566.117   119324863.529    22353572.879    92808257.026    22353572.246  
  22353564.992  
  20899734.883   109828847.313                    85580980.263    20899741.453  
                
  19577636.453   104616933.808    19577641.648    81368791.446    19577641.305  
  19577635.277  
  21781783.422   114464048.240                    89192842.213    21781793.180  
                
  24560619.312   129066961.945                                                  
                
  22796667.672   119797324.611    22796671.727    93348562.1264                 
                
  20768530.211   109139378.633    20768534.887    85043696.8304                 
                
  23216075.266   122001301.049                    95065989.700    23216084.871  
                
  21783059.461   116361196.856    21783063.754    90503178.596    21783062.457  
  21783058.184  
  21956586.328   117040936.320    21956593.078    91031877.400    21956592.855  
  21956584.668  
  22738422.109   121763212.388    22738427.648    94704748.201    22738427.539  
  22738422.371  
  20515444.594   109705306.097    20515449.492    85326396.214    20515449.434  
  20515443.508  
  20423991.578   107328798.404                    83632864.931    20423997.797  
                
  19269645.625   103115788.153    19269650.820    80201228.432    19269650.598  
  19269644.441  
  22443445.891   117941129.145                    91902247.659    22443455.348  
                
 21  8  9  0 36 30.0000000  0 17R 1G 6R18G14R15G 1G21G22G19G24R16R14
                                R 8R24G17R17G 3
  22865692.828   122230106.889    22865700.770    95067990.408    22865698.984  
  22865691.867  
  23281939.695   122347429.043                    95335735.196    23281950.047  
                
  22346960.938   119289604.716    22346967.691    92780833.528    22346967.074  
  22346959.875  
  20903543.398   109848861.097                    85596575.407    20903549.961  
                
  19579324.969   104625956.636    19579330.164    81375809.190    19579329.812  
  19579323.789  
  21787386.625   114493493.213                    89215786.337    21787396.367  
                
  24566717.695   129099008.639                                                  
                
  22797336.836   119800841.039    22797340.840    93351302.2104                 
                
  20764834.633   109119958.218    20764839.355    85028564.0444                 
                
  23215311.500   121997287.403                    95062862.180    23215321.113  
                
  21776919.023   116328395.724    21776923.301    90477666.609    21776922.012  
  21776917.738  
  21964480.773   117083018.097    21964487.520    91064607.661    21964487.301  
  21964479.082  
  22738418.469   121763192.671    22738423.938    94704732.842    22738423.832  
  22738418.699  
  20520604.094   109732896.236    20520609.004    85347855.212    20520608.957  
  20520603.023  
  20423846.617   107328036.573                    83632271.300    20423852.844  
                
  19267948.094   103106704.283    19267953.270    80194163.196    19267953.051  
  19267946.895  
  22440598.484   117926165.952                    91890588.027    22440607.910  
                
 21  8  9  0 36 40.0000000  0 17R 1G 6R18G14R15G 1G21G22G19G24R16R14
                                R 8R24G17R17G 3
  22860480.469   122202243.972    22860488.535    95046319.280    22860486.777  
  22860479.473  
  23275211.469   122312071.989                    95308184.253    23275221.809  
                
  22340361.008   119254373.866    22340367.699    92753431.765    22340367.109  
  22340359.973  
  20907361.758   109868926.687                    85612210.927    20907368.324  
                
  19581030.227   104635068.987    19581035.426    81382896.569    19581035.074  
  19581029.035  
  21792997.508   114522978.486                    89238761.844    21793007.234  
                
  24572817.680   129131063.181                                                  
                
  22798018.266   119804422.021    22798022.223    93354092.6044                 
                
  20761146.547   109100577.224    20761151.305    85013461.9744                 
                
  23214560.445   121993340.561                    95059786.723    23214570.055  
                
  21770788.875   116295649.603    21770793.129    90452197.403    21770791.859  
  21770787.551  
  21972381.672   117125134.273    21972388.414    91097364.669    21972388.180  
  21972379.980  
  22738431.211   121763260.797    22738436.621    94704785.819    22738436.520  
  22738431.391  
  20525770.422   109760522.877    20525775.332    85369342.589    20525775.297  
  20525769.359  
  20423708.688   107327311.736                    83631706.488    20423714.910  
                
  19266261.805   103097680.576    19266266.973    80187144.759    19266266.750  
  19266260.590  
  22437763.094   117911265.895                    91878977.609    22437772.512  
                
 21  8  9  0 36 50.0000000  0 17R 1G 6R18G14R15G 1G21G22G19G24R16R14
                                R 8R24G17R17G 3
  22855279.312   122174441.101    22855287.461    95024694.873    22855285.766  
  22855278.305  
  23268487.781   122276738.909                    95280652.021    23268498.141  
                
  22333766.367   119219171.211    22333772.969    92726051.918    22333772.371  
  22333765.355  
  20911189.984   109889044.126                    85627886.841    20911196.547  
                
  19582752.234   104644270.891    19582757.445    81390053.605    19582757.098  
  19582751.043  
  21798616.047   114552504.016                    89261768.737    21798625.754  
                
  24578918.547   129163125.591                                                  
                
  22798711.969   119808067.543    22798715.883    93356933.2804                 
                
  20757466.000   109081235.838    20757470.789    84998390.7704                 
                
  23213822.109   121989460.573                    95056763.352    23213831.723  
                
  21764669.016   116262958.508    21764673.281    90426771.021    21764671.996  
  21764667.656  
  21980289.039   117167284.921    21980295.793    91130148.487    21980295.566  
  21980287.352  
  22738460.414   121763417.022    22738465.754    94704907.314    22738465.691  
  22738460.551  
  20530943.516   109788185.718    20530948.434    85390858.128    20530948.383  
  20530942.473  
  20423577.805   107326623.945                    83631170.547    20423584.031  
                
  19264586.742   103088717.012    19264591.914    80180173.105    19264591.688  
  19264585.520  
  22434939.734   117896429.083                    91867416.467    22434949.137  
                
 21  8  9  0 37  0.0000000  0 17R 1G 6R18G14R15G 1G21G22G19G24R16R14
                                R 8R24G17R17G 3
  22850089.352   122146698.129    22850097.645    95003117.113    22850095.969  
  22850088.250  
  23261768.695   122241429.892                    95253138.512    23261779.043  
                
  22327176.984   119183996.624    22327183.504    92698693.904    22327182.887  
  22327175.980  
  20915028.078   109909213.371                    85643603.120    20915034.637  
                
  19584490.984   104653562.187    19584496.203    81397280.161    19584495.848  
  19584489.785  
  21804242.219   114582069.716                    89284806.935    21804251.910  
                
  24585021.703   129195195.956                                                  
                
  22799417.961   119811777.680    22799421.855    93359824.3264                 
                
  20753792.992   109061934.069    20753797.797    84983350.4334                 
                
  23213096.500   121985647.485                    95053792.116    23213106.117  
                
  21758559.555   116230322.922    21758563.820    90401387.805    21758562.516  
  21758558.184  
  21988202.844   117209469.895    21988209.605    91162959.014    21988209.371  
  21988201.180  
  22738506.070   121763661.391    22738511.375    94705097.382    22738511.293  
  22738506.195  
  20536123.352   109815884.557    20536128.281    85412401.655    20536128.223  
  20536122.324  
  20423453.969   107325973.209                    83630663.483    20423460.191  
                
  19262922.930   103079813.630    19262928.090    80173248.250    19262927.871  
  19262921.695  
  22432128.438   117881655.634                    91855904.693    22432137.836  
                
 21  8  9  0 37 10.0000000  0 17R 1G 6R18G14R15G 1G21G22G19G24R16R14
                                R 8R24G17R17G 3
  22844910.664   122119015.365    22844919.105    94981586.140    22844917.441  
  22844909.488  
  23255054.172   122206144.877                    95225643.691    23255064.488  
                
  22320592.859   119148850.167    22320599.352    92671357.781    22320598.719  
  22320591.852  
  20918875.992   109929434.238                    85659359.626    20918882.551  
                
  19586246.453   104662942.883    19586251.688    81404576.255    19586251.336  
  19586245.254  
  21809875.984   114611675.324                    89307876.236    21809885.691  
                
  24591125.742   129227273.872                                                  
                
  22800136.242   119815552.201    22800140.047    93362765.4974                 
                
  20750127.508   109042671.821    20750132.305    84968340.8904                 
                
  23212383.578   121981901.092                    95050872.859    23212393.188  
                
  21752460.461   116197742.703    21752464.715    90376047.637    21752463.410  
  21752459.066  
  21996123.031   117251688.942    21996129.809    91195796.044    21996129.574  
  21996121.406  
  22738568.156   121763993.653    22738573.387    94705355.783    22738573.297  
  22738568.199  
  20541309.922   109843619.497    20541314.883    85433973.285    20541314.809  
  20541308.910  
  20423337.156   107325359.349                    83630185.147    20423343.363  
                
  19261270.344   103070970.309    19261275.496    80166370.113    19261275.281  
  19261269.098  
  22429329.172   117866945.451                    91844442.227    22429338.566  
                
 21  8  9  0 37 20.0000000  0 17R 1G 6R18G14R15G 1G21G22G19G24R16R14
                                R 8R24G17R17G 3
  22839743.305   122091392.977                    94960103.047    22839750.070  
  22839742.035  
  23248344.250   122170884.053                    95198167.732    23248354.566  
                
  22314014.000   119113731.777    22314020.488    92644043.483    22314019.828  
  22314013.012  
  20922733.750   109949706.833                    85675156.433    20922740.309  
                
  19588018.648   104672412.934    19588023.891    81411941.845    19588023.539  
  19588017.453  
  21815517.344   114641320.898                    89330976.680    21815527.047  
                
  24597231.430   129259359.582                                                  
                
  22800866.820   119819391.379    22800870.520    93365757.0694                 
                
  20746469.586   109023449.328    20746474.352    84953362.3274                 
                
  23211683.383   121978221.610                    95048005.738    23211692.992  
                
  21746371.797   116165218.131    21746376.031    90350750.735    21746374.711  
  21746370.406  
  22004049.594   117293941.931    22004056.375    91228659.462    22004056.133  
  22004048.008  
  22738646.680   121764414.052    22738651.852    94705682.754    22738651.766  
  22738646.527  
  20546503.195   109871390.265    20546508.176    85455572.760    20546508.094  
  20546502.184  
  20423227.391   107324782.544                    83629735.692    20423233.598  
                
  19259629.000   103062187.183    19259634.145    80159538.802    19259633.926  
  19259627.750  
  22426541.992   117852298.770                    91833029.241    22426551.383  
                
 21  8  9  0 37 30.0000000  0 17R 1G 6R18G14R15G 1G21G22G19G24R16R14
                                R 8R24G17R17G 3
  22834587.219   122063830.993    22834596.355    94938669.027    22834594.074  
  22834585.777  
  23241638.953   122135647.486                    95170710.666    23241649.266  
                
  22307440.430   119078641.740    22307446.941    92616751.268    22307446.273  
  22307439.484  
  20926601.344   109970031.096                    85690993.510    20926607.895  
                
  19589807.555   104681972.318    19589812.801    81419376.923    19589812.449  
  19589806.371  
  21821166.312   114671006.322                    89354108.145    21821175.984  
                
  24603338.359   129291452.847                                                  
                
  22801609.648   119823295.116    22801613.297    93368798.9564                 
                
  20742819.219   109004266.603    20742823.945    84938414.7604                 
                
  23210995.938   121974608.998                    95045190.704    23211005.512  
                
  21740293.578   116132749.414    21740297.809    90325497.299    21740296.492  
  21740292.184  
  22011982.547   117336228.893    22011989.328    91261549.296    22011989.078  
  22011980.984  
  22738741.680   121764922.613    22738746.777    94706078.276    22738746.719  
  22738741.348  
  20551703.203   109899197.000    20551708.195    85477200.216    20551708.113  
  20551702.180  
  20423124.688   107324242.823                    83629315.129    20423130.883  
                
  19257998.898   103053464.140    19258004.031    80152754.207    19258003.805  
  19257997.637  
  22423766.914   117837715.638                    91821665.772    22423776.312  
                
 21  8  9  0 37 40.0000000  0 17R 1G 6R18G14R15G 1G21G22G19G24R16R14
                                R 8R24G17R17G 3
  22829442.477   122036329.578                    94917276.044    22829449.344  
  22829439.234  
  23234938.281   122100435.253                    95143272.584    23234948.617  
                
  22300872.156   119043580.007    22300878.680    92589481.063    22300878.012  
  22300871.242  
  20930478.742   109990406.968                    85706870.805    20930485.301  
                
  19591613.203   104691621.143    19591618.453    81426881.559    19591618.117  
  19591612.035  
  21826822.844   114700731.512                    89377270.605    21826832.500  
                
  24609447.258   129323553.777                                                  
                
  22802364.875   119827263.463    22802368.379    93371891.0984                 
                
  20739176.453   108985123.683    20739181.125    84923498.2064                 
                
  23210321.211   121971063.302                    95042427.831    23210330.766  
                
  21734225.867   116100336.845    21734230.102    90300287.538    21734228.781  
  21734224.488  
  22019921.797   117378549.518    22019928.602    91294465.326    22019928.363  
  22019920.305  
  22738853.102   121765519.168    22738858.125    94706542.256    22738858.113  
  22738852.707  
  20556909.898   109927039.470    20556914.887    85498855.456    20556914.785  
  20556908.867  
  20423029.023   107323740.103                    83628923.398    20423035.219  
                
  19256380.031   103044801.279    19256385.160    80146016.430    19256384.934  
  19256378.770  
  22421003.930   117823196.118                    91810351.861    22421013.316  
                
 21  8  9  0 37 50.0000000  0 17R 1G 6R18G14R15G 1G21G22G19G24R16R14
                                R 8R24G17R17G 3
  22824309.180   122008889.064                    94895933.409    22824315.992  
  22824309.422  
  23228242.258   122065247.444                    95115853.526    23228252.621  
                
  22294309.227   119008546.678    22294315.727    92562232.934    22294315.047  
  22294308.320  
  20934365.977   110010834.497                    85722788.357    20934372.547  
                
  19593435.570   104701359.318    19593440.828    81434455.697    19593440.492  
  19593434.430  
  21832486.922   114730496.383                    89400464.009    21832496.582  
                
  24615557.125   129355662.171                                                  
                
  22803132.211   119831296.276    22803135.715    93375033.6264                 
                
  20735541.250   108966020.637    20735545.883    84908612.7234                 
                
  23209659.219   121967584.515                    95039717.098    23209668.781  
                
  21728168.602   116067980.045    21728172.836    90275121.144    21728171.535  
  21728167.230  
  22027867.383   117420903.843    22027874.184    91327407.547    22027873.961  
  22027865.930  
  22738981.016   121766203.962    22738985.953    94707074.849    22738985.941  
  22738980.641  
  20562123.289   109954917.777    20562128.281    85520538.580    20562128.172  
  20562122.293  
  20422940.414   107323274.449                    83628560.555    20422946.605  
                
  19254772.406   103036198.545    19254777.531    80139325.417    19254777.312  
  19254771.145  
  22418253.078   117808740.321                    91799087.616    22418262.492  
                
 21  8  9  0 38  0.0000000  0 17R 1G 6R18G14R15G 1G21G22G19G24R16R14
                                R 8R24G17R17G 3
  22819187.242   121981509.451                    94874638.164    22819193.953  
  22819187.574  
  23221550.875   122030084.077                    95088453.514    23221561.254  
                
  22287751.609   118973541.747    22287758.102    92535006.897    22287757.410  
  22287750.699  
  20938263.016   110031313.524                    85738746.029    20938269.582  
                
  19595274.641   104711186.684    19595279.887    81442099.193    19595279.555  
  19595273.504  
  21838158.508   114760300.740                    89423688.181    21838168.160  
                
  24621668.453   129387777.992    24621675.438   100821643.8844                 
                
  22803911.930   119835393.647    22803915.289    93378226.3654                 
                
  20731913.625   108946957.380    20731918.254    84893758.2484                 
                
  23209009.945   121964172.597                    95037058.463    23209019.539  
                
  21722121.867   116035679.577    21722126.125    90249998.570    21722124.844  
  21722120.480  
  22035819.258   117463291.704    22035826.055    91360375.866    22035825.809  
  22035817.828  
  22739125.352   121766976.702    22739130.199    94707675.840    22739130.207  
  22739124.973  
  20567343.328   109982831.646    20567348.312    85542249.361    20567348.203  
  20567342.355  
  20422858.852   107322845.853                    83628226.581    20422865.035  
                
  19253176.016   103027655.947    19253181.141    80132681.174    19253180.914  
  19253174.754  
  22415514.352   117794348.269                    91787873.054    22415523.809  
                
 21  8  9  0 38 10.0000000  0 17R 1G 6R18G14R15G 1G21G22G19G24R16R14
                                R 8R24G17R17G 3
  22814076.742   121954190.870                    94853390.354    22814083.301  
  22814077.395  
  23214864.172   121994945.237                    95061072.592    23214874.543  
                
  22281199.352   118938565.464    22281205.840    92507803.145    22281205.137  
  22281198.414  
  20942169.852   110051844.048                    85754743.828    20942176.422  
                
  19597130.414   104721103.418    19597135.672    81449812.210    19597135.340  
  19597129.297  
  21843837.602   114790144.535                    89446943.073    21843847.234  
                
  24627781.273   129419901.167    24627788.309   100846674.8504                 
                
  22804703.922   119839555.444    22804707.121    93381469.3014                 
                
  20728293.594   108927933.986    20728298.215    84878934.8254                 
                
  23208373.398   121960827.567                    95034451.950    23208383.016  
                
  21716085.703   116003435.556    21716089.984    90224919.909    21716088.703  
  21716084.293  
  22043777.367   117505712.851    22043784.168    91393370.065    22043783.918  
  22043775.953  
  22739286.109   121767837.620    22739290.930    94708345.466    22739290.965  
  22739285.672  
  20572569.984   110010780.971    20572574.984    85563987.731    20572574.863  
  20572569.012  
  20422784.344   107322454.297                    83627921.468    20422790.523  
                
  19251590.859   103019173.443    19251595.977    80126083.665    19251595.746  
  19251589.582  
  22412787.773   117780020.036                    91776708.203    22412797.234  
                
 21  8  9  0 38 20.0000000  0 16G 6R18G14R15G 1G21G22G19G24R16R14R 8
                                R24G17R17G 3
  23208182.141   121959830.973                    95033710.849    23208192.527  
                
  22274652.438   118903617.644    22274658.926    92480621.527    22274658.203  
  22274651.484  
  20946086.461   110072425.978                    85770781.692    20946093.051  
                
  19599002.891   104731109.367    19599008.145    81457594.610    19599007.816  
  19599001.777  
  21849524.180   114820027.665                    89470228.619    21849533.809  
                
  24633895.242   129452031.563    24633902.453   100871711.5014                 
                
  22805508.125   119843781.730    22805511.199    93384762.5714                 
                
  20724681.141   108908950.465    20724685.762    84864142.4774                 
                
  23207749.602   121957549.439                    95031897.562    23207759.199  
                
  21710060.062   115971247.704    21710064.340    90199884.914    21710063.051  
  21710058.652  
  22051741.703   117548167.169    22051748.500    91426390.075    22051748.250  
  22051740.289  
  22739463.320   121768786.572    22739468.105    94709083.542    22739468.160  
  22739462.727  
  20577803.273   110038765.734    20577808.281    85585753.655    20577808.164  
  20577802.281  
  20422716.867   107322099.736                    83627645.191    20422723.059  
                
  19250016.945   103010751.156    19250022.062    80119532.999    19250021.832  
  19250015.672  
  22410073.352   117765755.705                    91765593.155    22410082.824  
                
 21  8  9  0 38 30.0000000  0 16G 6R18G14R15G 1G21G22G19G24R16R14R 8
                                R24G17R17G 3
  23201504.812   121924741.451                    95006368.382    23201515.203  
                
  22268110.859   118868698.387    22268117.375    92453462.125    22268116.641  
  22268109.891  
  20950012.875   110093059.375                    85786859.660    20950019.473  
                
  19600892.078   104741204.539    19600897.324    81465446.404    19600896.984  
  19600890.961  
  21855218.242   114849950.086                    89493544.777    21855227.863  
                
  24640010.930   129484169.321    24640017.934   100896753.9614                 
                
  22806324.680   119848072.593    22806327.574    93388106.0504                 
                
  20721076.320   108890006.988    20721080.969    84849381.3314                 
                
  23207138.555   121954338.293                    95029395.342    23207148.141  
                
  21704045.141   115939117.026    21704049.406    90174894.385    21704048.113  
  21704043.754  
  22059712.289   117590654.702    22059719.066    91459435.888    22059718.824  
  22059710.844  
  22739657.000   121769823.665    22739661.746    94709890.171    22739661.805  
  22739656.438  
  20583043.227   110066786.043    20583048.238    85607547.218    20583048.121  
  20583042.195  
  20422656.469   107321782.256                    83627397.795    20422662.648  
                
  19248454.266   103002388.898    19248459.379    80113029.019    19248459.148  
  19248452.984  
  22407371.117   117751555.390                    91754527.989    22407380.586  
                
 21  8  9  0 38 40.0000000  0 16G 6R18G14R15G 1G21G22G19G24R16R14R 8
                                R24G17R17G 3
  23194832.195   121889676.617                    94979045.148    23194842.602  
                
  22261574.641   118833807.659    22261581.180    92426324.909    22261580.449  
  22261573.684  
  20953949.047   110113744.070                    85802977.594    20953955.660  
                
  19602797.930   104751388.787    19602803.176    81473367.481    19602802.832  
  19602796.816  
  21860919.734   114879911.593                    89516891.382    21860929.352  
                
  24646127.766   129516314.194    24646134.750   100921801.9174                 
                
  22807153.547   119852427.887    22807156.219    93391499.7924                 
                
  20717479.102   108871103.451    20717483.781    84834651.2984                 
                
  23206540.211   121951193.990                    95026945.233    23206549.801  
                
  21698040.797   115907042.944    21698045.062    90149947.886    21698043.770  
  21698039.465  
  22067689.031   117633175.154    22067695.816    91492507.333    22067695.574  
  22067687.562  
  22739867.133   121770948.703    22739871.848    94710765.178    22739871.906  
  22739866.688  
  20588289.734   110094841.444    20588294.754    85629368.078    20588294.641  
  20588288.691  
  20422603.078   107321501.721                    83627179.198    20422609.266  
                
  19246902.789   102994086.653    19246907.902    80106571.720    19246907.664  
  19246901.508  
  22404681.055   117737419.064                    91743512.667    22404690.520  
                
 21  8  9  0 38 50.0000000  0 16G 6R18G14R15G 1G21G22G19G24R16R14R 8
                                R24G17R17G 3
  23188164.297   121854636.632                    94951741.272    23188174.715  
                
  22255043.812   118798945.766    22255050.383    92399210.130    22255049.652  
  22255042.891  
  20957894.992   110134480.099                    85819135.532    20957901.617  
                
  19604720.461   104761662.217    19604725.699    81481357.920    19604725.355  
  19604719.355  
  21866628.641   114909912.118                    89540268.436    21866638.262  
                
  24652246.180   129548466.287    24652251.730   100946855.5384                 
                
  22807994.539   119856847.619    22807995.840    93394943.7124                 
                
  20713889.492   108852239.978    20713894.215    84819952.4914                 
                
  23205954.602   121948116.635                    95024547.307    23205964.199  
                
  21692047.086   115875025.628    21692051.348    90125045.532    21692050.043  
  21692045.824  
  22075671.945   117675728.416    22075678.719    91525604.283    22075678.480  
  22075670.461  
  22740093.648   121772161.853    22740098.449    94711708.789    22740098.484  
  22740093.312  
  20593542.828   110122932.072    20593547.840    85651216.332    20593547.742  
  20593541.762  
  20422556.750   107321258.272                    83626989.497    20422562.941  
                
  19245362.562   102985844.568    19245367.668    80100161.205    19245367.430  
  19245361.273  
  22402003.203   117723346.883                    91732547.345    22402012.668  
                
 21  8  9  0 39  0.0000000  0 16G 6R18G14R15G 1G21G22G19G24R16R14R 8
                                R24G17R17G 3
  23181501.133   121819621.498                    94924456.751    23181511.559  
                
  22248518.391   118764112.687    22248524.984    92372117.758    22248524.250  
  22248517.473  
  20961850.680   110155267.359                    85835333.389    20961857.324  
                
  19606659.695   104772024.833    19606664.910    81489417.724    19606664.578  
  19606658.594  
  21872344.984   114939951.635                    89563675.818    21872354.586  
                
  24658365.883   129580625.389                                                  
                
  22808847.766   119861331.840    22808849.188    93398437.9974                 
                
  20710307.531   108833416.645    20710312.281    84805284.9564                 
                
  23205381.727   121945106.189                    95022201.511    23205391.332  
                
  21686064.125   115843065.694    21686068.344    90100187.801    21686067.047  
  21686062.914  
  22083660.992   117718314.406    22083667.781    91558726.685    22083667.531  
  22083659.469  
  22740336.703   121773463.432    22740341.547    94712721.131    22740341.559  
  22740336.219  
  20598802.516   110151057.898    20598807.516    85673091.958    20598807.422  
  20598801.379  
  20422517.477   107321051.839                    83626828.632    20422523.668  
                
  19243833.555   102977662.545    19243838.641    80093797.409    19243838.410  
  19243832.285  
  22399337.547   117709338.849                    91721632.008    22399347.008  
                
 21  8  9  0 39 10.0000000  0 16G 6R18G14R15G 1G21G22G19G24R16R14R 8
                                R24G17R17G 3
  23174842.719   121784631.348                    94897191.716    23174853.156  
                
  22241998.328   118729308.244    22242004.922    92345047.653    22242004.207  
  22241997.379  
  20965816.125   110176105.885                    85851571.193    20965822.781  
                
  19608615.562   104782476.377    19608620.762    81497546.686    19608620.430  
  19608614.473  
  21878068.703   114970029.950                    89587113.473    21878078.320  
                
  24664486.992   129612791.575                                                  
                
  22809713.453   119865880.560                                                  
                
  20706733.211   108814633.466    20706738.000    84790648.7184                 
                
  23204821.609   121942162.720                    95019907.894    23204831.215  
                
  21680091.820   115811162.809    21680096.023    90075374.461    21680094.719  
  21680090.629  
  22091656.141   117760932.953    22091662.961    91591874.421    22091662.719  
  22091654.586  
  22740596.203   121774852.983    22740601.047    94713801.903    22740601.047  
  22740595.480  
  20604068.742   110179218.725    20604073.730    85694994.808    20604073.648  
  20604067.543  
  20422485.242   107320882.505                    83626696.686    20422491.441  
                
  19242315.789   102969540.645    19242320.852    80087480.374    19242320.621  
  19242314.562  
  22396684.148   117695395.125                    91710766.767    22396693.602  
                
 21  8  9  0 39 20.0000000  0 16G 6R18G14R15G 1G21G22G19G24R16R14R 8
                                R24G17R17G 3
  23168189.047   121749666.127                    94869946.099    23168199.477  
                
  22235483.664   118694532.558    22235490.230    92317999.908    22235489.539  
  22235482.652  
  20969791.297   110196995.480                    85867848.792    20969797.953  
                
  19610588.086   104793016.880    19610593.277    81505744.849    19610592.938  
  19610587.012  
  21883799.766   115000146.929                    89610581.257    21883809.391  
                
  24670609.227   129644964.586    24670616.816   101022051.9394                 
                
  22810591.273   119870493.563                                                  
                
  20703166.508   108795890.348    20703171.328    84776043.6994                 
                
  23204274.203   121939286.071                    95017666.347    23204283.801  
                
  21674130.281   115779317.315    21674134.484    90050605.743    21674133.191  
  21674129.090  
  22099657.344   117803583.764    22099664.195    91625047.251    22099663.957  
  22099655.801  
  22740872.164   121776330.691    22740876.984    94714951.206    22740877.000  
  22740871.379  
  20609341.469   110207414.332    20609346.461    85716924.708    20609346.367  
  20609340.250  
  20422460.047   107320750.090                    83626593.509    20422466.254  
                
  19240809.219   102961478.721    19240814.262    80081209.991    19240814.031  
  19240808.043  
  22394042.961   117681515.613                    91699951.576    22394052.418  
                
 21  8  9  0 39 30.0000000  0 16G 6R18G14R15G 1G21G22G19G24R16R14R 8
                                R24G17R17G 3
  23161540.148   121714725.996                    94842720.034    23161550.586  
                
  22228974.414   118659785.763    22228980.945    92290974.626    22228980.273  
  22228973.320  
  20973776.195   110217936.236                    85884166.247    20973782.852  
                
  19612577.266   104803646.435    19612582.438    81514012.275    19612582.090  
  19612576.207  
  21889538.188   115030302.537                    89634079.128    21889547.816  
                
  24676732.898   129677144.527    24676740.250   101047127.1934                 
                
  22811481.367   119875170.960                                                  
                
  20699607.438   108777187.268    20699612.262    84761469.8714                 
                
  23203739.539   121936476.372                    95015476.958    23203749.152  
                
  21668179.516   115747529.390    21668183.766    90025881.802    21668182.496  
  21668178.352  
  22107664.594   117846266.913    22107671.473    91658245.247    22107671.230  
  22107663.066  
  22741164.539   121777896.336    22741169.371    94716168.950    22741169.410  
  22741163.891  
  20614620.727   110235644.810    20614625.727    85738881.732    20614625.629  
  20614619.504  
  20422441.891   107320654.677                    83626519.163    20422448.105  
                
  19239313.883   102953476.842    19239318.906    80074986.309    19239318.684  
  19239312.746  
  22391414.031   117667700.503                    91689186.551    22391423.477  
                
 21  8  9  0 39 40.0000000  0 16G 6R18G14R15G 1G21G22G19G24R16R14R 8
                                R24G17R17G 3
  23154896.031   121679811.046                    94815513.619    23154906.508  
                
  22222470.625   118625068.035    22222477.121    92263971.937    22222476.461  
  22222469.492  
  20977770.836   110238928.102                    85900523.529    20977777.484  
                
  19614583.078   104814364.944    19614588.250    81522348.900    19614587.898  
  19614582.043  
  21895283.969   115060496.721                    89657607.047    21895293.586  
                
  24682857.852   129709331.312    24682865.051   101072207.8244                 
                
  22812383.719   119879912.844                                                  
                
  20696056.023   108758524.506    20696060.844    84746927.4654                 
                
  23203217.609   121933733.604                    95013339.734    23203227.254  
                
  21662239.484   115715798.935    21662243.824    90001202.577    21662242.543  
  21662238.359  
  22115677.875   117888982.122    22115684.770    91691468.167    22115684.535  
  22115676.344  
  22741473.375   121779550.167    22741478.250    94717455.284    22741478.273  
  22741472.852  
  20619906.430   110263909.901    20619911.461    85760865.697    20619911.359  
  20619905.215  
  20422430.781   107320596.288                    83626473.665    20422437.016  
                
  19237829.727   102945534.910    19237834.758    80068809.266    19237834.539  
  19237828.617  
  22388797.352   117653949.849                    91678471.778    22388806.797  
                
 21  8  9  0 39 50.0000000  0 17R 1G 6R18G14R15G 1G21G22G19G24R16R14
                                R 8R24G17R17G 3
  22763609.922   121684373.801    22763614.414    94643549.700    22763610.684  
                
  23148256.719   121644921.285                    94788326.815    23148267.219  
                
  22215972.219   118590379.236    22215978.750    92236991.790    22215978.090  
  22215971.086  
  20981775.164   110259970.940                    85916920.535    20981781.816  
                
  19616605.562   104825172.430    19616610.711    81530754.713    19616610.363  
  19616604.520  
  21901037.047   115090729.265                    89681164.855    21901046.648  
                
  24688984.148   129741524.831    24688991.203   101097293.6514                 
                
  22813298.312   119884719.003                                                  
                
  20692512.297   108739902.062    20692517.066    84732416.4634                 
                
  23202708.406   121931057.734                    95011254.648    23202718.078  
                
  21656310.305   115684126.388    21656314.730    89976568.394    21656313.441  
  21656309.188  
  22123697.148   117931729.344    22123704.070    91724715.999    22123703.848  
  22123695.621  
  22741798.664   121781292.203    22741803.594    94718810.215    22741803.625  
  22741798.113  
  20625198.656   110292209.697    20625203.672    85782876.627    20625203.582  
  20625197.414  
  20422426.703   107320574.874                    83626456.979    20422432.953  
                
  19236356.812   102937653.018    19236361.844    80062678.908    19236361.625  
  19236355.684  
  22386192.953   117640263.680                    91667807.237    22386202.395  
                
 21  8  9  0 40  0.0000000  0 17R 1G 6R18G14R15G 1G21G22G19G24R16R14
                                R 8R24G17R17G 3
  22758624.633   121657736.707    22758630.980    94622831.937    22758627.492  
                
  23141622.203   121610056.768                    94761159.671    23141632.703  
                
  22209479.250   118555719.407    22209485.801    92210034.156    22209485.141  
  22209478.113  
  20985789.180   110281064.726                    85933357.237    20985795.828  
                
  19618644.648   104836068.676    19618649.781    81539229.568    19618649.438  
  19618643.598  
  21906797.406   115121000.075                    89704752.479    21906807.004  
                
  24695111.633   129773724.947    24695118.637   101122384.6074                 
                
  22814225.141   119889589.509                                                  
                
  20688976.195   108721319.825    20688980.934    84717936.8124                 
                
  23202211.930   121928448.740                    95009221.669    23202221.625  
                
  21650391.945   115652511.665    21650396.438    89951979.189    21650395.148  
  21650390.859  
  22131722.398   117974508.336    22131729.320    91757988.522    22131729.098  
  22131720.844  
  22742140.453   121783122.358    22742145.402    94720233.644    22742145.438  
  22742139.785  
  20630497.328   110320544.021    20630502.324    85804914.427    20630502.238  
  20630496.082  
  20422429.664   107320590.442                    83626469.111    20422435.918  
                
  19234895.102   102929831.133    19234900.141    80056595.221    19234899.914  
  19234893.926  
  22383600.844   117626642.051                    91657192.984    22383610.289  
                
 21  8  9  0 40 10.0000000  0 17R 1G 6R18G14R15G 1G21G22G19G24R16R14
                                R 8R24G17R17G 3
  22753652.781   121631162.431                    94602146.029    22753656.355  
                
  23134992.516   121575217.587                    94734012.268    23135003.012  
                
  22202991.742   118521088.681    22202998.305    92183099.155    22202997.633  
  22202990.578  
  20989812.906   110302209.448                    85949833.631    20989819.547  
                
  19620700.375   104847053.879    19620705.516    81547773.619    19620705.168  
  19620699.301  
  21912565.008   115151309.065                    89728369.879    21912574.594  
                
  24701240.391   129805931.792    24701247.387   101147480.8554                 
                
  22815164.188   119894524.217                                                  
                
  20685447.797   108702777.966    20685452.496    84703488.6094                 
                
  23201728.203   121925906.686                    95007240.838    23201737.906  
                
  21644484.477   115620955.051    21644488.969    89927435.161    21644487.707  
  21644483.395  
  22139753.602   118017319.110    22139760.535    91791285.782    22139760.289  
  22139752.059  
  22742498.672   121785040.524    22742503.621    94721725.534    22742503.656  
  22742497.980  
  20635802.445   110348912.752    20635807.414    85826978.969    20635807.332  
  20635801.207  
  20422439.672   107320643.009                    83626510.071    20422445.938  
                
  19233444.594   102922069.191    19233449.645    80050558.151    19233449.418  
  19233443.371  
  22381021.023   117613085.036                    91646629.084    22381030.469  
                
 21  8  9  0 40 20.0000000  0 17R 1G 6R18G14R15G 1G21G22G19G24R16R14
                                R 8R24G17R17G 3
  22748693.305   121604651.135    22748698.332    94581533.163    22748696.691  
                
  23128367.664   121540403.843                    94706884.704    23128378.180  
                
  22196509.680   118486487.066    22196516.266    92156186.812    22196515.590  
  22196508.516  
  20993846.305   110323405.074                    85966349.690    20993852.941  
                
  19622772.727   104858127.840    19622777.871    81556386.694    19622777.523  
  19622771.609  
  21918339.883   115181656.190                    89752016.972    21918349.449  
                
  24707370.492   129838145.286    24707376.742   101172582.0274                 
                
  22816115.508   119899523.473                                                  
                
  20681927.078   108684276.449    20681931.754    84689071.8494                 
                
  23201257.203   121923431.529                    95005312.135    23201266.922  
                
  21638587.914   115589456.641    21638592.359    89902936.393    21638591.078  
  21638586.820  
  22147790.734   118060161.471    22147797.676    91824607.608    22147797.430  
  22147789.195  
  22742873.359   121787046.943    22742878.328    94723286.083    22742878.344  
  22742872.719  
  20641113.969   110377315.815    20641118.941    85849070.231    20641118.844  
  20641112.758  
  20422456.703   107320732.557                    83626579.853    20422462.973  
                
  19232005.328   102914367.337    19232010.383    80044567.815    19232010.145  
  19232004.078  
  22378453.516   117599592.752                    91636115.639    22378462.977  
                
 21  8  9  0 40 30.0000000  0 17R 1G 6R18G14R15G 1G21G22G19G24R16R14
                                R 8R24G17R17G 3
  22743745.703   121578202.963    22743750.727    94560962.355    22743749.027  
  22743743.543  
  23121747.656   121505615.597                    94679776.999    23121758.156  
                
  22190033.109   118451914.752    22190039.719    92129297.254    22190039.039  
  22190031.953  
  20997889.383   110344651.547                    85982905.370    20997896.016  
                
  19624861.656   104869290.479    19624866.824    81565068.751    19624866.480  
  19624860.496  
  21924121.984   115212041.348                    89775693.718    21924131.547  
                
  24713501.148   129870365.238    24713507.648   101197688.6534                 
                
  22817079.055   119904586.904                                                  
                
  20678414.039   108665815.298    20678418.695    84674686.5354                 
                
  23200798.930   121921023.342                    95003435.632    23200808.668  
                
  21632702.219   115558016.364    21632706.648    89878482.851    21632705.375  
  21632701.125  
  22155833.742   118103035.213    22155840.707    91857953.840    22155840.465  
  22155832.227  
  22743264.484   121789141.400    22743269.469    94724915.105    22743269.492  
  22743263.832  
  20646431.898   110405753.177    20646436.887    85871188.179    20646436.777  
  20646430.738  
  20422480.797   107320859.134                    83626678.482    20422487.059  
                
  19230577.250   102906725.385    19230582.301    80038624.064    19230582.074  
  19230575.977  
  22375898.344   117586165.264                    91625652.673    22375907.809  
                
 21  8  9  0 40 40.0000000  0 17R 1G 6R18G14R15G 1G21G22G19G24R16R14
                                R 8R24G17R17G 3
  22738809.641   121551817.925    22738815.254    94540440.676    22738813.301  
  22738808.062  
  23115132.516   121470852.873                    94652689.177    23115143.004  
                
  22183561.984   118417371.529    22183568.617    92102430.324    22183567.922  
  22183560.848  
  21001942.133   110365948.762                    85999500.571    21001948.738  
                
  19626967.219   104880541.940    19626972.402    81573819.881    19626972.055  
  19626965.984  
  21929911.281   115242464.332                    89799399.973    21929920.816  
                
  24719633.938   129902591.547    24719639.746   101222800.0924                 
                
  22818054.828   119909714.604                                                  
                
  20674908.688   108647394.552    20674913.340    84660332.7114                 
                
  23200353.391   121918682.014                    95001611.238    23200363.141  
                
  21626827.508   115526634.707    21626831.926    89854074.890    21626830.672  
  21626826.402  
  22163882.617   118145940.280    22163889.598    91891324.450    22163889.371  
  22163881.152  
  22743672.070   121791323.993    22743677.078    94726612.671    22743677.125  
  22743671.367  
  20651756.227   110434224.734    20651761.219    85893332.714    20651761.098  
  20651755.113  
  20422511.898   107321022.617                    83626805.871    20422518.164  
                
  19229160.383   102899143.402    19229165.434    80032726.965    19229165.215  
  19229159.105  
  22373355.500   117572802.576                    91615240.184    22373364.938  
                
 21  8  9  0 40 50.0000000  0 17R 1G 6R18G14R15G 1G21G22G19G24R16R14
                                R 8R24G17R17G 3
  22733885.383   121525496.306    22733891.555    94519968.399    22733889.559  
  22733883.375  
  23108522.250   121436115.703                    94625621.262    23108532.719  
                
  22177096.328   118382857.516    22177102.969    92075586.106    22177102.258  
  22177095.234  
  21006004.516   110387296.656                    86016135.274    21006011.094  
                
  19629089.336   104891881.953    19629094.547    81582639.894    19629094.199  
  19629088.070  
  21935707.781   115272925.087                    89823135.609    21935717.277  
                
  24725767.578   129934824.169    24725773.199   101247916.4224                 
                
  22819042.820   119914906.518                                                  
                
  20671411.039   108629014.324    20671415.703    84646010.4594                 
                
  23199920.555   121916407.532                    94999838.928    23199930.312  
                
  21620963.781   115495311.726    21620968.203    89829712.578    21620966.973  
  21620962.680  
  22171937.375   118188876.543    22171944.324    91924719.302    22171944.109  
  22171935.918  
  22744096.078   121793594.511    22744101.125    94728378.630    22744101.172  
  22744095.383  
  20657086.922   110462730.347    20657091.922    85915503.750    20657091.805  
  20657085.848  
  20422550.039   107321223.023                    83626962.032    20422556.297  
                
  19227754.672   102891621.163    19227759.719    80026876.335    19227759.496  
  19227753.398  
  22370824.992   117559504.694                    91604878.211    22370834.438  
                
 21  8  9  0 41  0.0000000  0 17R 1G 6R18G14R15G 1G21G22G19G24R16R14
                                R 8R24G17R17G 3
  22728973.008   121499238.248    22728979.637    94499545.441    22728977.672  
  22728970.992  
  23101916.883   121401404.282                    94598573.413    23101927.328  
                
  22170636.195   118348372.884    22170642.824    92048764.735    22170642.105  
  22170635.156  
  21010076.555   110408695.314                    86032809.537    21010083.129  
                
  19631228.078   104903310.707    19631233.297    81591528.919    19631232.961  
  19631226.781  
  21941511.461   115303423.582                    89846900.663    21941520.961  
                
  24731902.938   129967063.202    24731907.996   101273037.7454                 
                
  22820043.070   119920162.848                                                  
                
  20667921.133   108610674.736    20667925.805    84631719.8724                 
                
  23199500.492   121914200.024                    94998118.778    23199510.234  
                
  21615111.023   115464047.397    21615115.461    89805395.882    21615114.219  
  21615109.922  
  22179997.914   118231843.771    22180004.871    91958138.258    22180004.656  
  22179996.500  
  22744536.531   121795953.046    22744541.605    94730213.028    22744541.656  
  22744535.824  
  20662423.953   110491269.813    20662428.941    85937701.101    20662428.824  
  20662422.902  
  20422595.227   107321460.479                    83627147.061    20422601.469  
                
  19226360.188   102884159.004    19226365.223    80021072.430    19226365.000  
  19226358.914  
  22368306.875   117546271.855                    91594566.906    22368316.305  
                
 21  8  9  0 41 10.0000000  0 17R 1G 6R18G14R15G 1G21G22G19G24R16R14
                                R 8R24G17R17G 3
  22724072.992   121473043.832    22724079.730    94479172.041    22724077.770  
  22724071.035  
  23095316.414   121366718.632                    94571545.635    23095326.844  
                
  22164181.562   118313917.735    22164188.203    92021966.311    22164187.484  
  22164180.578  
  21014158.234   110430144.625                    86049523.268    21014164.797  
                
  19633383.398   104914828.028    19633388.629    81600486.828    19633388.289  
  19633382.090  
  21947322.297   115333959.677                    89870694.995    21947331.785  
                
  24738038.500   129999308.498    24738044.027   101298163.9304                 
                
  22821055.531   119925483.335                                                  
                
  20664438.930   108592375.676    20664443.617    84617460.8634                 
                
  23199093.164   121912059.467                    94996450.804    23199102.891  
                
  21609269.312   115432842.020    21609273.762    89781125.040    21609272.512  
  21609268.211  
  22188064.281   118274842.002    22188071.230    91991581.312    22188071.016  
  22188062.891  
  22744993.430   121798399.733    22744998.535    94732116.015    22744998.598  
  22744992.711  
  20667767.359   110519843.404    20667772.344    85959925.005    20667772.227  
  20667766.336  
  20422647.461   107321734.962                    83627360.942    20422653.691  
                
  19224976.906   102876756.793    19224981.945    80015315.162    19224981.723  
  19224975.660  
  22365801.109   117533104.053                    91584306.291    22365810.547  
                
 21  8  9  0 41 20.0000000  0 17R 1G 6R18G14R15G 1G21G22G19G24R16R14
                                R 8R24G17R17G 3
  22719184.562   121446913.284    22719191.688    94458848.358    22719189.797  
  22719182.895  
  23088720.859   121332058.845                    94544538.032    23088731.293  
                
  22157732.453   118279492.065    22157739.074    91995190.806    22157738.363  
  22157731.523  
  21018249.547   110451644.563                    86066276.453    21018256.102  
                
  19635555.281   104926433.964    19635560.527    81609513.669    19635560.180  
  19635553.977  
  21953140.273   115364533.284                    89894518.553    21953149.816  
                
  24744175.320   130031560.093    24744182.262   101323294.9924                 
                
  22822080.203   119930868.055                                                  
                
  20660964.445   108574117.181    20660969.148    84603233.4734                 
                
  23198698.570   121909985.853                    94994834.985    23198708.289  
                
  21603438.664   115401695.864    21603443.148    89756900.268    21603441.914  
  21603437.590  
  22196136.438   118317871.075    22196143.395    92025048.349    22196143.188  
  22196135.055  
  22745466.773   121800934.462    22745471.879    94734087.465    22745471.961  
  22745465.973  
  20673117.047   110548450.650    20673122.043    85982175.093    20673121.926  
  20673116.043  
  20422706.734   107322046.500                    83627603.707    20422712.961  
                
  19223604.836   102869414.574    19223609.867    80009604.542    19223609.637  
  19223603.629  
  22363307.750   117520001.387                    91574096.419    22363317.180  
                
 21  8  9  0 41 30.0000000  0 17R 1G 6R18G14R15G 1G21G22G19G24R16R14
                                R 8R24G17R17G 3
  22714308.234   121420846.738    22714315.535    94438574.381    22714313.734  
  22714306.668  
  23082130.242   121297424.986                    94517550.630    23082140.668  
                
  22151288.922   118245095.994    22151295.492    91968438.301    22151294.789  
  22151287.969  
  21022350.500   110473195.103                    86083069.060    21022357.027  
                
  19637743.758   104938128.497    19637749.012    81618609.418    19637748.668  
  19637742.457  
  21958965.359   115395144.322                    89918371.329    21958974.961  
                
  24750313.273   130063817.808    24750321.223   101348430.8914                 
                
  22823117.094   119936316.956                                                  
                
  20657497.711   108555899.346    20657502.402    84589037.7584                 
                
  23198316.719   121907979.207                    94993271.357    23198326.438  
                
  21597619.102   115370608.802    21597623.586    89732721.452    21597622.320  
  21597618.027  
  22204214.344   118360930.760    22204221.289    92058539.201    22204221.094  
  22204212.980  
  22745956.625   121803557.575    22745961.730    94736127.659    22745961.812  
  22745955.730  
  20678473.094   110577091.789    20678478.090    86004451.527    20678477.969  
  20678472.090  
  20422773.070   107322395.056                    83627875.303    20422779.281  
                
  19222243.945   102862132.171    19222248.980    80003940.456    19222248.750  
  19222242.789  
  22360826.805   117506963.927                    91563937.362    22360836.234  
                
 21  8  9  0 41 40.0000000  0 17R 1G 6R18G14R15G 1G21G22G19G24R16R14
                                R 8R24G17R17G 3
  22709443.906   121394844.387    22709451.301    94418350.391    22709449.547  
  22709442.438  
  23075544.578   121262817.126                    94490583.474    23075554.992  
                
  22144850.867   118210729.310    22144857.434    91941708.680    22144856.715  
  22144849.910  
  21026461.047   110494796.174                    86099901.051    21026467.574  
                
  19639948.789   104949911.480    19639954.039    81627773.953    19639953.695  
  19639947.484  
  21964797.539   115425792.649                    89942253.153    21964807.176  
                
  24756452.984   130096081.644    24756461.312   101373571.6214                 
                
  22824166.234   119941830.067    22824170.215    93461161.7004                 
                
  20654038.727   108537722.191    20654043.398    84574873.7334                 
                
  23197947.594   121906039.462                    94991759.871    23197957.324  
                
  21591810.672   115339581.132    21591815.125    89708588.800    21591813.883  
  21591809.586  
  22212297.992   118404021.024    22212304.910    92092053.821    22212304.695  
  22212296.629  
  22746462.867   121806268.590    22746468.035    94738236.244    22746468.113  
  22746461.918  
  20683835.438   110605766.605    20683840.438    86026754.158    20683840.320  
  20683834.430  
  20422846.438   107322780.569                    83628175.697    20422852.633  
                
  19220894.266   102854909.752    19220899.301    79998323.019    19220899.059  
  19220893.148  
  22358358.266   117493991.698                    91553829.137    22358367.684  
                
 21  8  9  0 41 50.0000000  0 17R 1G 6R18G14R15G 1G21G22G19G24R16R14
                                R 8R24G17R17G 3
  22704591.617   121368906.329    22704599.094    94398176.343    22704597.340  
  22704590.230  
  23068963.867   121228235.288                    94463636.579    23068974.250  
                
  22138418.375   118176392.361    22138424.969    91915002.197    22138424.250  
  22138417.441  
  21030581.203   110516447.707                    86116772.365    21030587.730  
                
  19642170.391   104961783.029    19642175.641    81637007.375    19642175.297  
  19642169.078  
  21970636.812   115456478.193                    89966163.960    21970646.406  
                
  24762594.523   130128351.489    24762601.895   101398716.7864                 
                
  22825227.523   119947407.288    22825230.949    93465507.6314                 
                
  20650587.461   108519585.672    20650592.133    84560741.3814                 
                
  23197591.211   121904166.643                    94990300.535    23197600.957  
                
  21586013.344   115308612.893    21586017.812    89684502.399    21586016.586  
  21586012.270  
  22220387.297   118447141.494    22220394.199    92125591.942    22220393.988  
  22220385.914  
  22746985.555   121809067.529    22746990.770    94740413.189    22746990.848  
  22746984.492  
  20689204.039   110634474.929    20689209.043    86049082.847    20689208.945  
  20689203.023  
  20422926.836   107323203.096                    83628504.941    20422933.020  
                
  19219555.773   102847747.216    19219560.816    79992752.164    19219560.566  
  19219554.684  
  22355902.148   117481084.754                    91543771.800    22355911.570  
                
 21  8  9  0 42  0.0000000  0 17R 1G 6R18G14R15G 1G21G22G19G24R16R14
                                R 8R24G17R17G 3
  22699751.477   121343032.680    22699758.965    94378052.406    22699757.262  
  22699750.098  
  23062388.109   121193679.515                    94436710.023    23062398.484  
                
  22131991.406   118142084.860    22131998.008    91888318.605    22131997.297  
  22131990.504  
  21034710.945   110538149.613                    86133682.937    21034717.473  
                
  19644408.500   104973742.858    19644413.766    81646309.464    19644413.418  
  19644407.199  
  21976482.898   115487200.811                    89990103.655    21976492.156  
                
  24768736.672   130160627.249    24768743.559   101423866.7634                 
                
  22826301.031   119953048.690    22826304.152    93469903.5374                 
                
  20647143.938   108501489.900    20647148.617    84546640.7874                 
                
  23197247.562   121902360.700                    94988893.289    23197257.309  
                
  21580227.164   115277704.204    21580231.652    89660462.322    21580230.406  
  21580226.051  
  22228482.328   118490292.373    22228489.199    92159153.696    22228488.996  
  22228480.898  
  22747524.703   121811954.656    22747529.945    94742658.731    22747530.020  
  22747523.523  
  20694578.883   110663216.591    20694583.898    86071437.473    20694583.789  
  20694577.836  
  20423014.266   107323662.579                    83628862.990    20423020.453  
                
  19218228.453   102840644.478    19218233.500    79987227.811    19218233.254  
  19218227.359  
  22353458.469   117468243.148                    91533765.350    22353467.883  
                
 21  8  9  0 42 10.0000000  0 17R 1G 6R18G14R15G 1G21G22G19G24R16R14
                                R 8R24G17R17G 3
  22694923.227   121317223.422    22694930.840    94357978.576    22694929.199  
  22694921.949  
  23055817.320   121159149.816                    94409803.773    23055827.668  
                
  22125569.984   118107806.985    22125576.598    91861658.065    22125575.918  
  22125569.078  
  21038850.250   110559901.762                    86150632.640    21038856.762  
                
  19646663.141   104985790.904    19646668.402    81655680.156    19646668.047  
  19646661.844  
  21982336.750   115517960.276                    90014072.086    21982345.367  
                
  24774879.883   130192908.778    24774886.312   101449021.1884                 
                
  22827386.781   119958754.082    22827389.605    93474349.2274                 
                
  20643708.164   108483434.789    20643712.828    84532571.8684                 
                
  23196916.609   121900621.567                    94987538.116    23196926.359  
                
  21574452.156   115246855.273    21574456.688    89636468.730    21574455.441  
  21574451.023  
  22236582.922   118533473.062    22236589.801    92192738.666    22236589.598  
  22236581.480  
  22748080.281   121814929.724    22748085.539    94744972.662    22748085.621  
  22748078.930  
  20699959.977   110691991.711    20699964.996    86093818.111    20699964.895  
  20699958.891  
  20423108.711   107324158.900                    83629249.726    20423114.879  
                
  19216912.305   102833601.504    19216917.359    79981749.943    19216917.117  
  19216911.191  
  22351027.203   117455466.826                    91523809.786    22351036.625  
                
 21  8  9  0 42 20.0000000  0 17R 1G 6R18G14R15G 1G21G22G19G24R16R14
                                R 8R24G17R17G 3
  22690107.180   121291478.934    22690114.641    94337955.027    22690113.090  
  22690105.824  
  23049251.508   121124646.284                    94382917.913    23049261.848  
                
  22119154.125   118073558.761    22119160.730    91835020.577    22119160.066  
  22119153.215  
  21042999.125   110581704.188                    86167621.533    21043005.637  
                
  19648934.297   104997927.276    19648939.570    81665119.555    19648939.211  
  19648933.004  
  21988197.148   115548756.592                    90038069.224    21988206.066  
                
  24781023.977   130225196.159    24781030.141   101474180.2334                 
                
  22828484.719   119964523.737    22828487.371    93478845.0734                 
                
  20640280.133   108465420.388    20640284.797    84518534.6804                 
                
  23196598.383   121898949.267                    94986235.020    23196608.117  
                
  21568688.359   115216066.115    21568692.906    89612521.617    21568691.648  
  21568687.215  
  22244689.133   118576683.660    22244695.996    92226346.894    22244695.789  
  22244687.648  
  22748652.297   121817992.824    22748657.551    94747355.052    22748657.625  
  22748650.777  
  20705347.266   110720799.969    20705352.285    86116224.526    20705352.195  
  20705346.141  
  20423210.180   107324692.151                    83629665.257    20423216.352  
                
  19215607.328   102826618.295    19215612.395    79976318.557    19215612.148  
  19215606.191  
  22348608.398   117442755.941                    91513905.203    22348617.824  
                
 21  8  9  0 42 30.0000000  0 17R 1G 6R18G14R15G 1G21G22G19G24R16R14
                                R 8R24G17R17G 3
  22685303.164   121265799.138    22685310.590    94317981.929    22685309.031  
  22685301.668  
  23042690.703   121090169.069                    94356052.565    23042701.055  
                
  22112743.852   118039340.354    22112750.430    91808406.277    22112749.766  
  22112742.906  
  21047157.562   110603556.900                    86184649.616    21047164.086  
                
  19651221.961   105010151.840    19651227.234    81674627.542    19651226.875  
  19651220.695  
  21994064.734   115579589.687                    90062094.998    21994073.383  
                
  24787169.211   130257489.309    24787175.238   101499343.6914                 
                
  22829594.797   119970357.230    22829597.395    93483390.6204                 
                
  20636859.883   108447446.816    20636864.543    84504529.3004                 
                
  23196292.875   121897343.858                    94984984.072    23196302.590  
                
  21562935.781   115185336.948    21562940.367    89588621.167    21562939.094  
  21562934.660  
  22252800.938   118619924.135    22252807.801    92259978.367    22252807.605  
  22252799.441  
  22749240.711   121821143.756    22749245.953    94749805.782    22749246.035  
  22749239.109  
  20710740.805   110749641.584    20710745.824    86138656.884    20710745.746  
  20710739.668  
  20423318.680   107325262.330                    83630109.553    20423324.844  
                
  19214313.555   102819694.992    19214318.625    79970933.761    19214318.375  
  19214312.387  
  22346202.062   117430110.599                    91504051.707    22346211.512  
                
 21  8  9  0 42 40.0000000  0 17R 1G 6R18G14R15G 1G21G22G19G24R16R14
                                R 8R24G17R17G 3
  22680511.305   121240184.360    22680518.781    94298059.338    22680517.207  
  22680509.527  
  23036134.906   121055718.192                    94329207.750    23036145.289  
                
  22106339.141   118005151.656    22106345.691    91781815.080    22106345.012  
  22106338.137  
  21051325.547   110625459.786                    86201716.786    21051332.078  
                
  19653526.141   105022464.624    19653531.402    81684204.141    19653531.043  
  19653524.887  
  21999939.562   115610459.418                    90086149.327    21999947.965  
                
  24793315.453   130289788.151    24793321.465   101524511.7294                 
                
  22830717.109   119976254.697    22830719.602    93487985.9864                 
                
  20633447.391   108429514.085    20633452.039    84490555.7484                 
                
  23196000.102   121895805.347                    94983785.225    23196009.773  
                
  21557194.477   115154667.978    21557199.078    89564767.533    21557197.840  
  21557193.379  
  22260918.336   118663194.318    22260925.195    92293632.926    22260925.004  
  22260916.805  
  22749845.570   121824382.748    22749850.809    94752324.979    22749850.879  
  22749843.836  
  20716140.539   110778516.367    20716145.566    86161115.042    20716145.496  
  20716139.406  
  20423434.195   107325869.401                    83630582.598    20423440.363  
                
  19213030.922   102812831.417    19213036.000    79965595.429    19213035.746  
  19213029.730  
  22343808.203   117417530.841                    91494249.314    22343817.664  
                
 21  8  9  0 42 50.0000000  0 17R 1G 6R18G14R15G 1G21G22G19G24R16R14
                                R 8R24G17R17G 3
  22675731.719   121214634.876    22675739.250    94278187.469    22675737.684  
  22675729.809  
  23029584.180   121021293.910                    94302383.636    23029594.590  
                
  22099940.070   117970993.033    22099946.598    91755247.282    22099945.918  
  22099939.016  
  21055503.125   110647412.963                    86218823.135    21055509.648  
                
  19655846.852   105034865.758    19655852.113    81693849.462    19655851.750  
  19655845.633  
  22005819.859   115641365.821                    90110232.230    22005829.500  
                
  24799462.820   130322092.781    24799468.684   101549684.1234                 
                
  22831851.508   119982216.302    22831854.047    93492631.4754                 
                
  20630042.703   108411622.372    20630047.344    84476614.1654                 
                
  23195720.086   121894333.843                    94982638.604    23195729.742  
                
  21551464.516   115124059.510    21551469.117    89540960.947    21551467.867  
  21551463.438  
  22269041.289   118706494.096    22269048.168    92327310.506    22269047.977  
  22269039.754  
  22750466.906   121827709.944    22750472.145    94754912.782    22750472.246  
  22750465.109  
  20721546.438   110807424.092    20721551.484    86183598.825    20721551.406  
  20721545.301  
  20423556.773   107326513.508                    83631084.502    20423562.941  
                
  19211759.500   102806027.780    19211764.582    79960303.713    19211764.336  
  19211758.285  
  22341426.867   117405016.873                    91484498.177    22341436.328  
                
 21  8  9  0 43  0.0000000  0 17R 1G 6R18G14R15G 1G21G22G19G24R16R14
                                R 8R24G17R17G 3
  22670964.336   121189150.548    22670971.875    94258366.353    22670970.348  
  22670962.535  
  23023038.484   120986896.078                    94275580.132    23023048.906  
                
  22093546.586   117936864.312    22093553.102    91728702.745    22093552.418  
  22093545.512  
  21059690.211   110669416.235                    86235968.533    21059696.750  
                
  19658184.039   105047354.941    19658189.289    81703563.265    19658188.941  
  19658182.848  
  22011707.664   115672308.756                    90134343.566    22011717.957  
                
  24805610.797   130354402.968    24805617.066   101574860.8454                 
                
  22832998.164   119988241.944    22833000.617    93497326.7644                 
                
  20626645.812   108393771.647    20626650.438    84462704.5174                 
                
  23195452.797   121892929.196                    94981544.070    23195462.461  
                
  21545745.867   115093511.524    21545750.477    89517201.404    21545749.223  
  21545744.797  
  22277169.734   118749823.251    22277176.641    92361010.952    22277176.438  
  22277168.234  
  22751104.672   121831125.144    22751109.906    94757569.036    22751110.016  
  22751102.836  
  20726958.492   110836364.780    20726963.566    86206108.247    20726963.492  
  20726957.355  
  20423686.383   107327194.603                    83631615.222    20423692.547  
                
  19210499.227   102799283.801    19210504.293    79955058.396    19210504.055  
  19210497.992  
  22339058.023   117392568.590                    91474798.230    22339067.492  
                
 21  8  9  0 43 10.0000000  0 17R 1G 6R18G14R15G 1G21G22G19G24R16R14
                                R 8R24G17R17G 3
  22666209.250   121163731.965    22666216.762    94238596.358    22666215.367  
  22666207.531  
  23016497.883   120952525.038                    94248797.513    23016508.336  
                
  22087158.750   117902765.720    22087165.273    91702181.657    22087164.594  
  22087157.668  
  21063886.875   110691469.792                    86253153.114    21063893.426  
                
  19660537.758   105059932.474    19660542.996    81713345.785    19660542.641  
  19660536.582  
  22017603.211   115703288.118                                                  
                
  24811760.453   130386718.955    24811766.688   101600042.1304                 
                
  22834157.023   119994331.818    22834159.430    93502072.1154                 
                
  20623256.797   108375962.201    20623261.383    84448827.0294                 
                
  23195198.273   121891591.641                    94980501.813    23195207.938  
                
  21540038.555   115063024.141    21540043.156    89493489.003    21540041.902  
  21540037.461  
  22285303.703   118793181.828    22285310.617    92394734.278    22285310.414  
  22285302.219  
  22751758.930   121834628.574    22751764.152    94760293.906    22751764.254  
  22751756.996  
  20732376.711   110865338.479    20732381.812    86228643.346    20732381.730  
  20732375.566  
  20423823.062   107327912.882                    83632174.917    20423829.230  
                
  19209250.172   102792599.834    19209255.227    79949859.752    19209254.984  
  19209248.934  
  22336701.742   117380186.292                    91465149.702    22336711.215  
                
 21  8  9  0 43 20.0000000  0 17R 1G 6R18G14R15G 1G21G22G19G24R16R14
                                R 8R24G17R17G 3
  22661466.391   121138378.717    22661473.875    94218877.168    22661472.602  
  22661464.812  
  23009962.352   120918180.608                    94222035.626    23009972.820  
                
  22080776.555   117868697.183    22080783.078    91675683.921    22080782.398  
  22080775.488  
  21068093.047   110713573.343                    86270376.653    21068099.621  
                
  19662907.938   105072598.011    19662913.176    81723196.756    19662912.820  
  19662906.785  
  22023504.000   115734303.896                                                  
                
  24817911.117   130419040.440    24817917.414   101625227.7104                 
                
  22835328.078   120000485.671    22835330.430    93506867.3054                 
                
  20619875.562   108358193.772    20619880.125    84434981.5094                 
                
  23194956.461   121890320.916                    94979511.631    23194966.133  
                
  21534342.625   115032597.526    21534347.203    89469823.865    21534345.949  
  21534341.523  
  22293443.156   118836569.605    22293450.102    92428480.309    22293449.918  
  22293441.707  
  22752429.547   121838219.893    22752434.805    94763087.176    22752434.906  
  22752427.566  
  20737801.070   110894344.918    20737806.184    86251203.905    20737806.113  
  20737799.898  
  20423966.797   107328668.187                    83632763.475    20423972.977  
                
  19208012.281   102785975.641    19208017.312    79944707.604    19208017.070  
  19208011.035  
  22334357.992   117367869.832                    91455552.464    22334367.449  
                
 21  8  9  0 43 30.0000000  0 16R 1G 6R18G14R15G21G22G19G24R16R14R 8
                                R24G17R17G 3
  22656735.805   121113091.073    22656743.352    94199208.999    22656742.094  
  22656734.328  
  23003431.883   120883862.853                    94195294.529    23003442.375  
                
  22074400.000   117834658.725    22074406.512    91649209.570    22074405.828  
  22074398.949  
  21072308.719   110735726.819                    86287639.087    21072315.309  
                
  19665294.594   105085351.560    19665299.828    81733116.180    19665299.480  
  19665293.453  
  24824062.836   130451367.403    24824069.176   101650417.4714                 
                
  22836511.266   120006703.437    22836513.621    93511712.3424                 
                
  20616502.141   108340466.348    20616506.680    84421167.9344                 
                
  23194727.375   121889117.041                    94978573.541    23194737.039  
                
  21528658.055   115002231.579    21528662.609    89446205.903    21528661.344  
  21528656.938  
  22301588.055   118879986.362    22301595.031    92462248.860    22301594.852  
  22301586.641  
  22753116.609   121841898.969    22753121.875    94765948.649    22753121.945  
  22753114.578  
  20743231.547   110923384.065    20743236.676    86273789.899    20743236.609  
  20743230.359  
  20424117.539   107329460.374                    83633380.757    20424123.730  
                
  19206785.562   102779411.192    19206790.566    79939601.919    19206790.328  
  19206784.328  
  22332026.773   117355619.251                    91446006.563    22332036.223  
                
 21  8  9  0 43 40.0000000  0 16R 1G 6R18G14R15G21G22G19G24R16R14R 8
                                R24G17R17G 3
  22652017.617   121087869.625    22652025.211    94179592.315    22652023.953  
  22652016.207  
  22996906.539   120849571.964                    94168574.370    22996917.043  
                
  22068029.078   117800650.405    22068035.594    91622758.669    22068034.906  
  22068028.059  
  21076533.898   110757930.251                    86304940.457    21076540.523  
                
  19667697.703   105098193.033    19667702.934    81743103.990    19667702.590  
  19667696.566  
  24830215.586   130483699.745    24830221.953   101675611.3804                 
                
  22837706.703   120012985.232    22837709.004    93516607.1954                 
                
  20613136.562   108322780.073    20613141.078    84407386.4204                 
                
  23194511.023   121887980.097                    94977687.605    23194520.660  
                
  21522984.930   114971926.794    21522989.480    89422635.526    21522988.195  
  21522983.816  
  22309738.367   118923432.060    22309745.391    92496039.946    22309745.207  
  22309736.996  
  22753820.102   121845666.221    22753825.418    94768878.736    22753825.512  
  22753818.102  
  20748668.102   110952455.760    20748673.254    86296401.209    20748673.184  
  20748666.883  
  20424275.320   107330289.484                    83634026.817    20424281.520  
                
  19205570.000   102772906.524    19205575.004    79934542.739    19205574.766  
  19205568.781  
  22329708.125   117343434.690                    91436512.107    22329717.570  
                
 21  8  9  0 43 50.0000000  0 16R 1G 6R18G14R15G21G22G19G24R16R14R 8
                                R24G17R17G 3
  22647311.758   121062713.964    22647319.332    94160026.799    22647318.035  
  22647310.453  
  22990386.289   120815307.844                    94141875.053    22990396.785  
                
  22061663.805   117766672.192    22061670.312    91596331.184    22061669.625  
  22061662.836  
  21080768.562   110780183.531                    86322280.666    21080775.215  
                
  19670117.250   105111122.376    19670122.488    81753160.144    19670122.141  
  19670116.113  
  24836369.188   130516037.336    24836375.746   101700809.5694                 
                
  22838914.188   120019330.894    22838916.586    93521551.9414                 
                
  20609778.773   108305134.809    20609783.277    84393636.8644                 
                
  23194307.383   121886909.952                    94976853.716    23194316.977  
                
  21517323.258   114941683.184    21517327.809    89399112.727    21517326.535  
  21517322.156  
  22317894.062   118966906.420    22317901.105    92529853.314    22317900.910  
  22317892.695  
  22754539.961   121849521.024    22754545.301    94771876.906    22754545.379  
  22754537.977  
  20754110.742   110981559.923    20754115.902    86319037.760    20754115.820  
  20754109.492  
  20424440.117   107331155.505                    83634701.632    20424446.316  
                
  19204365.602   102766461.552    19204370.613    79929529.989    19204370.367  
  19204364.379  
  22327402.023   117331316.122                    91427069.079    22327411.480  
                
 21  8  9  0 44  0.0000000  0 17R 1G 6R18G14R15G 1G21G22G19G24R16R14
                                R 8R24G17R17G 3
  22642618.219   121037624.338    22642625.773    94140512.684    22642624.473  
  22642617.020  
  22983871.172   120781070.626                    94115196.688    22983881.645  
                
  22055304.203   117732724.293    22055310.703    91569927.283    22055310.027  
  22055303.246  
  21085012.711   110802486.594                    86339659.664    21085019.383  
                
  19672553.242   105124139.584    19672558.484    81763284.636    19672558.137  
  19672552.121  
  22047179.805   115858725.443                                                  
                
  24842523.859   130548380.163    24842530.480   101726011.7544                 
                
  22840133.922   120025740.485    22840136.309    93526546.3874                 
                
  20606428.820   108287530.679    20606433.336    84379919.3644                 
                
  23194116.469   121885906.627                    94976071.887    23194126.020  
                
  21511673.062   114911500.846    21511677.613    89375637.575    21511676.344  
  21511671.965  
  22326055.133   119010409.368    22326062.188    92563688.913    22326061.977  
  22326053.762  
  22755276.266   121853463.978    22755281.641    94774943.658    22755281.750  
  22755274.238  
  20759559.406   111010696.385    20759564.594    86341699.454    20759564.516  
  20759558.152  
  20424611.938   107332058.440                    83635405.218    20424618.152  
                
  19203172.336   102760076.165    19203177.359    79924563.579    19203177.125  
  19203171.121  
  22325108.500   117319263.617                    91417677.527    22325117.953  
                
 21  8  9  0 44 10.0000000  0 16R 1G 6R18G14R15G21G22G19G24R16R14R 8
                                R24G17R17G 3
  22637937.062   121012601.026    22637944.652    94121050.118    22637943.395  
  22637935.945  
  22977361.172   120746860.410                    94088539.400    22977371.641  
                
  22048950.258   117698806.503    22048956.730    91543546.795    22048956.066  
  22048949.293  
  21089266.328   110824839.434                    86357077.452    21089273.031  
                
  19675005.688   105137244.643    19675010.918    81773477.457    19675010.574  
  19675004.555  
  24848679.453   130580728.200    24848686.164   101751218.0494                 
                
  22841365.797   120032213.976    22841368.238    93531590.6714                 
                
  20603086.727   108269967.839    20603091.250    84366234.0354                 
                
  23193938.266   121884970.175                    94975342.196    23193947.789  
                
  21506034.383   114881380.016    21506038.941    89352210.261    21506037.680  
  21506033.281  
  22334221.531   119053940.703    22334228.613    92597546.590    22334228.406  
  22334220.152  
  22756029.000   121857494.819    22756034.387    94778078.747    22756034.500  
  22756026.859  
  20765014.141   111039865.238    20765019.336    86364386.323    20765019.254  
  20765012.836  
  20424790.812   107332998.373                    83636137.631    20424797.031  
                
  19201990.250   102753750.563    19201995.289    79919643.668    19201995.055  
  19201989.043  
  22322827.578   117307277.294                    91408337.547    22322837.031  
                
 21  8  9  0 44 20.0000000  0 16R 1G 6R18G14R15G21G22G19G24R16R14R 8
                                R24G17R17G 3
  22633268.352   120987644.000    22633275.977    94101639.134    22633274.766  
  22633267.203  
  22970856.305   120712677.173                    94061903.122    22970866.758  
                
  22042601.992   117664919.118    22042608.441    91517189.951    22042607.777  
  22042601.031  
  21093529.391   110847241.983                    86374533.977    21093536.125  
                
  19677474.531   105150437.405    19677479.762    81783738.491    19677479.414  
  19677473.379  
  24854836.070   130613081.341    24854842.684   101776428.2344                 
                
  22842609.828   120038751.320    22842612.324    93536684.6504                 
                
  20599752.461   108252446.190    20599756.992    84352580.8044                 
                
  23193772.773   121884100.523                    94974664.545    23193782.266  
                
  21500407.203   114851320.698    21500411.766    89328830.797    21500410.504  
  21500406.090  
  22342393.234   119097500.490    22342400.363    92631426.417    22342400.164  
  22342391.848  
  22756798.125   121861613.479    22756803.516    94781282.120    22756803.629  
  22756795.992  
  20770474.906   111069066.372    20770480.102    86387098.307    20770480.020  
  20770473.582  
  20424976.695   107333975.219                    83636898.804    20424982.918  
                
  19200819.297   102747484.571    19200824.352    79914770.120    19200824.125  
  19200818.117  
  22320559.234   117295357.140                    91399049.124    22320568.676  
                
 21  8  9  0 44 30.0000000  0 16R 1G 6R18G14R15G21G22G19G24R16R14R 8
                                R24G17R17G 3
  22628612.086   120962753.488    22628619.672    94082279.821    22628618.465  
  22628610.859  
  22964356.609   120678521.076                    94035287.991    22964367.051  
                
  22036259.406   117631062.112    22036265.844    91490856.754    22036265.191  
  22036258.465  
  21097801.914   110869694.192                    86392029.190    21097808.668  
                
  19679959.781   105163717.836    19679965.004    81794067.715    19679964.652  
  19679958.605  
  24860993.539   130645439.532    24861000.109   101801642.4354                 
                
  22843865.945   120045352.366    22843868.586    93541828.3644                 
                
  20596426.047   108234965.794    20596430.578    84338959.7194                 
                
  23193620.008   121883297.699                    94974038.972    23193629.484  
                
  21494791.570   114821322.983    21494796.125    89305499.246    21494794.863  
  21494790.445  
  22350570.242   119141088.387    22350577.371    92665328.084    22350577.164  
  22350568.773  
  22757583.633   121865819.864    22757589.043    94784553.750    22757589.156  
  22757581.555  
  20775941.641   111098299.407    20775946.824    86409835.098    20775946.742  
  20775940.312  
  20425169.609   107334989.005                    83637688.771    20425175.840  
                
  19199659.484   102741278.189    19199664.555    79909942.931    19199664.324  
  19199658.332  
  22318303.516   117283503.251                    91389812.326    22318312.934  
                
 21  8  9  0 44 40.0000000  0 17R 1G 6R18G14R15G 1G21G22G19G24R16R14
                                R 8R24G17R17G 3
  22623968.312   120937929.910    22623975.855    94062972.609    22623974.559  
  22623967.090  
  22957862.086   120644392.189                    94008694.075    22957872.500  
                
  22029922.523   117597235.442    22029928.938    91464547.138    22029928.289  
  22029921.617  
  21102083.898   110892196.057                    86409563.091    21102090.660  
                
  19682461.445   105177085.976    19682466.664    81804465.153    19682466.316  
  19682460.242  
  22070972.430   115983710.196                                                  
                
  24867152.078   130677802.784    24867158.410   101826860.4434                 
                
  22845134.234   120052017.249    22845136.977    93547021.7784                 
                
  20593107.508   108217526.749    20593112.039    84325370.8584                 
                
  23193479.961   121882561.744                    94973465.497    23193489.430  
                
  21489187.516   114791387.138    21489192.070    89282215.817    21489190.816  
  21489186.371  
  22358752.477   119184704.330    22358759.613    92699251.602    22358759.418  
  22358750.945  
  22758385.586   121870114.331    22758391.027    94787893.895    22758391.141  
  22758383.559  
  20781414.422   111127564.863    20781419.609    86432597.125    20781419.543  
  20781413.133  
  20425369.555   107336039.712                    83638507.510    20425375.785  
                
  19198510.828   102735131.512    19198515.914    79905162.191    19198515.688  
  19198509.688  
  22316060.406   117271715.717                    91380627.261    22316069.840  
                
 21  8  9  0 44 50.0000000  0 17R 1G 6R18G14R15G 1G21G22G19G24R16R14
                                R 8R24G17R17G 3
  22619336.969   120913172.884    22619344.477    94043717.172    22619343.137  
  22619335.699  
  22951372.742   120610290.510                    93982121.344    22951383.141  
                
  22023591.375   117563439.321    22023597.754    91438261.261    22023597.105  
  22023590.484  
  21106375.281   110914747.432                    86427135.576    21106382.055  
                
  19684979.516   105190541.725    19684984.715    81814930.728    19684984.359  
  19684978.281  
  22076929.594   116015047.753                    90401384.994    22076941.445  
                
  24873311.477   130710170.995    24873317.746   101852082.5244                 
                
  22846414.633   120058745.817    22846417.465    93552264.8294                 
                
  20589796.820   108200129.005    20589801.348    84311814.1834                 
                
  23193352.609   121881892.531                    94972944.032    23193362.086  
                
  21483595.070   114761513.282    21483599.617    89258980.593    21483598.375  
  21483593.902  
  22366939.938   119228348.029    22366947.051    92733196.686    22366946.867  
  22366938.332  
  22759203.938   121874496.643    22759209.418    94791302.362    22759209.523  
  22759201.879  
  20786893.141   111156862.062    20786898.320    86455383.840    20786898.262  
  20786891.855  
  20425576.508   107337127.280                    83639354.969    20425582.738  
                
  19197373.312   102729044.418    19197378.410    79900427.784    19197378.188  
  19197372.168  
  22313829.938   117259994.533                    91371493.872    22313839.355  
                
 21  8  9  0 45  0.0000000  0 17R 1G 6R18G14R15G 1G21G22G19G24R16R14
                                R 8R24G17R17G 3
  22614718.250   120888482.958    22614725.598    94024513.843    22614724.219  
  22614716.902  
  22944888.602   120576216.195                    93955569.947    22944899.004  
                
  22017265.922   117529673.721    22017272.309    91411999.154    22017271.668  
  22017265.020  
  21110676.125   110937348.393                    86444746.705    21110682.898  
                
  19687513.969   105204085.067    19687519.160    81825464.435    19687518.816  
  19687512.723  
  22082901.383   116046420.637                    90425831.438    22082911.039  
                
  24879471.961   130742544.191    24879478.090   101877308.3554                 
                
  22847707.203   120065538.321    22847710.133    93557557.6934                 
                
  20586494.016   108182772.680    20586498.543    84298289.7794                 
                
  23193237.984   121881290.206                    94972474.692    23193247.473  
                
  21478014.242   114731701.584    21478018.824    89235793.728    21478017.578  
  21478013.062  
  22375132.680   119272019.795    22375139.754    92767163.581    22375139.594  
  22375130.980  
  22760038.703   121878966.842    22760044.195    94794779.172    22760044.316  
  22760036.586  
  20792377.867   111186191.337    20792383.031    86478195.498    20792382.977  
  20792376.574  
  20425790.508   107338251.904                    83640231.303    20425796.738  
                
  19196246.953   102723017.076    19196252.066    79895739.857    19196251.848  
  19196245.785  
  22311612.117   117248339.855                    91362412.319    22311621.531  
                
 21  8  9  0 45 10.0000000  0 16R 1G 6R18G14R15G21G22G19G24R16R14R 8
                                R24G17R17G 3
  22610112.023   120863859.923    22610119.254    94005362.571    22610117.855  
  22610110.656  
  22938409.664   120542169.200                    93929039.835    22938420.066  
                
  22010946.180   117495938.619    22010952.562    91385760.763    22010951.930  
  22010945.266  
  21114986.344   110959998.747                    86462396.318    21114993.133  
                
  19690064.797   105217715.872    19690069.973    81836066.159    19690069.633  
  19690063.547  
  24885633.344   130774922.162    24885639.367   101902537.9184                 
                
  22849011.875   120072394.428    22849014.930    93562900.1174                 
                
  20583199.078   108165457.679    20583203.609    84284797.5714                 
                
  23193136.070   121880754.627                    94972057.355    23193145.559  
                
  21472445.086   114701952.174    21472449.707    89212655.312    21472448.461  
  21472443.891  
  22383330.539   119315718.982    22383337.598    92801151.829    22383337.453  
  22383328.820  
  22760889.852   121883524.671    22760895.348    94798324.134    22760895.457  
  22760887.746  
  20797868.555   111215552.475    20797873.703    86501031.924    20797873.641  
  20797867.254  
  20426011.531   107339413.367                    83641136.340    20426017.750  
                
  19195131.727   102717049.259    19195136.848    79891098.218    19195136.625  
  19195130.496  
  22309406.945   117236751.628                    91353382.540    22309416.359  
                
 21  8  9  0 45 20.0000000  0 16R 1G 6R18G14R15G21G22G19G24R16R14R 8
                                R24G17R17G 3
  22605518.367   120839304.255    22605525.543    93986263.676    22605524.191  
  22605516.855  
  22931935.961   120508149.688                    93902531.133    22931946.352  
                
  22004632.195   117462234.246    22004638.570    91359546.279    22004637.949  
  22004631.285  
  21119305.977   110982698.551                    86480084.466    21119312.773  
                
  19692632.000   105231434.214    19692637.168    81846735.981    19692636.844  
  19692630.773  
  24891795.602   130807304.897    24891801.617   101927771.2144                 
                
  22850328.703   120079314.269    22850331.840    93568292.1674                 
                
  20579912.031   108148184.113    20579916.582    84271337.6544                 
                
  23193046.875   121880285.862                    94971692.068    23193056.363  
                
  21466887.594   114672265.091    21466892.250    89189565.360    21466891.000  
  21466886.375  
  22391533.594   119359445.750    22391540.605    92835161.510    22391540.465  
  22391531.852  
  22761757.406   121888170.424    22761762.934    94801937.494    22761763.055  
  22761755.379  
  20803365.125   111244945.090    20803370.270    86523892.846    20803370.199  
  20803363.863  
  20426239.570   107340611.743                    83642070.139    20426245.785  
                
  19194027.656   102711141.117    19194032.773    79886502.990    19194032.547  
  19194026.363  
  22307214.438   117225229.983                    91344404.653    22307223.855  
                
 21  8  9  0 45 30.0000000  0 16R 1G 6R18G14R15G21G22G19G24R16R14R 8
                                R24G17R17G 3
  22600937.398   120814815.953    22600944.484    93967217.151    22600943.148  
  22600935.699  
  22925467.484   120474157.643                    93876043.829    22925477.852  
                
  21998323.945   117428560.380    21998330.289    91333355.503    21998329.660  
  21998323.020  
  21123635.008   111005447.657                    86497811.024    21123641.809  
                
  19695215.539   105245239.801    19695220.691    81857473.654    19695220.371  
  19695214.340  
  24897958.734   130839692.282    24897964.781   101953008.1334                 
                
  22851657.586   120086297.618    22851660.852    93573733.7684                 
                
  20576632.859   108130952.003    20576637.438    84257910.0374                 
                
  23192970.367   121879883.799                    94971378.776    23192979.887  
                
  21461341.781   114642640.429    21461346.457    89166523.970    21461345.219  
  21461340.559  
  22399741.766   119403199.847    22399748.762    92869192.456    22399748.602  
  22399740.039  
  22762641.320   121892903.783    22762646.867    94805618.995    22762646.992  
  22762639.387  
  20808867.578   111274369.198    20808872.723    86546778.271    20808872.648  
  20808866.344  
  20426474.625   107341846.960                    83643032.649    20426480.832  
                
  19192934.688   102705292.410    19192939.789    79881953.991    19192939.570  
  19192933.363  
  22305034.617   117213774.910                    91335478.624    22305044.008  
                
 21  8  9  0 45 40.0000000  0 16R 1G 6R18G14R15G21G22G19G24R16R14R 8
                                R24G17R17G 3
  22596368.898   120790394.931    22596376.078    93948223.099    22596374.684  
  22596367.195  
  22919004.250   120440193.139                    93849577.980    22919014.586  
                
  21992021.430   117394917.149    21992027.742    91307188.550    21992027.102  
  21992020.504  
  21127973.391   111028245.992                    86515575.950    21127980.199  
                
  19697815.391   105259132.638    19697820.539    81868279.192    19697820.215  
  19697814.227  
  24904122.820   130872084.326    24904128.805   101978248.6074                 
                
  22852998.609   120093344.668    22853001.969    93579224.9454                 
                
  20573361.609   108113761.410    20573366.207    84244514.7614                 
                
  23192906.562   121879548.482                    94971117.487    23192916.098  
                
  21455807.711   114613078.458    21455812.383    89143531.334    21455811.168  
  21455806.484  
  22407955.047   119446981.181    22407962.035    92903244.581    22407961.871  
  22407953.324  
  22763541.617   121897724.908    22763547.211    94809368.765    22763547.336  
  22763539.770  
  20814375.969   111303825.044    20814381.098    86569688.373    20814381.023  
  20814374.742  
  20426716.695   107343119.032                    83644023.874    20426722.895  
                
  19191852.836   102699503.174    19191857.914    79877451.247    19191857.688  
  19191851.531  
  22302867.453   117202386.458                    91326604.518    22302876.836  
                
 21  8  9  0 45 50.0000000  0 17R 1G 6R18G14R15G 1G21G22G19G24R16R14
                                R 8R24G17R17G 3
  22591813.070   120766041.568    22591820.340    93929281.633    22591819.000  
  22591811.371  
  22912546.273   120406256.283                    93823133.685    22912556.602  
                
  21985724.688   117361304.840    21985730.992    91281045.669    21985730.348  
  21985723.785  
  21132321.156   111051093.609                    86533379.269    21132327.965  
                
  19700431.586   105273112.839    19700436.734    81879152.685    19700436.410  
  19700430.449  
  22112854.250   116203801.074                                                  
                
  24910287.633   130904480.958    24910293.426   102003492.7584                 
                
  22854351.703   120100455.340    22854355.195    93584765.7504                 
                
  20570098.250   108096612.370    20570102.891    84231151.8814                 
                
  23192855.438   121879279.893                    94970908.202    23192865.020  
                
  21450285.398   114583579.221    21450290.059    89120587.482    21450288.852  
  21450284.164  
  22416173.414   119490789.602    22416180.418    92937317.773    22416180.234  
  22416171.703  
  22764458.305   121902633.798    22764463.938    94813186.789    22764464.051  
  22764456.539  
  20819890.219   111333312.194    20819895.340    86592622.820    20819895.262  
  20819888.996  
  20426965.781   107344428.023                    83645043.868    20426971.969  
                
  19190782.094   102693773.454    19190787.145    79872994.798    19190786.926  
  19190780.832  
  22300713.008   117191064.739                    91317782.397    22300722.359  
                
 21  8  9  0 46  0.0000000  0 16G 6R18G14R15G 1G21G22G19G24R16R14R 8
                                R24G17R17G 3
  22906093.578   120372347.166                    93796711.008    22906103.906  
                
  21979433.719   117327723.329    21979440.035    91254926.740    21979439.383  
  21979432.840  
  21136678.297   111073990.497                    86551220.986    21136685.117  
                
  19703064.141   105287180.328    19703069.277    81890094.051    19703068.953  
  19703063.004  
  22118862.422   116235383.267                    90573086.947    22118872.117  
                
  24916453.359   130936882.163    24916459.082   102028740.4854                 
                
  22855716.945   120107629.648    22855720.516    93590356.1074                 
                
  20566842.828   108079504.984    20566847.500    84217821.4454                 
                
  23192817.031   121879078.068                    94970750.936    23192826.656  
                
  21444774.852   114554142.964    21444779.535    89097692.630    21444778.332  
  21444773.625  
  22424396.852   119534625.008    22424403.855    92971411.940    22424403.660  
  22424395.141  
  22765391.383   121907630.345    22765397.043    94817072.964    22765397.156  
  22765389.711  
  20825410.320   111362830.687    20825415.445    86615581.654    20825415.359  
  20825409.129  
  20427221.906   107345773.995                    83646092.682    20427228.102  
                
  19189722.492   102688103.310    19189727.516    79868584.693    19189727.297  
  19189721.277  
  22298571.266   117179809.829                    91309012.333    22298580.602  
                
 21  8  9  0 46 10.0000000  0 17R 1G 6R18G14R15G 1G21G22G19G24R16R14
                                R 8R24G17R17G 3
  22582739.281   120717538.453    22582748.332    93891556.994    22582747.793  
  22582737.582  
  22899646.172   120338465.832                    93770309.976    22899656.496  
                
  21973148.547   117294172.701    21973154.867    91228831.827    21973154.215  
  21973147.684  
  21141044.789   111096936.514                    86569100.989    21141051.613  
                
  19705713.016   105301335.084    19705718.152    81901103.296    19705717.824  
  19705711.879  
  22124878.391   116267000.546                                                  
                
  24922619.992   130969287.877    24922625.570   102053991.6544                 
                
  22857094.281   120114867.519    22857097.914    93595995.9904                 
                
  20563595.320   108062439.235    20563600.031    84204523.4624                 
                
  23192791.328   121878943.013                    94970645.693    23192800.996  
                
  21439276.133   114524769.842    21439280.836    89074846.884    21439279.641  
  21439274.887  
  22432625.297   119578487.184    22432632.305    93005526.947    22432632.109  
  22432623.582  
  22766340.820   121912714.620    22766346.531    94821027.407    22766346.637  
  22766339.297  
  20830936.312   111392380.601    20830941.441    86638564.911    20830941.324  
  20830935.137  
  20427485.062   107347156.821                    83647170.203    20427491.242  
                
  19188674.008   102682492.692    19188679.008    79864220.890    19188678.789  
  19188672.824  
  22296442.234   117168621.759                    91300294.380    22296451.586  
                
 21  8  9  0 46 20.0000000  0 17R 1G 6R18G14R15G 1G21G22G19G24R16R14
                                R 8R24G17R17G 3
  22578222.086   120693388.839    22578230.074    93872773.971    22578229.355  
  22578219.816  
  22893204.062   120304612.386                    93743930.683    22893214.395  
                
  21966869.141   117260652.876    21966875.445    91202760.862    21966874.793  
  21966868.285  
  21145420.625   111119931.664                    86587019.278    21145427.461  
                
  19708378.195   105315576.981    19708383.332    81912180.325    19708383.000  
  19708377.078  
  22130901.273   116298651.298                    90622386.714    22130910.945  
                
  24928787.398   131001697.997    24928792.980   102079246.3174                 
                
  22858483.695   120122168.944    22858487.398    93601685.4084                 
                
  20560355.742   108045415.187    20560360.473    84191257.9734                 
                
  23192778.336   121878874.713                    94970592.480    23192788.031  
                
  21433789.242   114495459.886    21433793.945    89052050.259    21433792.766  
  21433787.996  
  22440858.750   119622376.040    22440865.766    93039662.703    22440865.562  
  22440857.051  
  22767306.672   121917886.739    22767312.410    94825050.153    22767312.527  
  22767305.281  
  20836468.117   111421961.659    20836473.262    86661572.406    20836473.160  
  20836466.965  
  20427755.234   107348576.578                    83648276.501    20427761.406  
                
  19187636.633   102676941.557    19187641.629    79859903.355    19187641.402  
  19187635.473  
  22294325.961   117157500.636                    91291628.561    22294335.297  
                
 21  8  9  0 46 30.0000000  0 17R 1G 6R18G14R15G 1G21G22G19G24R16R14
                                R 8R24G17R17G 3
  22573717.508   120669307.525    22573724.773    93854044.061    22573723.906  
  22573714.809  
  22886767.273   120270786.908                    93717573.188    22886777.617  
                
  21960595.555   117227164.103    21960601.855    91176714.060    21960601.215  
  21960594.711  
  21149805.812   111142975.919                    86604975.829    21149812.652  
                
  19711059.680   105329905.979    19711064.820    81923325.097    19711064.488  
  19711058.562  
  22136931.133   116330337.473                                                  
                
  24934955.766   131034112.580    24934961.391   102104504.3074                 
                
  22859885.211   120129534.043    22859889.004    93607424.4664                 
                
  20557124.117   108028432.881    20557128.879    84178025.0144                 
                
  23192778.031   121878873.179                    94970591.290    23192787.742  
                
  21428314.195   114466213.227    21428318.895    89029302.863    21428317.719  
  21428312.949  
  22449097.250   119666291.702    22449104.281    93073819.293    22449104.090  
  22449095.531  
  22768288.891   121923146.461    22768294.641    94829141.048    22768294.758  
  22768287.613  
  20842005.734   111451573.838    20842010.902    86684604.099    20842010.816  
  20842004.590  
  20428032.430   107350033.259                    83649411.572    20428038.598  
                
  19186610.398   102671450.015    19186615.383    79855632.161    19186615.148  
  19186609.246  
  22292222.438   117146446.521                    91283014.963    22292231.773  
                
 21  8  9  0 46 40.0000000  0 17R 1G 6R18G14R15G 1G21G22G19G24R16R14
                                R 8R24G17R17G 3
  22569225.258   120645294.526    22569232.488    93835367.301    22569231.715  
  22569222.680  
  22880335.812   120236989.365                    93691237.445    22880346.160  
                
  21954327.742   117193706.164    21954334.047    91150691.231    21954333.410  
  21954326.895  
  21154200.320   111166069.163                    86622970.553    21154207.160  
                
  19713757.438   105344321.934    19713762.578    81934537.497    19713762.238  
  19713756.312  
  22142967.773   116362056.889                    90671793.638    22142976.504  
                
  24941124.930   131066531.477    24941130.680   102129765.7814                 
                
  22861298.914   120136962.808    22861302.711    93613213.0554                 
                
  20553900.430   108011492.305    20553905.207    84164824.5704                 
                
  23192790.438   121878938.340                    94970642.061    23192800.133  
                
  21422851.070   114437030.195    21422855.754    89006604.947    21422854.590  
  21422849.816  
  22457340.672   119710233.614    22457347.723    93107996.296    22457347.531  
  22457338.934  
  22769287.445   121928493.710    22769293.191    94833300.011    22769293.320  
  22769286.246  
  20847549.172   111481217.053    20847554.332    86707659.931    20847554.262  
  20847548.008  
  20428316.633   107351526.752                    83650575.330    20428322.797  
                
  19185595.266   102666017.821    19185600.246    79851407.127    19185600.012  
  19185594.113  
  22290131.641   117135459.379                    91274453.565    22290140.980  
                
 21  8  9  0 46 50.0000000  0 17R 1G 6R18G14R15G 1G21G22G19G24R16R14
                                R 8R24G17R17G 3
  22564745.797   120621349.972    22564753.203    93816743.760    22564752.301  
  22564743.434  
  22873909.664   120203219.831                    93664923.537    22873920.039  
                
  21948065.773   117160279.389    21948072.090    91124692.638    21948071.473  
  21948064.898  
  21158604.125   111189211.275                    86641003.354    21158610.965  
                
  19716471.438   105358824.733    19716476.582    81945817.444    19716476.246  
  19716470.320  
  22149010.422   116393810.894                    90696537.005    22149019.145  
                
  24947294.820   131098954.623    24947300.723   102155030.6184                 
                
  22862724.578   120144454.795    22862728.477    93619050.9854                 
                
  20550684.680   107994593.418    20550689.469    84151656.6104                 
                
  23192815.531   121879070.158                    94970744.763    23192825.199  
                
  21417399.859   114407910.799    21417404.516    88983956.527    21417403.348  
  21417398.594  
  22465588.984   119754201.778    22465596.066    93142193.754    22465595.863  
  22465587.242  
  22770302.375   121933928.568    22770308.066    94837527.092    22770308.207  
  22770301.195  
  20853098.391   111510891.138    20853103.543    86730739.755    20853103.449  
  20853097.199  
  20428607.852   107353057.095                    83651767.804    20428614.016  
                
  19184591.227   102660644.990    19184596.203    79847228.255    19184595.973  
  19184590.055  
  22288053.617   117124539.275                    91265944.382    22288062.949  
                
 21  8  9  0 47  0.0000000  0 17R 1G 6R18G14R15G 1G21G22G19G24R16R14
                                R 8R24G17R17G 3
  22560279.352   120597473.987    22560286.703    93798173.537    22560285.414  
  22560276.832  
  22867488.898   120169478.489                    93638631.580    22867499.277  
                
  21941809.641   117126883.748    21941815.977    91098718.265    21941815.355  
  21941808.734  
  21163017.242   111212402.317                    86659074.286    21163024.090  
                
  19719201.742   105373414.611    19719206.906    81957165.121    19719206.570  
  19719200.621  
  22155059.383   116425599.004                    90721306.987    22155068.184  
                
  24953465.531   131131382.043    24953471.594   102180298.7944                 
                
  22864162.336   120152010.215    22864166.281    93624938.2954                 
                
  20547476.891   107977736.398    20547481.676    84138521.2734                 
                
  23192853.320   121879268.709                    94970899.468    23192862.988  
                
  21411960.594   114378855.202    21411965.227    88961357.729    21411964.051  
  21411959.328  
  22473842.234   119798196.146    22473849.352    93176411.579    22473849.156  
  22473840.512  
  22771333.656   121939451.035    22771339.297    94841822.344    22771339.426  
  22771332.543  
  20858653.383   111540596.152    20858658.555    86753843.654    20858658.441  
  20858652.203  
  20428906.086   107354624.371                    83652989.059    20428912.258  
                
  19183598.312   102655331.693    19183603.297    79843095.686    19183603.070  
  19183597.117  
  22285988.375   117113686.334                    91257487.549    22285997.715  
                
 21  8  9  0 47 10.0000000  0 17R 1G 6R18G14R15G 1G21G22G19G24R16R14
                                R 8R24G17R17G 3
  22555825.516   120573666.760    22555832.988    93779656.825    22555831.543  
  22555823.277  
  22861073.500   120135765.347                    93612361.598    22861083.887  
                
  21935559.312   117093519.225    21935565.695    91072768.107    21935565.086  
  21935558.387  
  21167439.664   111235642.240                    86677183.305    21167446.523  
                
  19721948.320   105388091.436    19721953.488    81968580.424    19721953.148  
  19721947.191  
  22161114.453   116457421.084                    90746103.412    22161123.797  
                
  24959636.945   131163813.697    24959644.172   102205570.0864                 
                
  22865612.172   120159629.124    22865616.152    93630875.1154                 
                
  20544277.062   107960921.221    20544281.832    84125418.5414                 
                
  23192903.789   121879533.941                    94971106.141    23192913.461  
                
  21406533.250   114349863.329    21406537.883    88938808.505    21406536.684  
  21406532.008  
  22482100.367   119842216.552    22482107.520    93210649.652    22482107.320  
  22482098.656  
  22772381.242   121945060.923    22772386.875    94846185.602    22772386.996  
  22772380.188  
  20864214.141   111570331.973    20864219.320    86776971.511    20864219.199  
  20864212.953  
  20429211.352   107356228.550                    83654239.071    20429217.523  
                
  19182616.500   102650077.809    19182621.484    79839009.325    19182621.262  
  19182615.277  
  22283935.906   117102900.605                    91249083.105    22283945.270  
                
 21  8  9  0 47 20.0000000  0 17R 1G 6R18G14R15G 1G21G22G19G24R16R14
                                R 8R24G17R17G 3
  22551385.430   120549928.432    22551392.148    93761193.716    22551390.715  
  22551382.684  
  22854663.461   120102080.447                    93586113.643    22854673.863  
                
  21929314.859   117060185.948    21929321.250    91046842.233    21929320.652  
  21929313.906  
  21171871.359   111258930.947                    86695330.341    21171878.234  
                
  19724711.117   105402854.997    19724716.297    81980063.188    19724715.965  
  19724709.992  
  22167176.836   116489277.037                    90770926.238    22167185.852  
                
  24965809.352   131196249.455    24965816.230   102230844.6764                 
                
  22867074.086   120167311.425    22867078.051    93636861.2894                 
                
  20541085.211   107944147.935    20541089.945    84112348.4514                 
                
  23192966.961   121879865.864                    94971364.771    23192976.648  
                
  21401117.938   114320935.687    21401122.551    88916309.224    21401121.332  
  21401116.727  
  22490363.352   119886262.882    22490370.539    93244907.899    22490370.348  
  22490361.645  
  22773445.250   121950758.581    22773450.844    94850617.084    22773450.969  
  22773444.145  
  20869780.609   111600098.454    20869785.820    86800123.218    20869785.695  
  20869779.473  
  20429523.641   107357869.638                    83655517.842    20429529.816  
                
  19181645.789   102644883.305    19181650.777    79834969.152    19181650.555  
  19181644.566  
  22281896.242   117092182.096                    91240731.022    22281905.617  
                
 21  8  9  0 47 30.0000000  0 17R 1G 6R18G14R15G 1G21G22G19G24R16R14
                                R 8R24G17R17G 3
  22546956.977   120526258.968    22546964.121    93742784.107    22546962.723  
  22546954.875  
  22848258.805   120068423.815                    93559887.703    22848269.215  
                
  21923076.258   117026883.895    21923082.652    91020940.657    21923082.059  
  21923075.285  
  21176312.328   111282268.352                    86713515.323    21176319.219  
                
  19727490.148   105417705.262    19727495.332    81991613.390    19727495.004  
  19727489.027  
  22173245.070   116521166.704                    90795775.312    22173254.293  
                
  24971982.320   131228689.143    24971989.309   102256122.3854                 
                
  22868548.000   120175056.991    22868551.992    93642896.8214                 
                
  20537901.328   107927416.536    20537906.031    84099311.0004                 
                
  23193042.789   121880264.367                    94971675.286    23193052.492  
                
  21395714.656   114292072.351    21395719.227    88893859.962    21395718.008  
  21395713.477  
  22498631.180   119930334.997    22498638.410    93279186.193    22498638.227  
  22498629.488  
  22774525.586   121956543.643    22774531.117    94855116.547    22774531.242  
  22774524.496  
  20875352.812   111629895.505    20875358.047    86823298.706    20875357.930  
  20875351.703  
  20429842.938   107359547.533                    83656825.293    20429849.113  
                
  19180686.180   102639748.236    19180691.176    79830975.203    19180690.965  
  19180684.961  
  22279869.367   117081530.836                    91232431.348    22279878.750  
                
 21  8  9  0 47 40.0000000  0 17R 1G 6R18G14R15G 1G21G22G19G24R16R14
                                R 8R24G17R17G 3
  22542542.031   120502658.763    22542549.043    93724428.336    22542547.602  
  22542539.824  
  22841859.578   120034795.626                    93533683.920    22841869.992  
                
  21916843.531   116993613.214    21916849.910    90995063.466    21916849.312  
  21916842.523  
  21180762.562   111305654.482                    86731738.278    21180769.480  
                
  19730285.398   105432642.266    19730290.598    82003231.057    19730290.273  
  19730284.273  
  22179319.859   116553090.058                    90820650.668    22179329.145  
                
  24978155.898   131261132.899                                                  
                
  22870034.000   120182865.966    22870037.941    93648981.7434                 
                
  20534725.445   107910727.164    20534730.105    84086306.2934                 
                
  23193131.328   121880729.573                    94972037.774    23193141.020  
                
  21390323.391   114263273.102    21390327.910    88871460.528    21390326.676  
  21390322.227  
  22506903.836   119974432.746    22506911.078    93313484.419    22506910.902  
  22506902.137  
  22775622.266   121962416.366    22775627.750    94859684.228    22775627.887  
  22775621.266  
  20880930.734   111659723.112    20880935.977    86846497.944    20880935.859  
  20880929.602  
  20430169.258   107361262.394                    83658161.547    20430175.445  
                
  19179737.648   102634672.452    19179742.660    79827027.373    19179742.453  
  19179736.445  
  22277855.320   117070946.970                    91224184.185    22277864.723  
                
 21  8  9  0 47 50.0000000  0 16R 1G 6R18G14R15G 1G22G19G24R16R14R 8
                                R24G17R17G 3
  22538140.023   120479127.769    22538147.047    93706126.542    22538145.508  
  22538137.809  
  22835465.742   120001195.890                    93507502.324    22835476.180  
                
  21910616.648   116960373.780    21910623.012    90969210.584    21910622.422  
  21910615.621  
  21185222.055   111329089.238                    86749999.118    21185228.992  
                
  19733096.859   105447665.866    19733102.070    82014916.079    19733101.742  
  19733095.742  
  22185401.242   116585046.993                    90845552.137    22185410.328  
                
  22871532.062   120190738.312    22871535.961    93655116.0244                 
                
  20531557.539   107894079.748    20531562.172    84073334.2894                 
                
  23193232.523   121881261.371                    94972452.168    23193242.246  
                
  21384944.180   114234538.350    21384948.707    88849111.276    21384947.449  
  21384943.031  
  22515181.211   120018555.906    22515188.461    93347802.438    22515188.309  
  22515179.559  
  22776735.258   121968376.428    22776740.695    94864319.837    22776740.836  
  22776734.383  
  20886514.352   111689581.201    20886519.590    86869720.893    20886519.477  
  20886513.223  
  20430502.609   107363014.134                    83659526.536    20430508.797  
                
  19178800.203   102629656.000    19178805.219    79823125.690    19178805.020  
  19178799.023  
  22275854.094   117060430.495                    91215989.534    22275863.508  
                
 21  8  9  0 48  0.0000000  0 16R 1G 6R18G14R15G 1G22G19G24R16R14R 8
                                R24G17R17G 3
  22533751.047   120455666.123    22533758.102    93687878.656    22533756.531  
  22533748.859  
  22829077.352   119967624.690                    93481342.955    22829087.789  
                
  21904395.664   116927165.812    21904402.027    90943382.181    21904401.434  
  21904394.621  
  21189690.789   111352572.587                    86768297.823    21189697.750  
                
  19735924.516   105462775.940    19735929.727    82026668.353    19735929.406  
  19735923.398  
  22191488.742   116617037.357                    90870479.722    22191497.902  
                
  22873042.188   120198673.955    22873046.051    93661299.6244                 
                
  20528397.641   107877474.366    20528402.262    84060395.0354                 
                
  23193346.414   121881859.816                    94972918.465    23193356.168  
                
  21379577.078   114205868.251    21379581.633    88826812.320    21379580.348  
  21379575.949  
  22523463.391   120062704.359    22523470.609    93382140.088    22523470.461  
  22523461.742  
  22777864.586   121974424.021    22777870.012    94869023.540    22777870.148  
  22777863.840  
  20892103.641   111719469.555    20892108.867    86892967.382    20892108.754  
  20892102.535  
  20430842.969   107364802.756                    83660920.273    20430849.172  
                
  19177873.844   102624698.885    19177878.852    79819270.163    19177878.656  
  19177872.676  
  22273865.711   117049981.491                    91207847.461    22273875.125  
                
 21  8  9  0 48 10.0000000  0 16R 1G 6R18G14R15G 1G22G19G24R16R14R 8
                                R24G17R17G 3
  22529375.000   120432274.170    22529382.176    93669684.915    22529380.613  
  22529372.922  
  22822694.391   119934082.067                    93455205.850    22822704.820  
                
  21898180.562   116893989.244    21898186.938    90917578.206    21898186.340  
  21898179.496  
  21194168.773   111376104.463                    86786634.336    21194175.750  
                
  19738768.359   105477972.611    19738773.590    82038487.989    19738773.270  
  19738767.242  
  22197582.727   116649061.098                    90895433.291    22197591.820  
                
  22874564.320   120206672.811    22874568.203    93667532.5054                 
                
  20525245.727   107860910.986    20525250.355    84047488.5124                 
                
  23193472.961   121882524.828                    94973436.660    23193482.766  
                
  21374222.109   114177263.031    21374226.680    88804563.827    21374225.395  
  21374221.008  
  22531750.289   120106878.081    22531757.512    93416497.394    22531757.363  
  22531748.656  
  22779010.266   121980558.979    22779015.660    94873795.152    22779015.797  
  22779009.523  
  20897698.570   111749388.175    20897703.785    86916237.422    20897703.691  
  20897697.500  
  20431190.359   107366628.296                    83662342.769    20431196.566  
                
  19176958.570   102619801.060    19176963.574    79815460.748    19176963.379  
  19176957.398  
  22271890.180   117039599.986                    91199757.971    22271899.609  
                
 21  8  9  0 48 20.0000000  0 16R 1G 6R18G14R15G 1G22G19G24R16R14R 8
                                R24G17R17G 3
  22525012.133   120408951.907    22525019.324    93651545.413    22525017.691  
  22525009.891  
  22816316.898   119900568.147                    93429091.121    22816327.316  
                
  21891971.336   116860844.121    21891977.738    90891798.701    21891977.141  
  21891970.250  
  21198655.984   111399684.852                    86805008.648    21198662.977  
                
  19741628.414   105493255.815    19741633.645    82050374.914    19741633.320  
  19741627.289  
  22203682.930   116681118.161                    90920412.824    22203692.078  
                
  22876098.453   120214734.892    22876102.371    93673814.6674                 
                
  20522101.844   107844389.757    20522106.480    84034614.8294                 
                
  23193612.195   121883256.491                    94974006.788    23193622.047  
                
  21368879.258   114148722.517    21368883.836    88782365.656    21368882.539  
  21368878.168  
  22540041.891   120151076.870    22540049.113    93450874.202    22540048.980  
  22540040.281  
  22780172.242   121986781.388    22780177.645    94878634.815    22780177.781  
  22780171.633  
  20903299.148   111779337.045    20903304.371    86939530.997    20903304.273  
  20903298.098  
  20431544.773   107368490.762                    83663794.036    20431550.988  
                
  19176054.375   102614962.545    19176059.359    79811697.456    19176059.168  
  19176053.176  
  22269927.508   117029286.104                    91191721.181    22269936.957  
                
 21  8  9  0 48 30.0000000  0 16R 1G 6R18G14R15G 1G22G19G24R16R14R 8
                                R24G17R17G 3
  22520662.305   120385699.418    22520669.609    93633460.189    22520667.984  
  22520660.078  
  22809944.867   119867082.916                    93402998.737    22809955.270  
                
  21885768.023   116827730.490    21885774.441    90866043.673    21885773.824  
  21885766.930  
  21203152.398   111423313.618                    86823420.666    21203159.414  
                
  19744504.617   105508625.341    19744509.855    82062328.989    19744509.527  
  19744503.496  
  22209789.484   116713208.336                    90945418.160    22209798.668  
                
  22877644.656   120222860.137    22877648.621    93680146.0164                 
                
  20518965.969   107827910.663    20518970.621    84021773.9884                 
                
  23193764.102   121884054.705                    94974628.762    23193773.980  
                
  21363548.562   114120246.940    21363553.148    88760217.997    21363551.855  
  21363547.480  
  22548338.188   120195300.685    22548345.398    93485270.474    22548345.281  
  22548336.594  
  22781350.523   121993090.956    22781355.922    94883542.233    22781356.059  
  22781350.062  
  20908905.336   111809315.788    20908910.555    86962847.780    20908910.457  
  20908904.254  
  20431906.195   107370390.026                    83665273.982    20431912.422  
                
  19175161.242   102610183.215    19175166.219    79807980.203    19175166.027  
  19175160.020  
  22267977.672   117019039.756                    91183737.040    22267987.145  
                
 21  8  9  0 48 40.0000000  0 16R 1G 6R18G14R15G 1G22G19G24R16R14R 8
                                R24G17R17G 3
  22516325.430   120362516.809    22516333.062    93615429.331    22516331.395  
  22516323.355  
  22803578.297   119833626.419                    93376928.750    22803588.688  
                
  21879570.656   116794648.558    21879577.062    90840313.282    21879576.438  
  21879569.539  
  21207658.000   111446990.712                    86841870.333    21207665.031  
                
  19747396.969   105524081.164    19747402.191    82074350.169    19747401.867  
  19747395.855  
  22215902.328   116745331.527                    90970449.202    22215911.547  
                
  22879202.852   120231048.504    22879206.887    93686526.5534                 
                
  20515838.109   107811473.691    20515842.762    84008965.9614                 
                
  23193928.641   121884919.428                    94975302.574    23193938.555  
                
  21358230.055   114091836.499    21358234.637    88738120.994    21358233.344  
  21358228.996  
  22556639.109   120239549.223    22556646.297    93519686.001    22556646.172  
  22556637.520  
  22782545.117   121999488.082    22782550.539    94888517.797    22782550.680  
  22782544.828  
  20914517.156   111839324.649    20914522.383    86986187.995    20914522.273  
  20914516.086  
  20432274.617   107372326.119                    83666782.626    20432280.852  
                
  19174279.180   102605463.144    19174284.137    79804309.032    19174283.941  
  19174277.926  
  22266040.734   117008861.064                    91175805.581    22266050.203  
                
 21  8  9  0 48 50.0000000  0 16R 1G 6R18G14R15G 1G22G19G24R16R14R 8
                                R24G17R17G 3
  22512001.750   120339404.367    22512009.684    93597453.070    22512007.910  
  22511999.738  
  22797217.242   119800198.923                    93350881.360    22797227.617  
                
  21873379.188   116761598.125    21873385.598    90814607.410    21873384.953  
  21873378.039  
  21212172.828   111470716.248                    86860357.758    21212179.871  
                
  19750305.500   105539623.453    19750310.715    82086438.619    19750310.398  
  19750304.414  
  22222021.477   116777487.810                    90995506.051    22222030.734  
                
  22880773.094   120239300.180    22880777.230    93692956.4374                 
                
  20512718.305   107795079.072    20512722.977    83996190.9474                 
                
  23194105.883   121885850.820                    94976028.343    23194115.828  
                
  21352923.789   114063491.444    21352928.371    88716074.852    21352927.055  
  21352922.758  
  22564944.703   120283822.650    22564951.887    93554120.872    22564951.770  
  22564943.086  
  22783756.062   122005972.578    22783761.480    94893561.280    22783761.609  
  22783755.848  
  20920134.578   111869363.601    20920139.852    87009551.642    20920139.730  
  20920133.555  
  20432650.094   107374299.218                    83668320.113    20432656.332  
                
  19173408.211   102600802.431    19173413.176    79800684.048    19173412.980  
  19173406.953  
  22264116.695   116998750.216                    91167927.010    22264126.172  
                
 21  8  9  0 49  0.0000000  0 16R 1G 6R18G14R15G 1G22G19G24R16R14R 8
                                R24G17R17G 3
  22507691.242   120316362.216    22507706.496    93579568.938    22507697.719  
  22507689.340  
  22790861.695   119766800.306                    93324856.477    22790872.066  
                
  21867193.664   116728579.485    21867200.074    90788926.267    21867199.422  
  21867192.473  
  21216696.844   111494490.018                    86878882.759    21216703.887  
                
  19753230.156   105555251.897    19753235.359    82098594.067    19753235.043  
  19753229.094  
  22228146.859   116809676.935                    91020588.484    22228156.176  
                
  22882355.305   120247614.886    22882359.562    93699435.4534                 
                
  20509606.547   107778726.657    20509611.211    83983448.8074                 
                
  23194295.773   121886848.716                    94976805.928    23194305.734  
                
  21347629.828   114035211.951    21347634.395    88694079.682    21347633.039  
  21347628.785  
  22573254.875   120328120.399    22573262.055    93588574.642    22573261.914  
  22573253.234  
  22784983.266   122012544.255    22784988.668    94898672.598    22784988.801  
  22784983.121  
  20925757.562   111899432.243    20925762.867    87032938.367    20925762.742  
  20925756.578  
  20433032.570   107376309.149                    83669886.292    20433038.812  
                
  19172548.336   102596201.062    19172553.305    79797105.200    19172553.098  
  19172547.066  
  22262205.555   116988707.093                    91160101.211    22262215.035  
                
 21  8  9  0 49 10.0000000  0 16R 1G 6R18G14R15G 1G22G19G24R16R14R 8
                                R24G17R17G 3
  22503393.758   120293390.022                    93561657.264    22503400.832  
  22503392.020  
  22784511.617   119733430.481                    93298854.040    22784521.996  
                
  21861014.070   116695592.392    21861020.457    90763269.643    21861019.805  
  21861012.816  
  21221229.984   111518311.775                    86897445.153    21221237.027  
                
  19756170.891   105570966.275    19756176.090    82110816.358    19756175.766  
  19756169.859  
  22234278.438   116841898.608                    91045696.276    22234287.801  
                
  22883949.531   120255992.514    22883953.844    93705963.4534                 
                
  20506502.797   107762416.365    20506507.438    83970739.4984                 
                
  23194498.289   121887912.923                    94977635.172    23194508.215  
                
  21342348.055   114006997.682    21342352.645    88672135.252    21342351.270  
  21342347.023  
  22581569.594   120372442.349    22581576.750    93623047.225    22581576.617  
  22581567.926  
  22786226.750   122019203.131    22786232.129    94903851.736    22786232.262  
  22786226.602  
  20931386.117   111929530.596    20931391.418    87056348.188    20931391.297  
  20931385.121  
  20433422.008   107378355.687                    83671481.001    20433428.254  
                
  19171699.445   102591658.508    19171704.434    79793572.112    19171704.230  
  19171698.180  
  22260307.281   116978731.614                    91152328.113    22260316.754  
                
 21  8  9  0 49 20.0000000  0 17R 1G 6R18G14R15G 1G21G22G19G24R16R14
                                R 8R24G17R17G 3
  22499109.398   120270488.456                    93543845.083    22499117.242  
  22499107.832  
  22778167.078   119700089.735                    93272874.245    22778177.449  
                
  21854840.391   116662637.033    21854846.773    90737637.727    21854846.137  
  21854839.129  
  21225772.289   111542181.708                    86916045.091    21225779.352  
                
  19759127.727   105586766.720    19759132.918    82123105.586    19759132.594  
  19759126.703  
  22240416.266   116874152.995                    91070829.555    22240425.645  
                
  25039935.133   131585774.292                                                  
                
  22885555.719   120264433.213    22885560.145    93712540.6504                 
                
  20503407.109   107746148.444    20503411.727    83958063.1934                 
                
  23194713.469   121889043.680                    94978516.272    23194723.355  
                
  21337078.578   113978849.147    21337083.191    88650241.956    21337081.836  
  21337077.543  
  22589888.867   120416788.607    22589896.039    93657538.727    22589895.891  
  22589887.184  
  22787486.555   122025949.283    22787491.883    94909098.736    22787491.992  
  22787486.371  
  20937020.211   111959658.611    20937025.516    87079781.085    20937025.398  
  20937019.180  
  20433818.469   107380439.123                    83673104.454    20433824.719  
                
  19170861.625   102587175.163    19170866.625    79790085.066    19170866.418  
  19170860.352  
  22258421.930   116968824.016                    91144607.900    22258431.379  
                
 21  8  9  0 49 30.0000000  0 17R 1G 6R18G14R15G 1G21G22G19G24R16R14
                                R 8R24G17R17G 3
  22494838.367   120247657.339                    93526087.576    22494846.703  
  22494836.812  
  22771828.062   119666778.065                    93246917.116    22771838.449  
                
  21848672.680   116629713.419    21848679.027    90712030.482    21848678.395  
  21848671.445  
  21230323.734   111566099.681                    86934682.461    21230330.809  
                
  19762100.680   105602653.243    19762105.875    82135461.770    19762105.551  
  19762099.648  
  22246560.281   116906439.904                    91095988.138    22246569.664  
                
  25046115.719   131618258.124                                                  
                
  22887173.914   120272936.874    22887178.379    93719166.8824                 
                
  20500319.469   107729922.837    20500324.078    83945419.8704                 
                
  23194941.273   121890240.839                    94979449.135    23194951.117  
                
  21331821.406   113950766.333    21331826.055    88628399.785    21331824.699  
  21331820.359  
  22598212.641   120461158.989    22598219.859    93692049.025    22598219.691  
  22598210.973  
  22788762.602   122032782.515    22788767.898    94914413.488    22788768.012  
  22788762.410  
  20942659.820   111989816.100    20942665.137    87103236.897    20942665.027  
  20942658.785  
  20434221.930   107382559.310                    83674756.555    20434228.176  
                
  19170034.844   102582750.912    19170039.852    79786643.989    19170039.652  
  19170033.559  
  22256549.484   116958984.280                    91136940.589    22256558.949  
                
 21  8  9  0 49 40.0000000  0 17R 1G 6R18G14R15G 1G21G22G19G24R16R14
                                R 8R24G17R17G 3
  22490580.570   120224896.948                    93508385.067    22490589.141  
  22490578.980  
  22765494.602   119633495.541                    93220982.688    22765504.996  
                
  21842510.961   116596821.725    21842517.254    90686448.049    21842516.625  
  21842509.742  
  21234884.328   111590065.684                    86953357.245    21234891.395  
                
  19765089.680   105618625.582    19765094.887    82147884.702    19765094.559  
  19765088.641  
  22252710.438   116938759.245                    91121172.055    22252719.824  
                
  25052297.695   131650745.203    25052302.910   102584990.3874                 
                
  22888804.094   120281503.552    22888808.555    93725842.2204                 
                
  20497239.891   107713739.541    20497244.492    83932809.5154                 
                
  23195181.734   121891504.450                    94980433.757    23195191.520  
                
  21326576.570   113922749.426    21326581.254    88606608.868    21326579.891  
  21326575.500  
  22606540.914   120505553.375    22606548.148    93726577.997    22606547.973  
  22606539.254  
  22790054.930   122039702.849    22790060.164    94919795.958    22790060.277  
  22790054.723  
  20948304.938   112020003.035    20948310.277    87126715.615    20948310.160  
  20948303.906  
  20434632.398   107384716.350                    83676437.361    20434638.633  
                
  19169219.117   102578385.849    19169224.137    79783248.939    19169223.934  
  19169217.816  
  22254689.969   116949212.492                    91129326.205    22254699.422  
                
 21  8  9  0 49 50.0000000  0 17R 1G 6R18G14R15G 1G21G22G19G24R16R14
                                R 8R24G17R17G 3
  22486336.008   120202207.366    22486345.840    93490758.167    22486344.609  
  22486334.445  
  22759166.703   119600242.288                    93195071.081    22759177.113  
                
  21836355.180   116563961.826    21836361.453    90660890.364    21836360.812  
  21836353.984  
  21239454.055   111614079.698                    86972069.452    21239461.121  
                
  19768094.781   105634683.893    19768099.984    82160374.491    19768099.652  
  19768093.719  
  22258866.773   116971110.958                    91146381.183    22258876.152  
                
  25058480.625   131683235.533    25058485.828   102610307.5584                 
                
  22890446.273   120290133.274    22890450.672    93732566.6754                 
                
  20494168.383   107697598.657    20494172.996    83920232.2064                 
                
  23195434.836   121892834.519                    94981470.178    23195444.598  
                
  21321344.109   113894798.597    21321348.832    88584869.348    21321347.453  
  21321343.027  
  22614873.688   120549971.697    22614880.914    93761125.574    22614880.723  
  22614872.020  
  22791363.570   122046710.506    22791368.738    94925246.356    22791368.855  
  22791363.395  
  20953955.531   112050219.347    20953960.910    87150217.203    20953960.801  
  20953954.469  
  20435049.875   107386910.216                    83678146.873    20435056.113  
                
  19168414.445   102574079.888    19168419.465    79779899.861    19168419.262  
  19168413.129  
  22252843.422   116939508.787                    91121764.864    22252852.828  
                
 21  8  9  0 50  0.0000000  0 17R 1G 6R18G14R15G 1G21G22G19G24R16R14
                                R 8R24G17R17G 3
  22482104.695   120179588.749                    93473145.415    22482113.211  
  22482103.188  
  22752844.383   119567018.307                    93169182.275    22752854.789  
                
  21830205.414   116531133.978    21830211.664    90635357.607    21830211.023  
  21830204.227  
  21244032.891   111638141.603                    86990818.978    21244039.961  
                
  19771115.930   105650827.955    19771121.137    82172930.978    19771120.801  
  19771114.836  
  22265029.234   117003494.915                    91171615.441    22265038.617  
                
  25064664.336   131715729.078    25064669.273   102635627.1754                 
                
  22892100.383   120298825.816    22892104.777    93739340.1234                 
                
  20491104.945   107681500.178    20491109.578    83907687.9374                 
                
  23195700.570   121894230.984                    94982558.338    23195710.324  
                
  21316124.055   113866914.049    21316128.801    88563181.375    21316127.418  
  21316122.961  
  22623210.906   120594413.573    22623218.133    93795691.438    22623217.949  
  22623209.227  
  22792688.453   122053805.260    22792693.594    94930764.493    22792693.707  
  22792688.297  
  20959611.664   112080465.147    20959617.023    87173741.688    20959616.926  
  20959610.473  
  20435474.359   107389140.901                    83679885.067    20435480.594  
                
  19167620.820   102569833.025    19167625.836    79776596.746    19167625.641  
  19167619.465  
  22251009.805   116929873.070                    91114256.514    22251019.203  
                
 21  8  9  0 50 10.0000000  0 17R 1G 6R18G14R15G 1G21G22G19G24R16R14
                                R 8R24G17R17G 3
  22477886.781   120157041.444    22477896.051    93455625.616    22477894.973  
  22477885.352  
  22746527.641   119533823.697                    93143316.363    22746538.055  
                
  21824061.633   116498338.115    21824067.867    90609849.724    21824067.234  
  21824060.453  
  21248620.836   111662251.356                    87009605.787    21248627.922  
                
  19774153.133   105667057.836    19774158.340    82185554.214    19774158.000  
  19774152.027  
  22271197.820   117035911.009                    91196874.715    22271207.199  
                
  25070848.211   131748225.732    25070853.160   102660949.2964                 
                
  22893766.500   120307581.192    22893770.797    93746162.4764                 
                
  20488049.594   107665444.209    20488054.242    83895176.7894                 
                
  23195978.953   121895693.855                    94983698.219    23195988.703  
                
  21310916.430   113839095.789    21310921.145    88541544.938    21310919.777  
  21310915.316  
  22631552.516   120638879.038    22631559.758    93830275.680    22631559.586  
  22631550.863  
  22794029.570   122060986.848    22794034.668    94936350.168    22794034.773  
  22794029.395  
  20965273.258   112110740.090    20965278.562    87197288.821    20965278.477  
  20965271.918  
  20435905.852   107391408.391                    83681651.939    20435912.082  
                
  19166838.219   102565645.179    19166843.238    79773339.531    19166843.031  
  19166836.828  
  22249189.156   116920305.455                    91106801.231    22249198.543  
                
 21  8  9  0 50 20.0000000  0 17R 1G 6R18G14R15G 1G21G22G19G24R16R14
                                R 8R24G17R17G 3
  22473682.164   120134565.276    22473690.910    93438144.139    22473690.113  
  22473680.828  
  22740216.500   119500658.505                    93117473.377    22740226.922  
                
  21817923.844   116465574.220    21817930.074    90584366.706    21817929.449  
  21817922.699  
  21253217.875   111686408.908                    87028429.845    21253224.969  
                
  19777206.367   105683373.358    19777211.570    82198244.053    19777211.227  
  19777205.254  
  22277372.508   117068359.173                    91222158.978    22277381.871  
                
  25077032.758   131780725.456    25077037.598   102686273.7474                 
                
  22895444.531   120316399.390    22895448.770    93753033.8044                 
                
  20485002.336   107649430.750    20485006.996    83882698.7654                 
                
  23196269.945   121897223.088                    94984889.844    23196279.707  
                
  21305721.211   113811343.905    21305725.934    88519960.147    21305724.586  
  21305720.094  
  22639898.547   120683367.958    22639905.773    93864878.152    22639905.625  
  22639896.910  
  22795386.977   122068255.537    22795391.977    94942003.571    22795392.066  
  22795386.820  
  20970940.305   112141044.161    20970945.559    87220858.622    20970945.477  
  20970938.832  
  20436344.328   107393712.600                    83683447.431    20436350.562  
                
  19166066.664   102561516.394    19166071.680    79770128.256    19166071.477  
  19166065.227  
  22247381.477   116910806.012                    91099399.058    22247390.832  
                
 21  8  9  0 50 30.0000000  0 17R 1G 6R18G14R15G 1G21G22G19G24R16R14
                                R 8R24G17R17G 3
  22469490.859   120112160.292    22469499.191    93420718.004    22469498.582  
  22469489.617  
  22733910.961   119467522.710                    93091653.293    22733921.375  
                
  21811792.055   116432842.360    21811798.270    90558908.604    21811797.645  
  21811790.938  
  21257823.977   111710614.099                    87047291.014    21257831.082  
                
  19780275.586   105699774.366    19780280.797    82211000.397    19780280.449  
  19780274.477  
  22283553.242   117100839.177                    91247468.052    22283562.602  
                
  25083217.445   131813228.131    25083222.668   102711600.4664                 
                
  22897134.477   120325280.294    22897138.688    93759954.0404                 
                
  20481963.148   107633459.754    20481967.828    83870253.8344                 
                
  23196573.570   121898818.595                    94986133.075    23196583.305  
                
  21300538.477   113783658.704    21300543.223    88498427.225    21300541.883  
  21300537.348  
  22648248.883   120727879.973    22648256.105    93899498.615    22648255.938  
  22648247.320  
  22796760.555   122075610.960    22796765.496    94947724.451    22796765.527  
  22796760.449  
  20976612.742   112171377.227    20976617.969    87244450.997    20976617.906  
  20976611.223  
  20436789.797   107396053.587                    83685271.574    20436796.039  
                
  19165306.109   102557446.521    19165311.113    79766962.795    19165310.918  
  19165304.625  
  22245586.742   116901374.647                    91092049.950    22245596.098  
                
 21  8  9  0 50 40.0000000  0 17R 1G 6R18G14R15G 1G21G22G19G24R16R14
                                R 8R24G17R17G 3
  22465312.891   120089826.824    22465321.070    93403347.549    22465320.512  
  22465311.777  
  22727611.047   119434416.522                    93065856.269    22727621.457  
                
  21805666.289   116400142.691    21805672.500    90533475.547    21805671.867  
  21805665.207  
  21262439.164   111734867.037                    87066189.394    21262446.273  
                
  19783360.836   105716260.977    19783366.051    82223823.312    19783365.703  
  19783359.723  
  22289740.047   117133351.084                    91272802.009    22289749.457  
                
  25089402.789   131845733.829    25089408.320   102736929.6114                 
                
  22898836.422   120334224.047    22898840.535    93766923.1934                 
                
  20478932.078   107617531.338    20478936.758    83857842.0824                 
                
  23196889.812   121900480.483                    94987428.045    23196899.527  
                
  21295368.234   113756040.240    21295372.988    88476946.207    21295371.676  
  21295367.086  
  22656603.633   120772415.281    22656610.801    93934137.151    22656610.629  
  22656602.070  
  22798150.383   122083053.512    22798155.305    94953513.108    22798155.340  
  22798150.293  
  20982290.609   112201739.206    20982295.809    87268065.842    20982295.746  
  20982289.094  
  20437242.297   107398431.465                    83687124.465    20437248.535  
                
  19164556.586   102553435.682    19164561.586    79763843.253    19164561.395  
  19164555.051  
  22243805.008   116892011.590                    91084754.064    22243814.336  
                
 21  8  9  0 50 50.0000000  0 17R 1G 6R18G14R15G 1G21G22G19G24R16R14
                                R 8R24G17R17G 3
  22461148.359   120067564.948    22461156.648    93386032.756    22461155.895  
  22461147.277  
  22721316.789   119401339.974                    93040082.330    22721327.199  
                
  21799546.523   116367475.033    21799552.742    90508067.394    21799552.113  
  21799545.473  
  21267063.422   111759167.591                    87085124.868    21267070.527  
                
  19786462.102   105732833.165    19786467.324    82236712.788    19786466.980  
  19786460.988  
  22295932.891   117165894.736                    91298160.684    22295942.301  
                
  25095589.445   131878242.509    25095594.742   102762260.9674                 
                
  22900550.281   120343230.588    22900554.340    93773941.3114                 
                
  20475909.117   107601645.542    20475913.785    83845463.5374                 
                
  23197218.688   121902208.704                    94988774.700    23197228.371  
                
  21290210.484   113728488.517    21290215.250    88455517.105    21290213.949  
  21290209.344  
  22664962.680   120816973.586    22664969.809    93968793.581    22664969.664  
  22664961.117  
  22799556.461   122090582.962    22799561.375    94959369.348    22799561.422  
  22799556.328  
  20987973.867   112232130.148    20987979.070    87291703.242    20987979.023  
  20987972.430  
  20437701.805   107400846.221                    83689006.096    20437708.051  
                
  19163818.086   102549483.812    19163823.086    79760769.574    19163822.891  
  19163816.531  
  22242036.281   116882716.822                    91077511.371    22242045.582  
                
 21  8  9  0 51  0.0000000  0 17R 1G 6R18G14R15G 1G21G22G19G24R16R14
                                R 8R24G17R17G 3
  22456997.273   120045375.011    22457005.645    93368773.945    22457004.887  
  22456996.234  
  22715028.203   119368293.186                    93014331.585    22715038.609  
                
  21793432.820   116334839.751    21793439.031    90482684.415    21793438.418  
  21793431.785  
  21271696.750   111783515.802                    87104097.479    21271703.840  
                
  19789579.352   105749490.768    19789584.578    82249668.694    19789584.246  
  19789578.238  
  22302131.781   117198470.117                    91323544.079    22302141.180  
                
  25101775.906   131910754.156    25101781.938   102787594.7004                 
                
  22902276.141   120352299.897    22902280.125    93781008.2714                 
                
  20472894.281   107585802.462    20472898.938    83833118.2804                 
                
  23197560.188   121904003.289                    94990173.068    23197569.867  
                
  21285065.297   113701003.834    21285070.031    88434140.119    21285068.730  
  21285064.152  
  22673326.031   120861554.850    22673333.117    94003467.877    22673333.008  
  22673324.477  
  22800978.797   122098199.351    22800983.668    94965293.162    22800983.734  
  22800978.621  
  20993662.516   112262549.954    20993667.723    87315363.101    20993667.672  
  20993661.102  
  20438168.336   107403297.820                    83690916.426    20438174.578  
                
  19163090.625   102545590.990    19163095.617    79757741.814    19163095.426  
  19163089.070  
  22240280.578   116873490.474                    91070321.997    22240289.855  
                
 21  8  9  0 51 10.0000000  0 17R 1G 6R18G14R15G 1G21G22G19G24R16R14
                                R 8R24G17R17G 3
  22452859.641   120023256.824    22452868.027    93351570.876    22452867.246  
  22452858.504  
  22708745.227   119335275.976                    92988603.894    22708755.641  
                
  21787325.125   116302236.564    21787331.348    90457326.401    21787330.723  
  21787324.086  
  21276339.062   111807911.361                    87123107.013    21276346.172  
                
  19792712.531   105766233.514    19792717.758    82262690.823    19792717.438  
  19792711.414  
  22308336.641   117231076.897                    91348951.946    22308346.055  
                
  25107963.078   131943268.399    25107969.500   102812930.4954                 
                
  22904013.859   120361431.707    22904017.852    93788123.9774                 
                
  20469887.492   107570001.808    20469892.160    83820806.0974                 
                
  23197914.266   121905864.006                    94991622.985    23197923.965  
                
  21279932.680   113673586.323    21279937.402    88412815.394    21279936.090  
  21279931.562  
  22681693.609   120906158.663    22681700.680    94038159.708    22681700.582  
  22681692.066  
  22802417.281   122105902.394    22802422.125    94971284.422    22802422.191  
  22802417.078  
  20999356.531   112292998.326    20999361.711    87339045.142    20999361.656  
  20999355.117  
  20438641.820   107405786.021                    83692855.289    20438648.074  
                
  19162374.133   102541756.940    19162379.133    79754759.781    19162378.945  
  19162372.617  
  22238537.836   116864332.349                    91063185.815    22238547.113  
                
 21  8  9  0 51 20.0000000  0 17R 1G 6R18G14R15G 1G21G22G19G24R16R14
                                R 8R24G17R17G 3
  22448735.453   120001210.680    22448743.879    93334423.902    22448743.035  
  22448734.090  
  22702467.938   119302288.675                    92962899.520    22702478.359  
                
  21781223.531   116269665.876    21781229.746    90431993.653    21781229.117  
  21781222.461  
  21280990.445   111832354.491                    87142153.606    21280997.551  
                
  19795861.695   105783061.692    19795866.941    82275779.403    19795866.629  
  19795860.586  
  22314547.516   117263715.245                    91374384.400    22314556.938  
                
  25114150.961   131975785.520    25114157.387   102838268.5224                 
                
  22905763.516   120370626.231    22905767.508    93795288.5464                 
                
  20466888.875   107554243.945    20466893.547    83808527.2484                 
                
  23198280.969   121907791.072                    94993124.600    23198290.715  
                
  21274812.633   113646236.035    21274817.352    88391542.962    21274816.023  
  21274811.520  
  22690065.469   120950785.209    22690072.516    94072869.200    22690072.418  
  22690063.910  
  22803872.039   122113692.531    22803876.840    94977343.414    22803876.926  
  22803871.789  
  21005055.906   112323475.389    21005061.078    87362749.516    21005061.027  
  21005054.613  
  20439122.336   107408311.102                    83694822.886    20439128.594  
                
  19161668.672   102537981.893    19161673.684    79751823.635    19161673.492  
  19161667.211  
  22236808.133   116855242.752                    91056103.014    22236817.410  
                
 21  8  9  0 51 30.0000000  0 17R 1G 6R18G14R15G 1G21G22G19G24R16R14
                                R 8R24G17R17G 3
  22444624.781   119979236.607    22444633.215    93317332.974    22444632.332  
  22444623.051  
  22696196.352   119269331.296                    92937218.455    22696206.766  
                
  21775127.984   116237127.491    21775134.203    90406686.038    21775133.578  
  21775126.891  
  21285650.859   111856845.066                    87161237.162    21285657.957  
                
  19799026.828   105799975.166    19799032.086    82288934.321    19799031.773  
  19799025.711  
  22320764.367   117296384.953                    91399841.307    22320773.805  
                
  25120339.461   132008305.378    25120345.703   102863608.5724                 
                
  22907525.102   120379883.525    22907529.164    93802502.0444                 
                
  20463898.391   107538528.872    20463903.066    83796281.7384                 
                
  23198660.297   121909784.425                    94994677.861    23198670.090  
                
  21269705.227   113618953.157    21269709.922    88370322.947    21269708.586  
  21269704.102  
  22698441.570   120995434.356    22698448.566    94107596.275    22698448.449  
  22698439.996  
  22805342.984   122121569.449    22805347.785    94983469.922    22805347.883  
  22805342.676  
  21010760.625   112353981.100    21010765.816    87386476.183    21010765.754  
  21010759.488  
  20439609.859   107410873.045                    83696819.197    20439616.121  
                
  19160974.219   102534265.720    19160979.246    79748933.282    19160979.055  
  19160972.824  
  22235091.484   116846221.676                    91049073.601    22235100.750  
                
 21  8  9  0 51 40.0000000  0 17R 1G 6R18G14R15G 1G21G22G19G24R16R14
                                R 8R24G17R17G 3
  22440527.555   119957334.728    22440536.035    93300298.223    22440535.168  
  22440524.422  
  22689930.461   119236403.877                    92911560.750    22689940.887  
                
  21769038.492   116204621.436    21769044.715    90381403.561    21769044.098  
  21769037.391  
  21290320.281   111881382.991                    87180357.606    21290327.363  
                
  19802207.898   105816973.783    19802213.164    82302155.457    19802212.852  
  19802206.785  
  22326987.164   117329085.946                    91425322.576    22326996.617  
                
  25126528.797   132040827.880    25126534.562   102888950.8144                 
                
  22909298.602   120389203.366    22909302.785    93809764.2674                 
                
  20460916.062   107522856.637    20460920.762    83784069.6144                 
                
  23199052.227   121911844.009                    94996282.744    23199062.066  
                
  21264610.461   113591737.884    21264615.160    88349155.518    21264613.824  
  21264609.320  
  22706821.859   121040105.787    22706828.809    94142340.670    22706828.688  
  22706820.254  
  22806830.148   122129533.124    22806834.926    94989663.887    22806835.020  
  22806829.707  
  21016470.672   112384515.260    21016475.879    87410224.974    21016475.844  
  21016469.648  
  20440104.391   107413471.764                    83698844.166    20440110.656  
                
  19160290.750   102530608.323    19160295.781    79746088.644    19160295.590  
  19160289.398  
  22233387.875   116837269.135                    91042097.606    22233397.152  
                
 21  8  9  0 51 50.0000000  0 17R 1G 6R18G14R15G 1G21G22G19G24R16R14
                                R 8R24G17R17G 3
  22436443.875   119935505.338    22436452.387    93283319.860    22436451.516  
  22436440.340  
  22683670.266   119203506.425                    92885926.383    22683680.691  
                
  21762955.086   116172147.821    21762961.301    90356146.312    21762960.688  
  21762953.969  
  21294998.688   111905968.165                    87199514.869    21295005.754  
                
  19805404.859   105834057.373    19805410.148    82315442.691    19805409.820  
  19805403.746  
  22333215.859   117361818.061                    91450828.111    22333225.332  
                
  25132718.109   132073352.859    25132723.832   102914294.9754                 
                
  22911084.023   120398585.742    22911088.293    93817075.1944                 
                
  20457941.891   107507227.221    20457946.605    83771890.8414                 
                
  23199456.734   121913969.747                    94997939.163    23199466.613  
                
  21259528.375   113564590.279    21259533.062    88328040.715    21259531.746  
  21259527.230  
  22715206.305   121084799.495    22715213.238    94177102.417    22715213.098  
  22715204.676  
  22808333.492   122137583.487    22808338.277    94995925.293    22808338.348  
  22808332.887  
  21022186.016   112415077.836    21022191.258    87433995.879    21022191.234  
  21022185.043  
  20440605.898   107416107.234                    83700897.774    20440612.172  
                
  19159618.273   102527009.811    19159623.316    79743289.808    19159623.125  
  19159616.957  
  22231697.297   116828385.128                    91035175.013    22231706.598  
                
 21  8  9  0 52  0.0000000  0 16G 6R18G14R15G 1G21G22G19G24R16R14R 8
                                R24G17R17G 3
  22677415.812   119170639.086                    92860315.477    22677426.230  
                
  21756877.773   116139706.761    21756883.980    90330914.393    21756883.379  
  21756876.672  
  21299686.094   111930600.595                    87218708.964    21299693.156  
                
  19808617.742   105851225.995    19808623.039    82328796.057    19808622.707  
  19808616.629  
  22339450.484   117394581.250                    91476357.836    22339459.977  
                
  25138908.219   132105880.599    25138913.625   102939641.3204                 
                
  22912881.320   120408030.598    22912885.676    93824434.8164                 
                
  20454975.867   107491640.708    20454980.613    83759745.5174                 
                
  23199873.852   121916161.688                    94999647.171    23199883.750  
                
  21254458.961   113537510.388    21254463.645    88306978.577    21254462.328  
  21254457.855  
  22723594.914   121129515.265    22723601.820    94211881.302    22723601.645  
  22723593.230  
  22809852.984   122145720.307    22809857.773    95002253.928    22809857.832  
  22809852.180  
  21027906.680   112445668.674    21027911.922    87457788.730    21027911.891  
  21027905.629  
  20441114.430   107418779.527                    83702980.076    20441120.711  
                
  19158956.828   102523470.298    19158961.879    79740536.859    19158961.680  
  19158955.520  
  22230019.789   116819569.761                    91028305.900    22230029.094  
                
 21  8  9  0 52 10.0000000  0 16G 6R18G14R15G 1G21G22G19G24R16R14R 8
                                R24G17R17G 3
  22671167.086   119137801.874                    92834728.058    22671177.488  
                
  21750806.562   116107298.261    21750812.746    90305707.787    21750812.141  
  21750805.469  
  21304382.484   111955280.235                    87237939.846    21304389.547  
                
  19811846.516   105868479.581    19811851.820    82342215.511    19811851.488  
  19811845.406  
  22345691.023   117427375.417                    91501911.693    22345700.512  
                
  25145098.219   132138411.335                                                  
                
  22914690.477   120417537.905    22914694.938    93831843.1394                 
                
  20452018.008   107476097.073    20452022.777    83747633.5954                 
                
  23200303.562   121918419.824                    95001406.758    23200313.473  
                
  21249402.297   113510498.643    21249406.977    88285969.454    21249405.648  
  21249401.215  
  22731987.578   121174252.905    22731994.512    94246677.243    22731994.336  
  22731985.910  
  22811388.688   122153943.968    22811393.473    95008650.124    22811393.539  
  22811387.684  
  21033632.617   112476287.758    21033637.863    87481603.550    21033637.832  
  21033631.500  
  20441629.953   107421488.594                    83705091.029    20441636.230  
                
  19158306.359   102519989.521    19158311.410    79737829.590    19158311.211  
  19158305.020  
  22228355.352   116810823.088                    91021490.307    22228364.668  
                
 21  8  9  0 52 20.0000000  0 16G 6R18G14R15G 1G21G22G19G24R16R14R 8
                                R24G17R17G 3
  22664924.117   119104994.978                    92809164.275    22664934.531  
                
  21744741.477   116074922.479    21744747.633    90280526.636    21744747.035  
  21744740.391  
  21309087.859   111980007.107                    87257207.518    21309094.918  
                
  19815091.188   105885818.130    19815096.492    82355701.046    19815096.156  
  19815090.055  
  22351937.461   117460200.587                    91527489.705    22351946.934  
                
  25151289.344   132170943.375                                                  
                
  22916511.562   120427107.830    22916516.121    93839300.2304                 
                
  20449068.336   107460596.456    20449073.121    83735555.1894                 
                
  23200745.867   121920744.190                    95003217.960    23200755.805  
                
  21244358.352   113483554.859    21244363.035    88265013.192    21244361.719  
  21244357.277  
  22740384.406   121219012.550    22740391.336    94281490.265    22740391.152  
  22740382.699  
  22812940.570   122162254.285    22812945.352    95015113.716    22812945.406  
  22812939.324  
  21039363.891   112506935.324    21039369.113    87505440.512    21039369.074  
  21039362.770  
  20442152.484   107424234.526                    83707230.712    20442158.766  
                
  19157666.883   102516567.576    19157671.938    79735168.082    19157671.738  
  19157665.508  
  22226704.000   116802145.218                    91014728.336    22226713.344  
                
 21  8  9  0 52 30.0000000  0 16G 6R18G14R15G 1G21G22G19G24R16R14R 8
                                R24G17R17G 3
  22658686.922   119072218.337                    92783624.057    22658697.344  
                
  21738682.492   116042579.226    21738688.633    90255370.781    21738688.027  
  21738681.426  
  21313802.188   112004780.995                    87276511.837    21313809.246  
                
  19818351.742   105903241.508    19818357.059    82369252.562    19818356.719  
  19818350.613  
  22358189.734   117493056.454                    91553091.664    22358199.199  
                
  25157479.852   132203478.342                                                  
                
  22918344.547   120436740.092    22918349.184    93846805.8754                 
                
  20446126.852   107445138.854    20446131.641    83723510.3054                 
                
  23201200.766   121923134.654                    95005080.656    23201210.734  
                
  21239327.156   113456679.228    21239331.848    88244109.950    21239330.555  
  21239326.066  
  22748785.281   121263793.798    22748792.234    94316320.093    22748792.055  
  22748783.543  
  22814508.641   122170651.186    22814513.430    95021644.646    22814513.484  
  22814507.121  
  21045100.352   112537610.676    21045105.559    87529299.102    21045105.559  
  21045099.262  
  20442682.016   107427017.181                    83709399.009    20442688.293  
                
  19157038.398   102513204.376    19157043.430    79732552.247    19157043.242  
  19157036.980  
  22225065.750   116793536.095                    91008019.934    22225075.109  
                
 21  8  9  0 52 40.0000000  0 16G 6R18G14R15G 1G21G22G19G24R16R14R 8
                                R24G17R17G 3
  22652455.492   119039472.000                    92758107.428    22652465.902  
                
  21732629.633   116010268.653    21732635.758    90230240.337    21732635.148  
  21732628.570  
  21318525.438   112029601.846                    87295852.749    21318532.504  
                
  19821628.125   105920749.518    19821633.445    82382869.900    19821633.098  
  19821626.977  
  22364447.805   117525942.944                    91578717.503    22364457.293  
                
  25163671.109   132236015.592                                                  
                
  22920189.367   120446434.685    22920194.082    93854360.1104                 
                
  20443193.547   107429724.181    20443198.305    83711498.8664                 
                
  23201668.219   121925591.172                    95006994.828    23201678.211  
                
  21234308.758   113429871.822    21234313.430    88223259.743    21234312.129  
  21234307.676  
  22757190.164   121308596.538    22757197.129    94351166.660    22757196.961  
  22757188.422  
  22816092.844   122179134.566    22816097.672    95028242.823    22816097.727  
  22816091.199  
  21050842.031   112568314.052    21050847.242    87553179.515    21050847.230  
  21050840.949  
  20443218.531   107429836.604                    83711595.954    20443224.801  
                
  19156420.875   102509899.897    19156425.895    79729982.092    19156425.699  
  19156419.434  
  22223440.562   116784995.714                    91001365.084    22223449.934  
                
 21  8  9  0 52 50.0000000  0 16G 6R18G14R15G 1G21G22G19G24R16R14R 8
                                R24G17R17G 3
  22646229.852   119006756.080                    92732614.526    22646240.270  
                
  21726582.898   115977990.888    21726589.047    90205135.432    21726588.438  
  21726581.867  
  21323257.641   112054469.696                    87315230.284    21323264.711  
                
  19824920.367   105938342.246    19824925.676    82396553.123    19824925.328  
  19824919.199  
  22370711.727   117558860.035                    91604367.180    22370721.219  
                
  25169862.828   132268555.180                                                  
                
  22922046.062   120456191.678    22922050.859    93861962.9434                 
                
  20440268.406   107414352.507    20440273.129    83699520.9404                 
                
  23202148.266   121928113.805                    95008960.517    23202158.277  
                
  21229303.227   113403133.113    21229307.875    88202462.965    21229306.570  
  21229302.164  
  22765599.086   121353420.757    22765606.051    94386029.928    22765605.887  
  22765597.352  
  22817693.195   122187704.414    22817698.051    95034908.265    22817698.086  
  22817691.484  
  21056588.945   112599045.393    21056594.160    87577081.669    21056594.141  
  21056587.812  
  20443762.055   107432692.841                    83713821.595    20443768.324  
                
  19155814.336   102506654.158    19155819.344    79727457.626    19155819.148  
  19155812.898  
  22221828.508   116776524.225                    90994763.907    22221837.852  
                
 21  8  9  0 53  0.0000000  0 16G 6R18G14R15G 1G21G22G19G24R16R14R 8
                                R24G17R17G 3
  22640010.016   118974070.684                    92707145.401    22640020.418  
                
  21720542.297   115945745.890    21720548.496    90180056.022    21720547.875  
  21720541.301  
  21327998.789   112079384.509                    87334644.407    21328005.871  
                
  19828228.438   105956019.576    19828233.742    82410302.158    19828233.387  
  19828227.270  
  22376981.445   117591807.647                    91630040.626    22376990.953  
                
  25176055.094   132301096.934                                                  
                
  22923914.648   120466010.982    22923919.512    93869614.3214                 
                
  20437351.469   107399023.877    20437356.152    83687576.5534                 
                
  23202640.898   121930702.546                    95010977.708    23202650.898  
                
  21224310.500   113376462.941    21224315.152    88181719.508    21224313.848  
  21224309.480  
  22774012.023   121398266.304    22774018.992    94420909.769    22774018.852  
  22774010.277  
  22819309.719   122196360.695    22819314.617    95041640.912    22819314.648  
  22819308.012  
  21062341.070   112629804.542    21062346.270    87601005.442    21062346.227  
  21062339.898  
  20444312.586   107435585.917                    83716075.946    20444318.855  
                
  19155218.766   102503467.137    19155223.766    79724978.832    19155223.578  
  19155217.355  
  22220229.555   116768121.671                    90988216.459    22220238.898  
                
 21  8  9  0 53 10.0000000  0 17R 1G 6R18G14R15G 1G21G22G19G24R16R14
                                R 8R24G17R17G 3
  22404266.789   119763829.633                                                  
                
  22633796.000   118941415.814                    92681700.042    22633806.371  
                
  21714507.844   115913533.595    21714514.059    90155002.034    21714513.445  
  21714506.832  
  21332748.836   112104346.113                    87354094.990    21332755.922  
                
  19831552.336   105973781.418    19831557.621    82424116.910    19831557.270  
  19831551.160  
  22383256.961   117624785.633                    91655737.728    22383266.480  
                
  25182247.586   132333640.855                                                  
                
  22925795.023   120475892.551    22925800.004    93877314.2684                 
                
  20434442.719   107383738.303    20434447.348    83675665.7174                 
                
  23203146.086   121933357.280                    95013046.321    23203156.047  
                
  21219330.648   113349861.504    21219335.285    88161029.513    21219333.980  
  21219329.648  
  22782428.906   121443132.911    22782435.906    94455805.995    22782435.785  
  22782427.188  
  22820942.375   122205103.569    22820947.352    95048440.933    22820947.371  
  22820940.656  
  21068098.367   112660591.349    21068103.543    87624950.724    21068103.465  
  21068097.184  
  20444870.117   107438515.747                    83718358.929    20444876.371  
                
  19154634.164   102500338.820    19154639.164    79722545.706    19154638.973  
  19154632.793  
  22218643.719   116759788.028                    90981722.711    22218653.051  
                
 21  8  9  0 53 20.0000000  0 17R 1G 6R18G14R15G 1G21G22G19G24R16R14
                                R 8R24G17R17G 3
  22400305.758   119742657.563    22400312.832    93133062.563    22400311.453  
                
  22627587.781   118908791.488                    92656278.506    22627598.152  
                
  21708479.539   115881354.139    21708485.766    90129973.571    21708485.141  
  21708478.496  
  21337507.773   112129354.452                    87373581.991    21337514.875  
                
  19834892.031   105991627.724    19834897.312    82437997.369    19834896.965  
  19834890.852  
  22389538.227   117657793.849                    91681458.400    22389547.762  
                
  25188441.125   132366186.808                                                  
                
  22927687.281   120485836.355    22927692.324    93885062.6804                 
                
  20431542.188   107368495.882    20431546.758    83663788.5074                 
                
  23203663.820   121936077.994                    95015166.348    23203673.738  
                
  21214363.688   113323328.892    21214368.312    88140393.041    21214366.992  
  21214362.699  
  22790849.727   121488020.583    22790856.738    94490718.610    22790856.617  
  22790848.023  
  22822591.148   122213932.658    22822596.176    95055307.987    22822596.203  
  22822589.477  
  21073860.836   112691405.851    21073865.988    87648917.556    21073865.918  
  21073859.633  
  20445434.625   107441482.277                    83720670.513    20445440.871  
                
  19154060.523   102497269.214    19154065.527    79720158.239    19154065.340  
  19154059.188  
  22217070.992   116751523.327                    90975282.691    22217080.320  
                
 21  8  9  0 53 30.0000000  0 17R 1G 6R18G14R15G 1G21G22G19G24R16R14
                                R 8R24G17R17G 3
  22396358.961   119721559.171    22396365.949    93116652.721    22396364.742  
  22396356.023  
  22621385.422   118876197.864                    92630880.888    22621395.781  
                
  21702457.398   115849207.633    21702463.633    90104970.748    21702463.000  
  21702456.352  
  21342275.602   112154409.546                    87393105.427    21342282.727  
                
  19838247.508   106009558.327    19838252.773    82451943.387    19838252.430  
  19838246.324  
  22395825.242   117690832.266                    91707202.595    22395834.770  
                
  25194635.219   132398734.901                                                  
                
  22929591.391   120495842.448    22929596.465    93892859.6144                 
                
  20428649.859   107353296.605    20428654.391    83651944.9144                 
                
  23204194.117   121938864.728                    95017337.827    23204204.012  
                
  21209409.625   113296865.253    21209414.258    88119810.227    21209412.949  
  21209408.652  
  22799274.453   121532928.965    22799281.473    94525647.324    22799281.348  
  22799272.777  
  22824256.008   122222847.916    22824261.109    95062242.084    22824261.133  
  22824254.441  
  21079628.453   112722247.904    21079633.609    87672905.824    21079633.535  
  21079627.234  
  20446006.125   107444485.594                    83723010.769    20446012.371  
                
  19153497.828   102494258.102    19153502.848    79717816.269    19153502.664  
  19153496.520  
  22215511.414   116743327.691                    90968896.481    22215520.738  
                
 21  8  9  0 53 40.0000000  0 17R 1G 6R18G14R15G 1G21G22G19G24R16R14
                                R 8R24G17R17G 3
  22392425.242   119700534.371    22392432.594    93100300.070    22392431.512  
  22392423.012  
  22615188.883   118843634.902                    92605507.164    22615199.230  
                
  21696441.453   115817094.147    21696447.684    90079993.597    21696447.059  
  21696440.387  
  21347052.312   112179511.276                    87412665.208    21347059.453  
                
  19841618.758   106027573.231    19841624.008    82465954.966    19841623.668  
  19841617.555  
  22402117.953   117723900.714                    91732970.213    22402127.492  
                
  25200829.500   132431285.001                                                  
                
  22931507.305   120505910.591    22931512.418    93900704.9094                 
                
  20425765.727   107338140.438    20425770.230    83640134.9214                 
                
  23204736.953   121941717.375                    95019560.669    23204746.820  
                
  21204468.508   113270470.714    21204473.133    88099281.144    21204471.840  
  21204467.551  
  22807703.078   121577858.192    22807710.094    94560592.251    22807709.957  
  22807701.422  
  22825936.984   122231849.545    22825942.188    95069243.355    22825942.211  
  22825935.523  
  21085401.203   112753117.407    21085406.352    87696915.425    21085406.289  
  21085399.965  
  20446584.625   107447525.621                    83725379.618    20446590.852  
                
  19152946.070   102491305.579    19152951.105    79715519.869    19152950.918  
  19152944.777  
  22213964.969   116735201.076                    90962564.056    22213974.301  
                
 21  8  9  0 53 50.0000000  0 17R 1G 6R18G14R15G 1G21G22G19G24R16R14
                                R 8R24G17R17G 3
  22388505.898   119679583.497    22388513.145    93084004.947    22388512.223  
  22388503.922  
  22608998.211   118811102.727                    92580157.418    22609008.543  
                
  21690431.664   115785013.493    21690437.883    90055041.981    21690437.273  
  21690430.551  
  21351837.883   112204659.583                    87432261.292    21351845.035  
                
  19845005.758   106045672.310    19845010.996    82480032.022    19845010.660  
  19845004.559  
  22408416.352   117756999.120                    91758761.184    22408425.914  
                
  25207024.125   132463836.922                                                  
                
  22933435.031   120516040.776    22933440.184    93908598.5374                 
                
  20422889.836   107323027.503    20422894.324    83628358.6074                 
                
  23205292.352   121944635.936                    95021834.856    23205302.180  
                
  21199540.344   113244145.352    21199544.961    88078805.867    21199543.684  
  21199539.414  
  22816135.547   121622807.935    22816142.578    94595553.149    22816142.441  
  22816133.945  
  22827634.086   122240937.430    22827639.402    95076311.708    22827639.426  
  22827632.758  
  21091179.086   112784014.211    21091184.188    87720946.257    21091184.121  
  21091177.863  
  20447170.109   107450602.309                    83727777.034    20447176.320  
                
  19152405.273   102488411.661    19152410.309    79713269.038    19152410.121  
  19152403.973  
  22212431.664   116727143.535                    90956285.459    22212441.000  
                
 21  8  9  0 54  0.0000000  0 17R 1G 6R18G14R15G 1G21G22G19G24R16R14
                                R 8R24G17R17G 3
  22384600.727   119658706.555    22384607.500    93067767.366    22384606.648  
  22384598.406  
  22602813.398   118778601.373                    92554831.703    22602823.727  
                
  21684428.062   115752965.979    21684434.281    90030116.157    21684433.672  
  21684426.926  
  21356632.305   112229854.424                    87451893.622    21356639.457  
                
  19848408.484   106063855.445    19848413.711    82494174.453    19848413.371  
  19848407.285  
  22414720.461   117790127.409                    91784575.428    22414730.035  
                
  25213217.648   132496390.755                                                  
                
  22935374.562   120526233.043    22935379.789    93916540.5674                 
                
  20420022.164   107307957.858    20420026.656    83616616.0344                 
                
  23205860.258   121947620.380                    95024160.413    23205870.062  
                
  21194625.133   113217889.194    21194629.738    88058384.406    21194628.449  
  21194624.230  
  22824571.867   121667778.165    22824578.914    94630529.980    22824578.777  
  22824570.305  
  22829347.258   122250111.465    22829352.664    95083447.069    22829352.691  
  22829346.027  
  21096962.078   112814938.452    21096967.148    87744998.433    21096967.098  
  21096960.867  
  20447762.578   107453715.793                    83730203.128    20447768.789  
                
  19151875.422   102485576.317    19151880.457    79711063.771    19151880.262  
  19151874.105  
  22210911.516   116719155.162                    90950060.765    22210920.855  
                
 21  8  9  0 54 10.0000000  0 17R 1G 6R18G14R15G 1G21G22G19G24R16R14
                                R 8R24G17R17G 3
  22380708.758   119637903.796    22380715.770    93051587.411    22380714.922  
  22380706.762  
  22596634.461   118746130.917                    92529530.073    22596644.805  
                
  21678430.672   115720951.515    21678436.871    90005216.038    21678436.250  
  21678429.543  
  21361435.578   112255095.732                    87471562.158    21361442.734  
                
  19851826.969   106082122.755    19851832.188    82508382.359    19851831.848  
  19851825.754  
  22421030.242   117823285.483                    91810412.865    22421039.809  
                
  25219414.047   132528946.472                                                  
                
  22937325.891   120536487.323    22937331.207    93924530.9084                 
                
  20417162.750   107292931.504    20417167.254    83604907.1914                 
                
  23206440.719   121950670.708                    95026537.288    23206450.492  
                
  21189722.945   113191702.589    21189727.566    88038017.053    21189726.270  
  21189722.074  
  22833011.992   121712768.701    22833019.047    94665522.604    22833018.898  
  22833010.461  
  22831076.523   122259371.532    22831081.973    95090649.329    22831082.008  
  22831075.332  
  21102750.148   112845889.838    21102755.188    87769071.736    21102755.141  
  21102748.898  
  20448362.039   107456865.930                    83732657.779    20448368.242  
                
  19151356.516   102482799.508    19151361.547    79708904.022    19151361.336  
  19151355.176  
  22209404.539   116711235.935                    90943889.949    22209413.887  
                
 21  8  9  0 54 20.0000000  0 17R 1G 6R18G14R15G 1G21G22G19G24R16R14
                                R 8R24G17R17G 3
  22376831.148   119617175.260    22376837.914    93035465.210    22376836.988  
  22376829.074  
  22590461.453   118713691.499                    92504252.583    22590471.770  
                
  21672439.492   115688970.219    21672445.664    89980341.698    21672445.031  
  21672438.398  
  21366247.688   112280383.475                    87491266.877    21366254.840  
                
  19855261.156   106100474.012    19855266.359    82522655.558    19855266.027  
  19855259.934  
  22427345.688   117856473.240                    91836273.414    22427355.230  
                
  25225609.555   132561503.931                                                  
                
  22939289.031   120546803.613    22939294.379    93932569.5504                 
                
  20414311.578   107277948.478    20414316.082    83593232.1034                 
                
  23207033.719   121953786.913                    95028965.488    23207043.461  
                
  21184833.820   113165585.852    21184838.496    88017704.057    21184837.199  
  21184832.973  
  22841455.914   121757779.412    22841462.941    94700530.905    22841462.797  
  22841454.375  
  22832821.883   122268717.858    22832827.359    95097918.676    22832827.418  
  22832820.816  
  21108543.281   112876868.397    21108548.332    87793166.182    21108548.277  
  21108542.008  
  20448968.453   107460052.654                    83735140.942    20448974.656  
                
  19150848.523   102480081.136    19150853.551    79706789.735    19150853.348  
  19150847.160  
  22207910.742   116703385.965                    90937773.091    22207920.090  
                
 21  8  9  0 54 30.0000000  0 17R 1G 6R18G14R15G 1G21G22G19G24R16R14
                                R 8R24G17R17G 3
  22372966.977   119596521.097    22372973.969    93019400.836    22372973.164  
  22372965.316  
  22584294.336   118681283.056                    92478999.250    22584304.641  
                
  21666454.477   115657021.881    21666460.652    89955493.012    21666460.004  
  21666453.422  
  21371068.617   112305717.573                    87511007.717    21371075.773  
                
  19858711.055   106118909.179    19858716.246    82536994.014    19858715.914  
  19858709.816  
  22433666.742   117889690.596                    91862157.064    22433676.312  
                
  25231806.219   132594063.188                                                  
                
  22941263.930   120557181.831    22941269.309    93940656.4884                 
                
  20411468.641   107263008.801    20411473.156    83581590.8004                 
                
  23207639.234   121956968.930                    95031444.992    23207648.961  
                
  21179957.734   113139538.696    21179962.438    87997445.165    21179961.141  
  21179956.930  
  22849903.609   121802810.285    22849910.637    94735554.901    22849910.512  
  22849902.082  
  22834583.305   122278150.114    22834588.781    95105254.877    22834588.840  
  22834582.418  
  21114341.539   112907874.165    21114346.582    87817281.754    21114346.520  
  21114340.254  
  20449581.875   107463276.222                    83737652.815    20449588.090  
                
  19150351.469   102477421.271    19150356.488    79704720.951    19150356.273  
  19150350.082  
  22206430.109   116695605.248                    90931710.203    22206439.461  
                
 21  8  9  0 54 40.0000000  0 17R 1G 6R18G14R15G 1G21G22G19G24R16R14
                                R 8R24G17R17G 3
  22369117.125   119575941.670    22369124.070    93003394.608    22369123.262  
  22369115.512  
  22578133.117   118648905.797                    92453770.259    22578143.449  
                
  21660475.711   115625106.909    21660481.891    89930670.280    21660481.238  
  21660474.668  
  21375898.367   112331098.063                    87530784.717    21375905.539  
                
  19862176.641   106137428.241    19862181.828    82551397.730    19862181.496  
  19862175.395  
  22439993.438   117922937.513                    91888063.729    22440003.008  
                
  25238001.781   132626624.156                                                  
                
  22943250.688   120567622.088    22943256.004    93948791.7064                 
                
  20408633.977   107248112.520    20408638.488    83569983.3074                 
                
  23208257.297   121960216.838                    95033975.820    23208266.992  
                
  21175094.742   113113561.493    21175099.457    87977240.683    21175098.180  
  21175093.969  
  22858355.031   121847861.097    22858362.074    94770594.416    22858361.953  
  22858353.543  
  22836360.750   122287668.391    22836366.281    95112657.994    22836366.332  
  22836360.051  
  21120144.820   112938906.956    21120149.887    87841418.370    21120149.832  
  21120143.590  
  20450202.312   107466536.664                    83740193.422    20450208.527  
                
  19149865.344   102474819.933    19149870.359    79702697.687    19149870.152  
  19149863.949  
  22204962.688   116687893.928                    90925701.380    22204972.031  
                
 21  8  9  0 54 50.0000000  0 17R 1G 6R18G14R15G 1G21G22G19G24R16R14
                                R 8R24G17R17G 3
  22365281.469   119555436.630    22365288.168    92987446.271    22365287.398  
  22365279.586  
  22571977.844   118616559.635                    92428565.465    22571988.168  
                
  21654503.180   115593225.190    21654509.352    89905873.403    21654508.703  
  21654502.141  
  21380736.914   112356524.714                    87550597.679    21380744.082  
                
  19865657.906   106156030.985    19865663.078    82565866.521    19865662.746  
  19865656.641  
  22446325.703   117956213.730                    91913993.235    22446335.297  
                
  25244198.484   132659186.750                                                  
                
  22945249.195   120578124.158    22945254.465    93956975.0894                 
                
  20405807.562   107233259.617    20405812.066    83558409.6174                 
                
  23208887.859   121963530.465                    95036557.861    23208897.539  
                
  21170244.836   113087654.199    21170249.535    87957090.577    21170248.289  
  21170244.094  
  22866810.188   121892931.642    22866817.223    94805649.241    22866817.090  
  22866808.660  
  22838154.320   122297272.791    22838159.891    95120128.065    22838159.953  
  22838153.676  
  21125953.133   112969966.536    21125958.203    87865575.809    21125958.160  
  21125951.914  
  20450829.727   107469833.716                    83742762.547    20450835.941  
                
  19149390.125   102472276.974    19149395.141    79700719.839    19149394.941  
  19149388.734  
  22203508.453   116680251.868                    90919746.533    22203517.789  
                
 21  8  9  0 55  0.0000000  0 17R 1G 6R18G14R15G 1G21G22G19G24R16R14
                                R 8R24G17R17G 3
  22361459.312   119535006.397    22361466.270    92971556.084    22361465.543  
  22361457.703  
  22565828.500   118584244.691                    92403385.011    22565838.824  
                
  21648536.898   115561376.878    21648543.062    89881102.515    21648542.418  
  21648535.887  
  21385584.234   112381997.548                    87570446.631    21385591.398  
                
  19869154.820   106174717.419    19869159.984    82580400.409    19869159.648  
  19869153.547  
  22452663.523   117989519.213                    91939945.546    22452673.137  
                
  25250395.383   132691750.867                                                  
                
  22947259.391   120588687.992    22947264.730    93965206.6864                 
                
  20402989.414   107218450.148    20402993.906    83546869.7684                 
                
  23209530.930   121966909.808                    95039191.111    23209540.609  
                
  21165408.062   113061817.066    21165412.758    87936995.045    21165411.535  
  21165407.320  
  22875269.000   121938021.910    22875276.047    94840719.465    22875275.895  
  22875267.473  
  22839963.922   122306963.095    22839969.527    95127664.953    22839969.605  
  22839963.344  
  21131766.445   113001052.949    21131771.531    87889754.121    21131771.516  
  21131765.195  
  20451464.125   107473167.508                    83745360.311    20451470.348  
                
  19148925.820   102469792.377    19148930.836    79698787.375    19148930.633  
  19148924.441  
  22202067.414   116672679.190                    90913845.761    22202076.750  
                
 21  8  9  0 55 10.0000000  0 17R 1G 6R18G14R15G 1G21G22G19G24R16R14
                                R 8R24G17R17G 3
  22357651.453   119514650.818    22357658.324    92955723.969    22357657.586  
  22357649.730  
  22559685.094   118551960.961                    92378228.870    22559695.410  
                
  21642576.867   115529561.839    21642583.012    89856357.493    21642582.363  
  21642575.875  
  21390440.336   112407516.434                    87590331.457    21390447.492  
                
  19872667.352   106193487.333    19872672.523    82594999.223    19872672.191  
  19872666.086  
  22459006.906   118022853.840                    91965920.560    22459016.527  
                
  25256592.805   132724316.423                                                  
                
  22949281.375   120599313.620    22949286.727    93973486.4034                 
                
  20400179.531   107203684.118    20400184.008    83535363.7734                 
                
  23210186.500   121970354.824                    95041875.520    23210196.184  
                
  21160584.422   113036050.091    21160589.086    87916954.069    21160587.891  
  21160583.637  
  22883731.461   121983131.455    22883738.480    94875804.638    22883738.332  
  22883729.914  
  22841789.539   122316739.048    22841795.125    95135268.434    22841795.215  
  22841789.074  
  21137584.750   113032165.906    21137589.820    87913953.063    21137589.812  
  21137583.410  
  20452105.492   107476537.921                    83747986.605    20452111.715  
                
  19148472.414   102467366.165    19148477.438    79696900.325    19148477.238  
  19148471.051  
  22200639.578   116665175.872                    90907999.019    22200648.898  
                
 21  8  9  0 55 20.0000000  0 17R 1G 6R18G14R15G 1G21G22G19G24R16R14
                                R 8R24G17R17G 3
  22353857.570   119494370.331    22353864.445    92939950.230    22353863.703  
  22353855.914  
  22553547.672   118519708.603                    92353097.171    22553557.984  
                
  21636623.086   115497780.191    21636629.223    89831638.443    21636628.570  
  21636622.098  
  21395305.188   112433081.381                    87610252.192    21395312.336  
                
  19876195.531   106212340.791    19876200.703    82609663.011    19876200.371  
  19876194.277  
  22465355.836   118056217.595                    91991918.274    22465365.445  
                
  25262789.789   132756883.409                                                  
                
  22951315.164   120610001.076    22951320.438    93981814.2524                 
                
  20397377.930   107188961.593    20397382.391    83523891.6824                 
                
  23210854.578   121973865.549                    95044611.139    23210864.277  
                
  21155774.000   113010353.698    21155778.633    87896967.991    21155777.461  
  21155773.195  
  22892197.547   122028260.354    22892204.598    94910904.863    22892204.438  
  22892196.012  
  22843631.148   122326600.783    22843636.738    95142938.673    22843636.848  
  22843630.773  
  21143408.047   113063305.659    21143413.125    87938172.867    21143413.109  
  21143406.695  
  20452753.859   107479945.077                    83750641.524    20452760.090  
                
  19148029.930   102464998.341    19148034.965    79695058.687    19148034.770  
  19148028.578  
  22199224.961   116657742.016                    90902206.398    22199234.254  
                
 21  8  9  0 55 30.0000000  0 17R 1G 6R18G14R15G 1G21G22G19G24R16R14
                                R 8R24G17R17G 3
  22350077.781   119474164.900    22350084.609    92924234.904    22350083.836  
  22350076.160  
  22547416.219   118487487.658                    92327989.955    22547426.539  
                
  21630675.555   115466031.894    21630681.695    89806945.335    21630681.051  
  21630674.555  
  21400178.797   112458692.336                    87630208.762    21400185.926  
                
  19879739.305   106231277.640    19879744.488    82624391.671    19879744.156  
  19879738.086  
  22471710.258   118089610.297                    92017938.568    22471719.883  
                
  25268987.227   132789451.874                                                  
                
  22953360.648   120620750.145    22953365.852    93990190.1494                 
                
  20394584.617   107174282.652    20394589.070    83512453.5514                 
                
  23211535.141   121977441.923                    95047397.922    23211544.855  
                
  21150976.727   112984727.491    21150981.312    87877036.495    21150980.141  
  21150975.910  
  22900667.234   122073408.529    22900674.320    94946020.118    22900674.137  
  22900665.730  
  22845488.805   122336548.414    22845494.348    95150675.708    22845494.461  
  22845488.418  
  21149236.305   113094471.979    21149241.398    87962413.332    21149241.363  
  21149234.945  
  20453409.211   107483388.941                    83753325.052    20453415.445  
                
  19147598.336   102462688.765    19147603.379    79693262.345    19147603.168  
  19147596.984  
  22197823.578   116650377.659                    90896467.928    22197832.848  
                
 21  8  9  0 55 40.0000000  0 17R 1G 6R18G14R15G 1G21G22G19G24R16R14
                                R 8R24G17R17G 3
  22346312.031   119454034.762    22346318.855    92908578.145    22346318.098  
  22346310.496  
  22541290.758   118455298.212                    92302907.278    22541301.070  
                
  21624734.289   115434317.134    21624740.438    89782278.316    21624739.801  
  21624733.285  
  21405061.156   112484349.244                    87650201.141    21405068.262  
                
  19883298.695   106250297.937    19883303.898    82639185.232    19883303.562  
  19883297.508  
  22478070.219   118123031.939                    92043981.370    22478079.789  
                
  25275185.297   132822021.721                                                  
                
  22955417.852   120631560.930    22955422.992    93998614.1614                 
                
  20391799.609   107159647.396    20391804.062    83501049.4594                 
                
  23212228.195   121981083.951                    95050235.862    23212237.906  
                
  21146192.672   112959171.938    21146197.227    87857159.942    21146196.059  
  21146191.852  
  22909140.539   122118575.899    22909147.625    94981150.260    22909147.441  
  22909139.023  
  22847362.445   122346581.745    22847367.965    95158479.422    22847368.074  
  22847362.086  
  21155069.539   113125664.879    21155074.656    87986674.464    21155074.621  
  21155068.117  
  20454071.539   107486869.528                    83756037.195    20454077.781  
                
  19147177.633   102460437.493    19147182.680    79691511.356    19147182.465  
  19147176.270  
  22196435.430   116643082.885                    90890783.682    22196444.691  
                
 21  8  9  0 55 50.0000000  0 17R 1G 6R18G14R15G 1G21G22G19G24R16R14
                                R 8R24G17R17G 3
  22342560.258   119433979.891    22342567.195    92892979.942    22342566.422  
  22342558.676  
  22535171.297   118423140.290                    92277849.174    22535181.609  
                
  21618799.305   115402635.796    21618805.449    89757637.284    21618804.809  
  21618798.301  
  21409952.242   112510052.047                    87670229.294    21409959.320  
                
  19886873.695   106269401.580    19886878.914    82654043.611    19886878.574  
  19886872.523  
  22484435.633   118156482.417                    92070046.680    22484445.184  
                
  25281383.398   132854592.833                                                  
                
  22957486.820   120642433.366    22957491.871    94007086.1774                 
                
  20389022.914   107145055.808    20389027.379    83489679.3974                 
                
  23212933.758   121984791.639                    95053124.953    23212943.453  
                
  21141421.922   112933687.466    21141426.465    87837338.692    21141425.297  
  21141421.113  
  22917617.398   122163762.195    22917624.484    95016295.132    22917624.293  
  22917615.883  
  22849252.070   122356700.632    22849257.578    95166349.662    22849257.719  
  22849251.758  
  21160907.742   113156884.277    21160912.867    88010956.196    21160912.844  
  21160906.293  
  20454740.867   107490386.849                    83758777.957    20454747.113  
                
  19146767.828   102458244.524    19146772.871    79689805.703    19146772.656  
  19146766.449  
  22195060.508   116635857.672                    90885153.663    22195069.785  
                
 21  8  9  0 56  0.0000000  0 17R 1G 6R18G14R15G 1G21G22G19G24R16R14
                                R 8R24G17R17G 3
  22338822.766   119414000.560    22338829.672    92877440.418    22338828.844  
  22338821.078  
  22529057.883   118391014.054                    92252815.726    22529068.172  
                
  21612870.617   115370988.081    21612876.762    89733022.395    21612876.145  
  21612869.621  
  21414852.062   112535800.714                    87690293.177    21414859.121  
                
  19890464.227   106288588.359    19890469.477    82668966.667    19890469.141  
  19890463.074  
  22490806.516   118189961.597                    92096134.342    22490816.055  
                
  25287581.344   132887165.228                                                  
                
  22959567.508   120653367.430    22959572.469    94015606.2124                 
                
  20386254.547   107130507.933    20386259.031    83478343.3944                 
                
  23213651.789   121988564.908                    95056065.180    23213661.512  
                
  21136664.414   112908273.694    21136668.941    87817572.434    21136667.750  
  21136663.598  
  22926097.789   122208967.409    22926104.883    95051454.734    22926104.695  
  22926096.266  
  22851157.688   122366905.186    22851163.211    95174286.560    22851163.371  
  22851157.375  
  21166750.852   113188130.061    21166756.023    88035258.483    21166756.012  
  21166749.453  
  20455417.172   107493940.846                    83761547.307    20455423.426  
                
  19146368.922   102456109.894    19146373.957    79688145.431    19146373.750  
  19146367.535  
  22193698.852   116628702.127                    90879577.909    22193708.125  
                
 21  8  9  0 56 10.0000000  0 17R 1G 6R18G14R15G 1G21G22G19G24R16R14
                                R 8R24G17R17G 3
  22335099.312   119394096.608    22335106.250    92861959.615    22335105.402  
  22335097.645  
  22522950.477   118358919.450                    92227806.960    22522960.766  
                
  21606948.250   115339374.112    21606954.414    89708433.768    21606953.801  
  21606947.281  
  21419760.586   112561595.130                    87710392.707    21419767.617  
                
  19894070.336   106307858.239    19894075.594    82683954.339    19894075.258  
  19894069.172  
  22497182.844   118223469.395                    92122244.292    22497192.367  
                
  25293779.570   132919738.876                                                  
                
  22961659.875   120664362.975    22961664.742    94024174.1904                 
                
  20383494.492   107116003.721    20383498.977    83467041.4054                 
                
  23214382.289   121992403.745                    95059056.482    23214392.043  
                
  21131920.195   112882930.987    21131924.715    87797861.446    21131923.516  
  21131919.383  
  22934581.711   122254191.347    22934588.805    95086628.879    22934588.633  
  22934580.152  
  22853079.344   122377195.519    22853084.859    95182290.141    22853085.035  
  22853078.934  
  21172598.875   113219402.019    21172604.047    88059581.107    21172604.035  
  21172597.461  
  20456100.445   107497531.462                    83764345.192    20456106.711  
                
  19145980.914   102454033.536    19145985.941    79686530.486    19145985.738  
  19145979.539  
  22192350.461   116621616.233                    90874056.422    22192359.730  
                
 21  8  9  0 56 20.0000000  0 17R 1G 6R18G14R15G 1G21G22G19G24R16R14
                                R 8R24G17R17G 3
  22331390.039   119374268.572    22331397.027    92846537.815    22331396.125  
  22331386.812  
  22516849.102   118326856.577                    92202822.926    22516859.406  
                
  21601032.164   115307793.673    21601038.344    89683871.212    21601037.738  
  21601031.227  
  21424677.805   112587435.245                    87730527.850    21424684.809  
                
  19897691.977   106327211.182    19897697.246    82699006.616    19897696.922  
  19897690.824  
  22503564.586   118257005.678                    92148376.467    22503574.137  
                
  25299978.375   132952313.670                                                  
                
  22963763.969   120675420.022    22963768.719    94032790.0804                 
                
  20380742.734   107101543.191    20380747.250    83455773.4714                 
                
  23215125.258   121996308.088                    95062098.831    23215135.023  
                
  21127189.312   112857659.451    21127193.809    87778205.803    21127192.605  
  21127188.488  
  22943069.078   122299433.728    22943076.180    95121817.383    22943076.016  
  22943067.492  
  22855016.914   122387571.156    22855022.441    95190360.076    22855022.605  
  22855016.379  
  21178451.812   113250700.225    21178456.992    88083924.138    21178456.984  
  21178450.359  
  20456790.688   107501158.720                    83767171.620    20456796.953  
                
  19145603.766   102452015.365    19145608.785    79684960.796    19145608.570  
  19145602.402  
  22191015.320   116614600.028                    90868589.249    22191024.582  
                
 21  8  9  0 56 30.0000000  0 16G 6R18G14R15G 1G21G22G19G24R16R14R 8
                                R24G17R17G 3
  22510753.781   118294825.508                    92177863.668    22510764.094  
                
  21595122.383   115276246.975    21595128.590    89659334.920    21595127.992  
  21595121.477  
  21429603.719   112613321.014                    87750698.562    21429610.684  
                
  19901329.148   106346647.085    19901334.430    82714123.427    19901334.098  
  19901327.996  
  22509952.203   118290570.895                                                  
                
  25306177.422   132984889.667                                                  
                
  22965879.758   120686538.591    22965884.418    94041453.8884                 
                
  20377999.312   107087126.385    20378003.840    83444539.5954                 
                
  23215880.711   122000277.960                    95065192.227    23215890.453  
                
  21122471.750   112832459.124    21122476.234    87758605.558    21122475.023  
  21122470.938  
  22951559.930   122344694.652    22951567.020    95157020.302    22951566.844  
  22951558.297  
  22856970.484   122398032.404    22856975.984    95198496.595    22856976.148  
  22856969.781  
  21184309.641   113282024.571    21184314.820    88108287.483    21184314.812  
  21184308.141  
  20457487.930   107504822.693                    83770026.660    20457494.184  
                
  19145237.492   102450055.361    19145242.504    79683436.354    19145242.289  
  19145236.152  
  22189693.445   116607653.553                    90863176.431    22189702.715  
                
 21  8  9  0 56 40.0000000  0 16G 6R18G14R15G 1G21G22G19G24R16R14R 8
                                R24G17R17G 3
  22504664.523   118262826.298                    92152929.222    22504674.816  
                
  21589218.938   115244734.015    21589225.141    89634824.851    21589224.555  
  21589218.055  
  21434538.297   112639252.361                    87770904.791    21434545.219  
                
  19904981.812   106366165.838    19904987.109    82729304.689    19904986.785  
  19904980.684  
  22516344.180   118324163.431                    92200707.182    22516353.547  
                
  25312376.820   133017466.805                                                  
                
  22968007.250   120697718.625    22968011.816    94050165.5994                 
                
  20375264.211   107072753.391    20375268.750    83433339.8634                 
                
  23216648.617   122004313.299                    95068336.622    23216658.332  
                
  21117767.570   112807330.246    21117772.039    87739060.885    21117770.855  
  21117766.766  
  22960054.195   122389973.736    22960061.273    95192237.341    22960061.113  
  22960052.504  
  22858939.977   122408578.974    22858945.449    95206699.487    22858945.609  
  22858939.191  
  21190172.312   113313374.840    21190177.492    88132671.018    21190177.484  
  21190170.852  
  20458192.133   107508523.342                    83772910.288    20458198.395  
                
  19144882.094   102448153.557    19144887.098    79681957.175    19144886.875  
  19144880.789  
  22188384.852   116600776.858                    90857817.968    22188394.129  
                
 21  8  9  0 56 50.0000000  0 16G 6R18G14R15G 1G21G22G19G24R16R14R 8
                                R24G17R17G 3
  22498581.328   118230858.986                    92128019.649    22498591.609  
                
  21583321.820   115213254.819    21583328.016    89610341.039    21583327.434  
  21583320.938  
  21439481.547   112665229.226                    87791146.490    21439488.445  
                
  19908650.000   106385767.443    19908655.301    82744550.370    19908654.965  
  19908648.871  
  22522742.039   118357784.673                    92226905.563    22522751.570  
                
  25318576.180   133050044.789                                                  
                
  22970146.391   120708959.971    22970150.910    94058925.1264                 
                
  20372537.461   107058424.187    20372542.004    83422174.2514                 
                
  23217428.969   122008414.072                    95071532.036    23217438.680  
                
  21113076.789   112782272.943    21113081.242    87719571.867    21113080.070  
  21113075.992  
  22968551.891   122435271.121    22968558.969    95227468.619    22968558.793  
  22968550.176  
  22860925.430   122419210.973    22860930.883    95214968.818    22860931.023  
  22860924.582  
  21196039.859   113344751.198    21196045.039    88157074.831    21196045.027  
  21196038.434  
  20458903.328   107512260.658                    83775822.483    20458909.586  
                
  19144537.539   102446309.804    19144542.531    79680523.152    19144542.312  
  19144536.273  
  22187089.539   116593969.960                    90852513.891    22187098.816  
                
 21  8  9  0 57  0.0000000  0 16G 6R18G14R15G 1G21G22G19G24R16R14R 8
                                R24G17R17G 3
  22492504.227   118198923.625                    92103134.970    22492514.508  
                
  21577431.000   115181809.325    21577437.207    89585883.452    21577436.617  
  21577430.102  
  21444433.438   112691251.520                    87811423.584    21444440.316  
                
  19912333.633   106405451.713    19912338.953    82759860.362    19912338.617  
  19912332.531  
  22529145.891   118391434.030                    92253125.820    22529154.531  
                
  25324776.203   133082623.701                                                  
                
  22972297.211   120720262.697    22972301.656    94067732.4604                 
                
  20369819.047   107044138.826    20369823.590    83411042.7994                 
                
  23218221.750   122012580.219                    95074778.398    23218231.484  
                
  21108399.445   112757287.340    21108403.875    87700138.618    21108402.676  
  21108398.652  
  22977052.945   122480586.506    22977060.043    95262713.913    22977059.855  
  22977051.230  
  22862926.820   122429928.362    22862932.270    95223304.576    22862932.422  
  22862925.910  
  21201912.164   113376153.091    21201917.375    88181498.533    21201917.355  
  21201910.812  
  20459621.477   107516034.622                    83778763.238    20459627.750  
                
  19144203.852   102444524.206    19144208.844    79679134.368    19144208.625  
  19144202.609  
  22185807.516   116587232.872                    90847264.202    22185816.789  
                
 21  8  9  0 57 10.0000000  0 15G 6R18G14R15G 1G22G19G24R16R14R 8R24
                                G17R17G 3
  22486433.227   118167020.332                    92078275.254    22486443.484  
                
  21571546.562   115150397.853    21571552.766    89561452.322    21571552.188  
  21571545.613  
  21449393.945   112717319.190                    87831736.055    21449400.832  
                
  19916032.742   106425218.580    19916038.070    82775234.585    19916037.730  
  19916031.664  
  22535554.508   118425112.403                    92279367.888    22535563.680  
                
  22974459.742   120731626.764    22974464.105    94076587.5484                 
                
  20367108.969   107029897.299    20367113.516    83399945.5124                 
                
  23219026.992   122016811.754                    95078075.695    23219036.770  
                
  21103735.492   112732373.386    21103739.922    87680761.102    21103738.746  
  21103734.676  
  22985557.383   122525919.848    22985564.488    95297973.152    22985564.312  
  22985555.629  
  22864944.156   122440731.037    22864949.539    95231706.633    22864949.695  
  22864943.105  
  21207789.297   113407580.870    21207794.551    88205942.383    21207794.539  
  21207787.992  
  20460346.617   107519845.280                    83781732.583    20460352.895  
                
  19143881.008   102442796.659    19143886.004    79677790.728    19143885.785  
  19143879.758  
  22184538.789   116580565.658                    90842068.979    22184548.066  
                
 21  8  9  0 57 20.0000000  0 15G 6R18G14R15G 1G22G19G24R16R14R 8R24
                                G17R17G 3
  22480368.336   118135149.150                    92053440.576    22480378.578  
                
  21565668.500   115119020.420    21565674.695    89537047.664    21565674.121  
  21565667.504  
  21454363.102   112743432.243                    87852083.877    21454369.977  
                
  19919747.312   106445068.097    19919752.648    82790673.091    19919752.305  
  19919746.258  
  22541967.664   118458817.727                                                  
                
  22976633.914   120743052.105    22976638.219    94085490.4224                 
                
  20364407.266   107015699.793    20364411.809    83388882.5284                 
                
  23219844.680   122021108.669                    95081423.927    23219854.461  
                
  21099085.031   112707531.458    21099089.453    87661439.611    21099088.254  
  21099084.215  
  22994065.141   122571270.924    22994072.223    95333246.203    22994072.047  
  22994063.336  
  22866977.391   122451618.861    22866982.688    95240174.922    22866982.859  
  22866976.297  
  21213671.297   113439034.468    21213676.547    88230406.282    21213676.539  
  21213669.918  
  20461078.750   107523692.637                    83784730.520    20461085.031  
                
  19143569.016   102441127.195    19143574.020    79676492.266    19143573.801  
  19143567.746  
  22183283.359   116573968.365                    90836928.244    22183292.633  
                
 21  8  9  0 57 30.0000000  0 15G 6R18G14R15G 1G22G19G24R16R14R 8R24
                                G17R17G 3
  22474309.555   118103310.127                    92028630.967    22474319.789  
                
  21559796.781   115087676.797    21559802.957    89512669.297    21559802.379  
  21559795.762  
  21459340.891   112769590.587                    87872466.983    21459347.762  
                
  19923477.281   106464999.894    19923482.637    82806175.597    19923482.301  
  19923476.250  
  22548386.789   118492550.890                    92331917.378    22548396.809  
                
  22978819.742   120754538.667    22978823.992    94094440.9754                 
                
  20361713.938   107001546.304    20361718.473    83377853.8404                 
                
  23220674.805   122025470.927                    95084823.063    23220684.594  
                
  21094448.031   112682761.522    21094452.461    87642174.114    21094451.246  
  21094447.230  
  23002576.195   122616639.634    23002583.285    95368532.984    23002583.109  
  23002574.391  
  22869026.508   122462591.883    22869031.727    95248709.513    22869031.898  
  22869025.398  
  21219558.062   113470513.626    21219563.293    88254890.051    21219563.266  
  21219556.648  
  20461817.852   107527576.622                    83787757.000    20461824.141  
                
  19143267.883   102439515.710    19143272.883    79675238.883    19143272.664  
  19143266.562  
  22182041.242   116567441.042                    90831842.034    22182050.508  
                
 21  8  9  0 57 40.0000000  0 15G 6R18G14R15G 1G22G19G24R16R14R 8R24
                                G17R17G 3
  22468256.945   118071503.431                    92003846.530    22468267.176  
                
  21553931.469   115056367.371    21553937.609    89488317.517    21553937.047  
  21553930.434  
  21464327.273   112795794.191                    87892885.363    21464334.148  
                
  19927222.703   106485014.284    19927228.074    82821742.339    19927227.746  
  19927221.711  
  22554811.328   118526311.820                                                  
                
  22981017.203   120766086.450    22981021.414    94103439.2574                 
                
  20359029.000   106987436.824    20359033.504    83366859.4374                 
                
  23221517.352   122029898.511                    95088273.129    23221527.164  
                
  21089824.555   112658063.696    21089828.973    87622964.695    21089827.738  
  21089823.758  
  23011090.570   122662025.942    23011097.672    95403833.411    23011097.504  
  23011088.711  
  22871091.547   122473650.202    22871096.727    95257310.454    22871096.879  
  22871090.383  
  21225449.664   113502018.553    21225454.891    88279393.867    21225454.836  
  21225448.242  
  20462563.938   107531497.329                    83790812.093    20462570.238  
                
  19142977.594   102437962.332    19142982.609    79674030.701    19142982.395  
  19142976.238  
  22180812.477   116560983.763                    90826810.384    22180821.699  
                
 21  8  9  0 57 50.0000000  0 15G 6R18G14R15G 1G22G19G24R16R14R 8R24
                                G17R17G 3
  22462210.445   118039728.912                    91979087.175    22462220.688  
                
  21548072.508   115025091.907    21548078.648    89463992.177    21548078.102  
  21548071.480  
  21469322.234   112822042.859                    87913338.869    21469329.121  
                
  19930983.516   106505110.832    19930988.891    82837372.968    19930988.559  
  19930982.520  
  22561240.109   118560100.271                    92384553.299    22561250.922  
                
  22983226.281   120777695.211    22983230.480    94112485.0504                 
                
  20356352.398   106973371.211    20356356.891    83355899.2224                 
                
  23222372.281   122034391.219                    95091773.948    23222382.125  
                
  21085214.602   112633438.139    21085219.000    87603811.477    21085217.750  
  21085213.824  
  23019608.156   122707429.478    23019615.293    95439147.277    23019615.117  
  23019606.324  
  22873172.469   122484793.423    22873177.609    95265977.406    22873177.762  
  22873171.281  
  21231345.961   113533548.734    21231351.223    88303917.333    21231351.176  
  21231344.559  
  20463316.984   107535454.523                    83793895.609    20463323.277  
                
  19142698.125   102436466.818    19142703.152    79672867.515    19142702.930  
  19142696.758  
  22179597.000   116554596.388                    90821833.202    22179606.191  
                
 21  8  9  0 58  0.0000000  0 15G 6R18G14R15G 1G22G19G24R16R14R 8R24
                                G17R17G 3
  22456170.125   118007986.881                    91954353.143    22456180.375  
                
  21542219.977   114993850.681    21542226.090    89439693.441    21542225.547  
  21542218.941  
  21474325.797   112848336.749                    87933827.614    21474332.699  
                
  19934759.727   106525289.772    19934765.105    82853067.702    19934764.781  
  19934758.766  
  22567675.344   118593916.521                                                  
                
  22985447.023   120789365.273    22985451.227    94121578.5864                 
                
  20353684.203   106959349.758    20353688.680    83344973.4164                 
                
  23223239.648   122038949.314                    95095325.707    23223249.535  
                
  21080618.242   112608885.212    21080622.609    87584714.754    21080621.383  
  21080617.492  
  23028128.977   122752850.335    23028136.145    95474474.631    23028135.949  
  23028127.211  
  22875269.289   122496021.726    22875274.371    95274710.519    22875274.500  
  22875268.184  
  21237247.070   113565104.553    21237252.355    88328460.739    21237252.281  
  21237245.668  
  20464077.016   107539448.535                    83797007.820    20464083.312  
                
  19142429.516   102435029.429    19142434.559    79671749.543    19142434.332  
  19142428.156  
  22178394.891   116548279.219                    90816910.722    22178404.059  
                
 21  8  9  0 58 10.0000000  0 14G 6R18G14R15G22G19G24R16R14R 8R24G17
                                R17G 3
  22450135.969   117976277.228                    91929644.325    22450146.223  
                
  21536373.797   114962643.379    21536379.879    89415421.095    21536379.340  
  21536372.762  
  21479337.922   112874675.583                    87954351.368    21479344.816  
                
  19938551.312   106545550.748    19938556.676    82868826.223    19938556.348  
  19938550.340  
  22987679.383   120801096.319    22987683.590    94130719.6644                 
                
  20351024.383   106945372.346    20351028.852    83334081.9294                 
                
  23224119.422   122043572.527                    95098928.204    23224129.363  
                
  21076035.438   112584404.688    21076039.785    87565674.350    21076038.559  
  21076034.711  
  23036653.047   122798288.221    23036660.207    95509815.169    23036660.020  
  23036651.266  
  22877381.969   122507335.035    22877387.035    95283509.758    22877387.156  
  22877380.922  
  21243152.859   113596685.408    21243158.145    88353023.607    21243158.051  
  21243151.434  
  20464844.016   107543479.139                    83800148.549    20464850.316  
                
  19142171.711   102433649.852    19142176.777    79670676.538    19142176.551  
  19142170.371  
  22177206.094   116542032.046                    90812042.788    22177215.230  
                
 21  8  9  0 58 20.0000000  0 14G 6R18G14R15G22G19G24R16R14R 8R24G17
                                R17G 3
  22444108.000   117944600.025                    91904960.792    22444118.246  
                
  21530534.023   114931470.318    21530540.082    89391175.394    21530539.535  
  21530532.996  
  21484358.602   112901059.373                    87974910.153    21484365.496  
                
  19942358.211   106565893.726    19942363.574    82884648.541    19942363.246  
  19942357.234  
  22989923.320   120812888.330    22989927.535    94139908.2474                 
                
  20348372.977   106931439.066    20348377.445    83323224.8344                 
                
  23225011.594   122048260.901                    95102581.480    23225021.582  
                
  21071466.219   112559996.757    21071470.566    87546690.414    21071469.309  
  21071465.504  
  23045180.273   122843743.016    23045187.438    95545168.867    23045187.234  
  23045178.480  
  22879510.492   122518733.221    22879515.574    95292375.019    22879515.707  
  22879509.488  
  21249063.359   113628291.516    21249068.672    88377606.139    21249068.605  
  21249061.914  
  20465617.992   107547546.398                    83803317.839    20465624.297  
                
  19141924.719   102432328.167    19141929.812    79669648.565    19141929.590  
  19141923.414  
  22176030.633   116535854.977                    90807229.503    22176039.766  
                
 21  8  9  0 58 30.0000000  0 14G 6R18G14R15G22G19G24R16R14R 8R24G17
                                R17G 3
  22438086.188   117912955.289                    91880302.588    22438096.453  
                
  21524700.672   114900331.547    21524706.727    89366956.361    21524706.176  
  21524699.637  
  21489387.812   112927488.019                    87995503.890    21489394.719  
                
  19946180.445   106586318.579    19946185.812    82900534.543    19946185.473  
  19946179.469  
  22992178.875   120824741.228    22992183.047    94149144.2304                 
                
  20345729.953   106917549.918    20345734.426    83312402.1214                 
                
  23225916.156   122053014.354                    95106285.463    23225926.160  
                
  21066910.609   112535661.542    21066914.965    87527763.030    21066913.691  
  21066909.895  
  23053710.648   122889214.635    23053717.820    95580535.671    23053717.629  
  23053708.879  
  22881654.844   122530216.213    22881659.980    95301306.254    22881660.078  
  22881653.895  
  21254978.609   113659922.816    21254983.891    88402208.226    21254983.816  
  21254977.098  
  20466398.930   107551650.228                    83806515.622    20466405.219  
                
  19141688.531   102431064.245    19141693.645    79668665.511    19141693.406  
  19141687.234  
  22174868.516   116529748.010                    90802470.839    22174877.645  
                
