     2.11           OBSERVATION DATA    M (MIXED)           RINEX VERSION / TYPE
EFT-CORS.RU                             20210813 103310 UTC PGM / RUN BY / DATE 
IRKT                                                        MARKER NAME         
                                                            MARKER NUMBER       
IRKT                EFT-CORS.RU                             OBSERVER / AGENCY   
0                   TRIMBLE BD970       2.0                 REC # / TYPE / VERS 
0                   UNKNOWN EXT NONE                        ANT # / TYPE        
  -967349.5145  3789899.4449  5021728.6725                  APPROX POSITION XYZ 
        0.0000        0.0000        0.0000                  ANTENNA: DELTA H/E/N
     1     1                                                WAVELENGTH FACT L1/2
     6    C1    L1    P2    L2    C2    P1                  # / TYPES OF OBSERV 
    10.000                                                  INTERVAL            
  2021     8     6     0    30    0.0000000     GPS         TIME OF FIRST OBS   
  2021     8     6     1    30    0.0000000     GPS         TIME OF LAST OBS    
     0                                                      RCV CLOCK OFFS APPL 
                                                            END OF HEADER       
 21  8  6  0 30  0.0000000  0 14G22G14G19R13R 5G 6G24R12R22R21G 3G 1
                                G17G21
  22771722.734   119666226.142    22771727.781    93246452.3484                 
                
  20512483.484   107793843.957    20512490.078    83995234.0004   20512489.906  
                
  21256507.344   111703713.601    21256512.293    87041873.4054                 
                
  22182652.711   118454135.565    22182657.387    92131013.435    22182657.215  
  22182650.762  
  22754155.414   121634018.439    22754161.418    94604254.887    22754161.430  
  22754154.289  
  24063584.516   126454987.424    24063594.395    98536401.1214   24063594.953  
                
  23445298.430   123205877.152    23445307.625    96004619.5744   23445307.867  
                
  19482143.500   104070103.406    19482149.121    80943489.538    19482148.129  
  19482142.578  
  19643409.844   104857872.933    19643414.145    81556140.963    19643413.887  
  19643408.508  
  19917913.953   106584786.422    19917918.578    82899334.565    19917918.094  
  19917912.457  
  22774973.461   119683325.806    22774982.980    93259774.8364   22774983.227  
                
  21200125.680   111407433.111    21200135.852    86811064.7554   21200135.305  
                
  20497246.086   107713765.267    20497252.621    83932924.6934   20497252.387  
                
  23884416.352   125513460.470    23884422.418    97802717.8304                 
                
 21  8  6  0 30 10.0000000  0 14G22G14G19R13R 5G 6G24R12R22R21G 3G 1
                                G17G21
  22771115.812   119663036.764    22771120.824    93243967.1314                 
                
  20515051.445   107807338.634    20515058.043    84005749.3304   20515057.871  
                
  21252005.484   111680056.165    21252010.488    87023439.0484                 
                
  22175744.461   118417245.909    22175749.117    92102321.499    22175748.918  
  22175742.523  
  22752586.109   121625629.618    22752592.121    94597730.264    22752592.141  
  22752585.039  
  24056453.969   126417516.160    24056463.871    98507202.7444   24056464.414  
                
  23443121.391   123194436.748    23443130.680    95995704.9854   23443130.902  
                
  19481843.164   104068498.971    19481848.766    80942241.642    19481847.773  
  19481842.250  
  19640571.336   104842720.746    19640575.633    81544355.932    19640575.422  
  19640570.035  
  19921824.805   106605714.143    19921829.438    82915611.672    19921828.949  
  19921823.301  
  22770969.984   119662287.422    22770979.488    93243381.3114   22770979.738  
                
  21204779.023   111431886.591    21204789.211    86830119.4224   21204788.660  
                
  20496266.086   107708615.305    20496272.637    83928911.7404   20496272.395  
                
  23890267.164   125544206.651    23890273.234    97826675.8914                 
                
 21  8  6  0 30 20.0000000  0 14G22G14G19R13R 5G 6G24R12R22R21G 3G 1
                                G17G21
  22770521.031   119659911.254    22770526.012    93241531.6834                 
                
  20517630.023   107820889.150    20517636.625    84016308.1634   20517636.441  
                
  21247510.148   111656433.108    21247515.184    87005031.4744                 
                
  22168844.367   118380399.877    22168849.016    92073663.479    22168848.820  
  22168842.418  
  22751032.820   121617326.472    22751038.840    94591272.261    22751038.852  
  22751031.777  
  24049326.453   126380060.794    24049336.367    98478016.7364   24049336.910  
                
  23440956.469   123183060.112    23440965.875    95986840.0924   23440966.055  
                
  19481559.516   104066983.818    19481565.121    80941063.185    19481564.117  
  19481558.605  
  19637744.203   104827629.430    19637748.520    81532618.255    19637748.301  
  19637742.969  
  19925744.664   106626690.121    19925749.301    82931926.314    19925748.816  
  19925743.180  
  22766976.805   119641303.247    22766986.309    93227030.0284   22766986.555  
                
  21209442.031   111456390.896    21209452.238    86849213.6824   21209451.676  
                
  20495292.984   107703501.642    20495299.555    83924927.0624   20495299.301  
                
  23896120.773   125574967.560    23896126.836    97850645.4184                 
                
 21  8  6  0 30 30.0000000  0 14G22G14G19R13R 5G 6G24R12R22R21G 3G 1
                                G17G21
  22769938.484   119656849.916    22769943.418    93239146.2314                 
                
  20520219.289   107834495.764    20520225.898    84026910.7214   20520225.723  
                
  21243021.398   111632844.584    21243026.469    86986650.8314                 
                
  22161952.492   118343597.649    22161957.145    92045039.546    22161956.949  
  22161950.535  
  22749495.719   121609109.649    22749501.727    94584881.386    22749501.734  
  22749494.684  
  24042202.023   126342621.646    24042211.930    98448843.3824   24042212.461  
                
  23438803.766   123171747.554    23438813.289    95978025.1184   23438813.406  
                
  19481292.648   104065558.193    19481298.258    80939954.370    19481297.250  
  19481291.742  
  19634928.617   104812599.620    19634932.949    81520928.405    19634932.707  
  19634927.426  
  19929673.602   106647714.576    19929678.234    82948278.659    19929677.758  
  19929672.133  
  22762994.031   119620373.645    22763003.516    93210721.2684   22763003.766  
                
  21214114.766   111480946.227    21214124.973    86868347.7024   21214124.418  
                
  20494326.852   107698424.557    20494333.441    83920970.8924   20494333.180  
                
  23901977.258   125605743.489    23901983.309    97874626.6484                 
                
 21  8  6  0 30 40.0000000  0 14G22G14G19R13R 5G 6G24R12R22R21G 3G 1
                                G17G21
  22769368.086   119653852.528    22769372.988    93236810.6124                 
                
  20522819.164   107848158.237    20522825.781    84037556.7954   20522825.605  
                
  21238539.203   111609290.521    21238544.270    86968297.0114                 
                
  22155068.797   118306839.247    22155073.465    92016449.698    22155073.262  
  22155066.855  
  22747974.664   121600978.811    22747980.672    94578557.400    22747980.672  
  22747973.688  
  24035080.641   126305198.609    24035090.543    98419682.5784   24035091.074  
                
  23436663.219   123160498.908    23436672.836    95969259.9384   23436672.906  
                
  19481042.461   104064221.783    19481048.066    80938914.932    19481047.055  
  19481041.562  
  19632124.438   104797630.729    19632128.766    81509285.940    19632128.523  
  19632123.309  
  19933611.508   106668787.053    19933616.129    82964668.349    19933615.652  
  19933610.051  
  22759021.602   119599498.471    22759031.066    93194454.9124   22759031.305  
                
  21218797.125   111505552.227    21218807.324    86887521.2144   21218806.785  
                
  20493367.633   107693383.849    20493374.238    83917043.0684   20493373.973  
                
  23907836.523   125636534.126    23907842.582    97898619.3364                 
                
 21  8  6  0 30 50.0000000  0 14G22G14G19R13R 5G 6G24R12R22R21G 3G 1
                                G17G21
  22768809.930   119650919.381    22768814.789    93234525.0504                 
                
  20525429.734   107861876.807    20525436.355    84048246.5834   20525436.180  
                
  21234063.609   111585771.168    21234068.695    86949970.2614                 
                
  22148193.445   118270125.315    22148198.102    91987894.426    22148197.906  
  22148191.477  
  22746469.758   121592934.282    22746475.766    94572300.559    22746475.758  
  22746468.836  
  24027962.406   126267791.999    24027972.305    98390534.5774   24027972.828  
                
  23434534.898   123149314.463    23434544.609    95960544.7834   23434544.637  
                
  19480809.086   104062975.133    19480814.691    80937945.319    19480813.688  
  19480808.199  
  19629331.711   104782723.008    19629336.035    81497691.052    19629335.801  
  19629330.641  
  19937558.430   106689907.819    19937563.062    82981095.605    19937562.582  
  19937556.996  
  22755059.609   119578678.112    22755069.059    93178231.2704   22755069.301  
                
  21223489.172   111530209.101    21223499.363    86906734.3674   21223498.840  
                
  20492415.398   107688379.802    20492422.020    83913143.8144   20492421.750  
                
  23913698.633   125667339.600    23913704.699    97922623.5854                 
                
 21  8  6  0 31  0.0000000  0 14G22G14G19R13R 5G 6G24R12R22R21G 3G 1
                                G17G21
  22768263.875   119648049.902    22768268.688    93232289.1014                 
                
  20528050.875   107875651.002    20528057.516    84058979.7174   20528057.328  
                
  21229594.570   111562286.192    21229599.668    86931670.2824                 
                
  22141326.336   118233455.375    22141330.988    91959373.375    22141330.797  
  22141324.316  
  22744980.922   121584975.609    22744986.926    94566110.488    22744986.910  
  22744980.055  
  24020847.211   126230401.469    24020857.133    98361399.1074   24020857.625  
                
  23432418.695   123138193.820    23432428.543    95951879.3644   23432428.516  
                
  19480592.414   104061817.667    19480598.004    80937045.060    19480596.996  
  19480591.535  
  19626550.453   104767876.425    19626554.773    81486143.714    19626554.531  
  19626549.449  
  19941514.297   106711076.463    19941518.934    82997560.101    19941518.453  
  19941512.879  
  22751107.977   119557912.205    22751117.406    93162050.0604   22751117.660  
                
  21228190.805   111554916.303    21228200.992    86925986.7254   21228200.473  
                
  20491470.070   107683412.018    20491476.695    83909272.8094   20491476.426  
                
  23919563.469   125698159.479    23919569.539    97946639.0624                 
                
 21  8  6  0 31 10.0000000  0 14G22G14G19R13R 5G 6G24R12R22R21G 3G 1
                                G17G21
  22767730.062   119645244.712    22767734.836    93230103.2474                 
                
  20530682.680   107889481.202    20530689.332    84069756.4914   20530689.152  
                
  21225132.133   111538835.938    21225137.254    86913397.3584                 
                
  22134467.562   118196830.029    22134472.219    91930887.014    22134472.027  
  22134465.527  
  22743508.250   121577103.361    22743514.270    94559987.637    22743514.258  
  22743507.406  
  24013735.172   126193027.431    24013745.098    98332276.4814   24013745.582  
                
  23430314.734   123127137.413    23430324.691    95943263.9784   23430324.605  
                
  19480392.492   104060749.750    19480398.086    80936214.458    19480397.074  
  19480391.633  
  19623780.641   104753091.025    19623784.961    81474643.966    19623784.691  
  19623779.703  
  19945479.117   106732293.019    19945483.766    83014061.871    19945483.289  
  19945477.711  
  22747166.797   119537201.220    22747176.203    93145911.6494   22747176.453  
                
  21232902.055   111579674.107    21232912.258    86945278.5104   21232911.730  
                
  20490531.688   107678480.839    20490538.332    83905430.3354   20490538.062  
                
  23925431.086   125728994.054    23925437.184    97970666.0194                 
                
 21  8  6  0 31 20.0000000  0 14G22G14G19R13R 5G 6G24R12R22R21G 3G 1
                                G17G21
  22767208.422   119642503.507    22767213.148    93227967.2504                 
                
  20533325.078   107903367.060    20533331.742    84080576.6334   20533331.562  
                
  21220676.250   111515420.169    21220681.398    86895151.3144                 
                
  22127617.070   118160248.777    22127621.691    91902434.930    22127621.477  
  22127614.988  
  22742051.656   121569317.029    22742057.680    94553931.611    22742057.676  
  22742050.820  
  24006626.219   126155669.696    24006636.172    98303166.5684   24006636.664  
                
  23428222.945   123116144.956    23428233.004    95934698.4374   23428232.844  
                
  19480209.328   104059771.266    19480214.906    80935453.412    19480213.895  
  19480208.480  
  19621022.234   104738366.474    19621026.543    81463191.542    19621026.277  
  19621021.344  
  19949452.852   106753557.262    19949457.504    83030600.720    19949457.027  
  19949451.398  
  22743236.023   119516544.950    22743245.406    93129815.8804   22743245.684  
                
  21237622.859   111604482.073    21237633.078    86964609.3924   21237632.547  
                
  20489600.219   107673585.958    20489606.875    83901616.1454   20489606.609  
                
  23931301.453   125759842.966    23931307.523    97994704.1174                 
                
 21  8  6  0 31 30.0000000  0 14G22G14G19R13R 5G 6G24R12R22R21G 3G 1
                                G17G21
  22766699.000   119639826.503    22766703.695    93225881.2804                 
                
  20535978.102   107917308.762    20535984.777    84091440.2874   20535984.598  
                
  21216226.984   111492039.138    21216232.156    86876932.3274                 
                
  22120774.984   118123712.488    22120779.582    91874017.819    22120779.352  
  22120772.875  
  22740611.234   121561617.279    22740617.266    94547942.941    22740617.273  
  22740610.406  
  23999520.414   126118328.484    23999530.391    98274069.5304   23999530.859  
                
  23426143.344   123105216.684    23426153.469    95926182.9064   23426153.250  
                
  19480042.906   104058882.294    19480048.473    80934761.983    19480047.477  
  19480042.074  
  19618275.320   104723703.262    19618279.605    81451786.818    19618279.340  
  19618274.473  
  19953435.516   106774869.279    19953440.156    83047176.722    19953439.676  
  19953434.031  
  22739315.727   119495943.701    22739325.082    93113762.9724   22739325.371  
                
  21242353.227   111629340.335    21242363.453    86983979.4644   21242362.918  
                
  20488675.734   107668727.738    20488682.402    83897830.5194   20488682.133  
                
  23937174.570   125790706.421    23937180.621    98018753.5614                 
                
 21  8  6  0 31 40.0000000  0 14G22G14G19R13R 5G 6G24R12R22R21G 3G 1
                                G17G21
  22766201.789   119637213.727    22766206.465    93223845.3634                 
                
  20538641.750   107931306.299    20538648.441    84102347.4524   20538648.266  
                
  21211784.312   111468692.816    21211789.512    86858740.4014                 
                
  22113941.281   118087220.946    22113945.859    91845635.524    22113945.613  
  22113939.133  
  22739186.969   121554003.821    22739193.000    94542021.379    22739192.988  
  22739186.145  
  23992417.773   126081003.920    23992427.754    98244985.4654   23992428.207  
                
  23424075.992   123094352.663    23424086.160    95917717.4454   23424085.922  
                
  19479893.266   104058082.905    19479898.812    80934140.228    19479897.809  
  19479892.453  
  19615539.852   104709101.197    19615544.133    81440429.662    19615543.875  
  19615539.035  
  19957427.078   106796228.974    19957431.727    83063789.823    19957431.234  
  19957425.609  
  22735405.906   119475397.589    22735415.238    93097753.0314   22735415.539  
                
  21247093.156   111654248.834    21247103.383    87003388.6804   21247102.863  
                
  20487758.156   107663905.896    20487764.836    83894073.2434   20487764.570  
                
  23943050.438   125821584.273    23943056.461    98042814.2194                 
                
 21  8  6  0 31 50.0000000  0 14G22G14G19R13R 5G 6G24R12R22R21G 3G 1
                                G17G21
  22765716.805   119634665.109    22765721.457    93221859.4344                 
                
  20541316.000   107945359.576    20541322.719    84113298.0514   20541322.543  
                
  21207348.258   111445381.196    21207353.465    86840575.5124                 
                
  22107115.977   118050774.301    22107120.535    91817288.150    22107120.277  
  22107113.820  
  22737778.883   121546476.890    22737784.934    94536167.116    22737784.926  
  22737778.090  
  23985318.328   126043696.033    23985328.266    98215914.3654   23985328.730  
                
  23422020.852   123083552.869    23422031.059    95909302.0294   23422030.793  
                
  19479760.391   104057373.093    19479765.918    80933588.152    19479764.910  
  19479759.602  
  19612815.836   104694560.199    19612820.113    81429119.997    19612819.879  
  19612815.059  
  19961427.547   106817636.238    19961432.180    83080439.903    19961431.691  
  19961426.070  
  22731506.586   119454906.611    22731515.906    93081786.0624   22731516.219  
                
  21251842.609   111679207.361    21251852.836    87022836.8764   21251852.316  
                
  20486847.516   107659120.420    20486854.207    83890344.3034   20486853.941  
                
  23948929.016   125852476.412    23948935.031    98066886.0134                 
                
 21  8  6  0 32  0.0000000  0 14G22G14G19R13R 5G 6G24R12R22R21G 3G 1
                                G17G21
  22765244.031   119632180.722    22765248.664    93219923.5604                 
                
  20544000.867   107959468.592    20544007.609    84124292.0844   20544007.426  
                
  21202918.844   111422104.480    21202924.039    86822437.8124                 
                
  22100299.188   118014373.081    22100303.719    91788976.090    22100303.457  
  22100297.035  
  22736386.984   121539036.368    22736393.039    94530380.042    22736393.016  
  22736386.234  
  23978222.047   126006404.891    23978232.012    98186856.3464   23978232.480  
                
  23419977.945   123072817.359    23419988.188    95900936.7064   23419987.902  
                
  19479644.289   104056752.881    19479649.801    80933105.767    19479648.797  
  19479643.520  
  19610103.281   104680080.409    19610107.535    81417857.936    19610107.324  
  19610102.504  
  19965436.867   106839090.841    19965441.469    83097126.799    19965440.988  
  19965435.398  
  22727617.797   119434470.938    22727627.117    93065862.1744   22727627.430  
                
  21256601.578   111704215.879    21256611.805    87042324.0304   21256611.277  
                
  20485943.797   107654371.388    20485950.508    83886643.7664   20485950.246  
                
  23954810.305   125883382.726    23954816.305    98090968.8444                 
                
 21  8  6  0 32 10.0000000  0 14G22G14G19R13R 5G 6G24R12R22R21G 3G 1
                                G17G21
  22764783.453   119629760.366    22764788.066    93218037.5834                 
                
  20546696.312   107973633.188    20546703.066    84135329.4224   20546702.879  
                
  21198496.031   111398862.456    21198501.199    86804327.1514                 
                
  22093490.867   117978017.025    22093495.363    91760699.175    22093495.086  
  22093488.695  
  22735011.258   121531682.297    22735017.305    94524660.211    22735017.281  
  22735010.582  
  23971128.914   125969130.375    23971138.973    98157811.3114   23971139.406  
                
  23417947.258   123062146.022    23417957.508    95892621.3894   23417957.223  
                
  19479544.953   104056222.222    19479550.445    80932693.029    19479549.441  
  19479544.199  
  19607402.188   104665661.723    19607406.426    81406643.402    19607406.203  
  19607401.402  
  19969455.008   106860592.713    19969459.594    83113850.480    19969459.121  
  19969453.559  
  22723739.508   119414090.456    22723748.848    93049981.2984   22723749.137  
                
  21261370.000   111729274.097    21261380.227    87061849.9124   21261379.691  
                
  20485047.000   107649658.678    20485053.711    83882971.5204   20485053.453  
                
  23960694.258   125914303.051    23960700.258    98115062.5954                 
                
 21  8  6  0 32 20.0000000  0 14G22G14G19R13R 5G 6G24R12R22R21G 3G 1
                                G17G21
  22764335.109   119627404.422    22764339.719    93216201.7974                 
                
  20549402.375   107987853.647    20549409.152    84146410.2944   20549408.965  
                
  21194079.891   111375655.484    21194085.016    86786243.7994                 
                
  22086691.047   117941706.473    22086695.527    91732457.653    22086695.250  
  22086688.902  
  22733651.758   121524414.994    22733657.766    94519007.865    22733657.750  
  22733651.121  
  23964039.062   125931872.954    23964049.148    98128779.5594   23964049.555  
                
  23415928.828   123051539.180    23415939.062    95884356.3354   23415938.785  
                
  19479462.430   104055781.382    19479467.914    80932350.150    19479466.906  
  19479461.695  
  19604712.570   104651304.370    19604716.793    81395476.575    19604716.570  
  19604711.762  
  19973482.008   106882142.021    19973486.594    83130611.063    19973486.117  
  19973480.625  
  22719871.820   119393765.618    22719881.156    93034143.7774   22719881.430  
                
  21266147.930   111754382.274    21266158.156    87081414.7264   21266157.605  
                
  20484157.164   107644982.552    20484163.879    83879327.7854   20484163.625  
                
  23966580.930   125945237.655    23966586.941    98139167.4724                 
                
 21  8  6  0 32 30.0000000  0 14G22G14G19R13R 5G 6G24R12R22R21G 3G 1
                                G17G21
  22763899.039   119625112.858    22763903.637    93214416.1644                 
                
  20552119.062   108002129.889    20552125.859    84157534.6294   20552125.660  
                
  21189670.430   111352483.596    21189675.496    86768187.7794                 
                
  22079899.820   117905441.728    22079904.277    91704251.741    22079904.012  
  22079897.707  
  22732308.477   121517234.417    22732314.449    94513422.975    22732314.430  
  22732307.852  
  23956952.469   125894632.604    23956962.531    98099761.0944   23956962.930  
                
  23413922.672   123040996.827    23413932.871    95876141.5264   23413932.617  
                
  19479396.727   104055430.366    19479402.211    80932077.136    19479401.199  
  19479396.004  
  19602034.430   104637008.286    19602038.641    81384357.401    19602038.426  
  19602033.621  
  19977517.852   106903738.649    19977522.414    83147408.435    19977521.941  
  19977516.512  
  22716014.703   119373496.419    22716024.047    93018349.6114   22716024.309  
                
  21270935.328   111779540.203    21270945.547    87101018.3004   21270944.996  
                
  20483274.273   107640342.991    20483281.000    83875712.5484   20483280.742  
                
  23972470.266   125976186.322    23972476.301    98163283.3084                 
                
 21  8  6  0 32 40.0000000  0 14G22G14G19R13R 5G 6G24R12R22R21G 3G 1
                                G17G21
  22763475.172   119622885.426    22763479.781    93212680.5104                 
                
  20554846.320   108016461.693    20554853.141    84168702.2614   20554852.941  
                
  21185267.602   111329346.574    21185272.598    86750158.9344                 
                
  22073117.125   117869222.573    22073121.574    91676081.299    22073121.293  
  22073115.043  
  22730981.414   121510140.472    22730987.352    94507905.466    22730987.332  
  22730980.809  
  23949869.062   125857409.157    23949879.129    98070755.8344   23949879.535  
                
  23411928.773   123030518.813    23411938.883    95867976.8384   23411938.668  
                
  19479347.773   104055168.907    19479353.262    80931873.778    19479352.262  
  19479347.090  
  19599367.734   104622773.343    19599371.949    81373285.781    19599371.730  
  19599366.910  
  19981562.492   106925382.232    19981567.020    83164242.320    19981566.543  
  19981561.160  
  22712168.156   119353282.773    22712177.496    93002598.7334   22712177.773  
                
  21275732.133   111804747.608    21275742.332    87120660.4374   21275741.785  
                
  20482398.320   107635739.789    20482405.043    83872125.6364   20482404.781  
                
  23978362.250   126007148.826    23978368.312    98187409.9274                 
                
 21  8  6  0 32 50.0000000  0 14G22G14G19R13R 5G 6G24R12R22R21G 3G 1
                                G17G21
  22763063.500   119620722.125    22763068.105    93210994.8294                 
                
  20557584.141   108030848.990    20557590.977    84179913.1354   20557590.777  
                
  21180871.422   111306244.541    21180876.359    86732157.3504                 
                
  22066343.023   117833049.188    22066347.426    91647946.438    22066347.121  
  22066340.969  
  22729670.531   121503133.118    22729676.445    94502455.305    22729676.418  
  22729669.953  
  23942788.891   125820202.714    23942798.992    98041763.8304   23942799.402  
                
  23409947.125   123020105.166    23409957.125    95859862.3014   23409956.922  
                
  19479315.602   104054997.064    19479321.094    80931740.123    19479320.098  
  19479314.949  
  19596712.500   104608599.492    19596716.711    81362261.673    19596716.508  
  19596711.668  
  19985615.875   106947072.739    19985620.391    83181112.720    19985619.910  
  19985614.582  
  22708332.219   119333124.753    22708341.535    92986891.1894   22708341.805  
                
  21280538.344   111830004.378    21280548.520    87140341.0324   21280547.980  
                
  20481529.273   107631172.898    20481535.988    83868567.0134   20481535.730  
                
  23984256.852   126038125.143    23984262.953    98211547.3084                 
                
 21  8  6  0 33  0.0000000  0 14G22G14G19R13R 5G 6G24R12R22R21G 3G 1
                                G17G21
  22762664.062   119618623.161    22762668.672    93209359.2814                 
                
  20560332.531   108045291.919    20560339.383    84191167.3524   20560339.180  
                
  21176481.922   111283177.585    21176486.801    86714183.1024                 
                
  22059577.500   117796921.775    22059581.879    91619847.340    22059581.602  
  22059575.527  
  22728375.898   121496212.558    22728381.777    94497072.642    22728381.730  
  22728375.312  
  23935711.992   125783013.472    23935722.133    98012785.2134   23935722.523  
                
  23407977.727   123009756.005    23407987.598    95851798.0284   23407987.426  
                
  19479300.258   104054915.081    19479305.746    80931676.347    19479304.754  
  19479299.629  
  19594068.727   104594486.896    19594072.945    81351285.221    19594072.750  
  19594067.879  
  19989678.008   106968810.112    19989682.512    83198019.569    19989682.027  
  19989676.734  
  22704506.875   119313022.561    22704516.180    92971227.1704   22704516.469  
                
  21285353.945   111855310.537    21285364.078    87160060.1034   21285363.559  
                
  20480667.141   107626642.433    20480673.863    83865036.7854   20480673.602  
                
  23990154.102   126069115.436    23990160.238    98235695.5834                 
                
 21  8  6  0 33 10.0000000  0 14G22G14G19R13R 5G 6G24R12R22R21G 3G 1
                                G17G21
  22762276.898   119616588.617    22762281.504    93207773.9384                 
                
  20563091.539   108059790.540    20563098.410    84202464.9744   20563098.199  
                
  21172099.109   111260145.750    21172103.945    86696236.2144                 
                
  22052820.695   117760840.737    22052825.047    91591784.304    22052824.770  
  22052818.750  
  22727097.539   121489378.958    22727103.367    94491757.616    22727103.309  
  22727096.949  
  23928638.398   125745841.578    23928648.598    97983820.1274   23928648.926  
                
  23406020.656   122999471.515    23406030.320    95843784.1274   23406030.258  
                
  19479301.742   104054922.973    19479307.242    80931682.487    19479306.254  
  19479301.160  
  19591436.477   104580435.786    19591440.703    81340356.586    19591440.488  
  19591435.594  
  19993748.914   106990594.359    19993753.398    83214962.873    19993752.910  
  19993747.641  
  22700692.219   119292976.439    22700701.504    92955606.8244   22700701.805  
                
  21290178.945   111880666.067    21290189.047    87179817.6614   21290188.535  
                
  20479811.984   107622148.569    20479818.715    83861535.0764   20479818.449  
                
  23996054.008   126100119.522    23996060.141    98259854.5884                 
                
 21  8  6  0 33 20.0000000  0 14G22G14G19R13R 5G 6G24R12R22R21G 3G 1
                                G17G21
  22761901.961   119614618.359    22761906.559    93206238.6894                 
                
  20565861.109   108074344.682    20565867.996    84213805.8544   20565867.781  
                
  21167722.969   111237148.956    21167727.770    86678316.6334                 
                
  22046072.477   117724805.708    22046076.832    91563757.071    22046076.484  
  22046070.562  
  22725835.414   121482632.230    22725841.215    94486510.182    22725841.133  
  22725834.844  
  23921568.102   125708687.000    23921578.328    97954868.5234   23921578.633  
                
  23404075.875   122989251.531    23404085.324    95835820.4994   23404085.379  
                
  19479320.000   104055020.534    19479325.523    80931758.372    19479324.535  
  19479319.473  
  19588815.672   104566445.799    19588819.918    81329475.493    19588819.711  
  19588814.754  
  19997828.570   107012425.390    19997833.043    83231942.564    19997832.551  
  19997827.254  
  22696888.211   119272986.279    22696897.496    92940030.0904   22696897.809  
                
  21295013.289   111906070.725    21295023.355    87199613.5034   21295022.848  
                
  20478963.758   107617691.135    20478970.508    83858061.7584   20478970.234  
                
  24001956.461   126131137.202    24001962.613    98284024.2254                 
                
 21  8  6  0 33 30.0000000  0 14G22G14G19R13R 5G 6G24R12R22R21G 3G 1
                                G17G21
  22761539.297   119612712.530    22761543.863    93204753.6304                 
                
  20568641.273   108088954.465    20568648.176    84225190.0974   20568647.961  
                
  21163353.555   111214187.470    21163358.332    86660424.5734                 
                
  22039333.023   117688817.363    22039337.367    91535766.139    22039337.027  
  22039331.113  
  22724589.570   121475972.559    22724595.348    94481330.458    22724595.266  
  22724588.949  
  23914501.148   125671549.936    23914511.371    97925930.5564   23914511.688  
                
  23402143.398   122979096.280    23402152.730    95827907.3184   23402152.840  
                
  19479355.125   104055208.049    19479360.656    80931904.213    19479359.672  
  19479354.637  
  19586206.367   104552517.086    19586210.621    81318642.052    19586210.363  
  19586205.410  
  20001916.977   107034303.193    20001921.441    83248958.634    20001920.941  
  20001915.605  
  22693094.906   119253052.328    22693104.223    92924497.1574   22693104.512  
                
  21299857.008   111931524.582    21299867.047    87219447.6784   21299866.539  
                
  20478122.516   107613270.326    20478129.273    83854616.9764   20478128.996  
                
  24007861.578   126162168.634    24007867.703    98308204.5434                 
                
 21  8  6  0 33 40.0000000  0 14G22G14G19R13R 5G 6G24R12R22R21G 3G 1
                                G17G21
  22761188.805   119610870.727    22761193.344    93203318.4654                 
                
  20571431.930   108103619.431    20571438.828    84236617.3264   20571438.617  
                
  21158990.766   111191260.922    21158995.543    86642559.7354                 
                
  22032602.250   117652875.470    22032606.582    91507811.332    22032606.238  
  22032600.344  
  22723359.945   121469399.547    22723365.719    94476218.128    22723365.621  
  22723359.250  
  23907437.438   125634429.988    23907447.656    97897005.9414   23907447.953  
                
  23400223.148   122969005.335    23400232.438    95820044.2514   23400232.543  
                
  19479406.977   104055485.093    19479412.531    80932119.692    19479411.543  
  19479406.531  
  19583608.469   104538649.426    19583612.742    81307856.106    19583612.477  
  19583607.496  
  20006014.008   107056227.218    20006018.461    83266010.641    20006017.973  
  20006012.629  
  22689312.234   119233174.279    22689321.578    92909007.7644   22689321.828  
                
  21304709.969   111957027.083    21304719.969    87239319.7524   21304719.461  
                
  20477288.133   107608885.661    20477294.902    83851200.3514   20477294.605  
                
  24013769.148   126193213.188    24013775.254    98332395.1004                 
                
 21  8  6  0 33 50.0000000  0 14G22G14G19R13R 5G 6G24R12R22R21G 3G 1
                                G17G21
  22760850.633   119609093.580    22760855.168    93201933.6834                 
                
  20574233.203   108118340.141    20574240.109    84248088.0094   20574239.895  
                
  21154634.750   111168369.891    21154639.531    86624722.5734                 
                
  22025880.289   117616980.621    22025884.637    91479893.139    22025884.297  
  22025878.398  
  22722146.680   121462913.855    22722152.418    94471173.691    22722152.328  
  22722145.934  
  23900377.141   125597327.877    23900387.340    97868095.2134   23900387.617  
                
  23398315.250   122958979.326    23398324.500    95812231.7974   23398324.613  
                
  19479475.742   104055852.357    19479481.320    80932405.338    19479480.336  
  19479475.332  
  19581022.094   104524843.147    19581026.367    81297117.887    19581026.086  
  19581021.070  
  20010119.742   107078197.842    20010124.223    83283098.913    20010123.730  
  20010118.355  
  22685540.336   119213352.801    22685549.688    92893562.4674   22685549.918  
                
  21309572.289   111982578.730    21309582.254    87259230.1264   21309581.777  
                
  20476460.750   107604537.669    20476467.523    83847812.3084   20476467.211  
                
  24019679.352   126224271.446    24019685.441    98356596.3444                 
                
 21  8  6  0 34  0.0000000  0 14G22G14G19R13R 5G 6G24R12R22R21G 3G 1
                                G17G21
  22760524.664   119607380.699    22760529.211    93200598.9764                 
                
  20577044.984   108133116.180    20577051.895    84259601.7944   20577051.680  
                
  21150285.406   111145514.003    21150290.188    86606912.7934                 
                
  22019167.156   117581132.945    22019171.504    91452011.622    22019171.180  
  22019165.277  
  22720949.656   121456515.124    22720955.379    94466196.909    22720955.293  
  22720948.910  
  23893320.148   125560243.245    23893330.363    97839198.1074   23893330.609  
                
  23396419.641   122949017.894    23396428.785    95804469.6404   23396428.926  
                
  19479561.289   104056309.314    19479566.883    80932760.742    19479565.910  
  19479560.902  
  19578447.164   104511098.067    19578451.441    81286427.267    19578451.164  
  19578446.090  
  20014234.133   107100214.737    20014238.609    83300223.151    20014238.117  
  20014232.742  
  22681779.125   119193587.569    22681788.469    92878160.9934   22681788.715  
                
  21314443.852   112008179.014    21314453.777    87279178.3984   21314453.328  
                
  20475640.242   107600225.973    20475647.023    83844452.5484   20475646.711  
                
  24025592.047   126255342.942    24025598.141    98380807.8994                 
                
 21  8  6  0 34 10.0000000  0 14G22G14G19R13R 5G 6G24R12R22R21G 3G 1
                                G17G21
  22760210.984   119605732.302    22760215.523    93199314.5164                 
                
  20579867.344   108147947.716    20579874.250    84271158.8214   20579874.043  
                
  21145942.805   111122693.502    21145947.605    86589130.5944                 
                
  22012462.867   117545332.347    22012467.207    91424166.703    22012466.871  
  22012460.953  
  22719768.961   121450203.595    22719774.652    94461287.939    22719774.555  
  22719768.207  
  23886266.523   125523176.344    23886276.797    97810314.8364   23886277.016  
                
  23394536.391   122939121.281    23394545.359    95796757.9804   23394545.605  
                
  19479663.672   104056856.227    19479669.301    80933186.116    19479668.332  
  19479663.312  
  19575883.719   104497414.253    19575888.008    81275784.310    19575887.797  
  19575882.621  
  20018357.172   107122277.955    20018361.641    83317383.421    20018361.156  
  20018355.793  
  22678028.680   119173878.879    22678038.023    92862803.5784   22678038.273  
                
  21319324.711   112033828.032    21319334.594    87299164.6374   21319334.156  
                
  20474826.711   107595950.824    20474833.496    83841121.2654   20474833.195  
                
  24031507.312   126286427.831    24031513.418    98405029.8874                 
                
 21  8  6  0 34 20.0000000  0 14G22G14G19R13R 5G 6G24R12R22R21G 3G 1
                                G17G21
  22759909.539   119604148.274    22759914.078    93198080.2234                 
                
  20582700.234   108162834.633    20582707.145    84282759.0144   20582706.945  
                
  21141606.938   111099908.394    21141611.758    86571375.9734                 
                
  22005767.344   117509578.738    22005771.703    91396358.363    22005771.344  
  22005765.426  
  22718604.531   121443979.141    22718610.211    94456446.711    22718610.109  
  22718603.777  
  23879216.266   125486127.167    23879226.594    97781445.3874   23879226.824  
                
  23392665.453   122929289.403    23392674.270    95789096.7754   23392674.629  
                
  19479782.891   104057493.123    19479788.566    80933681.490    19479787.605  
  19479782.562  
  19573331.758   104483791.736    19573336.062    81265189.025    19573335.859  
  19573330.605  
  20022488.836   107144387.307    20022493.297    83334579.580    20022492.820  
  20022487.457  
  22674288.984   119154226.743    22674298.332    92847490.2474   22674298.602  
                
  21324214.805   112059525.634    21324224.652    87319188.7454   21324224.227  
                
  20474020.117   107591712.150    20474026.898    83837818.4054   20474026.598  
                
  24037425.094   126317525.930    24037431.223    98429262.1644                 
                
 21  8  6  0 34 30.0000000  0 14G22G14G19R13R 5G 6G24R12R22R21G 3G 1
                                G17G21
  22759620.352   119602628.577    22759624.879    93196896.0524                 
                
  20585543.656   108177776.865    20585550.559    84294402.3004   20585550.363  
                
  21137277.797   111077158.636    21137282.621    86553648.8984                 
                
  21999080.711   117473872.502    21999085.078    91368586.862    21999084.707  
  21999078.730  
  22717456.438   121437841.931    22717462.105    94451673.334    22717462.023  
  22717455.660  
  23872169.445   125449095.805    23872179.711    97752589.7684   23872179.957  
                
  23390806.805   122919522.268    23390815.586    95781486.0454   23390815.961  
                
  19479918.969   104058219.921    19479924.656    80934246.763    19479923.695  
  19479918.648  
  19570791.266   104470230.404    19570795.570    81254641.327    19570795.336  
  19570790.051  
  20026629.117   107166542.753    20026633.590    83351811.594    20026633.109  
  20026627.762  
  22670560.078   119134631.220    22670569.453    92832221.0094   22670569.691  
                
  21329114.109   112085271.615    21329123.906    87339250.5434   21329123.516  
                
  20473220.445   107587509.851    20473227.223    83834543.8904   20473226.922  
                
  24043345.359   126348637.066    24043351.512    98453504.5934                 
                
 21  8  6  0 34 40.0000000  0 14G22G14G19R13R 5G 6G24R12R22R21G 3G 1
                                G17G21
  22759343.438   119601173.435    22759347.945    93195762.1814                 
                
  20588397.625   108192774.556    20588404.523    84306088.8074   20588404.336  
                
  21132955.422   111054444.425    21132960.238    86535949.5174                 
                
  21992402.953   117438213.692    21992407.332    91340852.237    21992406.953  
  21992400.938  
  22716324.711   121431792.169    22716330.359    94446967.959    22716330.273  
  22716323.918  
  23865126.023   125412082.426    23865136.270    97723748.1834   23865136.500  
                
  23388960.531   122909820.089    23388969.301    95773925.9174   23388969.633  
                
  19480071.891   104059036.767    19480077.617    80934882.090    19480076.660  
  19480071.605  
  19568262.273   104456730.439    19568266.574    81244141.353    19568266.324  
  19568261.004  
  20030778.008   107188744.284    20030782.473    83369079.445    20030781.984  
  20030776.648  
  22666842.008   119115092.570    22666851.410    92816996.0904   22666851.613  
                
  21334022.625   112111066.083    21334032.391    87359350.1304   21334032.023  
                
  20472427.742   107583344.211    20472434.516    83831297.9384   20472434.223  
                
  24049268.148   126379761.484    24049274.316    98477757.3724                 
                
 21  8  6  0 34 50.0000000  0 14G22G14G19R13R 5G 6G24R12R22R21G 3G 1
                                G17G21
  22759078.742   119599782.514    22759083.238    93194678.3594                 
                
  20591262.078   108207827.340    20591268.969    84317818.2354   20591268.785  
                
  21128639.742   111031765.446    21128644.555    86518277.5974                 
                
  21985734.094   117402602.428    21985738.477    91313154.590    21985738.109  
  21985731.984  
  22715209.250   121425829.389    22715214.859    94442330.227    22715214.766  
  22715208.438  
  23858085.953   125375086.758    23858096.215    97694920.4144   23858096.430  
                
  23387126.562   122900182.520    23387135.273    95766416.1344   23387135.629  
                
  19480241.594   104059943.323    19480247.359    80935587.192    19480246.402  
  19480241.324  
  19565744.703   104443291.564    19565749.008    81233688.904    19565748.781  
  19565743.402  
  20034935.414   107210991.424    20034939.887    83386382.777    20034939.398  
  20034934.059  
  22663134.672   119095610.474    22663144.109    92801815.2484   22663144.305  
                
  21338940.297   112136908.580    21338950.035    87379487.1334   21338949.688  
                
  20471641.930   107579214.747    20471648.688    83828080.1734   20471648.402  
                
  24055193.383   126410898.746    24055199.574    98502020.1474                 
                
 21  8  6  0 35  0.0000000  0 14G22G14G19R13R 5G 6G24R12R22R21G 3G 1
                                G17G21
  22758826.352   119598456.137    22758830.816    93193644.8114                 
                
  20594137.055   108222935.453    20594143.941    84329590.7814   20594143.762  
                
  21124330.812   111009121.962    21124335.652    86500633.3454                 
                
  21979074.180   117367038.900    21979078.562    91285494.079    21979078.188  
  21979071.992  
  22714110.133   121419953.923    22714115.684    94437760.420    22714115.582  
  22714109.309  
  23851049.336   125338109.181    23851059.605    97666106.7274   23851059.805  
                
  23385304.945   122890609.883    23385313.555    95758956.9374   23385313.957  
                
  19480428.180   104060939.981    19480433.973    80936362.361    19480433.016  
  19480427.918  
  19563238.672   104429914.177    19563242.988    81223284.267    19563242.781  
  19563237.348  
  20039101.406   107233284.457    20039105.883    83403721.790    20039105.387  
  20039100.051  
  22659438.195   119076185.386    22659447.637    92786678.8154   22659447.809  
                
  21343867.133   112162799.283    21343876.852    87399661.7034   21343876.516  
                
  20470863.055   107575121.748    20470869.793    83824890.8264   20470869.520  
                
  24061121.109   126442049.040    24061127.312    98526293.0904                 
                
 21  8  6  0 35 10.0000000  0 14G22G14G19R13R 5G 6G24R12R22R21G 3G 1
                                G17G21
  22758586.219   119597194.352    22758590.672    93192661.6224                 
                
  20597022.586   108238098.973    20597029.461    84341406.5064   20597029.289  
                
  21120028.680   110986514.165    21120033.547    86483016.8894                 
                
  21972423.258   117331523.457    21972427.676    91257870.989    21972427.289  
  21972421.020  
  22713027.359   121414165.945    22713032.867    94433258.672    22713032.750  
  22713026.520  
  23844016.195   125301149.837    23844026.477    97637307.2514   23844026.672  
                
  23383495.695   122881102.327    23383504.230    95751548.4714   23383504.680  
                
  19480631.617   104062026.747    19480637.449    80937207.631    19480636.492  
  19480631.379  
  19560744.117   104416598.124    19560748.465    81212927.346    19560748.254  
  19560742.777  
  20043275.961   107255623.353    20043280.457    83421096.488    20043279.953  
  20043274.617  
  22655752.586   119056817.442    22655762.039    92771586.9294   22655762.215  
                
  21348803.141   112188738.186    21348812.844    87419873.8394   21348812.527  
                
  20470091.141   107571065.341    20470097.863    83821729.9994   20470097.602  
                
  24067051.281   126473212.327    24067057.496    98550576.1724                 
                
 21  8  6  0 35 20.0000000  0 14G22G14G19R13R 5G 6G24R12R22R21G 3G 1
                                G17G21
  22758358.414   119595997.211    22758362.844    93191728.7994                 
                
  20599918.664   108253317.903    20599925.531    84353265.4094   20599925.371  
                
  21115733.359   110963942.135    21115738.266    86465428.3224                 
                
  21965781.398   117296056.446    21965785.883    91230285.562    21965785.496  
  21965779.129  
  22711961.008   121408465.662    22711966.465    94428825.120    22711966.352  
  22711960.148  
  23836986.547   125264208.866    23836996.852    97608522.1094   23836997.027  
                
  23381698.875   122871659.908    23381707.332    95744190.7484   23381707.797  
                
  19480851.969   104063203.740    19480857.824    80938123.068    19480856.871  
  19480851.723  
  19558261.102   104403343.599    19558265.453    81202618.277    19558265.246  
  19558259.738  
  20047459.070   107278007.983    20047463.570    83438506.755    20047463.062  
  20047457.719  
  22652077.891   119037506.790    22652087.348    92756539.6774   22652087.527  
                
  21353748.320   112214725.215    21353757.992    87440123.4724   21353757.699  
                
  20469326.203   107567045.558    20469332.895    83818597.7014   20469332.645  
                
  24072983.953   126504388.594    24072990.160    98574869.3454                 
                
 21  8  6  0 35 30.0000000  0 14G22G14G19R13R 5G 6G24R12R22R21G 3G 1
                                G17G21
  22758142.828   119594864.398    22758147.230    93190846.1044                 
                
  20602825.195   108268591.838    20602832.059    84365167.1754   20602831.906  
                
  21111444.766   110941405.510    21111449.703    86447867.3334                 
                
  21959148.508   117260637.298    21959153.035    91202737.365    21959152.684  
  21959146.211  
  22710910.969   121402852.602    22710916.398    94424459.417    22710916.273  
  22710910.121  
  23829960.336   125227285.938    23829970.633    97579751.0124   23829970.812  
                
  23379914.359   122862282.275    23379922.754    95736883.5184   23379923.219  
                
  19481089.109   104064470.484    19481094.996    80939108.310    19481094.047  
  19481088.875  
  19555789.508   104390150.127    19555793.887    81192356.702    19555793.695  
  19555788.133  
  20051650.656   107300437.997    20051655.164    83455952.319    20051654.645  
  20051649.289  
  22648414.047   119018253.139    22648423.504    92741536.8314   22648423.668  
                
  21358702.555   112240759.902    21358712.211    87460410.2534   21358711.930  
                
  20468568.172   107563062.075    20468574.836    83815493.6954   20468574.602  
                
  24078919.016   126535577.562    24078925.219    98599172.4424                 
                
 21  8  6  0 35 40.0000000  0 14G22G14G19R13R 5G 6G24R12R22R21G 3G 1
                                G17G21
  22757939.461   119593795.790    22757943.836    93190013.4314                 
                
  20605742.164   108283920.647    20605749.020    84377111.6934   20605748.887  
                
  21107162.906   110918904.297    21107167.879    86430333.9304                 
                
  21952524.672   117225266.399    21952529.203    91175226.658    21952528.824  
  21952522.324  
  22709877.250   121397326.771    22709882.641    94420161.528    22709882.531  
  22709876.391  
  23822937.547   125190381.023    23822947.824    97550993.9384   23822948.000  
                
  23378142.164   122852969.351    23378150.484    95729626.6934   23378150.934  
                
  19481343.047   104065827.008    19481348.973    80940163.386    19481348.016  
  19481342.816  
  19553329.352   104377017.697    19553333.742    81182142.596    19553333.559  
  19553327.984  
  20055850.664   107322913.100    20055855.176    83473432.946    20055854.664  
  20055849.281  
  22644761.008   118999056.432    22644770.492    92726578.3804   22644770.645  
                
  21363665.812   112266842.049    21363675.461    87480733.9954   21363675.188  
                
  20467817.016   107559114.746    20467823.645    83812417.8584   20467823.426  
                
  24084856.406   126566778.846    24084862.586    98623485.1284                 
                
 21  8  6  0 35 50.0000000  0 14G22G14G19R13R 5G 6G24R12R22R21G 3G 1
                                G17G21
  22757748.469   119592792.117    22757752.828    93189231.3564                 
                
  20608669.727   108299305.039    20608676.570    84389099.5224   20608676.441  
                
  21102887.961   110896439.279    21102892.961    86412828.7224                 
                
  21945909.938   117189944.194    21945914.500    91147753.868    21945914.129  
  21945907.590  
  22708860.008   121391889.012    22708865.387    94415932.159    22708865.305  
  22708859.148  
  23815918.336   125153494.908    23815928.641    97522251.5294   23815928.762  
                
  23376382.430   122843721.895    23376390.617    95722420.8844   23376391.133  
                
  19481613.953   104067274.128    19481619.902    80941288.923    19481618.957  
  19481613.723  
  19550880.734   104363946.883    19550885.152    81171976.418    19550884.965  
  19550879.406  
  20060059.219   107345433.899    20060063.730    83490949.118    20060063.227  
  20060057.836  
  22641119.008   118979917.557    22641128.504    92711664.9764   22641128.645  
                
  21368638.234   112292972.277    21368647.895    87501095.2084   21368647.633  
                
  20467072.875   107555204.309    20467079.477    83809370.7694   20467079.266  
                
  24090796.289   126597993.131    24090802.457    98647807.9514                 
                
 21  8  6  0 36  0.0000000  0 14G22G14G19R13R 5G 6G24R12R22R21G 3G 1
                                G17G21
  22757569.719   119591852.827    22757574.094    93188499.4514                 
                
  20611607.750   108314744.450    20611614.578    84401130.2234   20611614.457  
                
  21098619.781   110874009.887    21098624.816    86395351.2884                 
                
  21939304.320   117154670.700    21939308.914    91120318.943    21939308.547  
  21939301.973  
  22707859.086   121386538.493    22707864.461    94411770.651    22707864.383  
  22707858.207  
  23808902.625   125116627.160    23808912.957    97493523.4244   23808913.047  
                
  23374635.070   122834539.433    23374643.082    95715265.7134   23374643.727  
                
  19481901.711   104068811.260    19481907.684    80942484.469    19481906.746  
  19481901.477  
  19548443.625   104350937.389    19548448.051    81161857.920    19548447.836  
  19548442.312  
  20064276.203   107367999.862    20064280.715    83508500.425    20064280.207  
  20064274.836  
  22637487.914   118960836.029    22637497.406    92696796.2574   22637497.535  
                
  21373619.688   112319149.963    21373629.367    87521493.3954   21373629.094  
                
  20466335.648   107551330.213    20466342.234    83806351.9934   20466342.035  
                
  24096738.531   126629219.801    24096744.680    98672140.4204                 
                
 21  8  6  0 36 10.0000000  0 14G22G14G19R13R 5G 6G24R12R22R21G 3G 1
                                G17G21
  22757403.234   119590977.999    22757407.617    93187817.7774                 
                
  20614556.258   108330238.935    20614563.078    84413203.8424   20614562.961  
                
  21094358.398   110851616.256    21094363.465    86377901.7204                 
                
  21932707.875   117119445.938    21932712.449    91092921.876    21932712.051  
  21932705.492  
  22706874.562   121381275.746    22706879.957    94407677.423    22706879.891  
  22706873.672  
  23801890.430   125079777.922    23801900.777    97464809.7464   23801900.852  
                
  23372900.078   122825422.059    23372907.941    95708161.2744   23372908.699  
                
  19482206.320   104070438.436    19482212.324    80943750.045    19482211.387  
  19482206.090  
  19546017.969   104337989.115    19546022.406    81151787.049    19546022.184  
  19546016.695  
  20068501.633   107390610.957    20068506.148    83526086.824    20068505.641  
  20068500.246  
  22633867.750   118941812.028    22633877.246    92681972.3704   22633877.363  
                
  21378610.156   112345375.077    21378619.859    87541928.5524   21378619.578  
                
  20465605.367   107547492.550    20465611.945    83803361.6124   20465611.742  
                
  24102683.148   126660458.922    24102689.281    98696482.5834                 
                
 21  8  6  0 36 20.0000000  0 14G22G14G19R13R 5G 6G24R12R22R21G 3G 1
                                G17G21
  22757249.055   119590167.789    22757253.422    93187186.4574                 
                
  20617515.273   108345788.570    20617522.086    84425320.4384   20617521.973  
                
  21090103.891   110829258.616    21090108.953    86360480.1864                 
                
  21926120.617   117084270.287    21926125.168    91065563.037    21926124.750  
  21926118.238  
  22705906.500   121376100.791    22705911.887    94403652.454    22705911.812  
  22705905.574  
  23794881.797   125042947.365    23794892.133    97436110.6324   23794892.188  
                
  23371177.531   122816369.903    23371185.215    95701107.6334   23371186.062  
                
  19482527.820   104072155.728    19482533.840    80945085.720    19482532.895  
  19482527.574  
  19543603.844   104325102.374    19543608.309    81141764.038    19543608.062  
  19543602.598  
  20072735.492   107413267.120    20072740.012    83543708.279    20072739.500  
  20072734.098  
  22630258.602   118922845.764    22630268.086    92667193.4664   22630268.215  
                
  21383609.672   112371647.618    21383619.375    87562400.6574   21383619.082  
                
  20464882.055   107543691.470    20464888.629    83800399.7334   20464888.422  
                
  24108630.148   126691710.559    24108636.285    98720834.5084                 
                
 21  8  6  0 36 30.0000000  0 14G22G14G19R13R 5G 6G24R12R22R21G 3G 1
                                G17G21
  22757107.094   119589421.866    22757111.434    93186605.2314                 
                
  20620484.680   108361392.941    20620491.488    84437479.6784   20620491.375  
                
  21085856.094   110806936.405    21085861.160    86343086.2664                 
                
  21919542.484   117049143.461    21919547.004    91038242.161    21919546.574  
  21919540.133  
  22704954.727   121371013.064    22704960.102    94399695.323    22704960.031  
  22704953.797  
  23787876.648   125006135.182    23787886.977    97407425.8234   23787887.027  
                
  23369467.297   122807382.615    23369474.816    95694104.5394   23369475.773  
                
  19482866.125   104073962.888    19482872.160    80946491.283    19482871.215  
  19482865.867  
  19541201.109   104312276.516    19541205.594    81131788.386    19541205.359  
  19541199.918  
  20076977.695   107435968.048    20076982.215    83561364.562    20076981.707  
  20076976.309  
  22626660.344   118903936.902    22626669.836    92652459.3044   22626669.941  
                
  21388618.102   112397967.129    21388627.797    87582909.3614   21388627.520  
                
  20464165.594   107539926.497    20464172.172    83797465.9934   20464171.961  
                
  24114579.453   126722974.318    24114585.605    98745195.8524                 
                
 21  8  6  0 36 40.0000000  0 14G22G14G19R13R 5G 6G24R12R22R21G 3G 1
                                G17G21
  22756977.477   119588740.770    22756981.789    93186074.5194                 
                
  20623464.617   108377052.590    20623471.410    84449681.9914   20623471.305  
                
  21081615.203   110784650.376    21081620.262    86325720.5384                 
                
  21912973.594   117014065.980    21912978.098    91010959.685    21912977.680  
  21912971.281  
  22704019.461   121366013.438    22704024.809    94395806.693    22704024.715  
  22704018.512  
  23780875.133   124969342.044    23780885.504    97378755.8644   23780885.523  
                
  23367769.531   122798460.800    23367776.891    95687152.4764   23367777.949  
                
  19483221.359   104075860.470    19483227.410    80947967.175    19483226.469  
  19483221.090  
  19538809.930   104299512.276    19538814.418    81121860.640    19538814.199  
  19538808.766  
  20081228.328   107458714.093    20081232.848    83579055.932    20081232.344  
  20081226.926  
  22623073.164   118885086.142    22623082.648    92637770.4024   22623082.742  
                
  21393635.562   112424334.050    21393645.254    87603455.0084   21393644.980  
                
  20463456.125   107536198.224    20463462.711    83794560.8464   20463462.492  
                
  24120531.148   126754250.652    24120537.340    98769567.0094                 
                
 21  8  6  0 36 50.0000000  0 14G22G14G19R13R 5G 6G24R12R22R21G 3G 1
                                G17G21
  22756860.117   119588124.117    22756864.426    93185594.0244                 
                
  20626454.992   108392767.104    20626461.789    84461927.0644   20626461.688  
                
  21077381.133   110762400.216    21077386.180    86308382.7544                 
                
  21906413.922   116979037.765    21906418.398    90983715.522    21906417.992  
  21906411.672  
  22703100.594   121361101.538    22703105.941    94391986.329    22703105.859  
  22703099.664  
  23773877.188   124932567.613    23773887.578    97350100.4684   23773887.566  
                
  23366084.164   122789604.116    23366091.387    95680251.1584   23366092.562  
                
  19483593.422   104077847.972    19483599.492    80949513.014    19483598.555  
  19483593.148  
  19536430.227   104286809.281    19536434.730    81111980.552    19536434.512  
  19536429.102  
  20085487.320   107481504.794    20085491.836    83596782.034    20085491.328  
  20085485.895  
  22619496.969   118866293.173    22619506.449    92623126.5394   22619506.559  
                
  21398661.945   112450747.904    21398671.664    87624037.2344   21398671.398  
                
  20462753.578   107532506.284    20462760.168    83791684.0094   20462759.941  
                
  24126485.141   126785539.048    24126491.363    98793947.5704                 
                
 21  8  6  0 37  0.0000000  0 14G22G14G19R13R 5G 6G24R12R22R21G 3G 1
                                G17G21
  22756755.047   119587572.005    22756759.367    93185163.8204                 
                
  20629455.820   108408536.551    20629462.605    84474214.9354   20629462.496  
                
  21073153.922   110740186.094    21073158.941    86291073.0514                 
                
  21899863.562   116944059.228    21899867.996    90956509.992    21899867.598  
  21899861.352  
  22702198.133   121356277.471    22702203.516    94388234.292    22702203.449  
  22702197.227  
  23766882.812   124895812.033    23766893.203    97321459.7644   23766893.188  
                
  23364411.203   122780812.673    23364418.324    95673400.6724   23364419.559  
                
  19483982.375   104079925.702    19483988.469    80951129.025    19483987.523  
  19483982.094  
  19534062.023   104274167.700    19534066.516    81102148.216    19534066.293  
  19534060.938  
  20089754.672   107504340.233    20089759.184    83614542.922    20089758.656  
  20089753.180  
  22615931.812   118847558.182    22615941.285    92608527.8514   22615941.391  
                
  21403697.266   112477208.707    21403707.016    87644656.0424   21403706.734  
                
  20462057.938   107528850.760    20462064.543    83788835.5514   20462064.309  
                
  24132441.438   126816839.587    24132447.684    98818337.5954                 
                
 21  8  6  0 37 10.0000000  0 14G22G14G19R13R 5G 6G24R12R22R21G 3G 1
                                G17G21
  22756662.289   119587084.598    22756666.629    93184784.0324                 
                
  20632467.156   108424361.126    20632473.930    84486545.7594   20632473.820  
                
  21068933.602   110718008.137    21068938.609    86273791.5314                 
                
  21893322.578   116909130.745    21893326.977    90929343.401    21893326.598  
  21893320.410  
  22701312.156   121351541.411    22701317.570    94384550.698    22701317.500  
  22701311.238  
  23759892.094   124859075.588    23759902.480    97292833.9804   23759902.453  
                
  23362750.719   122772086.679    23362757.785    95666601.1884   23362759.031  
                
  19484388.250   104082093.740    19484394.359    80952815.271    19484393.422  
  19484387.949  
  19531705.352   104261587.556    19531709.844    81092363.655    19531709.641  
  19531704.285  
  20094030.383   107527220.413    20094034.902    83632338.617    20094034.375  
  20094028.875  
  22612377.750   118828881.440    22612387.207    92593974.5534   22612387.320  
                
  21408741.555   112503716.534    21408751.316    87665311.4834   21408751.020  
                
  20461369.312   107525231.944    20461375.918    83786015.6964   20461375.676  
                
  24138400.070   126848152.355    24138406.332    98842737.1514                 
                
 21  8  6  0 37 20.0000000  0 14G22G14G19R13R 5G 6G24R12R22R21G 3G 1
                                G17G21
  22756581.812   119586661.759    22756586.156    93184454.5554                 
                
  20635488.898   108440240.487    20635495.672    84498919.2844   20635495.566  
                
  21064720.109   110695866.164    21064725.129    86256538.0514                 
                
  21886790.875   116874251.941    21886795.238    90902215.457    21886794.848  
  21886788.754  
  22700442.547   121346892.994    22700448.023    94380935.297    22700447.949  
  22700441.652  
  23752904.977   124822358.104    23752915.344    97264222.9564   23752915.301  
                
  23361102.602   122763425.890    23361109.648    95659852.5444   23361110.875  
                
  19484810.977   104084351.864    19484817.098    80954571.580    19484816.152  
  19484810.660  
  19529360.102   104249068.547    19529364.590    81082626.659    19529364.391  
  19529359.078  
  20098314.391   107550145.022    20098318.930    83650168.869    20098318.398  
  20098312.906  
  22608834.734   118810262.779    22608844.184    92579466.5224   22608844.293  
                
  21413794.703   112530271.005    21413804.457    87686003.2764   21413804.168  
                
  20460687.586   107521649.463    20460694.184    83783224.1524   20460693.945  
                
  24144360.945   126879476.992    24144367.227    98867145.9624                 
                
 21  8  6  0 37 30.0000000  0 14G22G14G19R13R 5G 6G24R12R22R21G 3G 1
                                G17G21
  22756513.656   119586303.547    22756518.000    93184175.4364                 
                
  20638521.094   108456174.712    20638527.859    84511335.5534   20638527.758  
                
  21060513.508   110673760.310    21060518.543    86239312.7184                 
                
  21880268.562   116839423.139    21880272.879    90875126.386    21880272.480  
  21880266.477  
  22699589.438   121342332.652    22699594.953    94377388.378    22699594.887  
  22699588.527  
  23745921.516   124785659.733    23745931.848    97235626.8144   23745931.812  
                
  23359466.945   122754830.447    23359473.938    95653154.7944   23359475.176  
                
  19485250.602   104086700.175    19485256.734    80956398.040    19485255.805  
  19485250.262  
  19527026.414   104236611.089    19527030.883    81072937.520    19527030.664  
  19527025.430  
  20102606.719   107573114.073    20102611.250    83668033.679    20102610.719  
  20102605.211  
  22605302.805   118791702.371    22605312.227    92565003.8714   22605312.352  
                
  21418856.742   112556872.134    21418866.480    87706731.4174   21418866.199  
                
  20460012.805   107518103.451    20460019.395    83780461.0284   20460019.160  
                
  24150324.117   126910813.596    24150330.391    98891564.0854                 
                
 21  8  6  0 37 40.0000000  0 14G22G14G19R13R 5G 6G24R12R22R21G 3G 1
                                G17G21
  22756457.773   119586009.944    22756462.121    93183946.6604                 
                
  20641563.711   108472163.784    20641570.477    84523794.5674   20641570.387  
                
  21056313.773   110651690.602    21056318.820    86222115.5554                 
                
  21873755.617   116804644.353    21873759.887    90848076.219    21873759.520  
  21873753.516  
  22698752.781   121337860.363    22698758.336    94373909.952    22698758.293  
  22698751.816  
  23738941.664   124748980.517    23738952.055    97207045.6344   23738952.016  
                
  23357843.734   122746300.371    23357850.625    95646507.9704   23357851.918  
                
  19485707.086   104089138.665    19485713.242    80958294.642    19485712.309  
  19485706.730  
  19524704.180   104224214.885    19524708.629    81063296.030    19524708.414  
  19524703.254  
  20106907.305   107596127.364    20106911.844    83685932.908    20106911.301  
  20106905.805  
  22601781.969   118773200.323    22601791.375    92550586.7034   22601791.516  
                
  21423927.625   112583519.807    21423937.367    87727495.8354   21423937.090  
                
  20459344.953   107514593.938    20459351.539    83777726.3484   20459351.316  
                
  24156289.539   126942162.108    24156295.785    98915991.4954                 
                
 21  8  6  0 37 50.0000000  0 14G22G14G19R13R 5G 6G24R12R22R21G 3G 1
                                G17G21
  22756414.203   119585781.013    22756418.586    93183768.2924                 
                
  20644616.773   108488207.713    20644623.543    84536296.3304   20644623.457  
                
  21052120.898   110629656.904    21052125.922    86204946.4424                 
                
  21867252.086   116769915.859    21867256.312    90821065.170    21867255.980  
  21867249.945  
  22697932.578   121333475.900    22697938.137    94370499.817    22697938.082  
  22697931.547  
  23731965.500   124712320.603    23731975.953    97178479.4924   23731975.906  
                
  23356232.984   122737835.757    23356239.766    95639912.1564   23356241.109  
                
  19486180.500   104091667.468    19486186.668    80960261.484    19486185.734  
  19486180.117  
  19522393.445   104211880.002    19522397.863    81053702.233    19522397.652  
  19522392.559  
  20111216.188   107619185.068    20111220.738    83703866.681    20111220.203  
  20111214.699  
  22598272.266   118754756.733    22598281.656    92536215.0894   22598281.805  
                
  21429007.375   112610213.989    21429017.125    87748296.4894   21429016.840  
                
  20458684.062   107511120.894    20458690.633    83775020.0824   20458690.410  
                
  24162257.219   126973522.455    24162263.414    98940428.1164                 
                
 21  8  6  0 38  0.0000000  0 14G22G14G19R13R 5G 6G24R12R22R21G 3G 1
                                G17G21
  22756382.930   119585616.722    22756387.352    93183640.2754                 
                
  20647680.250   108504306.389    20647687.023    84548840.7424   20647686.934  
                
  21047934.930   110607659.518    21047939.898    86187805.6234                 
                
  21860757.938   116735237.639    21860762.152    90794093.240    21860761.852  
  21860755.781  
  22697128.852   121329179.515    22697134.402    94367158.189    22697134.332  
  22697127.785  
  23724993.016   124675679.992    23725003.438    97149928.3674   23725003.395  
                
  23354634.656   122729436.523    23354641.387    95633367.2884   23354642.750  
                
  19486670.781   104094286.444    19486676.957    80962298.455    19486676.023  
  19486670.363  
  19520094.195   104199606.492    19520098.578    81044156.168    19520098.344  
  19520093.344  
  20115533.297   107642286.815    20115537.863    83721834.698    20115537.332  
  20115531.793  
  22594773.688   118736371.638    22594783.074    92521889.0464   22594783.227  
                
  21434095.922   112636954.464    21434105.684    87769133.2064   21434105.398  
                
  20458030.102   107507684.328    20458036.648    83772342.2354   20458036.434  
                
  24168227.133   127004894.452    24168233.285    98964873.8054                 
                
 21  8  6  0 38 10.0000000  0 14G22G14G19R13R 5G 6G24R12R22R21G 3G 1
                                G17G21
  22756363.938   119585516.977    22756368.398    93183562.5574                 
                
  20650754.125   108520459.737    20650760.898    84561427.7634   20650760.812  
                
  21043755.852   110585698.366    21043760.773    86170693.0464                 
                
  21854273.289   116700610.081    21854277.480    90767160.699    21854277.207  
  21854271.078  
  22696341.586   121324971.149    22696347.129    94363885.007    22696347.074  
  22696340.512  
  23718024.195   124639058.699    23718034.590    97121392.3114   23718034.535  
                
  23353048.766   122721102.650    23353055.500    95626873.3784   23353056.859  
                
  19487177.922   104096995.508    19487184.117    80964405.504    19487183.184  
  19487177.469  
  19517806.461   104187394.371    19517810.805    81034657.849    19517810.594  
  19517805.648  
  20119858.633   107665432.583    20119863.219    83739836.960    20119862.695  
  20119857.133  
  22591286.250   118718045.077    22591295.641    92507608.6194   22591295.789  
                
  21439193.266   112663741.139    21439203.027    87790005.9264   21439202.734  
                
  20457383.055   107504284.140    20457389.590    83769692.7484   20457389.387  
                
  24174199.227   127036277.987    24174205.355    98989328.4934                 
                
 21  8  6  0 38 20.0000000  0 14G22G14G19R13R 5G 6G24R12R22R21G 3G 1
                                G17G21
  22756357.305   119585482.074    22756361.781    93183535.3594                 
                
  20653838.477   108536668.005    20653845.242    84574057.5654   20653845.148  
                
  21039583.719   110563773.662    21039588.590    86153608.8754                 
                
  21847798.242   116666033.617    21847802.395    90740267.885    21847802.137  
  21847795.945  
  22695570.852   121320851.059    22695576.395    94360680.491    22695576.340  
  22695569.770  
  23711059.125   124602457.061    23711069.543    97092871.5594   23711069.484  
                
  23351475.375   122712834.464    23351482.168    95620430.6484   23351483.484  
                
  19487702.016   104099795.018    19487708.215    80966582.885    19487707.285  
  19487701.508  
  19515530.234   104175243.720    19515534.543    81025207.342    19515534.352  
  19515529.457  
  20124192.234   107688622.470    20124196.844    83757873.529    20124196.320  
  20124190.738  
  22587810.031   118699777.392    22587819.414    92493374.0624   22587819.562  
                
  21444299.422   112690574.112    21444309.199    87810914.7274   21444308.891  
                
  20456743.008   107500920.603    20456749.520    83767071.8054   20456749.324  
                
  24180173.586   127067673.368    24180179.688    99013792.4134                 
                
 21  8  6  0 38 30.0000000  0 14G22G14G19R13R 5G 6G24R12R22R21G 3G 1
                                G17G21
  22756362.945   119585511.767    22756367.434    93183558.5134                 
                
  20656933.203   108552930.894    20656939.988    84586729.9514   20656939.883  
                
  21035418.484   110541885.229    21035423.281    86136552.9634                 
                
  21841332.664   116631507.974    21841336.855    90713414.650    21841336.641  
  21841330.324  
  22694816.570   121316819.038    22694822.121    94357544.468    22694822.062  
  22694815.488  
  23704097.750   124565874.899    23704108.238    97064366.0054   23704108.133  
                
  23349914.445   122704631.731    23349921.316    95614038.9044   23349922.574  
                
  19488242.969   104102684.708    19488249.199    80968830.431    19488248.273  
  19488242.426  
  19513265.469   104163154.222    19513269.730    81015804.400    19513269.543  
  19513264.711  
  20128534.023   107711856.232    20128538.664    83775944.232    20128538.145  
  20128532.531  
  22584344.977   118681568.438    22584354.352    92479185.2874   22584354.520  
                
  21449414.312   112717453.091    21449424.094    87831859.3994   21449423.785  
                
  20456109.867   107497593.498    20456116.379    83764479.2694   20456116.191  
                
  24186150.117   127099080.250    24186156.211    99038265.3024                 
                
 21  8  6  0 38 40.0000000  0 14G22G14G19R13R 5G 6G24R12R22R21G 3G 1
                                G17G21
  22756380.891   119585606.135    22756385.395    93183632.0584                 
                
  20660038.336   108569248.482    20660045.133    84599444.9464   20660045.020  
                
  21031260.172   110520033.193    21031264.883    86119525.4014                 
                
  21834876.641   116597033.257    21834880.859    90686600.996    21834880.656  
  21834874.262  
  22694078.789   121312875.167    22694084.363    94354477.021    22694084.297  
  22694077.746  
  23697140.141   124529312.408    23697150.598    97035875.7414   23697150.500  
                
  23348365.984   122696494.585    23348372.953    95607698.2744   23348374.141  
                
  19488800.828   104105664.727    19488807.074    80971148.213    19488806.145  
  19488800.242  
  19511012.195   104151126.187    19511016.430    81006449.275    19511016.203  
  19511011.457  
  20132884.000   107735133.819    20132888.676    83794049.013    20132888.152  
  20132882.543  
  22580891.117   118663418.370    22580900.480    92465042.3954   22580900.664  
                
  21454537.953   112744378.030    21454547.738    87852839.8764   21454547.430  
                
  20455483.711   107494303.049    20455490.219    83761915.2864   20455490.039  
                
  24192128.852   127130498.697    24192134.949    99062747.2064                 
                
 21  8  6  0 38 50.0000000  0 14G22G14G19R13R 5G 6G24R12R22R21G 3G 1
                                G17G21
  22756411.133   119585765.119    22756415.656    93183755.9514                 
                
  20663153.883   108585620.691    20663160.684    84612202.5054   20663160.559  
                
  21027108.805   110498217.613    21027113.430    86102526.2544                 
                
  21828430.180   116562609.602    21828434.434    90659827.064    21828434.254  
  21828427.766  
  22693357.500   121309019.526    22693363.102    94351478.199    22693363.031  
  22693356.484  
  23690186.258   124492769.560    23690196.699    97007400.8054   23690196.605  
                
  23346830.008   122688422.964    23346837.074    95601408.7084   23346838.211  
                
  19489375.594   104108734.957    19489381.867    80973536.168    19489380.930  
  19489374.969  
  19508770.430   104139159.466    19508774.621    80997141.824    19508774.418  
  19508769.688  
  20137242.125   107758455.047    20137246.840    83812187.745    20137246.332  
  20137240.707  
  22577448.492   118645327.269    22577457.848    92450945.4334   22577458.039  
                
  21459670.328   112771348.828    21459680.105    87873856.0774   21459679.820  
                
  20454864.477   107491048.954    20454870.988    83759379.6344   20454870.812  
                
  24198109.742   127161928.475    24198115.855    99087237.9374                 
                
 21  8  6  0 39  0.0000000  0 14G22G14G19R13R 5G 6G24R12R22R21G 3G 1
                                G17G21
  22756453.695   119585988.780    22756458.230    93183930.2344                 
                
  20666279.797   108602047.468    20666286.598    84625002.5794   20666286.477  
                
  21022964.391   110476438.539    21022968.941    86085555.5394                 
                
  21821993.344   116528237.303    21821997.625    90633093.062    21821997.426  
  21821990.875  
  22692652.742   121305252.142    22692658.355    94348548.000    22692658.289  
  22692651.730  
  23683236.109   124456246.435    23683246.613    96978941.2594   23683246.508  
                
  23345306.516   122680416.935    23345313.703    95595170.2294   23345314.754  
                
  19489967.250   104111895.428    19489973.543    80975994.303    19489972.609  
  19489966.570  
  19506540.180   104127254.223    19506544.336    80987882.193    19506544.125  
  19506539.430  
  20141608.391   107781819.811    20141613.133    83830360.336    20141612.637  
  20141606.996  
  22574017.086   118627295.153    22574026.449    92436894.4414   22574026.629  
                
  21464811.414   112798365.337    21464821.164    87894907.8804   21464820.883  
                
  20454252.164   107487831.202    20454258.660    83756872.2854   20454258.492  
                
  24204092.789   127193369.584    24204098.906    99111737.4964                 
                
 21  8  6  0 39 10.0000000  0 14G22G14G19R13R 5G 6G24R12R22R21G 3G 1
                                G17G21
  22756508.578   119586277.174    22756513.141    93184154.9554                 
                
  20669416.117   108618528.850    20669422.926    84637845.2004   20669422.801  
                
  21018826.930   110454696.038    21018831.418    86068613.3264                 
                
  21815566.125   116493916.423    21815570.465    90606399.064    21815570.234  
  21815563.629  
  22691964.484   121301572.991    22691970.141    94345686.441    22691970.074  
  22691963.504  
  23676289.742   124419743.169    23676300.281    96950497.1804   23676300.180  
                
  23343795.516   122672476.530    23343802.836    95588982.8904   23343803.785  
                
  19490575.828   104115146.291    19490582.133    80978522.745    19490581.211  
  19490575.117  
  19504321.422   104115410.323    19504325.566    80978670.272    19504325.293  
  19504320.676  
  20145982.797   107805228.108    20145987.570    83848566.785    20145987.074  
  20145981.402  
  22570596.938   118609322.175    22570606.312    92422889.5364   22570606.477  
                
  21469961.188   112825427.508    21469970.926    87915995.2774   21469970.656  
                
  20453646.789   107484649.947    20453653.301    83754393.3884   20453653.133  
                
  24210077.992   127224822.011    24210084.133    99136245.8744                 
                
 21  8  6  0 39 20.0000000  0 14G22G14G19R13R 5G 6G24R12R22R21G 3G 1
                                G17G21
  22756575.797   119586630.404    22756580.391    93184430.2024                 
                
  20672562.820   108635064.908    20672569.652    84650730.4414   20672569.520  
                
  21014696.445   110432990.176    21014700.910    86051699.6794                 
                
  21809148.602   116459647.343    21809153.000    90579745.365    21809152.746  
  21809146.109  
  22691292.781   121297982.328    22691298.484    94342893.707    22691298.426  
  22691291.820  
  23669347.203   124383259.950    23669357.711    96922068.7114   23669357.641  
                
  23342297.016   122664601.905    23342304.496    95582846.8364   23342305.383  
                
  19491201.328   104118487.589    19491207.664    80981121.531    19491206.742  
  19491200.578  
  19502114.164   104103627.858    19502118.289    80969506.141    19502118.020  
  19502113.410  
  20150365.328   107828679.875    20150370.137    83866807.046    20150369.637  
  20150363.934  
  22567188.086   118591408.585    22567197.469    92408930.9044   22567197.625  
                
  21475119.633   112852535.361    21475129.355    87937118.2844   21475129.117  
                
  20453048.391   107481505.330    20453054.914    83751943.0394   20453054.742  
                
  24216065.391   127256285.967    24216071.555    99160763.2374                 
                
 21  8  6  0 39 30.0000000  0 14G22G14G19R13R 5G 6G24R12R22R21G 3G 1
                                G17G21
  22756655.242   119587047.973    22756659.863    93184755.5834                 
                
  20675719.836   108651655.135    20675726.676    84663657.8794   20675726.543  
                
  21010572.844   110411320.573    21010577.289    86034814.2754                 
                
  21802740.773   116425429.934    21802745.195    90553131.823    21802744.934  
  21802738.277  
  22690637.484   121294479.533    22690643.250    94340169.333    22690643.203  
  22690636.574  
  23662408.398   124346796.368    23662418.934    96893655.5404   23662418.852  
                
  23340810.938   122656792.584    23340818.562    95576761.6544   23340819.371  
                
  19491843.625   104121918.671    19491849.988    80983790.140    19491849.066  
  19491842.824  
  19499918.328   104091906.395    19499922.426    80960389.452    19499922.141  
  19499917.562  
  20154755.906   107852174.811    20154760.738    83885080.883    20154760.238  
  20154754.523  
  22563790.445   118573553.934    22563799.836    92395018.1974   22563799.984  
                
  21480286.664   112879688.302    21480296.355    87958276.4234   21480296.137  
                
  20452456.859   107478396.874    20452463.391    83749520.8654   20452463.219  
                
  24222054.828   127287760.636    24222061.008    99185288.9344                 
                
 21  8  6  0 39 40.0000000  0 15G22G14G19R13R 5G 6G24R12R22R21G 3R 6
                                G 1G17G21
  22756747.094   119587530.650    22756751.750    93185131.7034                 
                
  20678887.312   108668300.261    20678894.164    84676628.1024   20678894.027  
                
  21006456.289   110389687.925    21006460.730    86017957.6694                 
                
  21796342.688   116391264.533    21796347.141    90526558.737    21796346.883  
  21796340.215  
  22689998.844   121291065.650    22690004.645    94337514.104    22690004.613  
  22689997.953  
  23655473.477   124310353.246    23655484.082    96865258.3244   23655483.973  
                
  23339337.453   122649049.378    23339345.195    95570727.9974   23339345.938  
                
  19492502.938   104125440.541    19492509.316    80986529.369    19492508.402  
  19492502.082  
  19497734.078   104080246.720    19497738.129    80951320.821    19497737.836  
  19497733.285  
  20159154.648   107875713.385    20159159.508    83903388.670    20159159.016  
  20159153.281  
  22560404.188   118555759.086    22560413.594    92381152.1034   22560413.723  
                
  23488582.234   125339605.030                                                  
                
  21485462.414   112906887.018    21485472.082    87979470.2224   21485471.867  
                
  20451872.375   107475325.358    20451878.910    83747127.4744   20451878.727  
                
  24228046.453   127319246.744    24228052.648    99209823.5514                 
                
 21  8  6  0 39 50.0000000  0 15G22G14G19R13R 5G 6G24R12R22R21G 3R 6
                                G 1G17G21
  22756851.219   119588077.876    22756855.891    93185558.1134                 
                
  20682065.109   108684999.666    20682071.973    84689640.6124   20682071.832  
                
  21002346.672   110368091.771    21002351.105    86001129.4964                 
                
  21789954.312   116357151.105    21789958.801    90500026.085    21789958.566  
  21789951.934  
  22689376.664   121287739.852    22689382.504    94334927.391    22689382.484  
  22689375.801  
  23648542.344   124273930.046    23648552.930    96836876.6324   23648552.840  
                
  23337876.430   122641371.712    23337884.270    95564745.4004   23337884.984  
                
  19493179.094   104129052.429    19493185.488    80989338.607    19493184.590  
  19493178.184  
  19495561.266   104068648.204    19495565.293    80942299.766    19495565.016  
  19495560.461  
  20163561.406   107899294.822    20163566.277    83921729.778    20163565.785  
  20163560.043  
  22557029.211   118538023.528    22557038.621    92367332.1984   22557038.746  
                
  23481989.414   125304422.686                                                  
                
  21490646.742   112934130.809    21490656.398    88000699.1424   21490656.168  
                
  20451294.781   107472290.133    20451301.324    83744762.3644   20451301.141  
                
  24234040.133   127350743.702    24234046.352    99234366.6124                 
                
 21  8  6  0 40  0.0000000  0 15G22G14G19R13R 5G 6G24R12R22R21G 3R 6
                                G 1G17G21
  22756967.656   119588689.748    22756972.332    93186034.9024                 
                
  20685253.258   108701753.430    20685260.133    84702695.4834   20685259.984  
                
  20998244.016   110346532.206    20998248.469    85984329.8484                 
                
  21783575.750   116323089.953    21783580.246    90473534.079    21783580.031  
  21783573.438  
  22688771.055   121284502.492    22688776.914    94332409.445    22688776.891  
  22688770.164  
  23641615.055   124237526.966    23641625.633    96808510.6204   23641625.574  
                
  23336427.906   122633759.701    23336435.887    95558813.9844   23336436.559  
                
  19493872.172   104132754.638    19493878.566    80992218.090    19493877.680  
  19493871.203  
  19493400.000   104057111.096    19493403.984    80933326.452    19493403.672  
  19493399.129  
  20167976.227   107922919.338    20167981.090    83940104.388    20167980.594  
  20167974.848  
  22553665.570   118520347.459    22553674.977    92353558.6434   22553675.094  
                
  23475403.203   125269276.927                                                  
                
  21495839.648   112961419.656    21495849.289    88021963.1664   21495849.055  
                
  20450724.125   107469291.288    20450730.664    83742425.6034   20450730.477  
                
  24240035.883   127382251.520    24240042.090    99258918.1434                 
                
 21  8  6  0 40 10.0000000  0 15G22G14G19R13R 5G 6G24R12R22R21G 3R 6
                                G 1G17G21
  22757096.398   119589366.354    22757101.082    93186562.1354                 
                
  20688451.750   108718561.611    20688458.641    84715792.7634   20688458.488  
                
  20994148.344   110325009.330    20994152.812    85967558.7844                 
                
  21777207.000   116289081.245    21777211.516    90447082.871    21777211.297  
  21777204.727  
  22688181.992   121281353.607    22688187.867    94329960.309    22688187.852  
  22688181.102  
  23634691.617   124201144.201    23634702.258    96780160.4524   23634702.207  
                
  23334991.891   122626213.501    23335000.074    95552933.8454   23335000.641  
                
  19494582.117   104136547.055    19494588.539    80995167.744    19494587.645  
  19494581.098  
  19491250.180   104045635.295    19491254.145    80924400.841    19491253.867  
  19491249.289  
  20172399.055   107946586.847    20172403.938    83958512.462    20172403.426  
  20172397.676  
  22550313.250   118502731.057    22550322.676    92339831.6084   22550322.793  
                
  23468823.875   125234168.177                                                  
                
  21501041.117   112988753.585    21501050.762    88043262.3334   21501050.531  
                
  20450160.422   107466329.023    20450166.953    83740117.3494   20450166.773  
                
  24246033.711   127413770.260    24246039.891    99283478.1924                 
                
 21  8  6  0 40 20.0000000  0 15G22G14G19R13R 5G 6G24R12R22R21G 3R 6
                                G 1G17G21
  22757237.430   119590107.481    22757242.113    93187139.6354                 
                
  20691660.547   108735423.924    20691667.445    84728932.2154   20691667.277  
                
  20990059.625   110303523.003    20990064.102    85950816.1894                 
                
  21770848.039   116255124.789    21770852.578    90420672.304    21770852.336  
  21770845.789  
  22687609.438   121278293.017    22687615.328    94327579.859    22687615.309  
  22687608.578  
  23627772.008   124164781.548    23627782.664    96751825.9364   23627782.617  
                
  23333568.367   122618732.903    23333576.738    95547104.8164   23333577.211  
                
  19495308.938   104140429.612    19495315.367    80998187.506    19495314.473  
  19495307.875  
  19489111.828   104034220.659    19489115.758    80915522.793    19489115.461  
  19489110.898  
  20176829.867   107970296.989    20176834.750    83976953.670    20176834.246  
  20176828.477  
  22546972.281   118485174.180    22546981.715    92326150.9234   22546981.801  
                
  23462251.438   125199096.133                                                  
                
  21506251.102   113016132.250    21506260.715    88064596.3504   21506260.508  
                
  20449603.617   107463402.974    20449610.125    83737837.3094   20449609.949  
                
  24252033.539   127445299.581    24252039.691    99308046.4954                 
                
 21  8  6  0 40 30.0000000  0 15G22G14G19R13R 5G 6G24R12R22R21G 3R 6
                                G 1G17G21
  22757390.828   119590913.580    22757395.523    93187767.7684                 
                
  20694879.742   108752340.810    20694886.652    84742114.1994   20694886.488  
                
  20985977.977   110282073.791    20985982.473    85934102.5214                 
                
  21764498.977   116221221.148    21764503.520    90394302.813    21764503.258  
  21764496.746  
  22687053.484   121275321.150    22687059.395    94325268.423    22687059.367  
  22687052.656  
  23620856.359   124128439.556    23620866.957    96723507.5024   23620866.930  
                
  23332157.445   122611318.364    23332165.988    95541327.2424   23332166.379  
                
  19496052.758   104144402.857    19496059.188    81001277.797    19496058.305  
  19496051.656  
  19486985.023   104022867.553    19486988.902    80906692.593    19486988.629  
  19486984.066  
  20181268.750   107994050.259    20181273.625    83995428.424    20181273.129  
  20181267.336  
  22543642.750   118467677.352    22543652.199    92312517.0494   22543652.281  
                
  23455685.945   125164061.476                                                  
  23455683.570  
  21511469.695   113043556.022    21511479.270    88085965.5124   21511479.078  
                
  20449053.797   107460513.656    20449060.285    83735585.8954   20449060.125  
                
  24258035.477   127476839.902    24258041.613    99332623.3694                 
                
 21  8  6  0 40 40.0000000  0 15G22G14G19R13R 5G 6G24R12R22R21G 3R 6
                                G 1G17G21
  22757556.523   119591784.300    22757561.230    93188446.2584                 
                
  20698109.234   108769311.890    20698116.160    84755338.4044   20698115.992  
                
  20981903.328   110260661.403    20981907.848    85917417.5504                 
                
  21758159.750   116187370.063    21758164.305    90367974.203    21758164.031  
  21758157.555  
  22686514.062   121272437.574    22686519.973    94323025.639    22686519.938  
  22686513.238  
  23613944.570   124092117.945    23613955.199    96695204.9744   23613955.160  
                
  23330759.008   122603969.569    23330767.762    95535600.9154   23330768.074  
                
  19496813.438   104148466.260    19496819.867    81004438.213    19496818.992  
  19496812.297  
  19484869.688   104011575.712    19484873.531    80897910.047    19484873.270  
  19484868.688  
  20185715.594   108017846.186    20185720.457    84013936.354    20185719.969  
  20185714.168  
  22540324.586   118450240.330    22540334.047    92298929.7684   22540334.105  
                
  23449127.422   125129064.076                                                  
  23449124.809  
  21516696.773   113071024.435    21516706.324    88107369.4534   21516706.129  
                
  20448510.898   107457660.684    20448517.352    83733362.8004   20448517.207  
                
  24264039.414   127508390.780    24264045.559    99357208.4604                 
                
 21  8  6  0 40 50.0000000  0 15G22G14G19R13R 5G 6G24R12R22R21G 3R 6
                                G 1G17G21
  22757734.500   119592719.632    22757739.227    93189175.0904                 
                
  20701349.039   108786337.164    20701355.984    84768604.8494   20701355.816  
                
  20977835.703   110239285.874    20977840.215    85900761.2964                 
                
  21751830.445   116153571.961    21751834.988    90341686.796    21751834.723  
  21751828.301  
  22685991.227   121269642.707    22685997.117    94320851.843    22685997.066  
  22685990.414  
  23607036.656   124055816.810    23607047.344    96666918.4104   23607047.305  
                
  23329373.086   122596686.532    23329382.051    95529925.8314   23329382.285  
                
  19497591.000   104152619.870    19497597.430    81007668.791    19497596.559  
  19497589.832  
  19482765.828   104000345.212    19482769.660    80889175.222    19482769.406  
  19482764.812  
  20190170.359   108041684.566    20190175.246    84032477.322    20190174.750  
  20190168.957  
  22537017.812   118432863.193    22537027.281    92285389.1624   22537027.324  
                
  23442575.867   125094104.052                                                  
  23442573.117  
  21521932.320   113098537.411    21521941.867    88128808.1384   21521941.656  
                
  20447974.930   107454844.163    20447981.352    83731168.1114   20447981.223  
                
  24270045.383   127539952.386    24270051.562    99381801.9114                 
                
 21  8  6  0 41  0.0000000  0 15G22G14G19R13R 5G 6G24R12R22R21G 3R 6
                                G 1G17G21
  22757924.844   119593719.867    22757929.578    93189954.4984                 
                
  20704599.188   108803416.755    20704606.145    84781913.6124   20704605.957  
                
  20973775.117   110217947.339    20973779.621    85884133.8654                 
                
  21745511.109   116119827.142    21745515.652    90315440.834    21745515.371  
  21745509.016  
  22685484.953   121266936.340    22685490.812    94318746.879    22685490.754  
  22685484.148  
  23600132.711   124019536.383    23600143.355    96638647.9584   23600143.324  
                
  23327999.719   122589469.482    23328008.871    95524302.1584   23328009.039  
                
  19498385.500   104156863.918    19498391.910    81010969.712    19498391.051  
  19498384.301  
  19480673.508   103989176.255    19480677.309    80880488.247    19480677.051  
  19480672.457  
  20194633.086   108065565.487    20194637.984    84051051.364    20194637.488  
  20194631.680  
  22533722.484   118415546.198    22533731.965    92271895.4184   22533732.008  
                
  23436031.414   125059181.942                                                  
  23436028.621  
  21527176.359   113126094.999    21527185.895    88150281.5734   21527185.688  
                
  20447445.930   107452064.233    20447452.324    83729001.9294   20447452.207  
                
  24276053.383   127571524.589    24276059.613    99406403.6214                 
                
 21  8  6  0 41 10.0000000  0 15G22G14G19R13R 5G 6G24R12R22R21G 3R 6
                                G 1G17G21
  22758127.500   119594784.915    22758132.242    93190784.4114                 
                
  20707859.648   108820550.629    20707866.621    84795264.6664   20707866.426  
                
  20969721.555   110196645.835    20969726.062    85867535.3094                 
                
  21739201.742   116086135.470    21739206.246    90289236.196    21739205.973  
  21739199.676  
  22684995.266   121264318.687    22685001.125    94316710.927    22685001.055  
  22684994.500  
  23593232.703   123983276.745    23593243.324    96610393.7184   23593243.324  
                
  23326638.906   122582318.409    23326648.211    95518729.8924   23326648.316  
                
  19499196.898   104161198.271    19499203.305    81014340.876    19499202.441  
  19499195.691  
  19478592.664   103978068.623    19478596.469    80871848.984    19478596.207  
  19478591.598  
  20199103.766   108089489.002    20199108.668    84069658.537    20199108.176  
  20199102.359  
  22530438.617   118398289.452    22530448.090    92258448.6144   22530448.133  
                
  23429494.086   125024297.645                                                  
  23429491.410  
  21532428.859   113153697.125    21532438.391    88171789.7224   21532438.195  
                
  20446923.875   107449320.904    20446930.250    83726864.2774   20446930.145  
                
  24282063.383   127603107.354    24282069.668    99431013.5604                 
                
 21  8  6  0 41 20.0000000  0 15G22G14G19R13R 5G 6G24R12R22R21G 3R 6
                                G 1G17G21
  22758342.477   119595914.591    22758347.219    93191664.6784                 
                
  20711130.422   108837738.569    20711137.410    84808657.8644   20711137.207  
                
  20965675.039   110175381.244    20965679.570    85850965.5044                 
                
  21732902.391   116052497.233    21732906.820    90263073.115    21732906.543  
  21732900.344  
  22684522.148   121261789.563    22684527.988    94314743.829    22684527.906  
  22684521.410  
  23586336.633   123947037.770    23586347.316    96582155.5974   23586347.324  
                
  23325290.625   122575233.179    23325300.066    95513208.9504   23325300.125  
                
  19500025.188   104165622.809    19500031.582    81017782.175    19500030.715  
  19500023.965  
  19476523.320   103967022.289    19476527.129    80863257.392    19476526.883  
  19476522.238  
  20203582.336   108113454.768    20203587.250    84088298.580    20203586.762  
  20203580.934  
  22527166.203   118381092.822    22527175.668    92245048.6564   22527175.715  
                
  23422963.820   124989451.235                                                  
  23422961.164  
  21537689.805   113181343.513    21537699.312    88193332.3554   21537699.141  
                
  20446408.766   107446613.935    20446415.113    83724754.9494   20446415.008  
                
  24288075.359   127634700.395    24288081.676    99455631.4934                 
                
 21  8  6  0 41 30.0000000  0 15G22G14G19R13R 5G 6G24R12R22R21G 3R 6
                                G 1G17G21
  22758569.758   119597109.007    22758574.504    93192595.3954                 
                
  20714411.477   108854980.646    20714418.473    84822093.2364   20714418.270  
                
  20961635.562   110154153.769    20961640.141    85834424.6224                 
                
  21726613.062   116018912.665    21726617.418    90236951.787    21726617.152  
  21726611.012  
  22684065.617   121259349.178    22684071.441    94312845.743    22684071.355  
  22684064.922  
  23579444.523   123910819.633    23579455.184    96553933.6874   23579455.219  
                
  23323954.891   122568213.895    23323964.445    95507739.3804   23323964.480  
                
  19500870.383   104170137.697    19500876.766    81021293.753    19500875.895  
  19500869.148  
  19474465.445   103956037.270    19474469.254    80854713.486    19474469.023  
  19474464.352  
  20208068.812   108137462.826    20208073.734    84106971.510    20208073.246  
  20208067.398  
  22523905.258   118363956.512    22523914.703    92231695.6974   22523914.762  
                
  23416440.719   124954643.031                                                  
  23416438.027  
  21542959.156   113209034.133    21542968.625    88214909.4514   21542968.484  
                
  20445900.578   107443943.442    20445906.902    83722674.0474   20445906.805  
                
  24294089.305   127666303.851    24294095.645    99480257.5384                 
                
 21  8  6  0 41 40.0000000  0 15G22G14G19R13R 5G 6G24R12R22R21G 3R 6
                                G 1G17G21
  22758809.344   119598368.021    22758814.086    93193576.4414                 
                
  20717702.805   108872276.642    20717709.812    84835570.6254   20717709.602  
                
  20957603.125   110132963.140    20957607.754    85817912.4474                 
                
  21720333.789   115985381.645    21720338.074    90210872.093    21720337.840  
  21720331.727  
  22683625.656   121256997.259    22683631.453    94311016.474    22683631.371  
  22683624.980  
  23572556.398   123874622.249    23572566.992    96525727.9274   23572567.078  
                
  23322631.680   122561260.406    23322641.344    95502321.0814   23322641.332  
                
  19501732.461   104174742.722    19501738.816    81024875.429    19501737.934  
  19501731.230  
  19472419.047   103945113.464    19472422.867    80846217.197    19472422.656  
  19472417.941  
  20212563.141   108161512.816    20212568.074    84125677.050    20212567.582  
  20212561.723  
  22520655.781   118346880.405    22520665.199    92218389.6474   22520665.281  
                
  23409924.742   124919872.873                                                  
  23409922.090  
  21548236.875   113236768.702    21548246.316    88236520.7864   21548246.191  
                
  20445399.312   107441309.269    20445405.613    83720621.4404   20445405.520  
                
  24300105.180   127697917.407    24300111.531    99504891.4714                 
                
 21  8  6  0 41 50.0000000  0 15G22G14G19R13R 5G 6G24R12R22R21G 3R 6
                                G 1G17G21
  22759061.242   119599691.780    22759065.996    93194607.9564                 
                
  20721004.414   108889626.737    20721011.441    84849090.1814   20721011.227  
                
  20953577.750   110111809.698    20953582.445    85801429.2584                 
                
  21714064.570   115951904.405    21714068.809    90184834.247    21714068.602  
  21714062.477  
  22683202.273   121254734.148    22683208.066    94309256.303    22683207.996  
  22683201.613  
  23565672.219   123838445.844    23565682.879    96497538.5674   23565682.969  
                
  23321321.039   122554372.955    23321330.793    95496954.2494   23321330.754  
                
  19502611.445   104179438.095    19502617.789    81028527.388    19502616.902  
  19502610.227  
  19470384.133   103934250.954    19470387.977    80837768.590    19470387.754  
  19470382.992  
  20217065.320   108185604.863    20217070.254    84144415.301    20217069.762  
  20217063.891  
  22517417.812   118329864.823    22517427.227    92205130.7764   22517427.309  
                
  23403415.977   124885141.301                                                  
  23403413.426  
  21553522.977   113264547.355    21553532.418    88258166.4954   21553532.293  
                
  20444905.000   107438711.637    20444911.281    83718597.3104   20444911.188  
                
  24306123.000   127729541.272    24306129.352    99529533.4474                 
                
 21  8  6  0 42  0.0000000  0 15G22G14G19R13R 5G 6G24R12R22R21G 3R 6
                                G 1G17G21
  22759325.477   119601080.374    22759330.227    93195689.9824                 
                
  20724316.359   108907031.016    20724323.387    84862651.9464   20724323.156  
                
  20949559.492   110090693.626    20949564.254    85784975.1814                 
                
  21707805.508   115918481.341    21707809.711    90158838.534    21707809.492  
  21707803.371  
  22682795.508   121252559.772    22682801.289    94307565.127    22682801.203  
  22682794.805  
  23558792.086   123802290.633    23558802.723    96469365.7054   23558802.812  
                
  23320022.977   122547551.630    23320032.793    95491638.9414   23320032.750  
                
  19503507.352   104184223.848    19503513.680    81032249.637    19503512.785  
  19503506.141  
  19468360.727   103923449.867    19468364.582    80829367.740    19468364.387  
  19468359.551  
  20221575.375   108209739.038    20221580.301    84163186.321    20221579.809  
  20221573.930  
  22514191.398   118312909.915    22514200.793    92191919.1674   22514200.887  
                
  23396914.477   124850448.325                                                  
  23396912.012  
  21558817.477   113292370.073    21558826.910    88279846.5264   21558826.785  
                
  20444417.656   107436150.593    20444423.914    83716601.6914   20444423.832  
                
  24312142.812   127761175.592    24312149.148    99554183.5694                 
                
 21  8  6  0 42 10.0000000  0 15G22G14G19R13R 5G 6G24R12R22R21G 3R 6
                                G 1G17G21
  22759602.000   119602533.544    22759606.734    93196822.3204                 
                
  20727638.516   108924489.113    20727645.555    84876255.6484   20727645.320  
                
  20945548.258   110069614.564    20945553.102    85768549.9514                 
                
  21701556.508   115885112.117    21701560.684    90132884.685    21701560.469  
  21701554.336  
  22682405.328   121250474.073    22682411.098    94305942.918    22682411.023  
  22682404.590  
  23551915.969   123766156.398    23551926.500    96441209.1564   23551926.676  
                
  23318737.445   122540796.173    23318747.309    95486374.9484   23318747.242  
                
  19504420.125   104189099.731    19504426.434    81036041.981    19504425.535  
  19504418.934  
  19466348.781   103912710.034    19466352.680    80821014.544    19466352.457  
  19466347.605  
  20226093.219   108233915.009    20226098.160    84181989.856    20226097.652  
  20226091.770  
  22510976.469   118296015.472    22510985.852    92178754.6754   22510985.949  
                
  23390420.250   124815794.242                                                  
  23390417.789  
  21564120.273   113320236.456    21564129.695    88301560.5824   21564129.586  
                
  20443937.203   107433625.862    20443943.441    83714634.3734   20443943.355  
                
  24318164.477   127792819.716    24318170.781    99578841.3214                 
                
 21  8  6  0 42 20.0000000  0 15G22G14G19R13R 5G 6G24R12R22R21G 3R 6
                                G 1G17G21
  22759890.875   119604051.513    22759895.590    93198005.1574                 
                
  20730970.977   108942001.226    20730978.023    84889901.4514   20730977.793  
                
  20941544.141   110048572.788    20941549.055    85752153.7724                 
                
  21695317.727   115851797.354    21695321.891    90106973.211    21695321.645  
  21695315.531  
  22682031.789   121248477.169    22682037.539    94304389.757    22682037.457  
  22682030.984  
  23545043.875   123730043.399    23545054.418    96413069.1964   23545054.629  
                
  23317464.516   122534106.823    23317474.414    95481162.4674   23317474.332  
                
  19505349.836   104194066.013    19505356.125    81039904.645    19505355.223  
  19505348.660  
  19464348.359   103902031.587    19464352.293    80812709.088    19464352.043  
  19464347.176  
  20230618.914   108258132.811    20230623.848    84200825.914    20230623.344  
  20230617.422  
  22507773.133   118279181.806    22507782.488    92165637.5444   22507782.602  
                
  23383933.336   124781179.131                                                  
  23383930.879  
  21569431.414   113348146.628    21569440.836    88323308.7634   21569440.734  
                
  20443463.727   107431137.662    20443469.934    83712695.5154   20443469.848  
                
  24324188.078   127824473.852    24324194.367    99603506.8854                 
                
 21  8  6  0 42 30.0000000  0 15G22G14G19R13R 5G 6G24R12R22R21G 3R 6
                                G 1G17G21
  22760192.078   119605634.351    22760196.770    93199238.5414                 
                
  20734313.719   108959567.372    20734320.762    84903589.3414   20734320.531  
                
  20937547.164   110027568.509    20937552.129    85735786.8074                 
                
  21689089.188   115818537.252    21689093.332    90081104.244    21689093.109  
  21689086.969  
  22681674.844   121246569.112    22681680.578    94302905.715    22681680.520  
  22681674.016  
  23538175.859   123693951.776    23538186.383    96384945.8714   23538186.609  
                
  23316204.164   122527483.670    23316214.117    95476001.5714   23316214.000  
                
  19506296.453   104199122.642    19506302.734    81043837.573    19506301.828  
  19506295.297  
  19462359.438   103891414.584    19462363.410    80804451.423    19462363.160  
  19462358.254  
  20235152.430   108282392.466    20235157.340    84219694.522    20235156.844  
  20235150.918  
  22504581.383   118262409.044    22504590.707    92152567.8774   22504590.859  
                
  23377453.750   124746602.999                                                  
  23377451.320  
  21574750.875   113376100.531    21574760.312    88345091.0184   21574760.199  
                
  20442997.188   107428685.970    20443003.371    83710785.1094   20443003.289  
                
  24330213.586   127856138.044    24330219.836    99628180.2714                 
                
 21  8  6  0 42 40.0000000  0 15G22G14G19R13R 5G 6G24R12R22R21G 3R 6
                                G 1G17G21
  22760505.531   119607281.591    22760510.207    93200522.1134                 
                
  20737666.625   108977187.014    20737673.676    84917318.9234   20737673.449  
                
  20933557.219   110006601.211    20933562.215    85719448.6504                 
                
  21682870.734   115785331.150    21682874.891    90055277.281    21682874.684  
  21682868.492  
  22681334.453   121244749.506    22681340.184    94301490.466    22681340.086  
  22681333.613  
  23531311.812   123657881.070    23531322.215    96356838.8414   23531322.520  
                
  23314956.320   122520926.194    23314966.328    95470891.8514   23314966.172  
                
  19507259.898   104204269.164    19507266.152    81047840.411    19507265.246  
  19507258.766  
  19460381.930   103880858.515    19460385.941    80796241.147    19460385.660  
  19460380.754  
  20239693.602   108306693.238    20239698.500    84238595.125    20239698.012  
  20239692.117  
  22501401.125   118245696.754    22501410.430    92139545.3284   22501410.609  
                
  23370981.492   124712065.999                                                  
  23370978.781  
  21580078.539   113404097.582    21580087.988    88366906.8894   21580087.867  
                
  20442537.508   107426270.393    20442543.672    83708902.8474   20442543.598  
                
  24336240.898   127887811.787    24336247.145    99652861.1004                 
                
 21  8  6  0 42 50.0000000  0 15G22G14G19R13R 5G 6G24R12R22R21G 3R 6
                                G 1G17G21
  22760831.320   119608993.734    22760835.988    93201856.2624                 
                
  20741029.812   108994860.720    20741036.867    84931090.6364   20741036.641  
                
  20929574.383   109985671.345    20929579.418    85703139.6784                 
                
  21676662.586   115752180.090    21676666.758    90029493.134    21676666.555  
  21676660.309  
  22681010.711   121243018.921    22681016.453    94300144.450    22681016.348  
  22681009.867  
  23524451.852   123621831.958    23524462.246    96328748.6724   23524462.605  
                
  23313721.062   122514435.009    23313731.145    95465833.8034   23313730.941  
                
  19508240.266   104209506.120    19508246.520    81051913.602    19508245.609  
  19508239.172  
  19458415.938   103870363.964    19458419.996    80788078.715    19458419.676  
  19458414.785  
  20244242.578   108331035.759    20244247.465    84257528.201    20244246.980  
  20244241.109  
  22498232.508   118229045.624    22498241.809    92126570.4344   22498241.984  
                
  23364516.594   124677568.508                                                  
  23364513.738  
  21585414.500   113432138.268    21585423.980    88388756.7714   21585423.863  
                
  20442084.828   107423891.565    20442090.965    83707049.2174   20442090.895  
                
  24342270.133   127919495.604    24342276.375    99677549.7704                 
                
 21  8  6  0 43  0.0000000  0 15G22G14G19R13R 5G 6G24R12R22R21G 3R 6
                                G 1G17G21
  22761169.422   119610770.485    22761174.078    93203240.7484                 
                
  20744403.250   109012588.180    20744410.297    84944904.2234   20744410.074  
                
  20925598.664   109964778.826    20925603.723    85686859.7914                 
                
  21670464.695   115719083.745    21670468.898    90003751.545    21670468.684  
  21670462.398  
  22680703.609   121241377.210    22680709.352    94298867.552    22680709.254  
  22680702.773  
  23517596.008   123585804.281    23517606.375    96300675.1684   23517606.754  
                
  23312498.414   122508009.894    23312508.508    95460827.2114   23312508.297  
                
  19509237.508   104214833.214    19509243.742    81056056.892    19509242.832  
  19509236.449  
  19456461.438   103859930.727    19456465.539    80779963.985    19456465.227  
  19456460.301  
  20248799.305   108355419.700    20248804.160    84276493.477    20248803.680  
  20248797.863  
  22495075.508   118212455.473    22495084.812    92113643.0474   22495084.984  
                
  23358059.188   124643110.621                                                  
  23358055.641  
  21590758.703   113460222.179    21590768.215    88410640.3284   21590768.094  
                
  20441639.109   107421549.246    20441645.211    83705224.0304   20441645.148  
                
  24348301.227   127951189.132    24348307.504    99702246.0164                 
                
 21  8  6  0 43 10.0000000  0 14G22G14G19R13R 5G 6G24R12R22R21G 3G 1
                                G17G21
  22761519.883   119612612.112    22761524.527    93204675.7874                 
                
  20747786.930   109030369.495    20747793.980    84958759.7914   20747793.750  
                
  20921630.086   109943923.837    20921635.176    85670609.1664                 
                
  21664277.094   115686042.348    21664281.332    89978052.699    21664281.121  
  21664274.820  
  22680413.156   121239824.473    22680418.895    94297659.857    22680418.793  
  22680412.316  
  23510744.258   123549798.199    23510754.535    96272618.5174   23510754.973  
                
  23311288.367   122501651.022    23311298.465    95455872.2364   23311298.262  
                
  19510251.680   104220250.678    19510257.895    81060270.478    19510256.988  
  19510250.668  
  19454518.430   103849558.806    19454522.559    80771896.939    19454522.289  
  19454517.309  
  20253363.781   108379845.087    20253368.605    84295491.008    20253368.133  
  20253362.383  
  22491930.141   118195926.505    22491939.453    92100763.3474   22491939.625  
                
  21596111.148   113488349.427    21596120.711    88432557.6604   21596120.570  
                
  20441200.336   107419243.497    20441206.422    83703427.3534   20441206.363  
                
  24354334.180   127982892.422    24354340.457    99726949.8664                 
                
 21  8  6  0 43 20.0000000  0 15G22G14G19R13R 5G 6G24R12R22R21G 3R 6
                                G 1G17G21
  22761882.633   119614518.406    22761887.266    93206161.2104                 
                
  20751180.828   109048204.486    20751187.871    84972657.1724   20751187.641  
                
  20917668.625   109923106.236    20917673.727    85654387.6604                 
                
  21658099.836   115653056.148    21658104.109    89952396.759    21658103.918  
  21658097.598  
  22680139.266   121238360.429    22680145.012    94296521.155    22680144.910  
  22680138.457  
  23503896.602   123513813.650    23503906.801    96244578.6314   23503907.305  
                
  23310090.875   122495358.212    23310100.996    95450968.7624   23310100.801  
                
  19511282.727   104225758.370    19511288.926    81064554.240    19511288.020  
  19511281.766  
  19452586.906   103839248.181    19452591.078    80763877.560    19452590.789  
  19452585.793  
  20257935.945   108404311.703    20257940.766    84314520.603    20257940.293  
  20257934.562  
  22488796.406   118179458.651    22488805.723    92087931.2644   22488805.895  
                
  23345167.555   124574314.804                                                  
  23345163.996  
  21601471.766   113516519.695    21601481.387    88454508.5104   21601481.219  
                
  20440768.484   107416974.110    20440774.543    83701658.9984   20440774.488  
                
  24360368.930   128014605.243    24360375.199    99751661.1434                 
                
 21  8  6  0 43 30.0000000  0 15G22G14G19R13R 5G 6G24R12R22R21G 3R 6
                                G 1G17G21
  22762257.664   119616489.245    22762262.293    93207696.9394                 
                
  20754584.906   109066093.047    20754591.941    84986596.3034   20754591.719  
                
  20913714.258   109902325.991    20913719.371    85638195.2794                 
                
  21651932.898   115620125.158    21651937.230    89926783.792    21651937.066  
  21651930.715  
  22679881.992   121236985.123    22679887.738    94295451.476    22679887.648  
  22679881.191  
  23497053.031   123477850.636    23497063.191    96216555.5554   23497063.742  
                
  23308905.961   122489131.443    23308916.082    95446116.7384   23308915.898  
                
  19512330.641   104231356.106    19512336.812    81068908.030    19512335.914  
  19512329.719  
  19450666.797   103828998.596    19450671.027    80755905.673    19450670.742  
  19450665.703  
  20262515.781   108428819.326    20262520.594    84333582.084    20262520.105  
  20262514.414  
  22485674.297   118163051.928    22485683.609    92075146.8194   22485683.793  
                
  23338732.477   124539976.708                                                  
  23338728.961  
  21606840.555   113544732.846    21606850.227    88476492.7794   21606850.031  
                
  20440343.531   107414740.983    20440349.574    83699918.9044   20440349.531  
                
  24366405.477   128046327.498    24366411.738    99776379.7804                 
                
 21  8  6  0 43 40.0000000  0 15G22G14G19R13R 5G 6G24R12R22R21G 3R 6
                                G 1G17G21
  22762645.000   119618524.750    22762649.613    93209283.0504                 
                
  20757999.203   109084035.252    20758006.223    85000577.2204   20758006.008  
                
  20909767.055   109881583.317    20909772.137    85622032.1564                 
                
  21645776.328   115587249.435    21645780.703    89901213.785    21645780.547  
  21645774.172  
  22679641.344   121235698.732    22679647.113    94294450.946    22679647.004  
  22679640.531  
  23490213.617   123441909.347    23490223.668    96188549.3674   23490224.289  
                
  23307733.625   122482970.797    23307743.742    95441316.2324   23307743.582  
                
  19513395.414   104237043.934    19513401.562    81073331.891    19513400.664  
  19513394.531  
  19448758.219   103818810.484    19448762.480    80747981.584    19448762.207  
  19448757.121  
  20267103.266   108453367.893    20267108.090    84352675.418    20267107.602  
  20267101.957  
  22482563.859   118146706.513    22482573.156    92062410.1404   22482573.348  
                
  23332305.094   124505678.891                                                  
  23332301.590  
  21612217.500   113572988.862    21612227.219    88498510.4504   21612226.992  
                
  20439925.508   107412544.264    20439931.535    83698207.1764   20439931.492  
                
  24372443.828   128078059.218    24372450.066    99801105.7894                 
                
 21  8  6  0 43 50.0000000  0 15G22G14G19R13R 5G 6G24R12R22R21G 3R 6
                                G 1G17G21
  22763044.656   119620625.026    22763049.266    93210919.6384                 
                
  20761423.719   109102031.164    20761430.730    85014600.0034   20761430.527  
                
  20905827.008   109860878.293    20905832.062    85605898.3804                 
                
  21639630.148   115554429.282    21639634.582    89875687.010    21639634.418  
  21639628.016  
  22679417.344   121234501.347    22679423.145    94293519.644    22679423.039  
  22679416.535  
  23483378.352   123405989.955    23483388.340    96160560.2684   23483389.035  
                
  23306573.906   122476876.498    23306584.035    95436567.4314   23306583.879  
                
  19514477.102   104242822.135    19514483.230    81077826.048    19514482.328  
  19514476.266  
  19446861.125   103808683.698    19446865.426    80740105.199    19446865.176  
  19446860.031  
  20271698.414   108477957.557    20271703.262    84371800.726    20271702.766  
  20271697.141  
  22479465.125   118130422.609    22479474.426    92049721.3914   22479474.613  
                
  23325885.250   124471421.776                                                  
  23325881.770  
  21617602.609   113601287.784    21617612.379    88520561.5524   21617612.109  
                
  20439514.445   107410384.177    20439520.469    83696523.9924   20439520.441  
                
  24378484.008   128109800.557    24378490.234    99825839.2914                 
                
 21  8  6  0 44  0.0000000  0 15G22G14G19R13R 5G 6G24R12R22R21G 3R 6
                                G 1G17G21
  22763456.680   119622790.182    22763461.289    93212606.7714                 
                
  20764858.469   109120080.792    20764865.457    85028664.6324   20764865.270  
                
  20901894.156   109840211.022    20901899.172    85589794.0214                 
                
  21633494.438   115521664.899    21633498.906    89850203.603    21633498.766  
  21633492.336  
  22679209.977   121233392.876    22679215.828    94292657.519    22679215.727  
  22679209.203  
  23476547.273   123370092.535    23476557.223    96132588.2954   23476557.953  
                
  23305426.812   122470848.473    23305436.945    95431870.2734   23305436.805  
                
  19515575.711   104248690.669    19515581.824    81082390.463    19515580.906  
  19515574.914  
  19444975.539   103798618.317    19444979.879    80732276.579    19444979.641  
  19444974.453  
  20276301.266   108502588.241    20276306.113    84390957.915    20276305.625  
  20276300.008  
  22476378.125   118114200.296    22476387.434    92037080.6344   22476387.609  
                
  23319473.008   124437205.274                                                  
  23319469.715  
  21622995.883   113629629.517    21623005.695    88542646.0054   21623005.383  
                
  20439110.359   107408260.633    20439116.379    83694869.2834   20439116.352  
                
  24384526.008   128141551.361    24384532.223    99850580.1684                 
                
 21  8  6  0 44 10.0000000  0 15G22G14G19R13R 5G 6G24R12R22R21G 3R 6
                                G 1G17G21
  22763881.000   119625020.007    22763885.625    93214344.2974                 
                
  20768303.383   109138183.940    20768310.363    85042770.9714   20768310.184  
                
  20897968.453   109819581.383    20897973.430    85573718.9874                 
                
  21627369.219   115488956.669    21627373.738    89824763.886    21627373.605  
  21627367.180  
  22679019.234   121232373.300    22679025.121    94291864.521    22679025.039  
  22679018.480  
  23469720.391   123334217.046    23469730.223    96104633.3814   23469731.016  
                
  23304292.336   122464886.691    23304302.438    95427224.7144   23304302.309  
                
  19516691.188   104254649.367    19516697.281    81087025.004    19516696.367  
  19516690.430  
  19443101.398   103788614.042    19443105.770    80724495.478    19443105.574  
  19443100.305  
  20280911.711   108527259.675    20280916.578    84410146.798    20280916.094  
  20280910.477  
  22473302.812   118098039.523    22473312.141    92024487.8364   22473312.309  
                
  23313068.391   124403029.513                                                  
  23313065.168  
  21628397.227   113658013.804    21628407.074    88564763.6154   21628406.727  
                
  20438713.195   107406173.572    20438719.215    83693242.9984   20438719.195  
                
  24390569.742   128173311.437    24390575.945    99875328.2694                 
                
 21  8  6  0 44 20.0000000  0 15G22G14G19R13R 5G 6G24R12R22R21G 3R 6
                                G 1G17G21
  22764317.656   119627314.615    22764322.285    93216132.3004                 
                
  20771758.516   109156340.740    20771765.480    85056919.1184   20771765.309  
                
  20894049.977   109798989.599    20894054.906    85557673.4394                 
                
  21621254.523   115456304.531    21621259.086    89799367.784    21621258.984  
  21621252.547  
  22678845.195   121231442.940    22678851.113    94291140.914    22678851.035  
  22678844.457  
  23462897.703   123298363.703    23462907.457    96076695.7384   23462908.328  
                
  23303170.477   122458991.254    23303180.574    95422630.8774   23303180.461  
                
  19517823.586   104260698.401    19517829.668    81091729.811    19517828.762  
  19517822.859  
  19441238.773   103778671.212    19441243.180    80716762.175    19441243.020  
  19441237.680  
  20285529.797   108551971.945    20285534.688    84429367.453    20285534.203  
  20285528.562  
  22470239.281   118081940.541    22470248.625    92011943.1904   22470248.762  
                
  23306671.453   124368894.906                                                  
  23306668.039  
  21633806.711   113686440.742    21633816.586    88586914.4694   21633816.223  
                
  20438323.023   107404123.159    20438329.062    83691645.2814   20438329.031  
                
  24396615.273   128205080.888    24396621.461    99900083.6884                 
                
 21  8  6  0 44 30.0000000  0 15G22G14G19R13R 5G 6G24R12R22R21G 3R 6
                                G 1G17G21
  22764766.539   119629673.611    22764771.168    93217970.4924                 
                
  20775223.766   109174550.702    20775230.703    85071108.6834   20775230.547  
                
  20890138.594   109778435.257    20890143.477    85541657.0774                 
                
  21615150.297   115423708.372    21615154.891    89774015.223    21615154.785  
  21615148.410  
  22678687.742   121230601.251    22678693.664    94290486.260    22678693.594  
  22678687.023  
  23456079.133   123262532.102    23456088.875    96048775.0624   23456089.789  
                
  23302061.148   122453161.775    23302071.230    95418088.4114   23302071.125  
                
  19518972.773   104266837.221    19518978.844    81096504.451    19518977.941  
  19518972.074  
  19439387.523   103768789.196    19439391.957    80709076.167    19439391.840  
  19439386.414  
  20290155.406   108576724.466    20290160.297    84448619.396    20290159.805  
  20290154.164  
  22467187.414   118065902.952    22467196.754    91999446.3784   22467196.895  
                
  23300282.164   124334801.005                                                  
  23300278.969  
  21639224.164   113714909.719    21639234.074    88609098.0924   21639233.703  
                
  20437939.703   107402108.847    20437945.758    83690075.6914   20437945.707  
                
  24402662.477   128236859.173    24402668.645    99924845.9754                 
                
 21  8  6  0 44 40.0000000  0 15G22G14G19R13R 5G 6G24R12R22R21G 3R 6
                                G 1G17G21
  22765227.820   119632097.646    22765232.434    93219859.3484                 
                
  20778699.242   109192814.408    20778706.160    85085340.1324   20778706.016  
                
  20886234.477   109757918.967    20886239.305    85525670.3584                 
                
  21609056.641   115391168.610    21609061.250    89748706.527    21609061.125  
  21609054.809  
  22678546.977   121229848.770    22678552.906    94289901.000    22678552.855  
  22678546.305  
  23449264.883   123226722.994    23449274.500    96020871.8684   23449275.477  
                
  23300964.508   122447398.862    23300974.574    95413597.8304   23300974.480  
                
  19520138.938   104273066.607    19520144.988    81101349.524    19520144.078  
  19520138.250  
  19437547.844   103758968.822    19437552.305    80701438.104    19437552.195  
  19437546.715  
  20294788.633   108601517.841    20294793.543    84467903.138    20294793.055  
  20294787.410  
  22464147.367   118049927.482    22464156.715    91986997.9744   22464156.852  
                
  23293900.695   124300748.804                                                  
  23293897.922  
  21644649.742   113743421.310    21644659.668    88631314.9164   21644659.293  
                
  20437563.383   107400131.277    20437569.457    83688534.7254   20437569.398  
                
  24408711.500   128268646.914    24408717.605    99949615.6244                 
                
 21  8  6  0 44 50.0000000  0 15G22G14G19R13R 5G 6G24R12R22R21G 3R 6
                                G 1G17G21
  22765701.383   119634586.262    22765706.000    93221798.5364                 
                
  20782184.875   109211131.465    20782191.762    85099613.1454   20782191.629  
                
  20882337.523   109737440.402    20882342.312    85509713.0434                 
                
  21602973.586   115358685.442    21602978.195    89723441.842    21602978.059  
  21602971.797  
  22678422.852   121229185.293    22678428.793    94289384.968    22678428.758  
  22678422.223  
  23442454.844   123190936.046    23442464.395    95992985.9684   23442465.438  
                
  23299880.461   122441702.182    23299890.520    95409158.8714   23299890.426  
                
  19521321.953   104279386.037    19521328.000    81106264.631    19521327.086  
  19521321.270  
  19435719.609   103749209.638    19435724.086    80693847.634    19435723.996  
  19435718.480  
  20299429.414   108626351.544    20299434.336    84487218.230    20299433.844  
  20299428.164  
  22461119.102   118034013.824    22461128.445    91974597.7254   22461128.562  
                
  23287526.969   124266737.945                                                  
  23287524.500  
  21650083.344   113771975.028    21650093.281    88653564.5544   21650092.879  
                
  20437194.000   107398190.145    20437200.102    83687022.1594   20437200.027  
                
  24414762.234   128300443.649    24414768.328    99974392.2864                 
                
 21  8  6  0 45  0.0000000  0 15G22G14G19R13R 5G 6G24R12R22R21G 3R 6
                                G 1G17G21
  22766187.281   119637139.646    22766191.895    93223788.1784                 
                
  20785680.664   109229501.943    20785687.531    85113927.7954   20785687.402  
                
  20878447.789   109716999.726    20878452.547    85493785.2534                 
                
  21596901.109   115326258.893    21596905.742    89698221.205    21596905.617  
  21596899.379  
  22678315.398   121228610.835    22678321.328    94288938.161    22678321.312  
  22678314.793  
  23435649.031   123155171.456    23435658.590    95965117.4934   23435659.633  
                
  23298809.039   122436071.862    23298819.090    95404771.6134   23298818.996  
                
  19522521.828   104285795.576    19522527.867    81111249.828    19522526.953  
  19522521.156  
  19433902.859   103739511.760    19433907.355    80686304.851    19433907.273  
  19433901.703  
  20304077.734   108651225.612    20304082.660    84506564.710    20304082.168  
  20304076.434  
  22458102.617   118018162.177    22458111.973    91962245.8024   22458112.066  
                
  23281161.102   124232768.728                                                  
  23281158.711  
  21655524.977   113800570.922    21655534.914    88675847.0484   21655534.504  
                
  20436831.555   107396285.526    20436837.680    83685538.0404   20436837.594  
                
  24420814.695   128332249.463    24420820.793    99999176.0174                 
                
 21  8  6  0 45 10.0000000  0 15G22G14G19R13R 5G 6G24R12R22R21G 3R 6
                                G 1G17G21
  22766685.422   119639757.458    22766690.074    93225828.0434                 
                
  20789186.555   109247925.491    20789193.406    85128283.7994   20789193.289  
                
  20874565.211   109696596.664    20874569.918    85477886.7694                 
                
  21590839.234   115293888.805    21590843.871    89673044.475    21590843.738  
  21590837.543  
  22678224.555   121228125.198    22678230.457    94288560.439    22678230.461  
  22678223.957  
  23428847.445   123119428.967    23428856.957    95937266.2204   23428858.020  
                
  23297750.211   122430507.645    23297760.211    95400435.8494   23297760.109  
                
  19523738.531   104292294.975    19523744.574    81116304.919    19523743.668  
  19523737.867  
  19432097.523   103729874.777    19432102.043    80678809.428    19432101.980  
  19432096.359  
  20308733.547   108676139.777    20308738.484    84525942.390    20308737.988  
  20308732.246  
  22455097.906   118002372.317    22455107.242    91949942.0314   22455107.344  
                
  23274803.039   124198840.955                                                  
  23274800.707  
  21660974.539   113829208.535    21660984.500    88698162.0634   21660984.062  
                
  20436476.008   107394417.109    20436482.160    83684082.1364   20436482.051  
                
  24426868.805   128364063.962    24426874.918   100023966.5274                 
                
 21  8  6  0 45 20.0000000  0 15G22G14G19R13R 5G 6G24R12R22R21G 3R 6
                                G 1G17G21
  22767195.898   119642440.001    22767200.559    93227918.3384                 
                
  20792702.602   109266402.420    20792709.434    85142681.3934   20792709.316  
                
  20870689.867   109676231.605    20870694.527    85462017.9014                 
                
  21584788.031   115261575.755    21584792.672    89647912.118    21584792.520  
  21584786.379  
  22678150.391   121227728.702    22678156.250    94288252.045    22678156.246  
  22678149.789  
  23422050.141   123083708.989    23422059.625    95909432.4984   23422060.707  
                
  23296704.016   122425009.831    23296713.953    95396151.8294   23296713.883  
                
  19524972.109   104298884.531    19524978.152    81121430.129    19524977.230  
  19524971.461  
  19430303.688   103720299.155    19430308.211    80671361.727    19430308.137  
  19430302.500  
  20313396.859   108701094.125    20313401.820    84545351.332    20313401.320  
  20313395.555  
  22452105.008   117986644.629    22452114.328    91937686.7064   22452114.434  
                
  23268452.891   124164955.268                                                  
  23268450.715  
  21666432.078   113857888.098    21666442.051    88720509.7834   21666441.613  
                
  20436127.414   107392585.246    20436133.578    83682654.7084   20436133.461  
                
  24432924.609   128395887.354    24432930.727   100048763.9504                 
                
 21  8  6  0 45 30.0000000  0 15G22G14G19R13R 5G 6G24R12R22R21G 3R 6
                                G 1G17G21
  22767718.688   119645187.285    22767723.359    93230059.0744                 
                
  20796228.805   109284932.689    20796235.613    85157120.5624   20796235.500  
                
  20866821.766   109655904.626    20866826.359    85446178.7034                 
                
  21578747.523   115229319.778    21578752.145    89622824.138    21578751.969  
  21578745.895  
  22678092.938   121227421.506    22678098.730    94288013.109    22678098.754  
  22678092.320  
  23415257.133   123048011.618    23415266.605    95881616.4004   23415267.707  
                
  23295670.469   122419578.463    23295680.359    95391919.5924   23295680.328  
                
  19526222.594   104305564.376    19526228.637    81126625.557    19526227.711  
  19526221.941  
  19428521.312   103710784.760    19428525.855    80663961.656    19428525.785  
  19428520.090  
  20318067.688   108726088.630    20318072.668    84564791.498    20318072.172  
  20318066.355  
  22449123.969   117970979.243    22449133.266    91925479.9324   22449133.391  
                
  23262110.664   124131111.837                                                  
  23262108.562  
  21671897.594   113886609.546    21671907.555    88742890.1324   21671907.141  
                
  20435785.781   107390789.915    20435791.953    83681255.7504   20435791.820  
                
  24438982.141   128427719.709    24438988.281   100073568.3544                 
                
 21  8  6  0 45 40.0000000  0 15G22G14G19R13R 5G 6G24R12R22R21G 3R 6
                                G 1G17G21
  22768253.758   119647999.123    22768258.422    93232250.1204                 
                
  20799765.109   109303516.030    20799771.895    85171601.0754   20799771.789  
                
  20862960.852   109635615.427    20862965.367    85430368.9364                 
                
  21572717.648   115197120.621    21572722.258    89597780.363    21572722.094  
  21572716.082  
  22678052.047   121227202.996    22678057.789    94287843.167    22678057.844  
  22678051.398  
  23408468.398   123012336.651    23408477.824    95853817.7534   23408478.957  
                
  23294649.500   122414213.270    23294659.387    95387738.9264   23294659.359  
                
  19527489.906   104312334.112    19527495.941    81131890.904    19527495.016  
  19527489.242  
  19426750.375   103701331.420    19426754.934    80656609.060    19426754.875  
  19426749.129  
  20322745.961   108751122.990    20322750.941    84584262.649    20322750.445  
  20322744.602  
  22446154.758   117955375.956    22446164.020    91913321.5364   22446164.141  
                
  23255776.297   124097310.430                                                  
  23255774.250  
  21677371.008   113915372.524    21677380.949    88765302.8374   21677380.566  
                
  20435451.039   107389030.853    20435457.211    83679885.0554   20435457.074  
                
  24445041.258   128459560.612    24445047.414   100098379.4374                 
                
 21  8  6  0 45 50.0000000  0 15G22G14G19R13R 5G 6G24R12R22R21G 3R 6
                                G 1G17G21
  22768801.156   119650875.691    22768805.809    93234491.5994                 
                
  20803311.539   109322152.616    20803318.305    85186123.0794   20803318.211  
                
  20859107.203   109615364.351    20859111.641    85414588.8744                 
                
  21566698.539   115164978.965    21566703.125    89572781.298    21566702.988  
  21566697.035  
  22678027.867   121227073.729    22678033.539    94287742.628    22678033.586  
  22678027.141  
  23401683.984   122976684.424    23401693.434    95826036.8214   23401694.543  
                
  23293641.180   122408914.550    23293651.078    95383610.0524   23293651.051  
                
  19528774.078   104319193.907    19528780.117    81137226.300    19528779.184  
  19528773.414  
  19424990.922   103691939.411    19424995.492    80649304.180    19424995.453  
  19424989.668  
  20327431.711   108776197.332    20327436.688    84603764.903    20327436.184  
  20327430.340  
  22443197.414   117939835.069    22443206.641    91901211.7654   22443206.770  
                
  23249449.953   124063551.736                                                  
  23249447.867  
  21682852.352   113944177.151    21682862.273    88787747.9954   21682861.910  
                
  20435123.266   107387308.371    20435129.434    83678542.8574   20435129.293  
                
  24451102.070   128491410.283    24451108.250   100123197.3424                 
                
 21  8  6  0 46  0.0000000  0 15G22G14G19R13R 5G 6G24R12R22R21G 3R 6
                                G 1G17G21
  22769360.836   119653816.895    22769365.508    93236783.4564                 
                
  20806868.078   109340842.337    20806874.824    85200686.4874   20806874.738  
                
  20855260.797   109595151.389    20855265.176    85398838.5234                 
                
  21560690.258   115132895.023    21560694.773    89547827.107    21560694.637  
  21560688.762  
  22678020.359   121227033.603    22678025.980    94287711.415    22678026.039  
  22678019.570  
  23394903.875   122941054.887    23394913.395    95798273.5844   23394914.438  
                
  23292645.508   122403682.217    23292655.398    95379532.8984   23292655.359  
                
  19530075.102   104326143.759    19530081.141    81142631.734    19530080.211  
  19530074.430  
  19423242.930   103682608.513    19423247.512    80642046.814    19423247.461  
  19423241.645  
  20332124.875   108801311.429    20332129.855    84623298.085    20332129.344  
  20332123.488  
  22440251.953   117924356.597    22440261.133    91889150.6294   22440261.289  
                
  23243131.547   124029835.544                                                  
  23243129.465  
  21688341.594   113973023.266    21688351.508    88810225.4754   21688351.148  
                
  20434802.422   107385622.377    20434808.590    83677229.0984   20434808.453  
                
  24457164.539   128523268.617    24457170.734   100148021.9754                 
                
 21  8  6  0 46 10.0000000  0 15G22G14G19R13R 5G 6G24R12R22R21G 3R 6
                                G 1G17G21
  22769932.836   119656822.763    22769937.520    93239125.6894                 
                
  20810434.734   109359585.182    20810441.457    85215291.2884   20810441.383  
                
  20851421.656   109574976.572    20851425.969    85383117.8844                 
                
  21554692.688   115100868.397    21554697.152    89522917.526    21554697.031  
  21554691.223  
  22678029.539   121227082.565    22678035.094    94287749.482    22678035.164  
  22678028.695  
  23388128.133   122905448.139    23388137.590    95770528.0794   23388138.652  
                
  23291662.469   122398516.280    23291672.328    95375507.4914   23291672.301  
                
  19531393.000   104333183.679    19531399.035    81148107.223    19531398.102  
  19531392.309  
  19421506.422   103673338.921    19421511.020    80634837.144    19421510.957  
  19421505.129  
  20336825.477   108826465.218    20336830.449    84642862.136    20336829.938  
  20336824.082  
  22437318.383   117908940.610    22437327.512    91877138.1814   22437327.695  
                
  23236821.156   123996161.950                                                  
  23236819.094  
  21693838.719   114001910.753    21693848.633    88832735.1864   21693848.266  
                
  20434488.539   107383972.865    20434494.691    83675943.7624   20434494.566  
                
  24463228.602   128555135.483    24463234.816   100172853.3014                 
                
 21  8  6  0 46 20.0000000  0 15G22G14G19R13R 5G 6G24R12R22R21G 3R 6
                                G 1G17G21
  22770517.117   119659893.203    22770521.828    93241518.2444                 
                
  20814011.477   109378381.050    20814018.184    85229937.4164   20814018.113  
                
  20847589.773   109554839.891    20847594.023    85367426.9714                 
                
  21548705.914   115068899.318    21548710.309    89498052.678    21548710.184  
  21548704.434  
  22678055.359   121227220.566    22678060.855    94287856.811    22678060.906  
  22678054.504  
  23381356.719   122869864.206    23381366.152    95742800.3664   23381367.234  
                
  23290692.047   122393416.706    23290701.867    95371533.8044   23290701.859  
                
  19532727.734   104340313.581    19532733.777    81153652.702    19532732.840  
  19532727.031  
  19419781.336   103664130.359    19419785.922    80627674.942    19419785.887  
  19419780.039  
  20341533.461   108851658.631    20341538.441    84662457.012    20341537.938  
  20341532.066  
  22434396.711   117893587.163    22434405.789    91865174.4704   22434405.996  
                
  23230518.828   123962531.462                                                  
  23230516.828  
  21699343.688   114030839.501    21699353.598    88855277.0564   21699353.223  
                
  20434181.586   107382359.813    20434187.723    83674686.8424   20434187.605  
                
  24469294.281   128587010.786    24469300.465   100197691.1784                 
                
 21  8  6  0 46 30.0000000  0 15G22G14G19R13R 5G 6G24R12R22R21G 3R 6
                                G 1G17G21
  22771113.688   119663028.193    22771118.398    93243961.0894                 
                
  20817598.289   109397229.873    20817604.988    85244624.8104   20817604.918  
                
  20843765.125   109534741.290    20843769.352    85351765.7324                 
                
  21542730.023   115036988.409    21542734.355    89473233.095    21542734.223  
  21542728.516  
  22678097.820   121227447.582    22678103.281    94288033.379    22678103.309  
  22678096.996  
  23374589.648   122834303.145    23374599.125    95715090.4864   23374600.184  
                
  23289734.250   122388383.506    23289744.043    95367611.8364   23289744.066  
                
  19534079.312   104347533.463    19534085.363    81159268.167    19534084.426  
  19534078.594  
  19418067.719   103654982.992    19418072.293    80620560.324    19418072.273  
  19418066.406  
  20346248.836   108876891.521    20346253.812    84682082.589    20346253.297  
  20346247.410  
  22431486.938   117878296.264    22431495.984    91853259.4914   22431496.199  
                
  23224224.539   123928943.889                                                  
  23224222.520  
  21704856.477   114059809.354    21704866.375    88877850.9514   21704866.000  
                
  20433881.547   107380783.106    20433887.660    83673458.2404   20433887.562  
                
  24475361.547   128618894.458    24475367.691   100222535.6084                 
                
 21  8  6  0 46 40.0000000  0 15G22G14G19R13R 5G 6G24R12R22R21G 3R 6
                                G 1G17G21
  22771722.578   119666227.932    22771727.281    93246454.3974                 
                
  20821195.234   109416131.847    20821201.914    85259353.6104   20821201.844  
                
  20839947.781   109514681.006    20839951.980    85336134.3414                 
                
  21536765.031   115005135.673    21536769.309    89448458.743    21536769.180  
  21536763.535  
  22678157.000   121227763.911    22678162.438    94288279.418    22678162.438  
  22678156.223  
  23367827.000   122798765.224    23367836.445    95687398.6084   23367837.516  
                
  23288789.141   122383416.871    23288798.914    95363741.7464   23288798.957  
                
  19535447.758   104354843.434    19535453.812    81164953.698    19535452.867  
  19535447.016  
  19416365.586   103645896.882    19416370.148    80613493.363    19416370.148  
  19416364.254  
  20350971.609   108902163.988    20350976.578    84701738.943    20350976.062  
  20350970.168  
  22428589.125   117863068.224    22428598.160    91841393.5084   22428598.371  
                
  23217938.383   123895399.632                                                  
  23217936.402  
  21710377.109   114088820.423    21710386.988    88900456.9734   21710386.617  
                
  20433588.477   107379243.004    20433594.562    83672258.1634   20433594.488  
                
  24481430.430   128650786.666    24481436.527   100247386.6804                 
                
 21  8  6  0 46 50.0000000  0 15G22G14G19R13R 5G 6G24R12R22R21G 3R 6
                                G 1G17G21
  22772343.711   119669492.032    22772348.387    93248997.8544                 
                
  20824802.180   109435086.510    20824808.855    85274123.4754   20824808.785  
                
  20836137.680   109494658.796    20836141.863    85320532.6264                 
                
  21530810.852   114973340.729    21530815.090    89423729.341    21530814.965  
  21530809.355  
  22678232.781   121228168.988    22678238.215    94288594.479    22678238.195  
  22678232.043  
  23361068.672   122763250.112    23361078.137    95659724.5184   23361079.176  
                
  23287856.609   122378516.461    23287866.359    95359923.2474   23287866.422  
                
  19536832.977   104362243.069    19536839.043    81170708.971    19536838.098  
  19536832.215  
  19414674.836   103636871.628    19414679.383    80606473.727    19414679.371  
  19414673.504  
  20355701.680   108927475.588    20355706.648    84721425.747    20355706.145  
  20355700.223  
  22425703.227   117847902.724    22425712.234    91829576.2424   22425712.449  
                
  23211660.305   123861898.697                                                  
  23211658.414  
  21715905.484   114117872.203    21715915.344    88923094.7134   21715914.973  
                
  20433302.289   107377739.089    20433308.352    83671086.2854   20433308.297  
                
  24487500.844   128682686.893    24487506.898   100272243.9864                 
                
 21  8  6  0 47  0.0000000  0 15G22G14G19R13R 5G 6G24R12R22R21G 3R 6
                                G 1G17G21
  22772977.164   119672820.862    22772981.816    93251591.7504                 
                
  20828419.227   109454094.128    20828425.891    85288934.5904   20828425.816  
                
  20832334.891   109474674.968    20832339.043    85304960.8114                 
                
  21524867.633   114941604.207    21524871.832    89399045.382    21524871.738  
  21524866.105  
  22678325.250   121228663.234    22678330.695    94288978.887    22678330.656  
  22678324.535  
  23354314.758   122727758.142    23354324.211    95632068.4614   23354325.254  
                
  23286936.758   122373682.546    23286946.465    95356156.5624   23286946.559  
                
  19538235.078   104369732.790    19538241.145    81176534.302    19538240.195  
  19538234.270  
  19412995.578   103627907.590    19413000.102    80599501.704    19413000.070  
  19412994.227  
  20360439.117   108952826.511    20360444.086    84741143.120    20360443.582  
  20360437.633  
  22422829.281   117832800.107    22422838.273    91817807.9834   22422838.488  
                
  23205390.414   123828441.327                                                  
  23205388.500  
  21721441.648   114146964.890    21721451.492    88945764.3334   21721451.137  
                
  20433023.055   107376271.698    20433029.090    83669942.8604   20433029.047  
                
  24493572.836   128714595.394    24493578.883   100297107.7484                 
                
 21  8  6  0 47 10.0000000  0 15G22G14G19R13R 5G 6G24R12R22R21G 3R 6
                                G 1G17G21
  22773622.984   119676214.693    22773627.629    93254236.2994                 
                
  20832046.383   109473154.991    20832053.055    85303787.2104   20832052.984  
                
  20828539.445   109454729.840    20828543.586    85289419.1584                 
                
  21518935.422   114909926.662    21518939.605    89374407.308    21518939.508  
  21518933.879  
  22678434.461   121229246.988    22678439.910    94289432.910    22678439.867  
  22678433.773  
  23347565.344   122692289.784    23347574.770    95604430.7944   23347575.820  
                
  23286029.609   122368915.493    23286039.277    95352441.9754   23286039.387  
                
  19539654.078   104377312.810    19539660.152    81182429.866    19539659.215  
  19539653.215  
  19411327.828   103619005.132    19411332.336    80592577.579    19411332.281  
  19411326.469  
  20365183.945   108978217.071    20365188.910    84760891.327    20365188.410  
  20365182.449  
  22419967.391   117817760.815    22419976.344    91806089.0634   22419976.586  
                
  23199128.750   123795028.137                                                  
  23199126.875  
  21726985.625   114176098.735    21726995.469    88968466.0304   21726995.113  
                
  20432750.820   107374841.129    20432756.844    83668828.1334   20432756.809  
                
  24499646.461   128746512.484    24499652.527   100321978.2044                 
                
 21  8  6  0 47 20.0000000  0 15G22G14G19R13R 5G 6G24R12R22R21G 3R 6
                                G 1G17G21
  22774281.000   119679672.648    22774285.641    93256930.8174                 
                
  20835683.516   109492268.235    20835690.184    85318680.6394   20835690.105  
                
  20824751.219   109434822.619    20824755.371    85273907.0444                 
                
  21513014.141   114878307.390    21513018.293    89349814.546    21513018.230  
  21513012.547  
  22678560.266   121229919.553    22678565.711    94289956.027    22678565.699  
  22678559.598  
  23340820.258   122656844.249    23340829.695    95576810.9174   23340830.754  
                
  23285135.016   122364214.463    23285144.703    95348778.8494   23285144.809  
                
  19541089.812   104384982.244    19541095.898    81188394.979    19541094.957  
  19541088.895  
  19409671.453   103610163.334    19409675.930    80585700.631    19409675.867  
  19409670.066  
  20369935.984   109003646.167    20369940.934    84780669.499    20369940.430  
  20369934.469  
  22417117.398   117802784.073    22417126.312    91794418.8834   22417126.582  
                
  23192875.242   123761658.260                                                  
  23192873.320  
  21732537.266   114205272.780    21732547.109    88991199.0494   21732546.750  
                
  20432485.445   107373446.599    20432491.453    83667741.4894   20432491.422  
                
  24505721.539   128778437.230    24505727.625   100346854.6214                 
                
 21  8  6  0 47 30.0000000  0 15G22G14G19R13R 5G 6G24R12R22R21G 3R 6
                                G 1G17G21
  22774951.359   119683195.411    22774955.992    93259675.8274                 
                
  20839330.734   109511434.475    20839337.410    85333615.3674   20839337.324  
                
  20820970.352   109414954.012    20820974.512    85258425.0124                 
                
  21507103.922   114846747.130    21507108.035    89325267.683    21507107.984  
  21507102.250  
  22678702.789   121230681.478    22678708.262    94290548.650    22678708.250  
  22678702.109  
  23334079.656   122621422.250    23334089.102    95549209.3954   23334090.152  
                
  23284253.141   122359580.160    23284262.848    95345167.7134   23284262.934  
                
  19542542.398   104392741.731    19542548.508    81194430.133    19542547.562  
  19542541.430  
  19408026.570   103601382.835    19408031.012    80578871.367    19408030.969  
  19408025.156  
  20374695.352   109029114.494    20374700.289    84800478.198    20374699.793  
  20374693.824  
  22414279.453   117787870.643    22414288.348    91782798.0404   22414288.641  
                
  23186630.109   123728333.027                                                  
  23186628.199  
  21738096.672   114234487.630    21738106.512    89013963.8644   21738106.160  
                
  20432227.055   107372088.735    20432233.047    83666683.4154   20432233.012  
                
  24511798.195   128810370.235    24511804.324   100371737.4784                 
                
 21  8  6  0 47 40.0000000  0 15G22G14G19R13R 5G 6G24R12R22R21G 3R 6
                                G 1G17G21
  22775633.953   119686782.413    22775638.562    93262470.8904                 
                
  20842987.938   109530653.179    20842994.629    85348590.9744   20842994.539  
                
  20817196.758   109395123.627    20817200.941    85242972.7644                 
                
  21501204.656   114815245.434    21501208.766    89300766.377    21501208.738  
  21501202.930  
  22678861.906   121231532.155    22678867.438    94291210.320    22678867.441  
  22678861.191  
  23327343.477   122586023.382    23327352.871    95521625.8674   23327353.926  
                
  23283383.867   122355012.085    23283393.594    95341608.1754   23283393.676  
                
  19544011.773   104400590.822    19544017.891    81200534.973    19544016.961  
  19544010.738  
  19406393.062   103592663.124    19406397.480    80572089.377    19406397.410  
  19406391.629  
  20379461.945   109054621.445    20379466.875    84820316.935    20379466.375  
  20379460.438  
  22411453.484   117773020.062    22411462.371    91771226.1774   22411462.668  
                
  23180393.180   123695051.378                                                  
  23180391.238  
  21743663.727   114263742.639    21743673.543    89036759.9674   21743673.219  
                
  20431975.555   107370767.056    20431981.535    83665653.5384   20431981.500  
                
  24517876.328   128842310.942    24517882.477   100396626.3204                 
                
 21  8  6  0 47 50.0000000  0 15G22G14G19R13R 5G 6G24R12R22R21G 3R 6
                                G 1G17G21
  22776328.836   119690434.103    22776333.418    93265316.3674                 
                
  20846655.195   109549924.763    20846661.895    85363607.7894   20846661.797  
                
  20813430.516   109375331.917    20813434.727    85227550.6464                 
                
  21495316.500   114783803.123    21495320.625    89276311.257    21495320.602  
  21495314.762  
  22679037.766   121232472.289    22679043.340    94291941.544    22679043.352  
  22679036.953  
  23320611.766   122550648.171    23320621.184    95494060.7954   23320622.215  
                
  23282527.258   122350510.677    23282537.000    95338100.5904   23282537.090  
                
  19545497.992   104408530.004    19545504.133    81206709.898    19545503.199  
  19545496.910  
  19404771.031   103584004.680    19404775.434    80565355.041    19404775.340  
  19404769.582  
  20384235.828   109080167.464    20384240.750    84840186.049    20384240.258  
  20384234.352  
  22408639.555   117758232.883    22408648.461    91759703.7154   22408648.750  
                
  23174164.609   123661814.548                                                  
  23174162.668  
  21749238.492   114293038.214    21749248.289    89059587.6734   21749247.984  
                
  20431731.016   107369482.041    20431736.984    83664652.2274   20431736.953  
                
  24523955.977   128874259.696    24523962.137   100421521.4414                 
                
 21  8  6  0 48  0.0000000  0 15G22G14G19R13R 5G 6G24R12R22R21G 3R 6
                                G 1G17G21
  22777036.016   119694150.394    22777040.570    93268212.1844                 
                
  20850332.500   109569249.047    20850339.199    85378665.6604   20850339.098  
                
  20809671.609   109355578.730    20809675.859    85212158.5514                 
                
  21489439.445   114752419.895    21489443.570    89251902.077    21489443.598  
  21489437.676  
  22679230.312   121233501.567    22679235.902    94292742.089    22679235.906  
  22679229.387  
  23313884.570   122515296.544    23313893.965    95466514.0744   23313894.988  
                
  23281683.320   122346075.792    23281693.090    95334644.8534   23281693.195  
                
  19547001.055   104416559.007    19547007.203    81212954.663    19547006.277  
  19546999.910  
  19403160.461   103575407.368    19403164.840    80558668.246    19403164.738  
  19403158.992  
  20389016.945   109105752.208    20389021.871    84860085.293    20389021.375  
  20389015.504  
  22405837.695   117743509.017    22405846.617    91748230.5764   22405846.887  
                
  23167944.391   123628622.292                                                  
  23167942.344  
  21754820.922   114322374.054    21754830.719    89082446.7664   21754830.410  
                
  20431493.438   107368233.528    20431499.387    83663679.3564   20431499.359  
                
  24530037.133   128906216.331    24530043.293   100446422.7044                 
                
 21  8  6  0 48 10.0000000  0 15G22G14G19R13R 5G 6G24R12R22R21G 3R 6
                                G 1G17G21
  22777755.484   119697931.179    22777760.004    93271158.2484                 
                
  20854019.789   109588625.880    20854026.512    85393764.4894   20854026.402  
                
  20805920.023   109335864.046    20805924.324    85196796.4664                 
                
  21483573.453   114721095.930    21483577.617    89227539.012    21483577.633  
  21483571.676  
  22679439.555   121234619.982    22679445.141    94293611.960    22679445.160  
  22679438.523  
  23307161.836   122479968.416    23307171.207    95438985.6864   23307172.250  
                
  23280852.039   122341707.393    23280861.816    95331240.9144   23280861.906  
                
  19548520.906   104424677.757    19548527.070    81219269.235    19548526.145  
  19548519.691  
  19401561.320   103566871.064    19401565.672    80552028.901    19401565.586  
  19401559.844  
  20393805.266   109131375.455    20393810.191    84880014.493    20393809.703  
  20393803.863  
  22403047.867   117728848.460    22403056.816    91736806.7814   22403057.078  
                
  23161732.477   123595474.565                                                  
  23161730.379  
  21760410.977   114351749.970    21760420.773    89105337.0804   21760420.457  
                
  20431262.781   107367021.424    20431268.715    83662734.8684   20431268.688  
                
  24536119.766   128938180.716    24536125.914   100471329.9974                 
                
 21  8  6  0 48 20.0000000  0 15G22G14G19R13R 5G 6G24R12R22R21G 3R 6
                                G 1G17G21
  22778487.219   119701776.490    22778491.715    93274154.6004                 
                
  20857717.109   109608055.321    20857723.840    85408904.3014   20857723.723  
                
  20802175.805   109316187.993    20802180.160    85181464.4834                 
                
  21477718.641   114689831.501    21477722.824    89203222.230    21477722.848  
  21477716.852  
  22679665.445   121235827.477    22679671.031    94294551.123    22679671.047  
  22679664.348  
  23300443.625   122444664.016    23300453.035    95411475.7854   23300454.062  
                
  23280033.438   122337405.542    23280043.207    95327888.8264   23280043.305  
                
  19550057.586   104432886.332    19550063.773    81225653.675    19550062.840  
  19550056.309  
  19399973.617   103558395.736    19399977.934    80545436.974    19399977.867  
  19399972.125  
  20398600.805   109157037.331    20398605.727    84899973.734    20398605.250  
  20398599.430  
  22400270.133   117714251.343    22400279.098    91725432.4124   22400279.340  
                
  23155529.000   123562371.685                                                  
  23155526.836  
  21766008.680   114381165.972    21766018.484    89128258.6314   21766018.145  
                
  20431039.070   107365845.783    20431044.980    83661818.7774   20431044.965  
                
  24542203.883   128970152.853    24542210.004   100496243.3414                 
                
 21  8  6  0 48 30.0000000  0 15G22G14G19R13R 5G 6G24R12R22R21G 3R 6
                                G 1G17G21
  22779231.227   119705686.356    22779235.711    93277201.2534                 
                
  20861424.398   109627537.322    20861431.160    85424085.0834   20861431.023  
                
  20798438.891   109296550.522    20798443.316    85166162.5724                 
                
  21471874.938   114658626.688    21471879.184    89178951.852    21471879.195  
  21471873.156  
  22679908.008   121237124.245    22679913.613    94295559.735    22679913.621  
  22679906.891  
  23293729.922   122409383.376    23293739.293    95383984.3884   23293740.355  
                
  23279227.477   122333170.286    23279237.250    95324588.6154   23279237.328  
                
  19551611.023   104441184.578    19551617.227    81232107.856    19551616.293  
  19551609.688  
  19398397.320   103549981.536    19398401.629    80538892.615    19398401.574  
  19398395.855  
  20403403.508   109182737.617    20403408.426    84919962.842    20403407.957  
  20403402.148  
  22397504.461   117699717.751    22397513.449    91714107.5504   22397513.676  
                
  23149333.961   123529314.014                                                  
  23149331.754  
  21771613.953   114410621.956    21771623.781    89151211.3434   21771623.434  
                
  20430822.266   107364706.567    20430828.164    83660931.0804   20430828.160  
                
  24548289.438   129002132.711    24548295.547   100521162.7074                 
                
 21  8  6  0 48 40.0000000  0 15G22G14G19R13R 5G 6G24R12R22R21G 3R 6
                                G 1G17G21
  22779987.516   119709660.608    22779991.961    93280298.0724                 
                
  20865141.672   109647071.675    20865148.445    85439306.6464   20865148.301  
                
  20794709.359   109276951.617    20794713.836    85150890.6904                 
                
  21466042.453   114627481.483    21466046.730    89154727.807    21466046.750  
  21466040.652  
  22680167.234   121238509.916    22680172.863    94296637.476    22680172.863  
  22680166.098  
  23287020.750   122374126.436    23287030.094    95356511.4504   23287031.156  
                
  23278434.180   122329001.416    23278443.945    95321340.1364   23278444.023  
                
  19553181.242   104449572.380    19553187.469    81238631.702    19553186.531  
  19553179.859  
  19396832.484   103541628.268    19396836.742    80532395.621    19396836.684  
  19396831.031  
  20408213.383   109208476.169    20408218.277    84939981.709    20408217.824  
  20408212.039  
  22394750.883   117685247.590    22394759.883    91702832.1084   22394760.105  
                
  23143147.375   123496301.414                                                  
  23143145.125  
  21777226.812   114440117.642    21777236.648    89174194.9804   21777236.297  
                
  20430612.414   107363603.726    20430618.293    83660071.7234   20430618.297  
                
  24554376.461   129034120.061    24554382.523   100546087.8814                 
                
 21  8  6  0 48 50.0000000  0 15G22G14G19R13R 5G 6G24R12R22R21G 3R 6
                                G 1G17G21
  22780756.070   119713699.406    22780760.484    93283445.1854                 
                
  20868868.945   109666658.583    20868875.738    85454569.1634   20868875.590  
                
  20790987.203   109257391.543    20790991.750    85135649.0844                 
                
  21460221.227   114596396.508    21460225.555    89130550.613    21460225.566  
  21460219.449  
  22680443.172   121239984.918    22680448.805    94297784.697    22680448.812  
  22680442.039  
  23280316.117   122338893.435    23280325.504    95329057.1904   23280326.527  
                
  23277653.555   122324899.188    23277663.336    95318143.5964   23277663.402  
                
  19554768.289   104458050.064    19554774.523    81245225.441    19554773.590  
  19554766.875  
  19395279.055   103533335.963    19395283.285    80525946.054    19395283.219  
  19395277.641  
  20413030.422   109234253.104    20413035.301    84960030.432    20413034.852  
  20413029.102  
  22392009.422   117670841.152    22392018.438    91691606.3214   22392018.656  
                
  23136968.969   123463334.218                                                  
  23136967.051  
  21782847.242   114469653.148    21782857.090    89197209.6504   21782856.738  
                
  20430409.516   107362537.436    20430415.371    83659240.8444   20430415.383  
                
  24560464.906   129066115.039    24560471.012   100571019.0344                 
                
 21  8  6  0 49  0.0000000  0 15G22G14G19R13R 5G 6G24R12R22R21G 3R 6
                                G 1G17G21
  22781536.867   119717802.571    22781541.250    93286642.4644                 
                
  20872606.164   109686297.818    20872612.977    85469872.4604   20872612.828  
                
  20787272.391   109237870.189    20787276.992    85120437.6524                 
                
  21454411.203   114565371.343    21454415.582    89106419.937    21454415.562  
  21454409.465  
  22680735.766   121241548.999    22680741.406    94299001.204    22680741.426  
  22680734.672  
  23273616.016   122303684.306    23273625.395    95301621.5264   23273626.414  
                
  23276885.570   122320863.426    23276895.387    95314998.8554   23276895.445  
                
  19556372.102   104466617.339    19556378.348    81251888.868    19556377.414  
  19556370.676  
  19393737.055   103525104.646    19393741.262    80519543.915    19393741.180  
  19393735.664  
  20417854.586   109260068.151    20417859.453    84980108.799    20417859.012  
  20417853.289  
  22389280.070   117656498.365    22389289.105    91680430.1324   22389289.316  
                
  23130798.648   123430412.507                                                  
  23130797.453  
  21788475.188   114499228.220    21788485.039    89220255.1574   21788484.699  
                
  20430213.516   107361507.498    20430219.367    83658438.3014   20430219.383  
                
  24566554.773   129098117.409    24566560.871   100595955.9164                 
                
 21  8  6  0 49 10.0000000  0 15G22G14G19R13R 5G 6G24R12R22R21G 3R 6
                                G 1G17G21
  22782329.961   119721970.258    22782334.285    93289890.0044                 
                
  20876353.375   109705989.445    20876360.199    85485216.5764   20876360.047  
                
  20783564.992   109218387.645    20783569.625    85105256.4544                 
                
  21448612.477   114534406.431    21448616.906    89082336.114    21448616.879  
  21448610.781  
  22681045.078   121243202.301    22681050.684    94300287.082    22681050.676  
  22681044.008  
  23266920.531   122268499.245    23266929.898    95274204.6064   23266930.918  
                
  23276130.305   122316894.325    23276140.125    95311906.0304   23276140.168  
                
  19557992.719   104475274.270    19557998.965    81258622.023    19557998.043  
  19557991.281  
  19392206.492   103516934.381    19392210.676    80513189.268    19392210.543  
  19392205.141  
  20422685.883   109285921.348    20422690.750    85000216.832    20422690.297  
  20422684.613  
  22386562.867   117642219.378    22386571.926    91669303.6604   22386572.129  
                
  23124637.742   123397536.648                                                  
  23124635.262  
  21794110.680   114528842.867    21794120.527    89243331.5054   21794120.188  
                
  20430024.477   107360514.064    20430030.324    83657664.1984   20430030.344  
                
  24572646.055   129130127.179    24572652.125   100620898.5704                 
                
 21  8  6  0 49 20.0000000  0 15G22G14G19R13R 5G 6G24R12R22R21G 3R 6
                                G 1G17G21
  22783135.297   119726202.371    22783139.590    93293187.7654                 
                
  20880110.516   109725733.420    20880117.355    85500601.4904   20880117.207  
                
  20779864.977   109198943.975    20779869.633    85090105.5404                 
                
  21442825.039   114503501.886    21442829.520    89058299.255    21442829.492  
  21442823.395  
  22681371.047   121244944.800    22681376.629    94301642.347    22681376.621  
  22681370.012  
  23260229.586   122233338.277    23260239.020    95246806.4814   23260240.008  
                
  23275387.648   122312991.763    23275397.496    95308865.0784   23275397.539  
                
  19559630.086   104484020.843    19559636.352    81265424.911    19559635.430  
  19559628.668  
  19390687.359   103508825.174    19390691.504    80506882.101    19390691.344  
  19390686.062  
  20427524.266   109311812.543    20427529.137    85020354.430    20427528.680  
  20427523.012  
  22383857.805   117628004.274    22383866.883    91658226.9584   22383867.090  
                
  23118485.141   123364706.486                                                  
  23118484.113  
  21799753.656   114558496.977    21799763.504    89266438.5994   21799763.156  
                
  20429842.359   107359557.100    20429848.207    83656918.5154   20429848.223  
                
  24578738.711   129162144.327    24578744.801   100645846.9974                 
                
 21  8  6  0 49 30.0000000  0 15G22G14G19R13R 5G 6G24R12R22R21G 3R 6
                                G 1G17G21
  22783952.914   119730498.995    22783957.172    93296535.7754                 
                
  20883877.617   109745529.670    20883884.469    85516027.1374   20883884.301  
                
  20776172.336   109179539.044    20776177.012    85074984.8164                 
                
  21437048.891   114472657.668    21437053.414    89034309.326    21437053.391  
  21437047.309  
  22681713.695   121246776.422    22681719.254    94303066.933    22681719.250  
  22681712.691  
  23253543.273   122198201.467    23253552.629    95219427.1454   23253553.652  
                
  23274657.688   122309155.792    23274667.566    95305876.0104   23274667.586  
                
  19561284.250   104492857.065    19561290.520    81272297.523    19561289.605  
  19561282.852  
  19389179.648   103500776.938    19389183.766    80500622.363    19389183.602  
  19389178.379  
  20432369.734   109337741.636    20432374.605    85040521.497    20432374.137  
  20432368.477  
  22381164.914   117613853.070    22381174.012    91647200.0634   22381174.211  
                
  23112341.695   123331922.398                                                  
  23112339.500  
  21805404.133   114588190.399    21805413.992    89289576.3294   21805413.633  
                
  20429667.180   107358636.543    20429673.035    83656201.2024   20429673.047  
                
  24584832.781   129194168.816    24584838.871   100670801.1314                 
                
 21  8  6  0 49 40.0000000  0 15G22G14G19R13R 5G 6G24R12R22R21G 3R 6
                                G 1G17G21
  22784782.812   119734860.053    22784787.043    93299934.0014                 
                
  20887654.688   109765378.221    20887661.547    85531493.5354   20887661.367  
                
  20772487.102   109160172.991    20772491.820    85059894.3914                 
                
  21431284.133   114441874.137    21431288.695    89010366.589    21431288.668  
  21431282.582  
  22682073.039   121248697.292    22682078.582    94304560.958    22682078.598  
  22682072.102  
  23246861.562   122163088.918    23246870.961    95192066.7524   23246871.980  
                
  23273940.422   122305386.465    23273950.352    95302938.8814   23273950.344  
                
  19562955.203   104501782.920    19562961.480    81279239.846    19562960.562  
  19562953.840  
  19387683.391   103492789.747    19387687.473    80494410.108    19387687.285  
  19387682.160  
  20437222.312   109363708.654    20437227.184    85060718.067    20437226.707  
  20437221.043  
  22378484.219   117599765.905    22378493.332    91636223.0624   22378493.535  
                
  23106206.773   123299184.770                                                  
  23106204.516  
  21811062.094   114617923.120    21811071.969    89312744.6814   21811071.590  
                
  20429498.953   107357752.483    20429504.828    83655512.3284   20429504.824  
                
  24590928.258   129226200.639    24590934.336   100695760.9704                 
                
 21  8  6  0 49 50.0000000  0 15G22G14G19R13R 5G 6G24R12R22R21G 3R 6
                                G 1G17G21
  22785624.883   119739285.243    22785629.105    93303382.2104                 
                
  20891441.633   109785278.753    20891448.496    85547000.4334   20891448.316  
                
  20768809.234   109140845.697    20768813.980    85044834.1644                 
                
  21425530.688   114411151.117    21425535.285    88986470.907    21425535.277  
  21425529.164  
  22682449.000   121250707.076    22682454.523    94306124.135    22682454.539  
  22682448.094  
  23240184.453   122128000.477    23240193.852    95164725.1054   23240194.848  
                
  23273235.750   122301683.492    23273245.746    95300053.4544   23273245.695  
                
  19564642.852   104510798.058    19564649.141    81286251.612    19564648.227  
  19564641.539  
  19386198.484   103484863.188    19386202.520    80488244.993    19386202.336  
  19386197.277  
  20442081.891   109389713.231    20442086.766    85080943.835    20442086.281  
  20442080.605  
  22375815.656   117585742.577    22375824.785    91625295.8014   22375824.988  
                
  23100080.438   123266493.171                                                  
  23100078.273  
  21816727.453   114647694.766    21816737.324    89335943.3554   21816736.934  
                
  20429337.609   107356904.603    20429343.492    83654851.6364   20429343.477  
                
  24597025.047   129258239.390    24597031.105   100720726.2064                 
                
 21  8  6  0 50  0.0000000  0 15G22G14G19R13R 5G 6G24R12R22R21G 3R 6
                                G 1G17G21
  22786479.258   119743775.040    22786483.445    93306880.7544                 
                
  20895238.555   109805231.688    20895245.426    85562548.1784   20895245.250  
                
  20765138.836   109121557.699    20765143.633    85029804.5784                 
                
  21419788.719   114380489.365    21419793.344    88962622.887    21419793.324  
  21419787.207  
  22682841.695   121252806.241    22682847.180    94307756.818    22682847.203  
  22682840.785  
  23233512.000   122092936.603    23233521.363    95137402.6244   23233522.379  
                
  23272543.828   122298047.421    23272553.871    95297220.1564   23272553.793  
                
  19566347.312   104519902.981    19566353.605    81293333.214    19566352.699  
  19566346.062  
  19384725.031   103476997.857    19384729.039    80482127.512    19384728.859  
  19384723.867  
  20446948.547   109415755.670    20446953.426    85101199.060    20446952.941  
  20446947.254  
  22373159.352   117571783.645    22373168.508    91614418.7274   22373168.699  
                
  23093962.891   123233848.504                                                  
  23093960.516  
  21822400.281   114677505.689    21822410.141    89359172.6454   21822409.766  
                
  20429183.250   107356093.453    20429189.148    83654219.5754   20429189.121  
                
  24603123.227   129290285.518    24603129.262   100745697.2094                 
                
 21  8  6  0 50 10.0000000  0 15G22G14G19R13R 5G 6G24R12R22R21G 3R 6
                                G 1G17G21
  22787345.891   119748329.231    22787350.031    93310429.4784                 
                
  20899045.391   109825236.706    20899052.270    85578136.4964   20899052.094  
                
  20761475.875   109102308.699    20761480.707    85014805.3584                 
                
  21414058.148   114349888.507    21414062.805    88938822.230    21414062.781  
  21414056.660  
  22683251.047   121254994.476    22683256.496    94309458.773    22683256.523  
  22683250.129  
  23226844.203   122057897.132    23226853.609    95110099.1574   23226854.590  
                
  23271864.562   122294477.895    23271874.668    95294438.7134   23271874.539  
                
  19568068.531   104529097.414    19568074.836    81300484.442    19568073.922  
  19568067.348  
  19383262.992   103469193.344    19383266.973    80476057.330    19383266.789  
  19383261.863  
  20451822.203   109441835.602    20451827.098    85121483.451    20451826.609  
  20451820.930  
  22370515.258   117557888.872    22370524.441    91603591.6374   22370524.625  
                
  23087854.055   123201250.221                                                  
  23087851.617  
  21828080.523   114707355.523    21828090.340    89382432.2464   21828089.984  
                
  20429035.812   107355318.663    20429041.719    83653615.8444   20429041.680  
                
  24609222.750   129322338.694    24609228.762   100770673.6944                 
                
 21  8  6  0 50 20.0000000  0 15G22G14G19R13R 5G 6G24R12R22R21G 3R 6
                                G 1G17G21
  22788224.750   119752947.654    22788228.832    93314028.2524                 
                
  20902862.102   109845293.659    20902868.973    85593765.2804   20902868.801  
                
  20757820.305   109083098.591    20757825.184    84999836.4464                 
                
  21408339.102   114319349.106    21408343.754    88915069.364    21408343.723  
  21408337.629  
  22683677.070   121257271.778    22683682.504    94311229.997    22683682.508  
  22683676.137  
  23220181.031   122022882.026    23220190.445    95082814.6714   23220191.418  
                
  23271197.953   122290974.856    23271208.117    95291709.0864   23271207.941  
                
  19569806.453   104538381.049    19569812.750    81307705.039    19569811.832  
  19569805.332  
  19381812.336   103461449.646    19381816.289    80470034.443    19381816.117  
  19381811.230  
  20456702.844   109467952.918    20456707.738    85141796.912    20456707.262  
  20456701.566  
  22367883.359   117544058.215    22367892.555    91592814.5024   22367892.730  
                
  23081753.977   123168698.804                                                  
  23081751.477  
  21833768.133   114737244.028    21833777.891    89405721.9764   21833777.559  
                
  20428895.289   107354580.190    20428901.203    83653040.4064   20428901.164  
                
  24615323.578   129354398.694    24615329.574   100795655.4974                 
                
 21  8  6  0 50 30.0000000  0 15G22G14G19R13R 5G 6G24R12R22R21G 3R 6
                                G 1G17G21
  22789115.883   119757630.531    22789119.922    93317677.2354                 
                
  20906688.734   109865402.699    20906695.602    85609434.6564   20906695.430  
                
  20754172.188   109063927.626    20754177.094    84984898.0314                 
                
  21402631.508   114288870.872    21402636.168    88891364.070    21402636.133  
  21402630.047  
  22684119.758   121259638.242    22684125.207    94313070.594    22684125.219  
  22684118.840  
  23213522.570   121987891.548    23213531.922    95055549.3584   23213532.922  
                
  23270544.055   122287538.506    23270554.234    95289031.3844   23270554.039  
                
  19571561.117   104547754.163    19571567.422    81314995.230    19571566.500  
  19571560.059  
  19380373.117   103453766.931    19380377.039    80464058.997    19380376.863  
  19380372.039  
  20461590.516   109494107.760    20461595.406    85162139.551    20461594.934  
  20461589.223  
  22365263.727   117530291.955    22365272.930    91582087.5544   22365273.102  
                
  23075662.703   123136194.530                                                  
  23075660.238  
  21839463.109   114767171.332    21839472.828    89429041.9454   21839472.508  
                
  20428761.734   107353878.333    20428767.648    83652493.4984   20428767.605  
                
  24621425.734   129386465.663    24621431.711   100820642.7374                 
                
 21  8  6  0 50 40.0000000  0 15G22G14G19R13R 5G 6G24R12R22R21G 3R 6
                                G 1G17G21
  22790019.250   119762377.808    22790023.293    93321376.4204                 
                
  20910525.258   109885563.773    20910532.121    85625144.5824   20910531.957  
                
  20750531.523   109044795.834    20750536.465    84969990.1544                 
                
  21396935.453   114258454.270    21396940.121    88867706.713    21396940.086  
  21396933.984  
  22684579.125   121262093.924    22684584.602    94314980.594    22684584.617  
  22684578.230  
  23206868.773   121952925.747    23206878.203    95028303.3154   23206879.168  
                
  23269902.820   122284168.828    23269913.039    95286405.6614   23269912.812  
                
  19573332.555   104557216.827    19573338.863    81322355.073    19573337.941  
  19573331.547  
  19378945.297   103446145.183    19378949.211    80458130.976    19378949.027  
  19378944.281  
  20466485.156   109520299.955    20466490.051    85182511.251    20466489.570  
  20466483.852  
  22362656.344   117516590.128    22362665.555    91571410.8224   22362665.727  
                
  23069580.273   123103737.358                                                  
  23069577.234  
  21845165.445   114797137.316    21845175.129    89452392.0624   21845174.816  
                
  20428635.102   107353212.909    20428641.027    83651974.9904   20428640.984  
                
  24627529.203   129418539.572    24627535.152   100845635.3824                 
                
 21  8  6  0 50 50.0000000  0 15G22G14G19R13R 5G 6G24R12R22R21G 3R 6
                                G 1G17G21
  22790934.906   119767189.581    22790938.973    93325125.8584                 
                
  20914371.719   109905777.007    20914378.578    85640895.1514   20914378.414  
                
  20746898.367   109025703.489    20746903.328    84955113.0164                 
                
  21391250.945   114228099.313    21391255.625    88844097.326    21391255.582  
  21391249.461  
  22685055.203   121264638.868    22685060.711    94316960.018    22685060.727  
  22685054.289  
  23200219.758   121917984.889    23200229.184    95001076.6734   23200230.113  
                
  23269274.320   122280865.959    23269284.562    95283831.9964   23269284.289  
                
  19575120.766   104566769.116    19575127.082    81329784.635    19575126.164  
  19575119.824  
  19377528.945   103438584.527    19377532.824    80452250.465    19377532.637  
  19377527.953  
  20471386.789   109546529.513    20471391.695    85202912.021    20471391.199  
  20471385.473  
  22360061.281   117502952.990    22360070.488    91560784.4934   22360070.664  
                
  23063506.719   123071327.768                                                  
  23063503.473  
  21850875.164   114827142.015    21850884.832    89475772.3474   21850884.527  
                
  20428515.469   107352584.190    20428521.398    83651485.0844   20428521.359  
                
  24633634.016   129450620.459    24633639.941   100870633.4704                 
                
 21  8  6  0 51  0.0000000  0 15G22G14G19R13R 5G 6G24R12R22R21G 3R 6
                                G 1G17G21
  22791862.711   119772065.246    22791866.773    93328925.0684                 
                
  20918227.969   109926041.678    20918234.809    85656685.7894   20918234.648  
                
  20743272.586   109006649.927    20743277.543    84940266.0894                 
                
  21385577.867   114197805.498    21385582.543    88820535.486    21385582.477  
  21385576.379  
  22685547.875   121267272.448    22685553.406    94319008.353    22685553.434  
  22685546.906  
  23193575.336   121883068.328    23193584.762    94973868.9734   23193585.672  
                
  23268658.391   122277629.277    23268668.645    95281309.9014   23268668.355  
                
  19576925.594   104576410.147    19576931.902    81337283.206    19576930.980  
  19576924.707  
  19376123.883   103431084.208    19376127.742    80446416.879    19376127.531  
  19376122.922  
  20476295.258   109572795.767    20476300.176    85223341.325    20476299.676  
  20476293.930  
  22357478.406   117489379.947    22357487.617    91550208.1004   22357487.777  
                
  23057442.008   123038965.246                                                  
  23057439.148  
  21856592.094   114857184.695    21856601.730    89499182.2244   21856601.449  
                
  20428402.688   107351991.490    20428408.617    83651023.2324   20428408.582  
                
  24639740.008   129482707.697    24639745.930   100895636.5054                 
                
 21  8  6  0 51 10.0000000  0 15G22G14G19R13R 5G 6G24R12R22R21G 3R 6
                                G 1G17G21
  22792802.773   119777005.342    22792806.840    93332774.5004                 
                
  20922094.109   109946358.378    20922100.941    85672516.9734   20922100.789  
                
  20739654.297   108987635.735    20739659.242    84925449.8394                 
                
  21379916.445   114167573.881    21379921.117    88797022.003    21379921.059  
  21379914.934  
  22686057.258   121269995.450    22686062.844    94321126.241    22686062.875  
  22686056.277  
  23186935.688   121848176.778    23186945.137    94946680.7604   23186946.008  
                
  23268055.172   122274459.353    23268065.398    95278839.8284   23268065.105  
                
  19578747.172   104586140.718    19578753.473    81344851.425    19578752.551  
  19578746.340  
  19374730.234   103423644.899    19374734.098    80440630.756    19374733.867  
  19374729.328  
  20481210.695   109599099.254    20481215.613    85243799.580    20481215.109  
  20481209.348  
  22354907.859   117475871.652    22354917.062    91539682.1564   22354917.211  
                
  23051386.227   123006650.464                                                  
  23051383.469  
  21862316.352   114887265.865    21862325.969    89522622.0894   21862325.699  
                
  20428296.844   107351435.332    20428302.781    83650589.8644   20428302.750  
                
  24645847.312   129514801.768    24645853.246   100920644.8494                 
                
 21  8  6  0 51 20.0000000  0 15G22G14G19R13R 5G 6G24R12R22R21G 3R 6
                                G 1G17G21
  22793755.109   119782009.842    22793759.156    93336674.1054                 
                
  20925970.156   109966727.065    20925976.980    85688388.6714   20925976.832  
                
  20736043.523   108968660.998    20736048.449    84910664.3364                 
                
  21374266.742   114137404.739    21374271.391    88773557.129    21374271.348  
  21374265.168  
  22686583.344   121272807.666    22686589.004    94323313.535    22686589.035  
  22686582.391  
  23180300.828   121813310.326    23180310.277    94919512.0964   23180311.129  
                
  23267464.695   122271356.281    23267474.871    95276421.8464   23267474.578  
                
  19580585.516   104595960.766    19580591.816    81352489.239    19580590.914  
  19580584.750  
  19373348.047   103416266.609    19373351.875    80434892.083    19373351.648  
  19373347.156  
  20486133.078   109625439.794    20486137.977    85264286.650    20486137.469  
  20486131.680  
  22352349.656   117462428.206    22352358.863    91529206.7524   22352359.008  
                
  23045339.438   122974383.525                                                  
  23045336.820  
  21868047.914   114917385.416    21868057.508    89546091.8704   21868057.266  
                
  20428197.977   107350915.759    20428203.934    83650185.0104   20428203.895  
                
  24651955.938   129546902.651    24651961.863   100945658.5124                 
                
 21  8  6  0 51 30.0000000  0 16R23G22G14G19R13R 5G 6G24R12R22R21G 3
                                R 6G 1G17G21
  23584304.953   126160129.286                                                  
  23584302.809  
  22794719.609   119787078.384    22794723.668    93340623.6194                 
                
  20929855.992   109987147.280    20929862.805    85704300.5234   20929862.672  
                
  20732440.180   108949725.306    20732445.078    84895909.2514                 
                
  21368628.641   114107297.589    21368633.258    88750140.449    21368633.199  
  21368627.020  
  22687126.031   121275708.717    22687131.758    94325569.914    22687131.781  
  22687125.105  
  23173670.633   121778468.592    23173680.172    94892362.7284   23173680.965  
                
  23266886.820   122268319.589    23266896.934    95274055.6004   23266896.672  
                
  19582440.523   104605869.892    19582446.816    81360196.334    19582445.918  
  19582439.809  
  19371977.172   103408948.818    19371980.984    80429200.470    19371980.691  
  19371976.312  
  20491062.281   109651816.955    20491067.164    85284802.217    20491066.664  
  20491060.875  
  22349803.727   117449049.273    22349812.926    91518781.6124   22349813.055  
                
  23039301.625   122942164.612                                                  
  23039298.898  
  21873786.688   114947542.873    21873796.273    89569591.1814   21873796.035  
                
  20428105.984   107350432.389    20428111.957    83649808.3614   20428111.914  
                
  24658065.734   129579009.879    24658071.664   100970677.1234                 
                
 21  8  6  0 51 40.0000000  0 16R23G22G14G19R13R 5G 6G24R12R22R21G 3
                                R 6G 1G17G21
  23577262.453   126122456.674                                                  
  23577260.309  
  22795696.383   119792211.362    22795700.465    93344623.3434                 
                
  20933751.711   110007619.405    20933758.512    85720252.8204   20933758.395  
                
  20728844.352   108930829.104    20728849.207    84881184.9394                 
                
  21363002.211   114077252.845    21363006.812    88726772.333    21363006.715  
  21363000.590  
  22687685.445   121278699.111    22687691.211    94327895.785    22687691.250  
  22687684.531  
  23167045.289   121743652.131    23167054.820    94865233.0054   23167055.555  
                
  23266321.664   122265349.718    23266331.695    95271741.4244   23266331.473  
                
  19584312.281   104615868.490    19584318.566    81367973.012    19584317.672  
  19584311.617  
  19370617.719   103401691.967    19370621.516    80423556.254    19370621.203  
  19370616.887  
  20495998.398   109678231.122    20496003.266    85305346.561    20496002.770  
  20495997.000  
  22347270.156   117435735.307    22347279.344    91508407.0984   22347279.465  
                
  23033272.852   122909993.939                                                  
  23033270.055  
  21879532.734   114977738.521    21879542.324    89593120.2544   21879542.086  
                
  20428020.969   107349985.603    20428026.949    83649460.2074   20428026.902  
                
  24664176.820   129611123.777    24664182.730   100995700.9214                 
                
 21  8  6  0 51 50.0000000  0 16R23G22G14G19R13R 5G 6G24R12R22R21G 3
                                R 6G 1G17G21
  23570223.164   126084801.011                                                  
  23570221.207  
  22796685.352   119797408.459    22796689.469    93348673.0304                 
                
  20937657.219   110028143.023    20937664.027    85736245.2484   20937663.910  
                
  20725255.969   108911972.105    20725260.785    84866491.1814                 
                
  21357387.461   114047270.444    21357392.035    88703452.693    21357391.918  
  21357385.844  
  22688261.461   121281778.332    22688267.273    94330290.742    22688267.328  
  22688260.531  
  23160424.664   121708860.567    23160434.156    94838122.7014   23160434.879  
                
  23265769.164   122262446.311    23265779.090    95269479.0184   23265778.930  
                
  19586200.680   104625956.004    19586206.957    81375818.857    19586206.055  
  19586200.094  
  19369269.625   103394495.747    19369273.398    80417959.187    19369273.074  
  19369268.816  
  20500941.359   109704681.882    20500946.203    85325919.369    20500945.711  
  20500939.941  
  22344748.898   117422486.044    22344758.066    91498083.0024   22344758.191  
                
  23027253.086   122877871.313                                                  
  23027250.336  
  21885285.953   115007971.898    21885295.566    89616678.7254   21885295.316  
                
  20427942.836   107349575.088    20427948.840    83649140.3304   20427948.785  
                
  24670289.086   129643243.952    24670294.980   101020729.6174                 
                
 21  8  6  0 52  0.0000000  0 16R23G22G14G19R13R 5G 6G24R12R22R21G 3
                                R 6G 1G17G21
  23563187.109   126047162.489                                                  
  23563185.301  
  22797686.578   119802669.860    22797690.719    93352772.8164                 
                
  20941572.586   110048718.353    20941579.391    85752277.9674   20941579.281  
                
  20721675.133   108893154.638    20721679.914    84851828.2244                 
                
  21351784.500   114017350.918    21351789.043    88680181.950    21351788.914  
  21351782.863  
  22688854.203   121284946.777    22688860.020    94332755.078    22688860.078  
  22688853.254  
  23153808.859   121674094.269    23153818.449    94811032.0974   23153819.105  
                
  23265229.367   122259609.640    23265239.230    95267268.6314   23265239.102  
                
  19588105.805   104636132.750    19588112.082    81383734.099    19588111.180  
  19588105.270  
  19367932.961   103387360.488    19367936.711    80412409.546    19367936.402  
  19367932.160  
  20505891.164   109731169.212    20505895.977    85346520.615    20505895.492  
  20505889.727  
  22342240.016   117409301.779    22342249.176    91487809.5574   22342249.293  
                
  23021242.414   122845797.293                                                  
  23021239.742  
  21891046.406   115038243.176    21891056.043    89640266.7214   21891055.773  
                
  20427871.695   107349201.191    20427877.715    83648848.9834   20427877.660  
                
  24676402.602   129675370.627    24676408.500   101045763.3914                 
                
 21  8  6  0 52 10.0000000  0 16R23G22G14G19R13R 5G 6G24R12R22R21G 3
                                R 6G 1G17G21
  23556154.289   126009541.357                                                  
  23556152.578  
  22798700.047   119807995.641    22798704.215    93356922.7734                 
                
  20945497.805   110069345.495    20945504.613    85768351.0594   20945504.504  
                
  20718101.828   108874376.848    20718106.590    84837196.1914                 
                
  21346193.266   113987494.059    21346197.785    88656959.957    21346197.660  
  21346191.660  
  22689463.633   121288204.509    22689469.441    94335288.866    22689469.465  
  22689462.680  
  23147197.906   121639353.467    23147207.500    94783961.3454   23147208.133  
                
  23264702.289   122256839.834    23264712.082    95265110.3454   23264711.980  
                
  19590027.641   104646398.815    19590033.918    81391718.815    19590033.012  
  19590027.160  
  19366607.672   103380286.014    19366611.418    80406907.181    19366611.133  
  19366606.914  
  20510847.820   109757693.281    20510852.605    85367150.454    20510852.113  
  20510846.387  
  22339743.539   117396182.733    22339752.688    91477586.9314   22339752.805  
                
  23015240.938   122813772.166                                                  
  23015238.277  
  21896814.070   115068552.402    21896823.734    89663884.2934   21896823.453  
                
  20427807.531   107348863.954    20427813.559    83648586.1964   20427813.492  
                
  24682517.359   129707503.840    24682523.285   101070802.2414                 
                
 21  8  6  0 52 20.0000000  0 16R23G22G14G19R13R 5G 6G24R12R22R21G 3
                                R 6G 1G17G21
  23549124.594   125971937.076                                                  
  23549122.988  
  22799725.656   119813385.304    22799729.832    93361122.5094                 
                
  20949432.773   110090023.881    20949439.578    85784464.0744   20949439.477  
                
  20714535.992   108855638.214    20714540.727    84822594.6514                 
                
  21340613.758   113957699.844    21340618.234    88633786.680    21340618.102  
  21340612.176  
  22690089.664   121291551.007    22690095.457    94337891.693    22690095.445  
  22690088.699  
  23140591.703   121604637.669    23140601.293    94756910.0644   23140601.887  
                
  23264187.844   122254136.383    23264197.551    95263003.7534   23264197.465  
                
  19591966.086   104656753.683    19591972.371    81399772.605    19591971.457  
  19591965.672  
  19365293.734   103373272.169    19365297.477    80401451.965    19365297.176  
  19365293.020  
  20515811.227   109784253.544    20515816.000    85387808.437    20515815.496  
  20515809.801  
  22337259.383   117383128.445    22337268.492    91467414.7654   22337268.629  
                
  23009248.508   122781795.608                                                  
  23009245.891  
  21902588.820   115098898.938    21902598.508    89687530.9354   21902598.227  
                
  20427750.219   107348562.763    20427756.250    83648351.4954   20427756.188  
                
  24688633.242   129739642.980    24688639.203   101095845.7254                 
                
 21  8  6  0 52 30.0000000  0 16R23G22G14G19R13R 5G 6G24R12R22R21G 3
                                R 6G 1G17G21
  23542098.195   125934350.276                                                  
  23542096.652  
  22800763.531   119818839.363    22800767.719    93365372.4234                 
                
  20953377.578   110110753.963    20953384.391    85800617.3904   20953384.285  
                
  20710977.703   108836939.308    20710982.430    84808024.0784                 
                
  21335046.117   113927968.916    21335050.551    88610662.625    21335050.375  
  21335044.547  
  22690732.406   121294986.797    22690738.168    94340563.974    22690738.141  
  22690731.426  
  23133990.344   121569947.441    23134000.004    94729878.7564   23134000.555  
                
  23263686.109   122251499.773    23263695.750    95260949.2634   23263695.711  
                
  19593921.242   104667197.781    19593927.531    81407895.793    19593926.621  
  19593920.879  
  19363991.227   103366319.282    19363994.969    80396044.168    19363994.652  
  19363990.547  
  20520781.469   109810850.313    20520786.238    85408494.817    20520785.730  
  20520780.031  
  22334787.664   117370139.491    22334796.738    91457293.5154   22334796.902  
                
  23003265.312   122749868.098                                                  
  23003262.691  
  21908370.758   115129283.179    21908380.473    89711206.9664   21908380.188  
                
  20427699.867   107348298.206    20427705.922    83648145.3574   20427705.852  
                
  24694750.344   129771788.535    24694756.348   101120894.2004                 
                
 21  8  6  0 52 40.0000000  0 16R23G22G14G19R13R 5G 6G24R12R22R21G 3
                                R 6G 1G17G21
  23535075.008   125896780.734                                                  
  23535073.500  
  22801813.594   119824357.472    22801817.777    93369672.2484                 
                
  20957332.164   110131535.394    20957338.977    85816810.7054   20957338.867  
                
  20707426.906   108818279.745    20707431.621    84793484.1524                 
                
  21329490.297   113898301.110    21329494.695    88587587.652    21329494.488  
  21329488.742  
  22691391.773   121298511.476    22691397.488    94343305.382    22691397.445  
  22691390.754  
  23127393.859   121535282.573    23127403.449    94702867.1514   23127404.012  
                
  23263197.047   122248929.707    23263206.605    95258946.6074   23263206.590  
                
  19595893.023   104677730.680    19595899.305    81416088.043    19595898.391  
  19595892.695  
  19362700.055   103359426.904    19362703.797    80390683.437    19362703.496  
  19362699.402  
  20525758.477   109837483.261    20525763.223    85429209.325    20525762.715  
  20525757.043  
  22332328.328   117357215.597    22332337.359    91447222.9484   22332337.543  
                
  22997291.273   122717989.600                                                  
  22997288.715  
  21914159.789   115159704.726    21914169.527    89734912.0604   21914169.242  
                
  20427656.430   107348069.929    20427662.488    83647967.4734   20427662.414  
                
  24700868.609   129803940.133    24700874.672   101145947.3714                 
                
 21  8  6  0 52 50.0000000  0 16R23G22G14G19R13R 5G 6G24R12R22R21G 3
                                R 6G 1G17G21
  23528055.062   125859228.524                                                  
  23528053.535  
  22802875.867   119829939.727    22802880.043    93374022.0504                 
                
  20961296.523   110152368.249    20961303.348    85833044.0994   20961303.254  
                
  20703883.656   108799659.802    20703888.355    84778975.1104                 
                
  21323946.359   113868696.803    21323950.766    88564562.084    21323950.543  
  21323944.832  
  22692067.805   121302125.209    22692073.480    94346116.056    22692073.441  
  22692066.797  
  23120802.188   121500643.239    23120811.891    94675875.4894   23120812.387  
                
  23262720.680   122246426.321    23262730.184    95256995.9134   23262730.180  
                
  19597881.484   104688352.634    19597887.762    81424349.558    19597886.848  
  19597881.176  
  19361420.234   103352595.157    19361423.973    80385369.858    19361423.699  
  19361419.594  
  20530742.250   109864152.429    20530746.992    85449952.015    20530746.484  
  20530740.844  
  22329881.406   117344356.999    22329890.426    91437203.2814   22329890.609  
                
  22991326.508   122686160.466                                                  
  22991323.961  
  21919955.930   115190163.593    21919965.691    89758646.2374   21919965.391  
                
  20427619.930   107347878.065    20427625.988    83647817.9674   20427625.910  
                
  24706988.031   129836097.865    24706994.141   101171005.3404                 
                
 21  8  6  0 53  0.0000000  0 16R23G22G14G19R13R 5G 6G24R12R22R21G 3
                                R 6G 1G17G21
  23521038.375   125821693.822                                                  
  23521036.840  
  22803950.336   119835586.133    22803954.520    93378421.8514                 
                
  20965270.695   110173252.624    20965277.523    85849317.6274   20965277.422  
                
  20700347.977   108781079.722    20700352.660    84764497.1264                 
                
  21318414.336   113839156.059    21318418.730    88541585.944    21318418.488  
  21318412.828  
  22692760.508   121305828.084    22692766.160    94348996.064    22692766.129  
  22692759.484  
  23114215.438   121466029.639    23114225.180    94648903.8594   23114225.621  
                
  23262257.023   122243989.733    23262266.461    95255097.2694   23262266.484  
                
  19599886.641   104699063.753    19599892.906    81432680.418    19599892.000  
  19599886.340  
  19360151.820   103345824.344    19360155.574    80380103.682    19360155.289  
  19360151.207  
  20535732.789   109890857.817    20535737.516    85470722.872    20535737.008  
  20535731.387  
  22327446.945   117331563.861    22327455.957    91427234.6024   22327456.137  
                
  22985371.031   122654380.891                                                  
  22985368.500  
  21925759.180   115220659.824    21925768.957    89782409.5264   21925768.664  
                
  20427590.367   107347722.753    20427596.434    83647696.9484   20427596.355  
                
  24713108.617   129868261.723    24713114.762   101196068.0674                 
                
 21  8  6  0 53 10.0000000  0 16R23G22G14G19R13R 5G 6G24R12R22R21G 3
                                R 6G 1G17G21
  23514024.906   125784176.315                                                  
  23514023.332  
  22805036.945   119841296.309    22805041.133    93382871.3394                 
                
  20969254.570   110194188.006    20969261.410    85865630.9054   20969261.309  
                
  20696819.820   108762539.061    20696824.477    84750049.8504                 
                
  21312894.156   113809678.646    21312898.559    88518659.073    21312898.293  
  21312892.684  
  22693469.758   121309619.477    22693475.402    94351944.929    22693475.391  
  22693468.742  
  23107633.508   121431441.396    23107643.195    94621951.9844   23107643.672  
                
  23261805.984   122241619.487    23261815.352    95253250.3114   23261815.391  
                
  19601908.367   104709863.453    19601914.633    81441080.182    19601913.723  
  19601908.055  
  19358894.734   103339113.925    19358898.508    80374884.465    19358898.219  
  19358894.113  
  20540729.992   109917598.858    20540734.711    85491521.458    20540734.203  
  20540728.590  
  22325024.875   117318835.807    22325033.879    91417316.6444   22325034.047  
                
  22979424.750   122622650.538                                                  
  22979422.281  
  21931569.438   115251192.875    21931579.223    89806201.5034   21931578.934  
                
  20427567.695   107347603.599    20427573.770    83647604.1024   20427573.688  
                
  24719230.289   129900431.276    24719236.453   101221135.2374                 
                
 21  8  6  0 53 20.0000000  0 16R23G22G14G19R13R 5G 6G24R12R22R21G 3
                                R 6G 1G17G21
  23507014.703   125746676.402                                                  
  23507013.113  
  22806135.789   119847070.748    22806139.996    93387370.9034                 
                
  20973248.242   110215174.848    20973255.090    85881984.2734   20973254.992  
                
  20693299.242   108744038.350    20693303.887    84735633.7124                 
                
  21307385.977   113780265.230    21307390.352    88495781.965    21307390.074  
  21307384.504  
  22694195.734   121313500.195    22694201.387    94354963.256    22694201.371  
  22694194.703  
  23101056.508   121396879.081    23101066.293    94595020.3204   23101066.695  
                
  23261367.656   122239316.089    23261376.969    95251455.4524   23261377.027  
                
  19603946.766   104720752.240    19603953.023    81449549.241    19603952.113  
  19603946.438  
  19357649.047   103332464.322    19357652.844    80369712.553    19357652.523  
  19357648.414  
  20545733.945   109944376.032    20545738.652    85512348.148    20545738.152  
  20545732.562  
  22322615.289   117306173.390    22322624.285    91407449.8394   22322624.457  
                
  22973487.883   122590970.220                                                  
  22973485.379  
  21937386.758   115281763.111    21937396.555    89830022.4594   21937396.262  
                
  20427551.977   107347521.050    20427558.055    83647539.7804   20427557.973  
                
  24725353.117   129932606.934    24725359.309   101246207.1824                 
                
 21  8  6  0 53 30.0000000  0 16R23G22G14G19R13R 5G 6G24R12R22R21G 3
                                R 6G 1G17G21
  23500007.766   125709193.940                                                  
  23500006.125  
  22807246.812   119852909.223    22807251.039    93391920.3704                 
                
  20977251.641   110236212.873    20977258.512    85898377.5434   20977258.414  
                
  20689786.250   108725577.397    20689790.883    84721248.5534                 
                
  21301889.734   113750915.539    21301894.121    88472954.427    21301893.832  
  21301888.273  
  22694938.359   121317469.877    22694944.016    94358050.775    22694944.016  
  22694937.340  
  23094484.391   121362342.462    23094494.207    94568108.7044   23094494.570  
                
  23260942.016   122237079.291    23260951.305    95249712.5034   23260951.352  
                
  19606001.805   104731729.808    19606008.043    81458087.338    19606007.133  
  19606001.418  
  19356414.695   103325875.235    19356418.500    80364587.708    19356418.199  
  19356414.051  
  20550744.594   109971188.967    20550749.289    85533202.652    20550748.793  
  20550743.227  
  22320218.164   117293576.429    22320227.148    91397634.0314   22320227.320  
                
  22967560.336   122559339.705                                                  
  22967557.879  
  21943211.102   115312370.207    21943220.902    89853872.1414   21943220.621  
                
  20427543.203   107347474.892    20427549.277    83647503.8114   20427549.195  
                
  24731477.062   129964788.410    24731483.262   101271283.6434                 
                
 21  8  6  0 53 40.0000000  0 16R23G22G14G19R13R 5G 6G24R12R22R21G 3
                                R 6G 1G17G21
  23493004.070   125671728.831                                                  
  23493002.348  
  22808369.984   119858811.489    22808374.195    93396519.5224                 
                
  20981264.734   110257301.783    20981271.617    85914810.4574   20981271.508  
                
  20686280.742   108707155.862    20686285.371    84706894.1074                 
                
  21296405.398   113721629.491    21296409.785    88450176.383    21296409.516  
  21296403.957  
  22695697.539   121321528.148    22695703.207    94361207.207    22695703.203  
  22695696.520  
  23087917.180   121327831.475    23087926.988    94541217.0044   23087927.320  
                
  23260528.992   122234908.844    23260538.262    95248021.2424   23260538.285  
                
  19608073.383   104742795.802    19608079.605    81466694.214    19608078.684  
  19608072.926  
  19355191.625   103319346.493    19355195.465    80359509.809    19355195.160  
  19355190.973  
  20555761.867   109998037.402    20555766.547    85554084.760    20555766.047  
  20555760.484  
  22317833.453   117281044.752    22317842.430    91387869.0964   22317842.602  
                
  22961642.102   122527759.039                                                  
  22961639.711  
  21949042.391   115343013.830    21949052.188    89877750.2824   21949051.930  
                
  20427541.289   107347464.860    20427547.367    83647495.9974   20427547.285  
                
  24737602.055   129996975.406    24737608.266   101296364.3984                 
                
 21  8  6  0 53 50.0000000  0 16R23G22G14G19R13R 5G 6G24R12R22R21G 3
                                R 6G 1G17G21
  23486003.750   125634281.858                                                  
  23486001.949  
  22809505.445   119864778.342    22809509.656    93401169.0204                 
                
  20985287.672   110278442.410    20985294.570    85931283.6654   20985294.457  
                
  20682782.945   108688774.759    20682787.574    84692571.1724                 
                
  21290933.195   113692408.177    21290937.590    88427448.692    21290937.320  
  21290931.754  
  22696473.516   121325676.040    22696479.191    94364433.327    22696479.180  
  22696472.492  
  23081354.961   121293346.929    23081364.883    94514345.9744   23081365.133  
                
  23260128.766   122232805.608    23260138.004    95246382.3544   23260138.023  
                
  19610161.703   104753951.199    19610167.914    81475370.631    19610166.992  
  19610161.172  
  19353980.055   103312878.984    19353983.902    80354479.528    19353983.609  
  19353979.371  
  20560785.898   110024922.005    20560790.586    85574995.005    20560790.082  
  20560784.527  
  22315461.359   117268579.285    22315470.332    91378155.7504   22315470.504  
                
  22955733.398   122496229.033                                                  
  22955731.051  
  21954880.789   115373694.714    21954890.590    89901657.4514   21954890.336  
                
  20427546.430   107347491.849    20427552.520    83647517.0264   20427552.434  
                
  24743728.258   130029168.721    24743734.473   101321450.0894                 
                
 21  8  6  0 54  0.0000000  0 16R23G22G14G19R13R 5G 6G24R12R22R21G 3
                                R 6G 1G17G21
  23479006.602   125596851.986                                                  
  23479004.672  
  22810652.945   119870808.532    22810657.152    93405867.8724                 
                
  20989320.188   110299633.464    20989327.113    85947796.1774   20989326.984  
                
  20679292.602   108670432.953    20679297.242    84678278.8574                 
                
  21285472.891   113663250.526    21285477.305    88404770.526    21285477.047  
  21285471.477  
  22697265.961   121329912.193    22697271.648    94367728.118    22697271.637  
  22697265.004  
  23074797.602   121258887.790    23074807.477    94487494.6894   23074807.742  
                
  23259741.086   122230768.392    23259750.281    95244794.9174   23259750.312  
                
  19612266.500   104765194.654    19612272.695    81484115.535    19612271.773  
  19612265.875  
  19352779.688   103306471.355    19352783.559    80349495.811    19352783.277  
  19352778.980  
  20565816.453   110051841.544    20565821.148    85595932.422    20565820.641  
  20565815.098  
  22313101.633   117256178.900    22313110.605    91368493.1224   22313110.785  
                
  22949833.961   122464748.855                                                  
  22949831.641  
  21960726.016   115404411.611    21960735.840    89925592.6774   21960735.570  
                
  20427558.375   107347554.637    20427564.469    83647565.9514   20427564.379  
                
  24749855.406   130061367.062    24749861.625   101346539.6834                 
                
 21  8  6  0 54 10.0000000  0 16R23G22G14G19R13R 5G 6G24R12R22R21G 3
                                R 6G 1G17G21
  23472012.891   125559440.437                                                  
  23472010.832  
  22811812.695   119876903.076    22811816.906    93410616.8674                 
                
  20993362.516   110320875.987    20993369.453    85964348.7784   20993369.312  
                
  20675809.945   108652131.412    20675814.590    84664017.9144                 
                
  21280024.766   113634157.826    21280029.203    88382142.877    21280028.980  
  21280023.371  
  22698075.125   121334237.704    22698080.844    94371092.425    22698080.824  
  22698074.215  
  23068245.227   121224455.071    23068255.238    94460664.0504   23068255.457  
                
  23259366.195   122228798.245    23259375.301    95243259.7304   23259375.371  
                
  19614387.977   104776527.169    19614394.156    81492929.705    19614393.223  
  19614387.270  
  19351590.773   103300124.878    19351594.680    80344559.675    19351594.387  
  19351590.043  
  20570853.727   110078796.985    20570858.426    85616897.761    20570857.910  
  20570852.367  
  22310754.492   117243844.653    22310763.465    91358882.0304   22310763.660  
                
  22943944.156   122433319.748                                                  
  22943941.816  
  21966578.281   115435165.409    21966588.129    89949556.6624   21966587.836  
                
  20427577.320   107347654.203    20427583.426    83647643.5384   20427583.328  
                
  24755983.727   130093571.502    24755989.949   101371634.0444                 
                
 21  8  6  0 54 20.0000000  0 16R23G22G14G19R13R 5G 6G24R12R22R21G 3
                                R 6G 1G17G21
  23465022.477   125522046.595                                                  
  23465020.309  
  22812984.625   119883061.599    22812988.859    93415415.7244                 
                
  20997414.555   110342169.534    20997421.504    85980941.1464   20997421.355  
                
  20672334.859   108633869.720    20672339.523    84649788.0324                 
                
  21274588.734   113605129.756    21274593.219    88359565.497    21274592.992  
  21274587.324  
  22698900.945   121338652.168    22698906.691    94374525.906    22698906.668  
  22698900.008  
  23061697.906   121190048.580    23061707.895    94433853.7864   23061708.105  
                
  23259003.977   122226894.771    23259012.988    95241776.5074   23259013.113  
                
  19616526.055   104787948.364    19616532.211    81501812.846    19616531.285  
  19616525.262  
  19350413.195   103293838.860    19350417.117    80339670.550    19350416.840  
  19350412.449  
  20575897.633   110105787.878    20575902.332    85637890.677    20575901.820  
  20575896.262  
  22308419.898   117231576.270    22308428.863    91349322.2584   22308429.062  
                
  22938063.875   122401941.467                                                  
  22938061.582  
  21972437.484   115465955.634    21972447.367    89973549.0394   21972447.055  
                
  20427603.211   107347790.288    20427609.336    83647749.5834   20427609.238  
                
  24762113.102   130125781.535    24762119.320   101396732.7574                 
                
 21  8  6  0 54 30.0000000  0 16R23G22G14G19R13R 5G 6G24R12R22R21G 3
                                R 6G 1G17G21
  23458035.367   125484670.450                                                  
  23458033.035  
  22814168.719   119889284.009    22814172.961    93420264.3394                 
                
  21001476.242   110363513.885    21001483.219    85997573.1054   21001483.059  
                
  20668867.359   108615647.919    20668872.023    84635589.2254                 
                
  21269164.812   113576166.324    21269169.344    88337038.387    21269169.113  
  21269163.406  
  22699743.344   121343155.344    22699749.117    94378028.373    22699749.078  
  22699742.359  
  23055155.492   121155668.090    23055165.496    94407063.8274   23055165.730  
                
  23258654.422   122225057.813    23258663.324    95240345.1024   23258663.516  
                
  19618680.711   104799458.126    19618686.852    81510764.871    19618685.918  
  19618679.840  
  19349246.914   103287613.230    19349250.863    80334828.402    19349250.582  
  19349246.141  
  20580948.086   110132813.907    20580952.789    85658910.913    20580952.289  
  20580946.719  
  22306097.812   117219373.639    22306106.773    91339813.7214   22306106.984  
                
  22932193.086   122370613.848                                                  
  22932190.801  
  21978303.555   115496782.041    21978313.461    89997569.6014   21978313.133  
                
  20427636.023   107347962.662    20427642.148    83647883.8904   20427642.043  
                
  24768243.500   130157996.936    24768249.719   101421835.6484                 
                
 21  8  6  0 54 40.0000000  0 16R23G22G14G19R13R 5G 6G24R12R22R21G 3
                                R 6G 1G17G21
  23451051.555   125447312.009                                                  
  23451049.172  
  22815364.922   119895570.027    22815369.168    93425162.5204                 
                
  21005547.586   110384908.852    21005554.559    86014244.4934   21005554.375  
                
  20665407.438   108597465.856    20665412.098    84621421.3814                 
                
  21263752.938   113547267.263    21263757.520    88314561.351    21263757.305  
  21263751.539  
  22700602.320   121347747.064    22700608.105    94381599.713    22700608.074  
  22700601.301  
  23048618.047   121121313.616    23048628.121    94380294.1164   23048628.293  
                
  23258317.492   122223287.186    23258326.289    95238965.3784   23258326.535  
                
  19620851.875   104811056.069    19620858.000    81519785.486    19620857.066  
  19620850.934  
  19348091.922   103281447.834    19348095.883    80330033.098    19348095.629  
  19348091.109  
  20586005.070   110159874.830    20586009.785    85679958.294    20586009.277  
  20586003.699  
  22303788.211   117207236.654    22303797.188    91330356.3384   22303797.402  
                
  22926330.891   122339336.712                                                  
  22926329.453  
  21984176.469   115527644.338    21984186.391    90021618.1334   21984186.055  
                
  20427675.695   107348171.119    20427681.832    83648046.3214   20427681.723  
                
  24774374.867   130190217.417    24774381.090   101446942.5074                 
                
 21  8  6  0 54 50.0000000  0 16R23G22G14G19R13R 5G 6G24R12R22R21G 3
                                R 6G 1G17G21
  23444071.172   125409971.794                                                  
  23444068.758  
  22816573.320   119901920.213    22816577.562    93430110.7174                 
                
  21009628.641   110406354.994    21009635.645    86030955.7804   21009635.449  
                
  20661955.188   108579324.225    20661959.859    84607285.0464                 
                
  21258353.320   113518433.677    21258357.934    88292135.238    21258357.715  
  21258351.914  
  22701477.992   121352428.098    22701483.793    94385240.519    22701483.777  
  22701476.961  
  23042085.656   121086985.773    23042095.695    94353545.1734   23042095.898  
                
  23257993.297   122221583.538    23258002.016    95237637.8664   23258002.289  
                
  19623039.672   104822742.918    19623045.793    81528875.258    19623044.855  
  19623038.676  
  19346948.328   103275343.259    19346952.320    80325285.103    19346952.082  
  19346947.480  
  20591068.703   110186971.308    20591073.414    85701033.321    20591072.910  
  20591067.336  
  22301491.242   117195166.016    22301500.227    91320950.6444   22301500.449  
                
  22920479.102   122308111.637                                                  
  22920477.684  
  21990056.305   115558543.084    21990066.238    90045695.0634   21990065.895  
                
  20427722.344   107348416.313    20427728.504    83648237.3874   20427728.391  
                
  24780507.320   130222443.623    24780513.562   101472053.8154                 
                
 21  8  6  0 55  0.0000000  0 16R23G22G14G19R13R 5G 6G24R12R22R21G 3
                                R 6G 1G17G21
  23437094.141   125372649.578                                                  
  23437091.711  
  22817793.875   119908334.238    22817798.082    93435108.6564                 
                
  21013719.383   110427851.905    21013726.383    86047706.6014   21013726.188  
                
  20658510.578   108561222.624    20658515.238    84593179.9014                 
                
  21252965.945   113489665.333    21252970.582    88269759.853    21252970.336  
  21252964.512  
  22702370.297   121357197.882    22702376.086    94388950.347    22702376.066  
  22702369.281  
  23035558.305   121052684.311    23035568.344    94326816.7574   23035568.547  
                
  23257681.789   122219946.477    23257690.453    95236362.2194   23257690.730  
                
  19625244.047   104834518.184    19625250.148    81538033.785    19625249.211  
  19625242.988  
  19345816.047   103269299.067    19345820.059    80320584.068    19345819.852  
  19345815.152  
  20596138.867   110214102.753    20596143.578    85722135.555    20596143.070  
  20596137.512  
  22299206.836   117183161.383    22299215.832    91311596.3924   22299216.059  
                
  22914637.438   122276937.585                                                  
  22914635.957  
  21995943.000   115589477.771    21995952.938    90069800.0004   21995952.586  
                
  20427775.945   107348697.914    20427782.102    83648456.8054   20427781.977  
                
  24786640.773   130254675.099    24786647.039   101497169.2464                 
                
 21  8  6  0 55 10.0000000  0 16R23G22G14G19R13R 5G 6G24R12R22R21G 3
                                R 6G 1G17G21
  23430120.414   125335345.061                                                  
  23430118.023  
  22819026.531   119914811.929    22819030.699    93440156.2104                 
                
  21017819.711   110449399.297    21017826.727    86064496.7804   21017826.516  
                
  20655073.547   108543160.912    20655078.211    84579105.8364                 
                
  21247590.703   113460961.886    21247595.379    88247434.960    21247595.137  
  21247589.281  
  22703279.133   121362056.167    22703284.898    94392729.012    22703284.879  
  22703278.133  
  23029035.906   121018409.016    23029045.973    94300108.7724   23029046.184  
                
  23257382.898   122218375.781    23257391.527    95235138.3004   23257391.816  
                
  19627464.922   104846381.724    19627471.016    81547260.980    19627470.086  
  19627463.820  
  19344695.047   103263315.135    19344699.082    80315929.904    19344698.844  
  19344694.102  
  20601215.508   110241268.911    20601220.223    85743264.788    20601219.711  
  20601214.148  
  22296934.961   117171222.624    22296943.977    91302293.4724   22296944.203  
                
  22908805.344   122245815.015                                                  
  22908803.812  
  22001836.461   115620448.117    22001846.402    90093932.7264   22001846.051  
                
  20427836.398   107349015.651    20427842.570    83648704.3984   20427842.438  
                
  24792775.172   130286911.587    24792781.484   101522288.5894                 
                
 21  8  6  0 55 20.0000000  0 16R23G22G14G19R13R 5G 6G24R12R22R21G 3
                                R 6G 1G17G21
  23423150.117   125298058.712                                                  
  23423147.742  
  22820271.367   119921353.534    22820275.492    93445253.5554                 
                
  21021929.727   110470997.525    21021936.738    86081326.5544   21021936.523  
                
  20651644.164   108525139.427    20651648.836    84565063.1324                 
                
  21242227.750   113432323.992    21242232.457    88225161.042    21242232.230  
  21242226.293  
  22704204.625   121367003.329    22704210.340    94396576.772    22704210.316  
  22704203.629  
  23022518.641   120984160.425    23022528.625    94273421.5384   23022528.875  
                
  23257096.703   122216871.794    23257105.332    95233966.3654   23257105.629  
                
  19629702.352   104858333.638    19629708.430    81556556.902    19629707.508  
  19629701.219  
  19343585.430   103257391.890    19343589.480    80311322.934    19343589.262  
  19343584.449  
  20606298.695   110268470.034    20606303.418    85764421.217    20606302.918  
  20606297.344  
  22294675.703   117159350.154    22294684.727    91293042.1964   22294684.965  
                
  22902982.906   122214744.040                                                  
  22902980.898  
  22007736.766   115651454.372    22007746.723    90118093.4374   22007746.359  
                
  20427903.820   107349369.933    20427910.000    83648980.4654   20427909.871  
                
  24798910.602   130319153.367    24798916.918   101547412.0224                 
                
 21  8  6  0 55 30.0000000  0 16R23G22G14G19R13R 5G 6G24R12R22R21G 3
                                R 6G 1G17G21
  23416183.148   125260790.327                                                  
  23416180.797  
  22821528.305   119927958.767    22821532.410    93450400.4854                 
                
  21026049.344   110492646.240    21026056.352    86098195.6714   21026056.145  
                
  20648222.406   108507158.026    20648227.098    84551051.6634                 
                
  21236877.000   113403751.364    21236881.766    88202937.901    21236881.547  
  21236875.523  
  22705146.680   121372039.146    22705152.352    94400493.514    22705152.309  
  22705145.727  
  23016006.312   120949938.197    23016016.395    94246754.9214   23016016.645  
                
  23256823.156   122215434.284    23256831.812    95232846.2224   23256832.109  
                
  19631956.297   104870373.798    19631962.363    81565921.461    19631961.445  
  19631955.133  
  19342487.062   103251528.775    19342491.141    80306762.740    19342490.918  
  19342486.055  
  20611388.336   110295705.728    20611393.062    85785604.525    20611392.570  
  20611387.000  
  22292429.016   117147543.785    22292438.059    91283842.4354   22292438.293  
                
  22897169.938   122183724.678                                                  
  22897167.629  
  22013643.820   115682496.172    22013653.789    90142281.8484   22013653.426  
                
  20427978.133   107349760.499    20427984.312    83649284.8044   20427984.180  
                
  24805046.961   130351400.137    24805053.312   101572539.3764                 
                
 21  8  6  0 55 40.0000000  0 16R23G22G14G19R13R 5G 6G24R12R22R21G 3
                                R 6G 1G17G21
  23409219.656   125223540.466                                                  
  23409217.344  
  22822797.430   119934628.075    22822801.543    93455597.3474                 
                
  21030178.656   110514345.896    21030185.660    86115104.4894   21030185.438  
                
  20644808.367   108489217.186    20644813.078    84537071.7964                 
                
  21231538.609   113375244.741    21231543.453    88180766.110    21231543.242  
  21231537.125  
  22706105.383   121377163.988    22706111.031    94404479.507    22706110.973  
  22706104.488  
  23009499.211   120915743.015    23009509.148    94220109.2944   23009509.465  
                
  23256562.344   122214063.707    23256571.066    95231778.2504   23256571.352  
                
  19634226.820   104882502.536    19634232.898    81575354.926    19634231.977  
  19634225.648  
  19341400.078   103245726.378    19341404.164    80302249.761    19341403.953  
  19341399.027  
  20616484.523   110322976.435    20616489.246    85806815.073    20616488.750  
  20616483.203  
  22290195.008   117135804.009    22290204.055    91274694.5604   22290204.297  
                
  22891366.789   122152757.731                                                  
  22891363.898  
  22019557.727   115713573.878    22019567.691    90166498.2294   22019567.324  
                
  20428059.438   107350187.761    20428065.617    83649617.7364   20428065.484  
                
  24811184.352   130383652.326    24811190.750   101597670.9494                 
                
 21  8  6  0 55 50.0000000  0 16R23G22G14G19R13R 5G 6G24R12R22R21G 3
                                R 6G 1G17G21
  23402259.508   125186308.551                                                  
  23402257.207  
  22824078.648   119941360.861    22824082.750    93460843.6664                 
                
  21034317.555   110536095.855    21034324.543    86132052.5014   21034324.324  
                
  20641401.961   108471316.377    20641406.684    84523123.1154                 
                
  21226212.555   113346803.940    21226217.449    88158645.501    21226217.242  
  21226211.039  
  22707080.664   121382377.355    22707086.273    94408534.347    22707086.227  
  22707079.816  
  23002997.078   120881574.222    23003007.047    94193484.3054   23003007.398  
                
  23256314.164   122212759.470    23256322.945    95230761.9594   23256323.211  
                
  19636513.828   104894719.249    19636519.902    81584856.806    19636518.973  
  19636512.648  
  19340324.352   103239984.065    19340328.449    80297783.526    19340328.250  
  19340323.250  
  20621587.141   110350281.526    20621591.855    85828052.363    20621591.367  
  20621585.828  
  22287973.578   117124130.322    22287982.645    91265598.1894   22287982.879  
                
  22885573.383   122121842.756                                                  
  22885570.492  
  22025478.328   115744686.801    22025488.281    90190742.0604   22025487.926  
                
  20428147.633   107350651.178    20428153.805    83649978.8394   20428153.664  
                
  24817322.672   130415909.290    24817329.070   101622806.2264                 
                
 21  8  6  0 56  0.0000000  0 16R23G22G14G19R13R 5G 6G24R12R22R21G 3
                                R 6G 1G17G21
  23395302.820   125149095.112                                                  
  23395300.500  
  22825372.016   119948157.470    22825376.105    93466139.7144                 
                
  21038466.062   110557896.405    21038473.039    86149039.9404   21038472.824  
                
  20638003.242   108453456.006    20638007.969    84509205.9484                 
                
  21220898.891   113318429.247    21220903.805    88136576.299    21220903.617  
  21220897.324  
  22708072.531   121387679.480    22708078.133    94412658.218    22708078.074  
  22708071.707  
  22996500.109   120847432.411    22996510.098    94166880.2924   22996510.422  
                
  23256078.672   122211521.934    23256087.500    95229797.6334   23256087.770  
                
  19638817.375   104907024.340    19638823.449    81594427.423    19638822.535  
  19638816.215  
  19339259.953   103234302.244    19339264.062    80293364.336    19339263.871  
  19339258.809  
  20626696.227   110377621.252    20626700.945    85849316.590    20626700.457  
  20626694.930  
  22285764.805   117112523.165    22285773.883    91256553.6554   22285774.121  
                
  22879789.758   122090980.214                                                  
  22879786.633  
  22031405.695   115775835.244    22031415.621    90215013.5604   22031415.273  
                
  20428242.766   107351151.092    20428248.934    83650368.3804   20428248.785  
                
  24823461.953   130448171.384    24823468.348   101647945.4984                 
                
 21  8  6  0 56 10.0000000  0 16R23G22G14G19R13R 5G 6G24R12R22R21G 3
                                R 6G 1G17G21
  23388349.469   125111899.494                                                  
  23388347.148  
  22826677.391   119955017.361    22826681.465    93471485.0894                 
                
  21042624.078   110579746.989    21042631.047    86166066.3684   21042630.832  
                
  20634612.094   108435635.513    20634616.836    84495319.8594                 
                
  21215597.477   113290120.114    21215602.410    88114558.091    21215602.234  
  21215595.898  
  22709080.914   121393069.921    22709086.520    94416850.785    22709086.457  
  22709080.070  
  22990008.141   120813316.978    22990018.047    94140296.8534   22990018.422  
                
  23255855.773   122210350.568    23255864.625    95228884.8744   23255864.918  
                
  19641137.320   104919417.132    19641143.410    81604066.259    19641142.512  
  19641136.188  
  19338206.773   103228680.358    19338210.895    80288991.762    19338210.703  
  19338205.598  
  20631811.641   110404994.905    20631816.375    85870607.209    20631815.887  
  20631810.344  
  22283568.594   117100982.049    22283577.664    91247560.5754   22283577.914  
                
  22874014.930   122060169.642                                                  
  22874013.219  
  22037339.672   115807018.531    22037349.570    90239312.2184   22037349.242  
                
  20428344.719   107351686.949    20428350.895    83650785.9374   20428350.746  
                
  24829602.086   130480438.043    24829608.496   101673088.3334                 
                
 21  8  6  0 56 20.0000000  0 16R23G22G14G19R13R 5G 6G24R12R22R21G 3
                                R 6G 1G17G21
  23381399.664   125074722.793                                                  
  23381397.328  
  22827995.016   119961941.463    22827999.055    93476880.4914                 
                
  21046791.828   110601648.549    21046798.766    86183132.5044   21046798.562  
                
  20631228.750   108417855.900    20631233.488    84481465.6254                 
                
  21210308.555   113261877.544    21210313.492    88092591.659    21210313.336  
  21210306.961  
  22710106.016   121398549.668    22710111.633    94421112.809    22710111.566  
  22710105.117  
  22983521.438   120779229.064    22983531.328    94113734.8414   22983531.715  
                
  23255645.656   122209246.327    23255654.512    95228024.4324   23255654.855  
                
  19643473.875   104931898.523    19643479.984    81613774.005    19643479.074  
  19643472.773  
  19337165.031   103223119.414    19337169.172    80284666.591    19337168.949  
  19337163.816  
  20636933.609   110432403.506    20636938.344    85891925.005    20636937.855  
  20636932.262  
  22281385.164   117089508.017    22281394.246    91238619.7804   22281394.504  
                
  22868251.055   122029412.169                                                  
  22868249.285  
  22043280.477   115838237.582    22043290.352    90263638.7534   22043290.027  
                
  20428453.734   107352259.796    20428459.918    83651232.3144   20428459.766  
                
  24835743.273   130512710.100    24835749.719   101698235.3944                 
                
 21  8  6  0 56 30.0000000  0 16R23G22G14G19R13R 5G 6G24R12R22R21G 3
                                R 6G 1G17G21
  23374453.219   125037564.154                                                  
  23374450.824  
  22829324.664   119968928.779    22829328.691    93482325.1434                 
                
  21050969.062   110623600.017    21050975.984    86200237.5454   21050975.793  
                
  20627853.008   108400116.279    20627857.750    84467642.5534                 
                
  21205032.008   113233701.123    21205036.949    88070676.673    21205036.789  
  21205030.383  
  22711147.594   121404117.444    22711153.211    94425443.301    22711153.133  
  22711146.625  
  22977039.742   120745167.654    22977049.586    94087193.5164   22977050.023  
                
  23255448.117   122208208.238    23255456.969    95227215.5264   23255457.359  
                
  19645826.836   104944467.568    19645832.961    81623549.925    19645832.043  
  19645825.762  
  19336134.477   103217618.259    19336138.625    80280387.917    19336138.434  
  19336133.234  
  20642061.898   110459845.984    20642066.637    85913269.148    20642066.137  
  20642060.504  
  22279214.312   117078100.129    22279223.398    91229730.5254   22279223.668  
                
  22862496.875   121998707.060                                                  
  22862495.000  
  22049227.859   115869491.270    22049237.727    90287992.2634   22049237.410  
                
  20428569.594   107352868.612    20428575.777    83651706.7144   20428575.621  
                
  24841885.266   130544986.441    24841891.742   101723385.7664                 
                
 21  8  6  0 56 40.0000000  0 16R23G22G14G19R13R 5G 6G24R12R22R21G 3
                                R 6G 1G17G21
  23367510.266   125000424.239                                                  
  23367507.805  
  22830666.477   119975980.046    22830670.531    93487819.6334                 
                
  21055155.922   110645602.106    21055162.820    86217382.0184   21055162.645  
                
  20624485.008   108382417.342    20624489.758    84453851.1784                 
                
  21199767.992   113205591.656    21199772.953    88048813.781    21199772.797  
  21199766.336  
  22712205.797   121409774.158    22712211.418    94429842.966    22712211.352  
  22712204.766  
  22970563.297   120711133.655    22970573.168    94060673.5064   22970573.574  
                
  23255263.289   122207236.977    23255272.156    95226458.7004   23255272.586  
                
  19648196.328   104957124.936    19648202.473    81633394.536    19648201.566  
  19648195.293  
  19335115.234   103212177.550    19335119.410    80276156.264    19335119.234  
  19335113.965  
  20647196.617   110487322.948    20647201.383    85934640.122    20647200.879  
  20647195.195  
  22277056.188   117066759.183    22277065.305    91220893.4354   22277065.570  
                
  22856752.750   121968055.389                                                  
  22856750.910  
  22055181.953   115900780.243    22055191.828    90312373.2804   22055191.508  
                
  20428692.422   107353514.089    20428698.613    83652209.6904   20428698.457  
                
  24848028.211   130577267.788    24848034.742   101748540.0614                 
                
 21  8  6  0 56 50.0000000  0 16R23G22G14G19R13R 5G 6G24R12R22R21G 3
                                R 6G 1G17G21
  23360570.773   124963302.865                                                  
  23360568.184  
  22832020.414   119983095.003    22832024.508    93493363.7474                 
                
  21059352.359   110667654.523    21059359.234    86234565.7144   21059359.070  
                
  20621124.711   108364758.973    20621129.469    84440091.4214                 
                
  21194516.477   113177548.903    21194521.434    88027002.754    21194521.301  
  21194514.773  
  22713280.578   121415519.523    22713286.223    94434311.596    22713286.168  
  22713279.504  
  22964091.961   120677126.765    22964101.844    94034174.6724   22964102.230  
                
  23255091.148   122206332.388    23255100.047    95225753.8274   23255100.496  
                
  19650582.297   104969870.358    19650588.461    81643307.634    19650587.559  
  19650581.309  
  19334107.344   103206797.397    19334111.535    80271971.705    19334111.344  
  19334106.066  
  20652337.727   110514834.024    20652342.520    85956037.622    20652342.008  
  20652336.273  
  22274910.773   117055485.002    22274919.914    91212108.3604   22274920.160  
                
  22851018.484   121937456.821                                                  
  22851015.949  
  22061142.703   115932104.170    22061152.598    90336781.5264   22061152.254  
                
  20428822.195   107354196.091    20428828.395    83652741.1194   20428828.227  
                
  24854172.055   130609553.901    24854178.633   101773698.0644                 
                
 21  8  6  0 57  0.0000000  0 16R23G22G14G19R13R 5G 6G24R12R22R21G 3
                                R 6G 1G17G21
  23353634.695   124926199.757                                                  
  23353631.980  
  22833386.398   119990273.227    22833390.547    93498957.1614                 
                
  21063558.297   110689756.825    21063565.156    86251788.2854   21063565.004  
                
  20617772.094   108347140.842    20617776.852    84426363.0164                 
                
  21189277.438   113149572.718    21189282.383    88005243.504    21189282.258  
  21189275.684  
  22714371.922   121421353.296    22714377.562    94438848.965    22714377.496  
  22714370.820  
  22957625.812   120643146.791    22957635.551    94007696.7524   22957636.035  
                
  23254931.617   122205494.003    23254940.562    95225100.5384   23254941.012  
                
  19652984.680   104982703.421    19652990.875    81653288.899    19652989.977  
  19652983.746  
  19333110.680   103201477.162    19333114.887    80267833.750    19333114.703  
  19333109.387  
  20657485.141   110542378.851    20657489.949    85977461.363    20657489.445  
  20657483.684  
  22272778.008   117044277.245    22272787.180    91203375.0484   22272787.406  
                
  22845294.219   121906911.409                                                  
  22845292.223  
  22067110.016   115963462.552    22067119.938    90361216.6184   22067119.570  
                
  20428958.828   107354914.090    20428965.031    83653300.6004   20428964.867  
                
  24860316.719   130641844.258    24860323.355   101798859.3744                 
                
 21  8  6  0 57 10.0000000  0 16R23G22G14G19R13R 5G 6G24R12R22R21G 3
                                R 6G 1G17G21
  23346702.117   124889115.314                                                  
  23346699.305  
  22834764.484   119997515.068    22834768.676    93504600.1474                 
                
  21067773.781   110711909.335    21067780.621    86269049.9754   21067780.480  
                
  20614427.188   108329563.286    20614431.938    84412666.2294                 
                
  21184050.898   113121663.331    21184055.832    87983536.218    21184055.723  
  21184049.141  
  22715479.781   121427275.535    22715485.445    94443455.158    22715485.371  
  22715478.691  
  22951164.789   120609194.094    22951174.621    93981240.1424   22951175.078  
                
  23254784.758   122204722.247    23254793.797    95224499.1744   23254794.215  
                
  19655403.516   104995624.368    19655409.730    81663338.523    19655408.836  
  19655402.621  
  19332125.305   103196217.137    19332129.512    80263742.619    19332129.336  
  19332123.969  
  20662638.898   110569957.626    20662643.723    85998911.515    20662643.227  
  20662637.445  
  22270657.969   117033136.349    22270667.152    91194693.8264   22270667.355  
                
  22839580.016   121876419.301                                                  
  22839578.352  
  22073083.938   115994855.676    22073093.879    90385678.7854   22073093.496  
                
  20429102.383   107355668.469    20429108.586    83653888.4284   20429108.430  
                
  24866462.266   130674139.305    24866468.953   101824024.3394                 
                
 21  8  6  0 57 20.0000000  0 16R23G22G14G19R13R 5G 6G24R12R22R21G 3
                                R 6G 1G17G21
  23339772.961   124852049.299                                                  
  23339770.098  
  22836154.609   120004820.217    22836158.820    93510292.4644                 
                
  21071998.766   110734111.747    21072005.590    86286350.5554   21072005.457  
                
  20611089.961   108312026.065    20611094.695    84399000.8734                 
                
  21178836.906   113093820.876    21178841.781    87961880.972    21178841.707  
  21178835.121  
  22716604.188   121433286.084    22716609.848    94448130.023    22716609.773  
  22716603.098  
  22944708.977   120575268.514    22944718.738    93954804.6154   22944719.207  
                
  23254650.523   122204016.804    23254659.664    95223949.4594   23254660.023  
                
  19657838.750   105008632.947    19657844.984    81673456.304    19657844.098  
  19657837.902  
  19331151.164   103191017.113    19331155.387    80259698.163    19331155.188  
  19331149.797  
  20667798.922   110597569.909    20667803.742    86020387.730    20667803.258  
  20667797.457  
  22268550.617   117022062.113    22268559.809    91186064.5574   22268560.012  
                
  22833875.766   121845980.426                                                  
  22833874.285  
  22079064.406   116026283.179    22079074.355    90410167.7424   22079073.965  
                
  20429252.820   107356459.020    20429259.023    83654504.4424   20429258.863  
                
  24872608.641   130706438.670    24872615.363   101849192.6704                 
                
 21  8  6  0 57 30.0000000  0 16R23G22G14G19R13R 5G 6G24R12R22R21G 3
                                R 6G 1G17G21
  23332847.383   124815002.390                                                  
  23332844.590  
  22837556.859   120012189.121    22837561.078    93516034.4634                 
                
  21076233.328   110756364.511    21076240.141    86303690.3614   21076240.020  
                
  20607760.516   108294529.805    20607765.234    84385367.4324                 
                
  21173635.516   113066045.802    21173640.344    87940278.140    21173640.234  
  21173633.719  
  22717745.195   121439385.405    22717750.871    94452873.923    22717750.781  
  22717744.137  
  22938258.383   120541370.598    22938268.160    93928390.6934   22938268.629  
                
  23254529.008   122203378.213    23254538.250    95223451.8484   23254538.539  
                
  19660290.461   105021729.579    19660296.734    81683642.571    19660295.836  
  19660289.656  
  19330188.297   103185877.372    19330192.543    80255700.592    19330192.355  
  19330186.926  
  20672965.320   110625216.382    20672970.156    86041890.539    20672969.672  
  20672963.848  
  22266456.031   117011055.091    22266465.230    91177487.6614   22266465.430  
                
  22828181.672   121815595.708                                                  
  22828180.320  
  22085051.469   116057745.467    22085061.422    90434683.8094   22085061.027  
                
  20429410.234   107357286.251    20429416.445    83655149.0364   20429416.285  
                
  24878755.906   130738742.765    24878762.680   101874364.6754                 
                
 21  8  6  0 57 40.0000000  0 16R23G22G14G19R13R 5G 6G24R12R22R21G 3
                                R 6G 1G17G21
  23325925.320   124777974.099                                                  
  23325922.641  
  22838971.164   120019621.303    22838975.383    93521825.7704                 
                
  21080477.391   110778667.191    21080484.195    86321069.0734   21080484.094  
                
  20604438.812   108277074.156    20604443.504    84371765.6374                 
                
  21168446.742   113038338.034    21168451.512    87918727.661    21168451.391  
  21168444.906  
  22718902.742   121445573.072    22718908.426    94457686.538    22718908.344  
  22718901.750  
  22931813.039   120507500.074    22931822.773    93901998.0714   22931823.234  
                
  23254420.117   122202806.020    23254429.488    95223005.9934   23254429.688  
                
  19662758.602   105034913.863    19662764.883    81693897.007    19662763.980  
  19662757.816  
  19329236.727   103180797.833    19329240.988    80251749.849    19329240.801  
  19329235.352  
  20678138.000   110652896.388    20678142.840    86063419.424    20678142.352  
  20678136.531  
  22264374.203   117000114.971    22264383.383    91168962.8994   22264383.586  
                
  22822497.695   121785264.706                                                  
  22822496.234  
  22091045.078   116089242.041    22091055.023    90459226.5884   22091054.648  
                
  20429574.570   107358149.845    20429580.789    83655821.9734   20429580.637  
                
  24884904.008   130771051.142    24884910.820   101899540.0274                 
                
 21  8  6  0 57 50.0000000  0 16R23G22G14G19R13R 5G 6G24R12R22R21G 3
                                R 6G 1G17G21
  23319006.766   124740964.657                                                  
  23319004.254  
  22840397.555   120027117.029    22840401.805    93527666.5934                 
                
  21084730.969   110801019.894    21084737.770    86338486.7584   21084737.676  
                
  20601124.859   108259659.256    20601129.523    84358195.5904                 
                
  21163270.633   113010697.877    21163275.320    87897229.759    21163275.176  
  21163268.773  
  22720076.836   121451849.271    22720082.555    94462568.019    22720082.473  
  22720075.910  
  22925372.930   120473657.111    22925382.594    93875626.9404   22925383.109  
                
  23254323.906   122202300.412    23254333.398    95222612.0154   23254333.508  
                
  19665243.164   105048185.940    19665249.473    81704219.733    19665248.566  
  19665242.402  
  19328296.461   103175778.613    19328300.730    80247846.010    19328300.578  
  19328295.066  
  20683316.953   110680610.026    20683321.797    86084974.467    20683321.309  
  20683315.523  
  22262305.125   116989241.925    22262314.285    91160490.3994   22262314.500  
                
  22816823.844   121754987.718                                                  
  22816822.375  
  22097045.227   116120772.969    22097055.164    90483796.1354   22097054.789  
                
  20429745.844   107359049.892    20429752.066    83656523.3054   20429751.918  
                
  24891052.945   130803363.969    24891059.766   101924718.8354                 
                
 21  8  6  0 58  0.0000000  0 16R23G22G14G19R13R 5G 6G24R12R22R21G 3
                                R 6G 1G17G21
  23312091.719   124703973.963                                                  
  23312089.398  
  22841835.984   120034676.075    22841840.281    93533556.7574                 
                
  21088994.016   110823422.377    21089000.812    86355943.2304   21089000.730  
                
  20597818.633   108242284.951    20597823.262    84344657.1654                 
                
  21158107.164   112983125.354    21158111.797    87875784.472    21158111.637  
  21158105.289  
  22721267.453   121458213.812    22721273.211    94467518.213    22721273.156  
  22721266.582  
  22918938.008   120439841.588    22918947.773    93849277.2164   22918948.230  
                
  23254240.312   122201861.169    23254249.922    95222269.7464   23254249.965  
                
  19667744.078   105061545.422    19667750.402    81714610.434    19667749.488  
  19667743.328  
  19327367.375   103170819.181    19327371.641    80243988.680    19327371.492  
  19327365.980  
  20688502.117   110708356.942    20688506.957    86106555.400    20688506.473  
  20688500.723  
  22260248.773   116978435.830    22260257.926    91152070.0734   22260258.152  
                
  22811160.109   121724764.928                                                  
  22811158.645  
  22103051.836   116152337.954    22103061.789    90508392.2144   22103061.402  
                
  20429924.000   107359986.157    20429930.230    83657252.8564   20429930.082  
                
  24897202.664   130835680.925    24897209.496   101949900.8594                 
                
 21  8  6  0 58 10.0000000  0 16R23G22G14G19R13R 5G 6G24R12R22R21G 3
                                R 6G 1G17G21
  23305180.273   124667002.330                                                  
  23305178.102  
  22843286.531   120042298.666    22843290.852    93539496.4284                 
                
  21093266.594   110845874.849    21093273.395    86373438.6594   21093273.328  
                
  20594520.203   108224951.523    20594524.797    84331150.6074                 
                
  21152956.422   112955620.597    21152960.984    87854391.873    21152960.828  
  21152954.527  
  22722474.656   121464666.859    22722480.426    94472537.232    22722480.387  
  22722473.816  
  22912508.445   120406053.879    22912518.090    93822949.1164   22912518.609  
                
  23254169.422   122201488.582    23254179.148    95221979.4114   23254179.117  
                
  19670261.469   105074992.767    19670267.801    81725069.469    19670266.883  
  19670260.730  
  19326449.633   103165920.143    19326453.898    80240178.310    19326453.762  
  19326448.246  
  20693693.602   110736137.549    20693698.434    86128162.532    20693697.949  
  20693692.238  
  22258205.258   116967697.045    22258214.398    91143702.1964   22258214.621  
                
  22805506.688   121694596.902                                                  
  22805505.188  
  22109064.992   116183937.162    22109074.945    90533014.9534   22109074.559  
                
  20430109.125   107360958.909    20430115.371    83658010.8474   20430115.219  
                
  24903353.219   130868002.206    24903360.051   101975086.2594                 
                
 21  8  6  0 58 20.0000000  0 16R23G22G14G19R13R 5G 6G24R12R22R21G 3
                                R 6G 1G17G21
  23298272.359   124630049.751                                                  
  23298270.340  
  22844749.125   120049984.659    22844753.469    93545485.5064                 
                
  21097548.648   110868377.204    21097555.457    86390972.9574   21097555.395  
                
  20591229.508   108207658.921    20591234.082    84317675.8684                 
                
  21147818.383   112928183.879    21147822.898    87833052.210    21147822.750  
  21147816.512  
  22723698.344   121471208.212    22723704.129    94477624.952    22723704.121  
  22723697.527  
  22906084.086   120372293.911    22906093.824    93796642.6974   22906094.316  
                
  23254111.188   122201182.540    23254121.016    95221740.9284   23254120.922  
                
  19672795.211   105088527.620    19672801.555    81735596.577    19672800.633  
  19672794.480  
  19325543.148   103161081.299    19325547.414    80236414.766    19325547.285  
  19325541.777  
  20698891.281   110763951.440    20698896.105    86149795.559    20698895.637  
  20698889.926  
  22256174.539   116957025.532    22256183.664    91135386.7224   22256183.883  
                
  22799863.422   121664483.223                                                  
  22799861.883  
  22115084.602   116215570.419    22115094.570    90557664.2414   22115094.168  
                
  20430301.156   107361968.123    20430307.422    83658797.2504   20430307.258  
                
  24909504.555   130900327.696    24909511.398   102000274.9434                 
                
 21  8  6  0 58 30.0000000  0 16R23G22G14G19R13R 5G 6G24R12R22R21G 3
                                R 6G 1G17G21
  23291368.008   124593116.090                                                  
  23291366.129  
  22846223.781   120057733.970    22846228.137    93551523.9194                 
                
  21101840.172   110890929.271    21101847.000    86408545.9934   21101846.938  
                
  20587946.602   108190407.124    20587951.156    84304232.9114                 
                
  21142693.102   112900815.056    21142697.551    87811765.333    21142697.395  
  21142691.203  
  22724938.555   121477837.878    22724944.348    94482781.366    22724944.348  
  22724937.723  
  22899665.070   120338561.741    22899674.754    93770357.8724   22899675.227  
                
  23254065.609   122200942.939    23254075.559    95221554.2174   23254075.379  
                
  19675345.367   105102150.040    19675351.711    81746191.788    19675350.797  
  19675344.641  
  19324647.891   103156302.389    19324652.172    80232697.844    19324652.031  
  19324646.535  
  20704095.188   110791798.552    20704099.996    86171454.421    20704099.531  
  20704093.820  
  22254156.602   116946421.207    22254165.730    91127123.6144   22254165.941  
                
  22794230.414   121634424.201                                                  
  22794228.836  
  22121110.656   116247237.514    22121120.625    90582339.8944   22121120.227  
                
  20430500.141   107363013.711    20430506.410    83659611.9844   20430506.242  
                
  24915656.680   130932657.242    24915663.504   102025466.7824                 
                
 21  8  6  0 58 40.0000000  0 16R23G22G14G19R13R 5G 6G24R12R22R21G 3
                                R 6G 1G17G21
  23284467.219   124556201.369                                                  
  23284465.492  
  22847710.461   120065546.489    22847714.824    93557611.5954                 
                
  21106141.148   110913530.994    21106147.992    86426157.7194   21106147.945  
                
  20584671.477   108173196.194    20584676.012    84290821.7944                 
                
  21137580.539   112873514.221    21137584.949    87790531.346    21137584.773  
  21137578.621  
  22726195.258   121484555.737    22726201.066    94488006.384    22726201.074  
  22726194.402  
  22893251.312   120304857.272    22893261.023    93744094.6954   22893261.512  
                
  23254032.656   122200769.739    23254042.738    95221419.2504   23254042.434  
                
  19677911.852   105115859.664    19677918.195    81756854.820    19677917.273  
  19677911.113  
  19323763.898   103151583.525    19323768.168    80229027.617    19323768.035  
  19323762.555  
  20709305.289   110819678.821    20709310.086    86193139.073    20709309.629  
  20709303.910  
  22252151.461   116935884.127    22252160.598    91118912.9094   22252160.789  
                
  22788607.672   121604420.148                                                  
  22788606.121  
  22127143.133   116278938.357    22127153.102    90607041.8524   22127152.715  
                
  20430706.016   107364095.569    20430712.301    83660454.9914   20430712.129  
                
  24921809.570   130964990.805    24921816.371   102050661.7504                 
                
 21  8  6  0 58 50.0000000  0 16R23G22G14G19R13R 5G 6G24R12R22R21G 3
                                R 6G 1G17G21
  23277570.000   124519305.849                                                  
  23277568.422  
  22849209.164   120073422.282    22849213.520    93563748.5784                 
                
  21110451.562   110936182.393    21110458.426    86443808.1494   21110458.371  
                
  20581404.125   108156026.165    20581408.652    84277442.5514                 
                
  21132480.781   112846281.814    21132485.148    87769350.582    21132484.965  
  21132478.844  
  22727468.484   121491361.891    22727474.289    94493300.071    22727474.309  
  22727467.594  
  22886842.883   120271180.833    22886852.684    93717853.3074   22886853.090  
                
  23254012.336   122200663.013    23254022.520    95221336.0984   23254022.152  
                
  19680494.695   105129656.763    19680501.031    81767585.894    19680500.105  
  19680493.941  
  19322891.133   103146924.730    19322895.414    80225404.116    19322895.266  
  19322889.793  
  20714521.555   110847592.163    20714526.344    86214849.454    20714525.879  
  20714520.152  
  22250159.141   116925414.433    22250168.273    91110754.7094   22250168.453  
                
  22782995.234   121574471.189                                                  
  22782993.664  
  22133182.008   116310672.898    22133191.949    90631770.0644   22133191.598  
                
  20430918.805   107365213.843    20430925.102    83661326.3824   20430924.930  
                
  24927963.203   130997328.395    24927970.004   102075859.8734                 
                
 21  8  6  0 59  0.0000000  0 16R23G22G14G19R13R 5G 6G24R12R22R21G 3
                                R 6G 1G17G21
  23270676.398   124482429.599                                                  
  23270674.973  
  22850719.945   120081361.420    22850724.301    93569934.9224                 
                
  21114771.445   110958883.435    21114778.328    86461497.2674   21114778.262  
                
  20578144.570   108138897.088    20578149.102    84264095.2264                 
                
  21127393.836   112819117.756    21127398.160    87748222.979    21127397.977  
  21127391.883  
  22728758.250   121498256.430    22728764.039    94498662.496    22728764.051  
  22728757.336  
  22880439.781   120237532.332    22880449.523    93691633.7174   22880449.969  
                
  23254004.680   122200622.748    23254014.895    95221304.7264   23254014.477  
                
  19683093.898   105143541.158    19683100.234    81778384.862    19683099.305  
  19683093.113  
  19322029.594   103142325.735    19322033.859    80221827.125    19322033.730  
  19322028.246  
  20719744.023   110875538.529    20719748.785    86236585.502    20719748.312  
  20719742.574  
  22248179.664   116915012.195    22248188.777    91102649.0794   22248188.961  
                
  22777393.086   121544577.052                                                  
  22777391.523  
  22139227.305   116342441.068    22139237.211    90656524.4794   22139236.891  
                
  20431138.539   107366368.524    20431144.840    83662226.1294   20431144.668  
                
  24934117.633   131029670.017    24934124.422   102101061.1264                 
                
 21  8  6  0 59 10.0000000  0 16R23G22G14G19R13R 5G 6G24R12R22R21G 3
                                R 6G 1G17G21
  23263786.359   124445572.339                                                  
  23263785.066  
  22852242.742   120089363.756    22852247.098    93576170.5024                 
                
  21119100.734   110981633.986    21119107.645    86479224.9634   21119107.570  
                
  20574892.797   108121808.967    20574897.352    84250779.8134                 
                
  21122319.703   112792022.168    21122324.016    87727148.641    21122323.848  
  21122317.750  
  22730064.508   121505239.137    22730070.254    94504093.488    22730070.281  
  22730063.547  
  22874042.008   120203911.879    22874051.848    93665435.9734   22874052.227  
                
  23254009.664   122200648.911    23254019.859    95221325.1104   23254019.426  
                
  19685709.422   105157512.800    19685715.762    81789251.689    19685714.820  
  19685708.602  
  19321179.281   103137786.737    19321183.566    80218296.799    19321183.441  
  19321177.949  
  20724972.609   110903517.796    20724977.363    86258347.151    20724976.883  
  20724971.156  
  22246213.000   116904677.368    22246222.082    91094595.9744   22246222.277  
                
  22771801.359   121514738.555                                                  
  22771799.812  
  22145278.953   116374242.686    22145288.836    90681304.9554   22145288.543  
                
  20431365.180   107367559.539    20431371.484    83663154.1924   20431371.320  
                
  24940272.773   131062015.422    24940279.566   102126265.3224                 
                
 21  8  6  0 59 20.0000000  0 16R23G22G14G19R13R 5G 6G24R12R22R21G 3
                                R 6G 1G17G21
  23256899.891   124408734.255                                                  
  23256898.703  
  22853777.562   120097429.299    22853781.938    93582455.3274                 
                
  21123439.438   111004434.020    21123446.375    86496991.2154   21123446.285  
                
  20571648.844   108104761.866    20571653.418    84237496.3454                 
                
  21117258.414   112764995.213    21117262.715    87706127.668    21117262.520  
  21117256.473  
  22731387.242   121512309.891    22731392.930    94509592.951    22731392.930  
  22731386.242  
  22867649.578   120170319.484    22867659.406    93639260.0924   22867659.785  
                
  23254027.258   122200741.444    23254037.402    95221397.2204   23254036.953  
                
  19688341.266   105171571.658    19688347.594    81800186.347    19688346.656  
  19688340.406  
  19320340.211   103133307.800    19320344.492    80214813.189    19320344.395  
  19320338.891  
  20730207.328   110931529.810    20730212.059    86280134.269    20730211.578  
  20730205.867  
  22244259.180   116894410.047    22244268.227    91086595.4674   22244268.441  
                
  22766219.992   121484955.332                                                  
  22766218.453  
  22151336.953   116406077.668    22151346.828    90706111.4214   22151346.551  
                
  20431598.734   107368786.887    20431605.035    83664110.5674   20431604.875  
                
  24946428.633   131094364.644    24946435.426   102151472.4894                 
                
 21  8  6  0 59 30.0000000  0 16R23G22G14G19R13R 5G 6G24R12R22R21G 3
                                R 6G 1G17G21
  23250017.023   124371915.405                                                  
  23250015.926  
  22855324.391   120105557.889    22855328.793    93588789.2914                 
                
  21127787.539   111027283.420    21127794.508    86514795.9424   21127794.402  
                
  20568412.672   108087755.665    20568417.281    84224244.7684                 
                
  21112210.055   112738037.204    21112214.359    87685160.322    21112214.164  
  21112208.113  
  22732726.461   121519468.701    22732732.094    94515160.905    22732732.098  
  22732725.469  
  22861262.500   120136755.201    22861272.418    93613106.1164   22861272.773  
                
  23254057.500   122200900.322    23254067.555    95221521.0324   23254067.133  
                
  19690989.422   105185717.570    19690995.738    81811188.718    19690994.805  
  19690988.516  
  19319512.383   103128888.770    19319516.660    80211376.162    19319516.559  
  19319511.059  
  20735448.156   110959574.503    20735452.871    86301946.800    20735452.398  
  20735446.688  
  22242318.227   116884210.212    22242327.238    91078647.5454   22242327.457  
                
  22760649.078   121455227.628                                                  
  22760647.559  
  22157401.289   116437945.880    22157411.172    90730943.7794   22157410.891  
                
  20431839.211   107370050.542    20431845.504    83665095.2314   20431845.344  
                
  24952585.211   131126717.600    24952592.004   102176682.5734                 
                
 21  8  6  0 59 40.0000000  0 16R23G22G14G19R13R 5G 6G24R12R22R21G 3
                                R 6G 1G17G21
  23243137.812   124335116.090                                                  
  23243136.812  
  22856883.242   120113749.697    22856887.676    93595172.5134                 
                
  21132145.062   111050182.382    21132152.066    86532639.2854   21132151.957  
                
  20565184.344   108070790.737    20565188.977    84211025.3454                 
                
  21107174.609   112711148.295    21107178.934    87664246.736    21107178.719  
  21107172.664  
  22734082.148   121526715.670    22734087.727    94520797.436    22734087.746  
  22734081.188  
  22854880.781   120103219.278    22854890.812    93586974.2584   22854891.098  
                
  23254100.383   122201125.746    23254110.324    95221696.6944   23254109.941  
                
  19693653.906   105199950.771    19693660.211    81822258.969    19693659.289  
  19693652.953  
  19318695.773   103124529.735    19318700.055    80207985.811    19318699.965  
  19318694.457  
  20740695.102   110987652.013    20740699.801    86323784.861    20740699.324  
  20740693.609  
  22240390.156   116874078.172    22240399.145    91070752.4504   22240399.379  
                
  22755088.625   121425556.033                                                  
  22755087.137  
  22163471.945   116469847.409    22163481.848    90755802.1074   22163481.547  
                
  20432086.609   107371350.723    20432092.910    83666108.3634   20432092.750  
                
  24958742.508   131159074.458    24958749.312   102201895.7064                 
                
 21  8  6  0 59 50.0000000  0 16R23G22G14G19R13R 5G 6G24R12R22R21G 3
                                R 6G 1G17G21
  23236262.203   124298336.026                                                  
  23236261.242  
  22858454.086   120122004.529    22858458.543    93601604.8534                 
                
  21136511.961   111073130.562    21136519.004    86550520.9784   21136518.883  
                
  20561963.836   108053866.825    20561968.492    84197837.8764                 
                
  21102152.078   112684328.280    21102156.422    87643386.735    21102156.215  
  21102150.113  
  22735454.336   121534050.783    22735459.871    94526502.521    22735459.891  
  22735453.395  
  22848504.492   120069711.589    22848514.496    93560864.3704   22848514.809  
                
  23254155.898   122201417.463    23254165.703    95221924.0074   23254165.387  
                
  19696334.672   105214270.851    19696340.965    81833396.799    19696340.031  
  19696333.668  
  19317890.383   103120230.430    19317894.641    80204641.899    19317894.551  
  19317889.074  
  20745948.133   111015762.026    20745952.824    86345648.208    20745952.340  
  20745946.629  
  22238474.945   116864013.678    22238483.922    91062909.9894   22238484.152  
                
  22749538.648   121395940.167                                                  
  22749537.145  
  22169548.898   116501781.945    22169558.816    90780686.1554   22169558.496  
                
  20432340.922   107372687.127    20432347.227    83667149.7204   20432347.070  
                
  24964900.516   131191434.873    24964907.340   102227111.5974                 
                
 21  8  6  1  0  0.0000000  0 16R23G22G14G19R13R 5G 6G24R12R22R21G 3
                                R 6G 1G17G21
  23229390.195   124261575.339                                                  
  23229389.211  
  22860036.922   120130322.430    22860041.375    93608086.3334                 
                
  21140888.242   111096128.019    21140895.309    86568441.0624   21140895.172  
                
  20558751.172   108036984.093    20558755.828    84184682.4944                 
                
  21097142.516   112657577.513    21097146.887    87622580.588    21097146.668  
  21097140.488  
  22736842.992   121541473.803    22736848.488    94532275.952    22736848.496  
  22736842.035  
  22842133.570   120036232.236    22842143.688    93534776.5724   22842143.941  
                
  23254224.055   122201775.539    23254233.707    95222203.0154   23254233.445  
                
  19699031.719   105228677.978    19699038.000    81844602.335    19699037.062  
  19699030.688  
  19317096.188   103115991.005    19317100.449    80201344.572    19317100.344  
  19317094.887  
  20751207.211   111043904.437    20751211.895    86367536.758    20751211.418  
  20751205.691  
  22236572.617   116854016.880    22236581.586    91055120.2824   22236581.816  
                
  22743999.109   121366380.257                                                  
  22743997.582  
  22175632.117   116533749.423    22175642.012    90805595.8624   22175641.703  
                
  20432602.148   107374059.853    20432608.453    83668219.3734   20432608.297  
                
  24971059.195   131223798.924    24971066.027   102252330.3304                 
                
 21  8  6  1  0 10.0000000  0 16R23G22G14G19R13R 5G 6G24R12R22R21G 3
                                R 6G 1G17G21
  23222521.852   124224834.349                                                  
  23222520.805  
  22861631.812   120138703.599    22861636.230    93614617.1074                 
                
  21145273.930   111119174.903    21145281.023    86586399.6624   21145280.875  
                
  20555546.367   108020142.735    20555551.031    84171559.3654                 
                
  21092146.000   112630896.394    21092150.410    87601828.609    21092150.195  
  21092143.953  
  22738248.133   121548985.082    22738253.625    94538118.054    22738253.621  
  22738247.176  
  22835768.094   120002781.464    22835778.211    93508711.0604   22835778.461  
                
  23254304.852   122202200.132    23254314.363    95222533.8674   23254314.164  
                
  19701745.055   105243172.097    19701751.336    81855875.537    19701750.398  
  19701744.012  
  19316313.266   103111811.672    19316317.508    80198093.980    19316317.406  
  19316311.992  
  20756472.383   111072079.392    20756477.059    86389450.611    20756476.574  
  20756470.828  
  22234683.219   116844088.047    22234692.168    91047383.5384   22234692.410  
                
  22738470.195   121336876.776                                                  
  22738468.598  
  22181721.633   116565749.981    22181731.500    90830531.3534   22181731.207  
                
  20432870.336   107375469.170    20432876.645    83669317.5444   20432876.488  
                
  24977218.609   131256166.756    24977225.441   102277551.9954                 
                
 21  8  6  1  0 20.0000000  0 16R23G22G14G19R13R 5G 6G24R12R22R21G 3
                                R 6G 1G17G21
  23215657.125   124188112.648                                                  
  23215655.918  
  22863238.641   120147147.557    22863243.055    93621196.8154                 
                
  21149668.922   111142270.763    21149676.047    86604396.4354   21149675.879  
                
  20552349.359   108003342.408    20552354.004    84158468.2044                 
                
  21087162.430   112604284.445    21087166.879    87581130.423    21087166.676  
  21087160.359  
  22739669.688   121556584.113    22739675.203    94544028.408    22739675.207  
  22739668.703  
  22829408.000   119969359.070    22829418.234    93482667.6464   22829418.426  
                
  23254398.242   122202690.876    23254407.617    95222916.2584   23254407.484  
                
  19704474.625   105257752.968    19704480.895    81867216.205    19704479.957  
  19704473.574  
  19315541.477   103107691.876    19315545.719    80194889.697    19315545.633  
  19315540.234  
  20761743.562   111100286.565    20761748.227    86411389.513    20761747.750  
  20761741.992  
  22232806.688   116834226.846    22232815.605    91039699.4814   22232815.863  
                
  22732951.805   121307429.542                                                  
  22732950.215  
  22187817.344   116597783.141    22187827.188    90855492.2504   22187826.910  
                
  20433145.398   107376914.696    20433151.723    83670443.9284   20433151.555  
                
  24983378.609   131288537.826    24983385.457   102302776.2074                 
                
 21  8  6  1  0 30.0000000  0 16R23G22G14G19R13R 5G 6G24R12R22R21G 3
                                R 6G 1G17G21
  23208796.047   124151410.571                                                  
  23208794.754  
  22864857.484   120155654.577    22864861.898    93627825.6574                 
                
  21154073.289   111165415.810    21154080.438    86622431.5254   21154080.254  
                
  20549160.242   107986583.443    20549164.836    84145409.2694                 
                
  21082191.906   112577742.093    21082196.406    87560486.377    21082196.211  
  21082189.812  
  22741107.703   121564271.114    22741113.250    94550007.188    22741113.242  
  22741106.703  
  22823053.352   119935965.221    22823063.594    93456646.4924   22823063.789  
                
  23254504.250   122203247.985    23254513.543    95223350.3864   23254513.469  
                
  19707220.453   105272420.671    19707226.719    81878624.406    19707225.777  
  19707219.406  
  19314780.914   103103631.900    19314785.145    80191731.943    19314785.074  
  19314779.695  
  20767020.781   111128526.049    20767025.453    86433353.569    20767024.969  
  20767019.223  
  22230943.086   116824433.554    22230951.980    91032068.3544   22230952.254  
                
  22727444.047   121278038.996                                                  
  22727442.422  
  22193919.281   116629849.032    22193929.117    90880478.6594   22193928.859  
                
  20433427.398   107378396.597    20433433.730    83671598.6564   20433433.555  
                
  24989539.289   131320912.346    24989546.141   102328003.1044                 
                
 21  8  6  1  0 40.0000000  0 16R23G22G14G19R13R 5G 6G24R12R22R21G 3
                                R 6G 1G17G21
  23201938.617   124114727.972                                                  
  23201937.305  
  22866488.258   120164224.382    22866492.707    93634503.4274                 
                
  21158486.961   111188609.759    21158494.133    86640504.7304   21158493.941  
                
  20545978.945   107969865.606    20545983.477    84132382.3814                 
                
  21077234.422   112551269.446    21077238.973    87539896.542    21077238.762  
  21077232.309  
  22742562.117   121572045.816    22742567.699    94556054.192    22742567.695  
  22742561.133  
  22816704.156   119902599.898    22816714.398    93430647.5204   22816714.594  
                
  23254622.867   122203871.279    23254632.090    95223836.0664   23254632.051  
                
  19709982.492   105287174.928    19709988.762    81890099.941    19709987.824  
  19709981.453  
  19314031.516   103099631.545    19314035.727    80188620.548    19314035.641  
  19314030.332  
  20772303.977   111156797.502    20772308.672    86455342.486    20772308.168  
  20772302.406  
  22229092.383   116814708.042    22229101.266    91024490.0384   22229101.539  
                
  22721946.812   121248704.836                                                  
  22721945.105  
  22200027.398   116661947.351    22200037.223    90905490.3284   22200036.973  
                
  20433716.281   107379914.681    20433722.617    83672781.5754   20433722.430  
                
  24995700.586   131353290.061    24995707.426   102353232.4724                 
                
 21  8  6  1  0 50.0000000  0 16R23G22G14G19R13R 5G 6G24R12R22R21G 3
                                R 6G 1G17G21
  23195084.859   124078065.110                                                  
  23195083.598  
  22868131.016   120172857.169    22868135.500    93641230.2784                 
                
  21162909.969   111211852.817    21162917.152    86658616.1934   21162916.949  
                
  20542805.516   107953189.170    20542809.973    84119387.7574                 
                
  21072290.047   112524866.797    21072294.660    87519361.156    21072294.465  
  21072287.910  
  22744032.977   121579908.455    22744038.598    94562169.584    22744038.598  
  22744031.973  
  22810360.367   119869263.267    22810370.699    93404670.9604   22810370.848  
                
  23254754.094   122204560.912    23254763.285    95224373.4434   23254763.266  
                
  19712760.773   105302016.015    19712767.043    81901642.997    19712766.102  
  19712759.746  
  19313293.297   103095690.962    19313297.512    80185555.665    19313297.445  
  19313292.145  
  20777593.172   111185101.093    20777597.902    86477356.391    20777597.387  
  20777591.586  
  22227254.617   116805050.556    22227263.496    91016964.7204   22227263.766  
                
  22716460.219   121219427.600                                                  
  22716458.449  
  22206141.703   116694078.214    22206151.512    90930527.3584   22206151.262  
                
  20434012.094   107381469.226    20434018.438    83673992.9124   20434018.242  
                
  25001862.500   131385671.149    25001869.309   102378464.4704                 
                
 21  8  6  1  1  0.0000000  0 16R23G22G14G19R13R 5G 6G24R12R22R21G 3
                                R 6G 1G17G21
  23188234.836   124041422.030                                                  
  23188233.652  
  22869785.773   120181552.957    22869790.273    93648006.2134                 
                
  21167342.320   111235144.964    21167349.520    86676765.9054   21167349.309  
                
  20539639.992   107936554.233    20539644.371    84106425.4714                 
                
  21067358.789   112498534.259    21067363.477    87498880.313    21067363.309  
  21067356.648  
  22745520.320   121587859.116    22745525.973    94568353.425    22745525.953  
  22745519.270  
  22804022.133   119835955.547    22804032.379    93378716.8764   22804032.590  
                
  23254897.969   122205316.930    23254907.133    95224962.5494   23254907.148  
                
  19715555.281   105316943.785    19715561.574    81913253.482    19715560.625  
  19715554.281  
  19312566.297   103091810.214    19312570.500    80182537.311    19312570.430  
  19312565.160  
  20782888.375   111213436.772    20782893.145    86499395.243    20782892.625  
  20782886.785  
  22225429.820   116795461.195    22225438.699    91009492.4944   22225438.957  
                
  22710984.406   121190207.731                                                  
  22710982.613  
  22212262.203   116726241.598    22212272.004    90955589.7244   22212271.746  
                
  20434314.852   107383060.209    20434321.195    83675232.6404   20434320.996  
                
  25008025.086   131418055.625    25008031.852   102403699.1124                 
                
 21  8  6  1  1 10.0000000  0 16R23G22G14G19R13R 5G 6G24R12R22R21G 3
                                R 6G 1G17G21
  23181388.453   124004798.393                                                  
  23181387.375  
  22871452.430   120190311.302    22871456.898    93654830.8894                 
                
  21171783.922   111258485.717    21171791.133    86694953.5014   21171790.906  
                
  20536482.289   107919960.397    20536486.594    84093495.2064                 
                
  21062440.633   112472271.634    21062445.387    87478453.827    21062445.234  
  21062438.484  
  22747024.023   121595897.207    22747029.680    94574605.255    22747029.664  
  22747022.922  
  22797689.281   119802676.341    22797699.598    93352785.0524   22797699.770  
                
  23255054.398   122206138.960    23255063.535    95225603.0804   23255063.582  
                
  19718365.961   105331957.909    19718372.262    81924931.127    19718371.301  
  19718364.984  
  19311850.445   103087988.936    19311854.637    80179565.200    19311854.574  
  19311849.309  
  20788189.484   111241804.020    20788194.273    86521458.644    20788193.758  
  20788187.883  
  22223617.914   116785939.624    22223626.801    91002073.0884   22223627.059  
                
  22705519.188   121161044.416                                                  
  22705517.410  
  22218388.781   116758436.984    22218398.562    90980677.0284   22218398.297  
                
  20434624.469   107384687.265    20434630.805    83676500.4684   20434630.598  
                
  25014188.211   131450442.968    25014194.938   102428935.9684                 
                
