     2.11           OBSERVATION DATA    M (MIXED)           RINEX VERSION / TYPE
EFT-CORS.RU                             20210813 100523 UTC PGM / RUN BY / DATE 
USSB                                                        MARKER NAME         
                                                            MARKER NUMBER       
USSB                EFT-CORS.RU                             OBSERVER / AGENCY   
0                   TRIMBLE BD970       2.0                 REC # / TYPE / VERS 
0                   UNKNOWN EXT NONE                        ANT # / TYPE        
  -912023.1940  3761226.2140  5053259.2690                  APPROX POSITION XYZ 
        0.0000        0.0000        0.0000                  ANTENNA: DELTA H/E/N
     1     1                                                WAVELENGTH FACT L1/2
     6    C1    L1    P2    L2    C2    P1                  # / TYPES OF OBSERV 
    10.000                                                  INTERVAL            
  2021     8     6     0    30    0.0000000     GPS         TIME OF FIRST OBS   
  2021     8     6     1    30    0.0000000     GPS         TIME OF LAST OBS    
     0                                                      RCV CLOCK OFFS APPL 
                                                            END OF HEADER       
 21  8  6  0 30  0.0000000  0 14G 6R13G24R 5G14G22G21G19R22R12G 3R21
                                G17G 1
  24081456.250   126548900.212                    98609587.926    24081467.242  
                
  22120122.672   118120258.062    22120127.586    91871315.592    22120127.184  
  22120120.816  
  23380277.234   122864177.115                    95738370.179    23380287.012  
                
  22744838.352   121584169.680    22744843.688    94565502.206    22744843.762  
  22744837.336  
  20536424.016   107919644.432                    84093266.684    20536430.613  
                
  22802693.602   119828982.084    22802698.094    93373287.1034                 
                
  23889753.438   125541513.347    23889759.574    97824566.8454                 
                
  21228133.930   111554596.799    21228138.641    86925701.5504                 
                
  19629598.320   104784154.434    19629602.734    81498804.677    19629602.457  
  19629597.074  
  19464049.016   103973463.976    19464055.453    80868308.108    19464054.461  
  19464048.023  
  22825931.633   119951106.186                    93468462.597    22825941.445  
                
  19913371.141   106560483.203    19913376.250    82880428.499    19913375.766  
  19913369.836  
  20485488.688   107651967.026                    83884720.461    20485494.961  
                
  21209255.359   111455409.484                    86848412.006    21209264.777  
                
 21  8  6  0 30 10.0000000  0 14G 6R13G24R 5G14G22G21G19R22R12G 3R21
                                G17G 1
  24074295.680   126511271.254                    98580266.674    24074306.648  
                
  22113250.531   118083561.174    22113255.434    91842773.569    22113255.039  
  22113248.629  
  23378118.344   122852832.110                    95729529.917    23378128.133  
                
  22743173.828   121575271.512    22743179.066    94558581.437    22743179.176  
  22743172.785  
  20539082.961   107933617.210                    84104154.549    20539089.543  
                
  22802007.930   119825378.893    22802012.418    93370479.4524                 
                
  23895602.297   125572249.462    23895608.453    97848517.0844                 
                
  21223641.273   111530987.796    21223645.934    86907304.9354                 
                
  19626729.156   104768838.643    19626733.574    81486892.409    19626733.312  
  19626727.922  
  19463840.391   103972349.525    19463846.828    80867441.309    19463845.836  
  19463839.402  
  22821863.094   119929725.929                    93451802.673    22821872.898  
                
  19917303.594   106581526.513    19917308.680    82896795.504    19917308.199  
  19917302.289  
  20484551.195   107647040.423                    83880881.546    20484557.453  
                
  21213882.180   111479723.586                    86867358.064    21213891.605  
                
 21  8  6  0 30 20.0000000  0 14G 6R13G24R 5G14G22G21G19R22R12G 3R21
                                G17G 1
  24067138.102   126473657.957                    98550957.607    24067149.039  
                
  22106386.648   118046908.491    22106391.562    91814265.936    22106391.176  
  22106384.703  
  23375971.672   122841551.221                    95720739.611    23375981.469  
                
  22741525.203   121566459.002    22741530.527    94551727.279    22741530.617  
  22741524.164  
  20541752.461   107947645.499                    84115085.673    20541759.031  
                
  22801334.383   119821839.552    22801338.898    93367721.5564                 
                
  23901454.070   125603000.871    23901460.238    97872479.2544                 
                
  21219155.320   111507413.993    21219159.949    86888935.7474                 
                
  19623871.555   104753584.600    19623875.980    81475028.153    19623875.723  
  19623870.355  
  19463648.469   103971324.323    19463654.910    80866643.924    19463653.914  
  19463647.504  
  22817804.781   119908399.432                    93435184.649    22817814.578  
                
  19921245.242   106602619.013    19921250.312    82913200.781    19921249.828  
  19921243.938  
  20483620.742   107642150.851                    83877071.482    20483626.988  
                
  21218518.805   111504089.232                    86886344.288    21218528.234  
                
 21  8  6  0 30 30.0000000  0 14G 6R13G24R 5G14G22G21G19R22R12G 3R21
                                G17G 1
  24059983.492   126436060.379                    98521660.835    24059994.473  
                
  22099531.023   118010299.916    22099535.957    91785792.612    22099535.602  
  22099529.074  
  23373837.195   122830334.509                    95711999.310    23373847.000  
                
  22739892.742   121557732.534    22739898.070    94544940.034    22739898.172  
  22739891.645  
  20544432.531   107961729.345                    84126060.092    20544439.098  
                
  22800673.047   119818364.100    22800677.562    93365013.3864                 
                
  23907308.812   125633767.672    23907314.934    97896453.3514                 
                
  21214676.055   111483875.322    21214680.676    86870593.9274                 
                
  19621025.602   104738392.691    19621030.008    81463212.211    19621029.758  
  19621024.398  
  19463473.258   103970388.356    19463479.695    80865915.948    19463478.703  
  19463472.289  
  22813756.711   119887126.792                    93418608.587    22813766.504  
                
  19925196.070   106623760.676    19925201.133    82929644.286    19925200.637  
  19925194.762  
  20482697.344   107637298.361                    83873290.317    20482703.582  
                
  21223165.234   111528506.374                    86905370.623    21223174.660  
                
 21  8  6  0 30 40.0000000  0 14G 6R13G24R 5G14G22G21G19R22R12G 3R21
                                G17G 1
  24052831.930   126398478.760                    98492376.480    24052842.930  
                
  22092683.734   117973735.790    22092688.680    91757353.861    22092688.340  
  22092681.766  
  23371714.977   122819182.129                    95703309.135    23371724.770  
                
  22738276.328   121549092.143    22738281.688    94538219.739    22738281.812  
  22738275.172  
  20547123.180   107975868.791                    84137077.845    20547129.742  
                
  22800023.844   119814952.609    22800028.438    93362355.1004                 
                
  23913166.453   125664549.800    23913172.574    97920439.4284                 
                
  21210203.516   111460371.984    21210208.137    86852279.6474                 
                
  19618191.227   104723262.657    19618195.648    81451444.427    19618195.355  
  19618190.035  
  19463314.750   103969541.635    19463321.180    80865257.387    19463320.184  
  19463313.785  
  22809718.945   119865908.212                    93402074.645    22809728.727  
                
  19929156.055   106644951.368    19929161.129    82946125.946    19929160.625  
  19929154.746  
  20481781.023   107632483.061                    83869538.143    20481787.270  
                
  21227821.461   111552974.991                    86924437.076    21227830.871  
                
 21  8  6  0 30 50.0000000  0 14G 6R13G24R 5G14G22G21G19R22R12G 3R21
                                G17G 1
  24045683.383   126360913.008                    98463104.479    24045694.383  
                
  22085844.797   117937216.368    22085849.777    91728949.884    22085849.445  
  22085842.840  
  23369604.938   122808093.945                    95694669.030    23369614.777  
                
  22736676.055   121540537.786    22736681.387    94531566.300    22736681.496  
  22736674.812  
  20549824.383   107990063.693                    84148138.793    20549830.941  
                
  22799386.789   119811604.995    22799391.445    93359746.5964                 
                
  23919026.938   125695347.017    23919033.086    97944437.3064                 
                
  21205737.680   111436903.871    21205742.305    86833992.8134                 
                
  19615368.406   104708194.307    19615372.824    81439724.609    19615372.531  
  19615367.215  
  19463172.992   103968784.324    19463179.398    80864668.357    19463178.395  
  19463172.023  
  22805691.453   119844743.661                    93385582.802    22805701.227  
                
  19933125.180   106666190.960    19933130.262    82962645.632    19933129.762  
  19933123.859  
  20480871.750   107627704.844                    83865814.857    20480877.996  
                
  21232487.445   111577494.876                    86943543.479    21232496.855  
                
 21  8  6  0 31  0.0000000  0 14G 6R13G24R 5G14G22G21G19R22R12G 3R21
                                G17G 1
  24038537.898   126323363.287                    98433844.965    24038548.891  
                
  22079014.258   117900741.703    22079019.270    91700580.717    22079018.953  
  22079012.285  
  23367507.172   122797070.138                    95686079.072    23367517.051  
                
  22735091.820   121532069.425    22735097.195    94524979.802    22735097.316  
  22735090.664  
  20552536.148   108004314.088                    84159242.987    20552542.707  
                
  22798761.914   119808321.222    22798766.570    93357187.8284                 
                
  23924890.359   125726159.442    23924896.453    97968446.9574                 
                
  21201278.570   111413471.116    21201283.184    86815733.5324                 
                
  19612557.250   104693188.175    19612561.652    81428053.180    19612561.379  
  19612556.043  
  19463047.945   103968116.321    19463054.344    80864148.794    19463053.328  
  19463046.988  
  22801674.273   119823633.294                    93369133.176    22801684.031  
                
  19937103.461   106687479.554    19937108.566    82979203.429    19937108.055  
  19937102.145  
  20479969.562   107622963.810                    83862120.548    20479975.812  
                
  21237163.172   111602065.983                    86962689.795    21237172.570  
                
 21  8  6  0 31 10.0000000  0 14G 6R13G24R 5G14G22G21G19R22R12G 3R21
                                G17G 1
  24031395.453   126285829.601                    98404597.960    24031406.453  
                
  22072192.133   117864311.991    22072197.168    91672246.515    22072196.867  
  22072190.188  
  23365421.656   122786110.682                    95677539.241    23365431.570  
                
  22733523.695   121523687.205    22733529.148    94518460.377    22733529.297  
  22733522.465  
  20555258.477   108018619.946                    84170390.406    20555265.039  
                
  22798149.172   119805101.473    22798153.848    93354678.9754                 
                
  23930756.625   125756986.932    23930762.672    97992468.3914                 
                
  21196826.188   111390073.695    21196830.793    86797501.7794                 
                
  19609757.672   104678243.892    19609762.078    81416429.861    19609761.805  
  19609756.477  
  19462939.609   103967537.608    19462946.000    80863698.686    19462944.980  
  19462938.676  
  22797667.430   119802577.200                    93352725.833    22797677.168  
                
  19941090.836   106708816.795    19941095.965    82995799.056    19941095.449  
  19941089.520  
  20479074.445   107618259.924                    83858455.186    20479080.695  
                
  21241848.625   111626688.193                    86981875.925    21241858.020  
                
 21  8  6  0 31 20.0000000  0 14G 6R13G24R 5G14G22G21G19R22R12G 3R21
                                G17G 1
  24024256.094   126248312.085                    98375363.534    24024267.105  
                
  22065378.383   117827927.009    22065383.426    91643947.086    22065383.145  
  22065376.418  
  23363348.398   122775215.643                    95669049.599    23363358.301  
                
  22731971.617   121515391.050    22731977.254    94512007.846    22731977.363  
  22731970.125  
  20557991.336   108032981.247                    84181581.027    20557997.906  
                
  22797548.664   119801945.781    22797553.305    93352219.9914                 
                
  23936625.773   125787829.435    23936631.750    98016501.4704                 
                
  21192380.531   111366711.684    21192385.133    86779297.6294                 
                
  19606969.688   104663361.447    19606974.078    81404854.623    19606973.793  
  19606968.453  
  19462848.031   103967048.387    19462854.395    80863318.173    19462853.383  
  19462847.113  
  22793670.906   119781575.449                    93336360.856    22793680.602  
                
  19945087.312   106730202.742    19945092.457    83012432.562    19945091.949  
  19945086.004  
  20478186.383   107613593.170                    83854818.755    20478192.621  
                
  21246543.781   111651361.395                    87001101.791    21246553.164  
                
 21  8  6  0 31 30.0000000  0 14G 6R13G24R 5G14G22G21G19R22R12G 3R21
                                G17G 1
  24017119.805   126210810.778                    98346141.784    24017130.848  
                
  22058573.141   117791587.444    22058578.203    91615682.993    22058577.938  
  22058571.141  
  23361287.391   122764385.042                    95660610.170    23361297.285  
                
  22730435.633   121507181.367    22730441.551    94505622.641    22730441.664  
  22730433.801  
  20560734.758   108047397.986                    84192814.838    20560741.332  
                
  22796960.359   119798854.170    22796964.949    93349810.9404                 
                
  23942497.758   125818686.954    23942503.711    98040546.3004                 
                
  21187941.625   111343385.140    21187946.219    86761121.1134                 
                
  19604193.336   104648541.108    19604197.719    81393327.694    19604197.426  
  19604192.105  
  19462773.180   103966648.536    19462779.531    80863007.175    19462778.512  
  19462772.281  
  22789684.766   119760628.204                    93320038.347    22789694.441  
                
  19949092.875   106751637.293    19949098.020    83029103.872    19949097.527  
  19949091.566  
  20477305.422   107608963.725                    83851211.401    20477311.656  
                
  21251248.609   111676085.514                    87020367.353    21251258.016  
                
 21  8  6  0 31 40.0000000  0 14G 6R13G24R 5G14G22G21G19R22R12G 3R21
                                G17G 1
  24009986.648   126173325.825                    98316932.742    24009997.719  
                
  22051776.375   117755293.151    22051781.469    91587454.116    22051781.215  
  22051774.344  
  23359238.672   122753618.966                    95652221.032    23359248.562  
                
  22728915.945   121499058.003    22728921.926    94499304.403    22728922.086  
  22728913.574  
  20563488.734   108061870.155                    84204091.840    20563495.305  
                
  22796384.258   119795826.691    22796388.793    93347451.8564                 
                
  23948372.602   125849559.357    23948378.527    98064602.7004                 
                
  21183509.477   111320094.073    21183514.055    86742972.2354                 
                
  19601428.594   104633782.738    19601432.977    81381848.971    19601432.688  
  19601427.383  
  19462715.070   103966338.140    19462721.422    80862765.756    19462720.406  
  19462714.188  
  22785709.023   119739735.563                    93303758.374    22785718.676  
                
  19953107.508   106773120.399    19953112.652    83045812.951    19953112.148  
  19953106.191  
  20476431.523   107604371.328                    83847632.913    20476437.750  
                
  21255963.148   111700860.523                    87039672.557    21255972.543  
                
 21  8  6  0 31 50.0000000  0 14G 6R13G24R 5G14G22G21G19R22R12G 3R21
                                G17G 1
  24002856.609   126135857.264                    98287736.468    24002867.691  
                
  22044988.117   117719044.266    22044993.238    91559260.543    22044992.992  
  22044986.086  
  23357202.242   122742917.435                    95643882.178    23357212.125  
                
  22727412.383   121491021.061    22727418.496    94493053.470    22727418.605  
  22727409.656  
  20566253.234   108076397.701                    84215411.999    20566259.812  
                
  22795820.336   119792863.300    22795824.848    93345142.7404                 
                
  23954250.242   125880446.605    23954256.207    98088670.6964                 
                
  21179084.078   111296838.480    21179088.645    86724851.0064                 
                
  19598675.453   104619086.285    19598679.828    81370418.396    19598679.551  
  19598674.238  
  19462673.719   103966117.233    19462680.059    80862593.938    19462679.051  
  19462672.836  
  22781743.680   119718897.589                    93287521.001    22781753.305  
                
  19957131.203   106794651.952    19957136.348    83062559.702    19957135.855  
  19957129.875  
  20475564.672   107599815.999                    83844083.303    20475570.879  
                
  21260687.320   111725686.225                    87059017.256    21260696.703  
                
 21  8  6  0 32  0.0000000  0 14G 6R13G24R 5G14G22G21G19R22R12G 3R21
                                G17G 1
  23995729.703   126098405.164                    98258553.023    23995740.785  
                
  22038208.461   117682841.280    22038213.605    91531102.672    22038213.352  
  22038206.422  
  23355178.094   122732280.477                    95635593.636    23355187.961  
                
  22725924.945   121483070.438    22725931.203    94486869.701    22725931.277  
  22725922.035  
  20569028.281   108090980.604                    84226775.295    20569034.867  
                
  22795268.594   119789964.022    22795273.109    93342883.5924                 
                
  23960130.703   125911348.532    23960136.727    98112750.0934                 
                
  21174665.469   111273618.551    21174670.035    86706757.5644                 
                
  19595933.922   104604451.843    19595938.301    81359036.059    19595938.008  
  19595932.711  
  19462649.125   103965985.814    19462655.453    80862491.719    19462654.449  
  19462648.234  
  22777788.773   119698114.393                    93271326.303    22777798.367  
                
  19961163.898   106816231.704    19961169.043    83079343.944    19961168.555  
  19961162.566  
  20474704.883   107595297.795                    83840562.629    20474711.078  
                
  21265421.141   111750562.590                    87078401.434    21265430.516  
                
 21  8  6  0 32 10.0000000  0 14G 6R13G24R 5G14G22G21G19R22R12G 3R21
                                G17G 1
  23988605.945   126060969.594                    98229382.461    23988617.016  
                
  22031437.383   117646684.151    22031442.516    91502980.464    22031442.273  
  22031435.324  
  23353166.258   122721708.156                    95627355.456    23353176.102  
                
  22724453.773   121475206.439    22724460.055    94480753.275    22724460.129  
  22724450.758  
  20571813.859   108105618.865                    84238181.710    20571820.449  
                
  22794729.070   119787128.895    22794733.602    93340674.4204                 
                
  23966013.945   125942265.147    23966020.043    98136840.9494                 
                
  21170253.641   111250434.264    21170258.211    86688691.8934                 
                
  19593204.039   104589879.528    19593208.410    81347702.038    19593208.148  
  19593202.824  
  19462641.297   103965943.994    19462647.617    80862459.189    19462646.617  
  19462640.387  
  22773844.281   119677386.052                    93255174.375    22773853.863  
                
  19965205.633   106837859.783    19965210.781    83096165.777    19965210.281  
  19965204.309  
  20473852.172   107590816.753                    83837070.903    20473858.355  
                
  21270164.570   111775489.478                    87097824.983    21270173.945  
                
 21  8  6  0 32 20.0000000  0 14G 6R13G24R 5G14G22G21G19R22R12G 3R21
                                G17G 1
  23981485.352   126023550.662                    98200224.875    23981496.434  
                
  22024674.906   117610572.879    22024680.000    91474893.914    22024679.777  
  22024672.816  
  23351166.711   122711200.494                    95619167.677    23351176.555  
                
  22722998.750   121467429.017    22723005.051    94474704.181    22723005.152  
  22722995.727  
  20574609.961   108120312.475                    84249631.275    20574616.559  
                
  22794201.773   119784357.966    22794206.266    93338515.2584                 
                
  23971899.969   125973196.446    23971906.117    98160943.2654                 
                
  21165848.586   111227285.657    21165853.172    86670654.0264                 
                
  19590485.766   104575369.221    19590490.125    81336416.252    19590489.863  
  19590484.566  
  19462650.227   103965991.731    19462656.551    80862496.322    19462655.539  
  19462649.301  
  22769910.258   119656712.725                    93239065.316    22769919.832  
                
  19969256.352   106859536.039    19969261.523    83113025.090    19969261.016  
  19969255.047  
  20473006.516   107586372.838                    83833608.120    20473012.711  
                
  21274917.602   111800466.855                    87117287.879    21274926.969  
                
 21  8  6  0 32 30.0000000  0 14G 6R13G24R 5G14G22G21G19R22R12G 3R21
                                G17G 1
  23974367.938   125986148.448                    98171080.310    23974379.023  
                
  22017921.055   117574507.786    22017926.160    91446843.319    22017925.938  
  22017918.922  
  23349179.484   122700757.539                    95611030.295    23349189.285  
                
  22721559.961   121459738.245    22721566.219    94468722.436    22721566.309  
  22721556.934  
  20577416.594   108135061.378                    84261123.921    20577423.191  
                
  22793686.648   119781651.204    22793691.164    93336406.1684                 
                
  23977788.773   126004142.226    23977794.906    98185056.8354                 
                
  21161450.367   111204172.825    21161454.949    86652644.0324                 
                
  19587779.125   104560920.963    19587783.453    81325178.714    19587783.180  
  19587777.926  
  19462675.945   103966129.101    19462682.277    80862603.172    19462681.262  
  19462674.996  
  22765986.727   119636094.459                    93222999.151    22765996.281  
                
  19973316.070   106881260.393    19973321.258    83129921.808    19973320.746  
  19973314.777  
  20472167.945   107581966.114                    83830174.311    20472174.145  
                
  21279680.234   111825494.587                    87136789.991    21279689.586  
                
 21  8  6  0 32 40.0000000  0 14G 6R13G24R 5G14G22G21G19R22R12G 3R21
                                G17G 1
  23967253.703   125948762.940                    98141948.753    23967264.797  
                
  22011175.867   117538488.906    22011180.969    91418828.639    22011180.734  
  22011173.727  
  23347204.578   122690379.268                    95602943.297    23347214.336  
                
  22720137.414   121452134.110    22720143.633    94462808.098    22720143.699  
  22720134.555  
  20580233.742   108149865.523                    84272659.598    20580240.332  
                
  22793183.711   119779008.527    22793188.227    93334347.0084                 
                
  23983680.297   126035102.422    23983686.430    98209181.6784                 
                
  21157058.938   111181095.711    21157063.484    86634661.8614                 
                
  19585084.102   104546534.737    19585088.430    81313989.433    19585088.141  
  19585082.910  
  19462718.414   103966355.962    19462724.746    80862779.619    19462723.730  
  19462717.445  
  22762073.664   119615531.307                    93206975.939    22762083.199  
                
  19977384.719   106903032.605    19977389.922    83146855.758    19977389.422  
  19977383.422  
  20471336.430   107577596.467                    83826769.393    20471342.629  
                
  21284452.422   111850572.521                    87156331.218    21284461.781  
                
 21  8  6  0 32 50.0000000  0 14G 6R13G24R 5G14G22G21G19R22R12G 3R21
                                G17G 1
  23960142.680   125911394.256                    98112830.296    23960153.746  
                
  22004439.375   117502516.390    22004444.465    91390850.011    22004444.230  
  22004437.203  
  23345241.992   122680065.776                    95594906.825    23345251.703  
                
  22718731.016   121444616.618    22718737.227    94456961.181    22718737.309  
  22718728.426  
  20583061.375   108164724.880                    84284238.326    20583067.984  
                
  22792693.047   119776430.126    22792697.504    93332337.8734                 
                
  23989574.594   126066077.089    23989580.691    98233317.7584                 
                
  21152674.328   111158054.444    21152678.871    86616707.6394                 
                
  19582400.680   104532210.540    19582405.012    81302848.403    19582404.750  
  19582399.500  
  19462777.664   103966672.449    19462783.988    80863025.769    19462782.969  
  19462776.668  
  22758171.125   119595023.389                    93190995.748    22758180.641  
                
  19981462.352   106924852.776    19981467.551    83163826.986    19981467.047  
  19981461.023  
  20470511.992   107573263.940                    83823393.383    20470518.176  
                
  21289234.125   111875700.577                    87175911.528    21289243.504  
                
 21  8  6  0 33  0.0000000  0 14G 6R13G24R 5G14G22G21G19R22R12G 3R21
                                G17G 1
  23953034.883   125874042.525                    98083725.065    23953045.926  
                
  21997711.570   117466590.365    21997716.680    91362907.557    21997716.473  
  21997709.375  
  23343291.727   122669817.087                    95586920.836    23343301.422  
                
  22717340.961   121437185.942    22717346.945    94451181.707    22717346.945  
  22717338.484  
  20585899.531   108179639.491                    84295860.089    20585906.145  
                
  22792214.609   119773916.002                                                  
                
  23995471.648   126097066.223    23995477.699    98257465.1124                 
                
  21148296.547   111135049.061    21148301.109    86598781.3674                 
                
  19579728.914   104517948.491    19579733.246    81291755.702    19579732.969  
  19579727.723  
  19462853.719   103967078.674    19462860.043    80863341.714    19462859.016  
  19462852.707  
  22754279.125   119574570.859                    93175058.730    22754288.613  
                
  19985548.906   106946720.685    19985554.098    83180835.350    19985553.602  
  19985547.559  
  20469694.602   107568968.542                    83820046.321    20469700.789  
                
  21294025.359   111900878.691                    87195530.846    21294034.738  
                
 21  8  6  0 33 10.0000000  0 14G 6R13G24R 5G14G22G21G19R22R12G 3R21
                                G17G 1
  23945930.297   125836707.671                    98054632.968    23945941.297  
                
  21990992.508   117430710.995    21990997.641    91335001.398    21990997.438  
  21990990.277  
  23341353.766   122659633.112                    95578985.291    23341363.457  
                
  22715967.078   121429841.976    22715972.746    94445469.723    22715972.785  
  22715964.793  
  20588748.188   108194609.206                    84307524.794    20588754.805  
                
  22791748.391   119771466.030                                                  
                
  24001371.367   126128069.465    24001377.387    98281623.4864                 
                
  21143925.539   111112079.337    21143930.160    86580882.8964                 
                
  19577068.789   104503748.553    19577073.113    81280711.305    19577072.855  
  19577067.582  
  19462946.516   103967574.429    19462952.855    80863727.305    19462951.820  
  19462945.504  
  22750397.648   119554173.656                    93159164.838    22750407.145  
                
  19989644.320   106968636.102    19989649.516    83197880.677    19989649.020  
  19989642.992  
  20468884.258   107564710.194                    83816728.136    20468890.461  
                
  21298826.078   111926106.654                    87215188.988    21298835.461  
                
 21  8  6  0 33 20.0000000  0 14G 6R13G24R 5G14G22G21G19R22R12G 3R21
                                G17G 1
  23938828.945   125799389.827                    98025554.129    23938839.914  
                
  21984282.156   117394878.151    21984287.293    91307131.408    21984287.074  
  21984279.887  
  23339428.156   122649513.975                    95571100.250    23339437.844  
                
  22714609.484   121422584.885    22714614.734    94439825.309    22714614.789  
  22714607.414  
  20591607.328   108209634.046                    84319232.450    20591613.953  
                
  22791294.633   119769080.277                                                  
                
  24007273.789   126159086.865    24007279.770    98305792.8714                 
                
  21139561.367   111089145.463    21139566.027    86563012.3394                 
                
  19574420.273   104489610.573    19574424.602    81269715.104    19574424.340  
  19574419.070  
  19463056.086   103968159.743    19463062.434    80864182.548    19463061.395  
  19463055.055  
  22746526.758   119533831.976                    93143314.181    22746536.238  
                
  19993748.641   106990599.164    19993753.832    83214963.061    19993753.336  
  19993747.324  
  20468080.977   107560488.970                    83813438.874    20468087.191  
                
  21303636.281   111951384.422                    87234885.944    21303645.645  
                
 21  8  6  0 33 30.0000000  0 14G 6R13G24R 5G14G22G21G19R22R12G 3R21
                                G17G 1
  23931730.844   125762089.108                    97996488.654    23931741.824  
                
  21977580.625   117359092.384    21977585.781    91279298.050    21977585.535  
  21977578.336  
  23337514.883   122639459.751                    95563265.810    23337524.590  
                
  22713268.055   121415414.709    22713272.930    94434248.556    22713273.051  
  22713266.285  
  20594476.953   108224714.016                    84330983.072    20594483.582  
                
  22790853.039   119766758.738                                                  
                
  24013178.859   126190118.358    24013184.871    98329973.2824                 
                
  21135204.031   111066247.561    21135208.723    86545169.8304                 
                
  19571783.359   104475534.607    19571787.695    81258767.140    19571787.410  
  19571782.172  
  19463182.461   103968834.768    19463188.820    80864707.565    19463187.789  
  19463181.414  
  22742666.445   119513545.917                    93127506.867    22742675.895  
                
  19997861.844   107012609.747    19997867.035    83232082.411    19997866.543  
  19997860.551  
  20467284.773   107556304.941                    83810178.596    20467290.996  
                
  21308455.953   111976711.934                    87254621.673    21308465.301  
                
 21  8  6  0 33 40.0000000  0 14G 6R13G24R 5G14G22G21G19R22R12G 3R21
                                G17G 1
  23924635.969   125724805.425                    97967436.466    23924646.953  
                
  21970887.922   117323353.773    21970893.090    91251501.359    21970892.840  
  21970885.641  
  23335613.945   122629470.305                    95555481.836    23335623.672  
                
  22711943.055   121408331.405    22711947.449    94428739.220    22711947.648  
  22711941.312  
  20597357.047   108239848.976                    84342776.535    20597363.684  
                
  22790423.398   119764501.366                                                  
                
  24019086.602   126221163.704    24019092.684    98354164.4544                 
                
  21130853.531   111043385.553    21130858.238    86527355.2894                 
                
  19569158.094   104461520.745    19569162.418    81247867.471    19569162.141  
  19569156.898  
  19463325.602   103969599.387    19463331.977    80865302.262    19463330.945  
  19463324.566  
  22738816.695   119493315.438                    93111742.888    22738826.129  
                
  20001983.891   107034667.621    20001989.070    83249238.522    20001988.578  
  20001982.605  
  20466495.633   107552157.933                    83806947.157    20466501.855  
                
  21313285.039   112002088.967                    87274395.992    21313294.363  
                
 21  8  6  0 33 50.0000000  0 14G 6R13G24R 5G14G22G21G19R22R12G 3R21
                                G17G 1
  23917544.391   125687539.051                    97938397.761    23917555.371  
                
  21964204.070   117287662.451    21964209.266    91223741.456    21964209.027  
  21964201.809  
  23333725.391   122619545.914                    95547748.546    23333735.137  
                
  22710634.281   121401335.142    22710638.348    94423297.617    22710638.535  
  22710632.668  
  20600247.625   108255039.042                    84354612.943    20600254.266  
                
  22790006.688   119762308.314                                                  
                
  24024997.008   126252223.056    24025003.164    98378366.5264                 
                
  21126509.891   111020559.617    21126514.613    86509568.8514                 
                
  19566544.430   104447568.874    19566548.758    81237016.018    19566548.480  
  19566543.242  
  19463485.562   103970453.851    19463491.945    80865966.839    19463490.914  
  19463484.547  
  22734977.562   119473140.783                    93096022.414    22734986.973  
                
  20006114.758   107056772.727    20006119.926    83266431.382    20006119.430  
  20006113.477  
  20465713.547   107548048.036                    83803744.639    20465719.762  
                
  21318123.570   112027515.586                    87294208.931    21318132.867  
                
 21  8  6  0 34  0.0000000  0 14G 6R13G24R 5G14G22G21G19R22R12G 3R21
                                G17G 1
  23910456.141   125650290.059                    97909372.599    23910467.117  
                
  21957529.203   117252018.960    21957534.371    91196018.735    21957534.137  
  21957526.934  
  23331849.227   122609686.550                    95540065.927    23331858.961  
                
  22709341.781   121394425.996    22709345.781    94417923.828    22709345.875  
  22709340.320  
  20603148.695   108270284.214                    84366492.290    20603155.352  
                
  22789601.312   119760179.713                                                  
                
  24030910.109   126283296.318    24030916.254    98402579.3994                 
                
  21122173.141   110997769.782    21122177.859    86491810.5374                 
                
  19563942.422   104433679.201    19563946.758    81226212.945    19563946.480  
  19563941.242  
  19463662.320   103971398.025    19463668.703    80866701.200    19463667.691  
  19463661.316  
  22731149.102   119453022.100                    93080345.531    22731158.496  
                
  20010254.461   107078925.108    20010259.625    83283661.010    20010259.125  
  20010253.191  
  20464938.523   107543975.268                    83800571.062    20464944.750  
                
  21322971.500   112052991.654                    87314060.424    21322980.777  
                
 21  8  6  0 34 10.0000000  0 14G 6R13G24R 5G14G22G21G19R22R12G 3R21
                                G17G 1
  23903371.180   125613058.395                    97880360.914    23903382.105  
                
  21950863.188   117216422.885    21950868.344    91168332.907    21950868.121  
  21950860.934  
  23329985.398   122599892.124                    95532433.907    23329995.141  
                
  22708065.562   121387603.860    22708069.625    94412617.663    22708069.809  
  22708064.211  
  20606060.211   108285584.317                    84378414.444    20606066.875  
                
  22789208.711   119758115.380                                                  
                
  24036825.773   126314383.338    24036831.930    98426803.0464                 
                
  21117843.219   110975015.942    21117847.906    86474080.2764                 
                
  19561352.031   104419851.527    19561356.371    81215458.093    19561356.113  
  19561350.840  
  19463855.859   103972431.874    19463862.242    80867505.298    19463861.230  
  19463854.871  
  22727331.258   119432959.288                    93064712.196    22727340.625  
                
  20014402.953   107101124.526    20014408.125    83300927.234    20014407.609  
  20014401.695  
  20464170.555   107539939.588                    83797426.378    20464176.777  
                
  21327828.805   112078516.966                    87333950.286    21327838.074  
                
 21  8  6  0 34 20.0000000  0 14G 6R13G24R 5G14G22G21G19R22R12G 3R21
                                G17G 1
  23896289.555   125575844.230                    97851362.877    23896300.457  
                
  21944206.086   117180874.354    21944211.207    91140684.047    21944211.004  
  21944203.863  
  23328133.938   122590162.739                    95524852.594    23328143.734  
                
  22706805.648   121380868.848    22706810.004    94407379.316    22706810.086  
  22706804.379  
  20608982.188   108300939.421                    84390379.460    20608988.871  
                
  22788827.844   119756115.388                                                  
                
  24042744.055   126345484.086    24042750.230    98451037.3954                 
                
  21113520.203   110952298.306    21113524.836    86456378.2234                 
                
  19558773.281   104406086.012    19558777.629    81204751.590    19558777.375  
  19558772.094  
  19464066.227   103973555.595    19464072.605    80868379.299    19464071.594  
  19464065.250  
  22723524.102   119412952.585                    93049122.560    22723533.445  
                
  20018560.234   107123370.960    20018565.410    83318230.015    20018564.895  
  20018558.977  
  20463409.664   107535941.066                    83794310.649    20463415.887  
                
  21332695.492   112104091.546                    87353878.518    21332704.730  
                
 21  8  6  0 34 30.0000000  0 14G 6R13G24R 5G14G22G21G19R22R12G 3R21
                                G17G 1
  23889211.266   125538647.687                    97822378.585    23889222.168  
                
  21937557.977   117145373.790    21937563.062    91113072.490    21937562.871  
  21937555.797  
  23326294.898   122580498.551                    95517322.082    23326304.750  
                
  22705562.023   121374221.165    22705566.742    94402208.918    22705566.742  
  22705560.832  
  20611914.648   108316349.553                    84402387.347    20611921.336  
                
  22788459.164   119754179.763                                                  
                
  24048664.922   126376598.484    24048671.090    98475282.3754                 
                
  21109204.062   110929616.911    21109208.648    86438704.4254                 
                
  19556206.180   104392382.666    19556210.527    81194093.431    19556210.297  
  19556204.980  
  19464293.406   103974769.176    19464299.785    80869323.196    19464298.781  
  19464292.453  
  22719727.656   119393002.139                    93033576.763    22719736.961  
                
  20022726.312   107145664.484    20022731.496    83335569.422    20022730.996  
  20022725.051  
  20462655.852   107531979.738                    83791223.890    20462662.070  
                
  21337571.539   112129715.303                    87373845.073    21337580.750  
                
 21  8  6  0 34 40.0000000  0 14G 6R13G24R 5G14G22G21G19R22R12G 3R21
                                G17G 1
  23882136.320   125501468.651                    97793407.914    23882147.211  
                
  21930918.781   117109920.926    21930923.855    91085498.054    21930923.680  
  21930916.660  
  23324468.234   122570899.390                    95509842.214    23324478.133  
                
  22704334.836   121367660.750    22704339.715    94397106.310    22704339.598  
  22704333.715  
  20614857.531   108331814.523                    84414437.968    20614864.227  
                
  22788103.164   119752308.452                                                  
                
  24054588.406   126407726.481    24054594.500    98499537.9354                 
                
  21104894.797   110906971.635    21104899.352    86421058.7614                 
                
  19553650.688   104378741.314    19553655.023    81183483.494    19553654.812  
  19553649.477  
  19464537.383   103976072.452    19464543.766    80870336.859    19464542.762  
  19464536.445  
  22715941.883   119373107.842                    93018074.743    22715951.184  
                
  20026901.125   107168004.719    20026906.312    83352945.151    20026905.820  
  20026899.844  
  20461909.094   107528055.511                    83788166.054    20461915.328  
                
  21342456.883   112155388.007                    87393849.788    21342466.082  
                
 21  8  6  0 34 50.0000000  0 14G 6R13G24R 5G14G22G21G19R22R12G 3R21
                                G17G 1
  23875064.750   125464307.397                    97764451.107    23875075.625  
                
  21924288.641   117074516.415    21924293.730    91057961.227    21924293.523  
  21924286.590  
  23322653.992   122561365.474                    95502413.201    23322663.930  
                
  22703123.875   121361187.572    22703128.980    94392071.632    22703128.848  
  22703122.863  
  20617810.891   108347334.484                    84426531.443    20617817.594  
                
  22787759.656   119750501.588                                                  
                
  24060514.461   126438868.136    24060520.516    98523804.1734                 
                
  21100592.453   110884362.681    21100596.977    86403441.4024                 
                
  19551106.875   104365162.244    19551111.191    81172921.992    19551111.000  
  19551105.648  
  19464798.188   103977465.610    19464804.566    80871420.424    19464803.562  
  19464797.254  
  22712166.844   119353269.982                    93002616.685    22712176.160  
                
  20031084.672   107190391.731    20031089.875    83370357.271    20031089.391  
  20031083.387  
  20461169.414   107524168.460                    83785137.185    20461175.648  
                
  21347351.570   112181109.712                    87413892.669    21347360.750  
                
 21  8  6  0 35  0.0000000  0 14G 6R13G24R 5G14G22G21G19R22R12G 3R21
                                G17G 1
  23867996.570   125427163.944                    97735508.164    23868007.445  
                
  21917667.555   117039160.154    21917672.660    91030461.916    21917672.465  
  21917665.531  
  23320852.141   122551896.739                    95495034.972    23320862.102  
                
  22701929.219   121354801.711    22701934.590    94387104.884    22701934.559  
  22701928.266  
  20620774.688   108362909.346                    84438667.703    20620781.414  
                
  22787427.906   119748759.319                                                  
                
  24066443.094   126470023.307    24066449.082    98548080.9234                 
                
  21096297.016   110861790.000    21096301.512    86385852.3064                 
                
  19548574.719   104351645.481    19548579.051    81162408.969    19548578.836  
  19548573.492  
  19465075.836   103978948.695    19465082.215    80872573.928    19465081.211  
  19465074.895  
  22708402.555   119333488.585                    92987202.643    22708411.891  
                
  20035276.953   107212825.461    20035282.160    83387805.726    20035281.684  
  20035275.656  
  20460436.781   107520318.513                    83782137.239    20460443.027  
                
  21352255.555   112206880.297                    87433973.637    21352264.730  
                
 21  8  6  0 35 10.0000000  0 14G 6R13G24R 5G14G22G21G19R22R12G 3R21
                                G17G 1
  23860931.805   125390038.372                    97706579.150    23860942.680  
                
  21911055.508   117003852.303    21911060.641    91003000.271    21911060.453  
  21911053.512  
  23319062.719   122542493.264                    95487707.604    23319072.703  
                
  22700751.016   121348503.258    22700756.562    94382206.044    22700756.520  
  22700750.047  
  20623748.938   108378539.059                    84450846.678    20623755.637  
                
  22787108.422   119747081.384                                                  
                
  24072374.289   126501191.879    24072380.203    98572368.0894                 
                
  21092008.469   110839253.629    21092012.953    86368291.5154                 
                
  19546054.203   104338190.777    19546058.527    81151944.198    19546058.320  
  19546052.973  
  19465370.281   103980521.597    19465376.668    80873797.295    19465375.660  
  19465369.328  
  22704649.031   119313763.735                    92971832.634    22704658.375  
                
  20039477.945   107235305.780    20039483.148    83405290.409    20039482.676  
  20039476.637  
  20459711.250   107516505.710                    83779166.205    20459717.473  
                
  21357168.812   112232699.599                    87454092.553    21357177.984  
                
 21  8  6  0 35 20.0000000  0 14G 6R13G24R 5G14G22G21G19R22R12G 3R21
                                G17G 1
  23853870.438   125352930.695                    97677664.093    23853881.320  
                
  21904452.609   116968593.231    21904457.758    90975576.563    21904457.559  
  21904450.617  
  23317285.727   122533155.048                    95480431.048    23317295.652  
                
  22699589.102   121342292.263    22699594.910    94377375.289    22699594.824  
  22699588.254  
  20626733.617   108394223.607                    84463068.390    20626740.328  
                
  22786801.016   119745467.847                                                  
                
  24078308.008   126532373.761    24078313.922    98596665.6664                 
                
  21087726.867   110816753.674    21087731.320    86350759.0854                 
                
  19543545.352   104324798.323    19543549.652    81141527.845    19543549.438  
  19543544.105  
  19465681.562   103982184.405    19465687.957    80875090.584    19465686.957  
  19465680.594  
  22700906.289   119294095.536                    92956506.784    22700915.652  
                
  20043687.617   107257832.526    20043692.832    83422811.190    20043692.367  
  20043686.285  
  20458992.742   107512730.020                    83776224.123    20458998.965  
                
  21362091.312   112258567.524                    87474249.391    21362100.512  
                
 21  8  6  0 35 30.0000000  0 14G 6R13G24R 5G14G22G21G19R22R12G 3R21
                                G17G 1
  23846812.477   125315840.997                    97648763.050    23846823.387  
                
  21897858.789   116933382.684    21897863.949    90948190.597    21897863.766  
  21897856.789  
  23315521.141   122523882.079                    95473205.340    23315531.012  
                
  22698443.539   121336168.685    22698449.543    94372612.552    22698449.434  
  22698442.754  
  20629728.711   108409962.914                    84475332.788    20629735.434  
                
  22786506.656   119743918.821                                                  
                
  24084244.305   126563569.049    24084250.211    98620973.6254                 
                
  21083452.188   110794290.069    21083456.617    86333254.9814                 
                
  19541048.109   104311467.963    19541052.414    81131159.795    19541052.188  
  19541046.867  
  19466009.664   103983936.987    19466016.059    80876453.698    19466015.055  
  19466008.676  
  22697174.328   119274484.019                    92941225.101    22697183.723  
                
  20047905.961   107280405.673    20047911.184    83440368.075    20047910.707  
  20047904.617  
  20458281.336   107508991.498                    83773310.989    20458287.539  
                
  21367023.055   112284483.948                    87494443.998    21367032.254  
                
 21  8  6  0 35 40.0000000  0 14G 6R13G24R 5G14G22G21G19R22R12G 3R21
                                G17G 1
  23839757.977   125278769.378                    97619876.090    23839768.879  
                
  21891274.148   116898221.169    21891279.340    90920842.779    21891279.195  
  21891272.137  
  23313768.969   122514674.422                    95466030.553    23313778.832  
                
  22697314.367   121330132.665    22697320.496    94367917.894    22697320.383  
  22697313.531  
  20632734.227   108425757.004                    84487639.870    20632740.961  
                
  22786224.086   119742434.221                                                  
                
  24090183.078   126594777.436    24090189.059    98645291.8484                 
                
  21079184.430   110771862.978    21079188.867    86315779.3474                 
                
  19538562.539   104298199.834    19538566.836    81120840.144    19538566.598  
  19538561.305  
  19466354.586   103985779.532    19466360.980    80877886.785    19466359.992  
  19466353.602  
  22693453.180   119254929.327                    92925987.691    22693462.594  
                
  20052132.938   107303025.089    20052138.168    83457960.944    20052137.695  
  20052131.578  
  20457576.977   107505290.120                    83770426.804    20457583.164  
                
  21371964.008   112310448.831                    87514676.366    21371973.230  
                
 21  8  6  0 35 50.0000000  0 14G 6R13G24R 5G14G22G21G19R22R12G 3R21
                                G17G 1
  23832706.953   125241715.933                    97591003.252    23832717.805  
                
  21884698.672   116863108.494    21884703.871    90893532.926    21884703.738  
  21884696.625  
  23312029.242   122505532.134                    95458906.711    23312039.109  
                
  22696201.609   121324184.353    22696207.855    94363291.403    22696207.730  
  22696200.699  
  20635750.172   108441605.860                    84499989.617    20635756.906  
                
  22785954.305   119741014.114                                                  
                
  24096124.336   126625998.967    24096130.375    98669620.3204                 
                
  21074923.656   110749472.465    21074928.086    86298332.1974                 
                
  19536088.594   104284993.797    19536092.875    81110568.794    19536092.633  
  19536087.363  
  19466716.383   103987712.102    19466722.758    80879389.884    19466721.773  
  19466715.398  
  22689742.859   119235431.583                    92910794.673    22689752.320  
                
  20056368.555   107325690.659    20056373.785    83475589.705    20056373.309  
  20056367.191  
  20456879.695   107501625.895                    83767571.569    20456885.875  
                
  21376914.172   112336462.051                    87534946.402    21376923.391  
                
 21  8  6  0 36  0.0000000  0 14G 6R13G24R 5G14G22G21G19R22R12G 3R21
                                G17G 1
  23825659.344   125204680.645                    97562144.612    23825670.199  
                
  21878132.430   116828045.124    21878137.617    90866261.401    21878137.508  
  21878130.379  
  23310301.969   122496455.235                    95451833.799    23310311.848  
                
  22695105.203   121318323.442    22695111.586    94358732.908    22695111.426  
  22695104.227  
  20638776.523   108457509.416                    84512381.985    20638783.258  
                
  22785696.117   119739658.475                                                  
                
  24102068.070   126657233.479    24102074.082    98693958.8844                 
                
  21070669.820   110727118.467    21070674.273    86280913.5094                 
                
  19533626.312   104271850.017    19533630.586    81100345.862    19533630.324  
  19533625.086  
  19467094.992   103989734.609    19467101.371    80880962.951    19467100.379  
  19467094.012  
  22686043.391   119215990.792                    92895646.018    22686052.859  
                
  20060612.781   107348402.324    20060618.012    83493254.320    20060617.527  
  20060611.434  
  20456189.477   107497998.779                    83764745.250    20456195.637  
                
  21381873.492   112362523.490                    87555254.024    21381882.715  
                
 21  8  6  0 36 10.0000000  0 14G 6R13G24R 5G14G22G21G19R22R12G 3R21
                                G17G 1
  23818615.242   125167663.696                    97533300.258    23818626.098  
                
  21871575.398   116793030.986    21871580.582    90839028.198    21871580.461  
  21871573.359  
  23308587.148   122487443.774                    95444811.879    23308597.039  
                
  22694025.242   121312550.356    22694031.707    94354242.714    22694031.570  
  22694024.285  
  20641813.281   108473467.681                    84524816.998    20641820.031  
                
  22785450.008   119738367.313                                                  
                
  24108014.281   126688480.986    24108020.254    98718307.5934                 
                
  21066422.961   110704801.071    21066427.441    86263523.3354                 
                
  19531175.680   104258768.401    19531179.953    81090171.280    19531179.691  
  19531174.445  
  19467490.453   103991847.055    19467496.820    80882605.956    19467495.832  
  19467489.465  
  22682354.789   119196607.123                    92880541.875    22682364.277  
                
  20064865.602   107371159.999    20064870.824    83510954.728    20064870.344  
  20064864.297  
  20455506.320   107494408.825                    83761947.890    20455512.477  
                
  21386841.992   112388633.062                    87575599.127    21386851.199  
                
 21  8  6  0 36 20.0000000  0 14G 6R13G24R 5G14G22G21G19R22R12G 3R21
                                G17G 1
  23811574.633   125130665.038                    97504470.156    23811585.473  
                
  21865027.633   116758066.318    21865032.793    90811833.471    21865032.668  
  21865025.625  
  23306884.750   122478497.661                    95437840.900    23306894.672  
                
  22692961.664   121306864.902    22692968.203    94349820.705    22692968.082  
  22692960.719  
  20644860.430   108489480.534                    84537294.536    20644867.176  
                
  22785216.781   119737140.568                                                  
                
  24113962.945   126719741.380    24113968.883    98742666.3494                 
                
  21062183.062   110682520.290    21062187.562    86246161.6984                 
                
  19528736.711   104245749.049    19528740.992    81080045.125    19528740.762  
  19528735.496  
  19467902.727   103994049.320    19467909.086    80884318.826    19467908.098  
  19467901.746  
  22678677.062   119177280.585                    92865482.247    22678686.570  
                
  20069126.977   107393963.449    20069132.195    83528690.743    20069131.715  
  20069125.715  
  20454830.234   107490855.970                    83759179.435    20454836.379  
                
  21391819.594   112414790.610                    87595981.647    21391828.824  
                
 21  8  6  0 36 30.0000000  0 14G 6R13G24R 5G14G22G21G19R22R12G 3R21
                                G17G 1
  23804537.500   125093684.747                    97475654.362    23804548.328  
                
  21858489.141   116723151.227    21858494.297    90784677.296    21858494.141  
  21858487.141  
  23305194.797   122469616.979                    95430920.905    23305204.746  
                
  22691914.469   121301266.992    22691921.039    94345466.760    22691920.922  
  22691913.520  
  20647917.977   108505547.976                    84549814.607    20647924.715  
                
  22784995.242   119735978.368                                                  
                
  24119914.070   126751014.683    24119919.852    98767035.1034                 
                
  21057950.109   110660276.012    21057954.629    86228828.4994                 
                
  19526309.359   104232791.732    19526313.664    81069967.221    19526313.434  
  19526308.125  
  19468331.836   103996341.543    19468338.191    80886101.659    19468337.207  
  19468330.852  
  22675010.227   119158011.266                    92850467.197    22675019.738  
                
  20073396.914   107416812.780    20073402.141    83546462.448    20073401.656  
  20073395.695  
  20454161.203   107487340.175                    83756439.850    20454167.344  
                
  21396806.320   112440996.028                    87616401.468    21396815.551  
                
 21  8  6  0 36 40.0000000  0 14G 6R13G24R 5G14G22G21G19R22R12G 3R21
                                G17G 1
  23797503.883   125056722.997                    97446853.027    23797514.727  
                
  21851959.969   116688285.747    21851965.105    90757559.698    21851964.965  
  21851957.977  
  23303517.336   122460801.855                    95424051.983    23303527.277  
                
  22690883.711   121295756.975    22690890.328    94341181.217    22690890.191  
  22690882.781  
  20650985.906   108521670.048                    84562377.248    20650992.629  
                
  22784786.438   119734880.729                                                  
                
  24125867.609   126782300.788    24125873.270    98791413.9204                 
                
  21053724.148   110638068.471    21053728.680    86211523.9194                 
                
  19523893.680   104219896.653    19523898.008    81059937.718    19523897.777  
  19523892.414  
  19468777.797   103998723.783    19468784.156    80887954.516    19468783.176  
  19468776.820  
  22671354.312   119138799.333                    92835496.860    22671363.836  
                
  20077675.398   107439707.831    20077680.621    83564269.712    20077680.137  
  20077674.191  
  20453499.234   107483861.507                    83753729.198    20453505.375  
                
  21401802.164   112467249.324                    87636858.568    21401811.375  
                
 21  8  6  0 36 50.0000000  0 14G 6R13G24R 5G14G22G21G19R22R12G 3R21
                                G17G 1
  23790473.797   125019779.782                    97418066.140    23790484.645  
                
  21845440.102   116653470.114    21845445.230    90730480.878    21845445.090  
  21845438.121  
  23301852.320   122452052.186                    95417234.068    23301862.266  
                
  22689869.375   121290334.825    22689875.992    94336963.975    22689875.910  
  22689868.496  
  20654064.219   108537846.632                    84574982.368    20654070.934  
                
  22784589.398   119733847.570                                                  
                
  24131823.578   126813599.553    24131829.125    98815802.5354                 
                
  21049505.180   110615897.652    21049509.738    86194247.9644                 
                
  19521489.648   104207063.801    19521493.984    81049956.610    19521493.758  
  19521488.387  
  19469240.578   104001195.856    19469246.926    80889877.230    19469245.949  
  19469239.605  
  22667709.320   119119644.806                    92820571.273    22667718.859  
                
  20081962.414   107462648.461    20081967.625    83582112.415    20081967.133  
  20081961.199  
  20452844.320   107480419.895                    83751047.419    20452850.469  
                
  21406807.078   112493550.296                    87657352.828    21406816.277  
                
 21  8  6  0 37  0.0000000  0 14G 6R13G24R 5G14G22G21G19R22R12G 3R21
                                G17G 1
  23783447.281   124982855.272                    97389293.824    23783458.117  
                
  21838929.664   116618704.748    21838934.797    90703441.161    21838934.652  
  21838927.672  
  23300199.820   122443368.181                    95410467.310    23300209.738  
                
  22688871.531   121285000.583    22688878.172    94332815.122    22688878.121  
  22688870.648  
  20657152.922   108554077.818                    84587630.041    20657159.617  
                
  22784405.461   119732879.040                                                  
                
  24137781.992   126844911.094    24137787.484    98840201.1174                 
                
  21045293.234   110593763.755    21045297.828    86177000.7814                 
                
  19519097.312   104194293.351    19519101.660    81040024.043    19519101.473  
  19519096.047  
  19469720.234   104003758.078    19469726.590    80891870.069    19469725.609  
  19469719.266  
  22664075.289   119100547.888                    92805690.569    22664084.855  
                
  20086257.953   107485634.754    20086263.164    83599990.645    20086262.664  
  20086256.715  
  20452196.484   107477015.484                    83748394.632    20452202.656  
                
  21411821.070   112519898.993                    87677884.278    21411830.238  
                
 21  8  6  0 37 10.0000000  0 14G 6R13G24R 5G14G22G21G19R22R12G 3R21
                                G17G 1
  23776424.328   124945949.440                    97360536.027    23776435.129  
                
  21832428.648   116583989.681    21832433.773    90676440.551    21832433.602  
  21832426.652  
  23298559.781   122434749.696                    95403751.608    23298569.688  
                
  22687890.070   121279754.152    22687896.770    94328734.560    22687896.680  
  22687889.199  
  20660251.977   108570363.450                    84600320.130    20660258.660  
                
  22784233.508   119731974.984                                                  
                
  24143742.766   126876235.120    24143748.250    98864609.4364                 
                
  21041088.281   110571666.588    21041092.914    86159782.2134                 
                
  19516716.594   104181584.955    19516720.938    81030139.745    19516720.785  
  19516715.332  
  19470216.711   104006410.189    19470223.070    80893932.832    19470222.086  
  19470215.738  
  22660452.219   119081508.524                    92790854.701    22660461.801  
                
  20090561.977   107508666.404    20090567.184    83617904.143    20090566.676  
  20090560.715  
  20451555.711   107473648.218                    83745770.792    20451561.902  
                
  21416844.102   112546295.138                    87698452.697    21416853.223  
                
 21  8  6  0 37 20.0000000  0 14G 6R13G24R 5G14G22G21G19R22R12G 3R21
                                G17G 1
  23769404.945   124909062.448                    97331792.948    23769415.742  
                
  21825937.031   116549324.933    21825942.195    90649479.114    21825942.012  
  21825935.051  
  23296932.242   122426196.900                    95397087.071    23296942.117  
                
  22686925.102   121274595.649    22686931.785    94324722.362    22686931.648  
  22686924.199  
  20663361.422   108586703.624                    84613052.721    20663368.090  
                
  22784073.719   119731135.585                                                  
                
  24149705.898   126907571.663    24149711.422    98889027.5354                 
                
  21036890.352   110549606.355    21036895.027    86142592.4314                 
                
  19514347.531   104168938.770    19514351.887    81020303.825    19514351.742  
  19514346.270  
  19470730.055   104009152.382    19470736.414    80896065.646    19470735.434  
  19470729.059  
  22656840.141   119062526.965                    92776063.886    22656849.758  
                
  20094874.477   107531743.492    20094879.691    83635852.986    20094879.176  
  20094873.195  
  20450922.016   107470318.097                    83743175.885    20450928.215  
                
  21421876.156   112572738.760                    87719058.128    21421885.277  
                
 21  8  6  0 37 30.0000000  0 14G 6R13G24R 5G14G22G21G19R22R12G 3R21
                                G17G 1
  23762389.141   124872194.309                    97303064.579    23762399.949  
                
  21819454.875   116514710.669    21819460.059    90622556.927    21819459.883  
  21819452.914  
  23295317.172   122417709.685                    95390473.655    23295327.023  
                
  22685976.570   121269525.154    22685983.219    94320778.643    22685983.129  
  22685975.672  
  20666481.211   108603098.218                    84625827.725    20666487.871  
                
  22783926.320   119730360.798                                                  
                
  24155671.445   126938920.674    24155676.953    98913455.2994                 
                
  21032699.445   110527583.015    21032704.145    86125431.3934                 
                
  19511990.172   104156354.994    19511994.516    81010516.441    19511994.359  
  19511988.914  
  19471260.250   104011984.568    19471266.602    80898268.453    19471265.625  
  19471259.234  
  22653239.039   119043603.152                    92761318.069    22653248.680  
                
  20099195.438   107554865.820    20099200.652    83653837.016    20099200.141  
  20099194.145  
  20450295.383   107467025.105                    83740609.913    20450301.605  
                
  21426917.211   112599229.676                    87739700.408    21426926.348  
                
 21  8  6  0 37 40.0000000  0 14G 6R13G24R 5G14G22G21G19R22R12G 3R21
                                G17G 1
  23755376.938   124835345.092                    97274350.941    23755387.746  
                
  21812982.195   116480146.944    21812987.359    90595674.028    21812987.160  
  21812980.211  
  23293714.609   122409288.136                    95383911.406    23293724.449  
                
  22685044.531   121264542.775    22685051.129    94316903.452    22685051.043  
  22685043.555  
  20669611.359   108619547.230                    84638645.123    20669617.996  
                
  22783791.195   119729650.594                                                  
                
  24161639.336   126970282.054    24161644.871    98937892.7344                 
                
  21028515.562   110505596.625    21028520.254    86108299.1484                 
                
  19509644.445   104143833.360    19509648.785    81000777.402    19509648.629  
  19509643.164  
  19471807.297   104014906.763    19471813.625    80900541.259    19471812.648  
  19471806.258  
  22649648.969   119024737.248                    92746617.376    22649658.633  
                
  20103524.812   107578033.215    20103530.039    83671856.107    20103529.527  
  20103523.500  
  20449675.820   107463769.270                    83738072.892    20449682.055  
                
  21431967.250   112625767.805                    87760379.469    21431976.367  
                
 21  8  6  0 37 50.0000000  0 14G 6R13G24R 5G14G22G21G19R22R12G 3R21
                                G17G 1
  23748368.398   124798514.985                    97245652.176    23748379.195  
                
  21806519.039   116445634.006    21806524.172    90568830.629    21806523.938  
  21806517.059  
  23292124.547   122400932.355                    95377400.421    23292134.414  
                
  22684128.867   121259648.255    22684135.508    94313096.663    22684135.469  
  22684127.859  
  20672751.875   108636050.688                    84651504.949    20672758.496  
                
  22783668.336   119729005.066                                                  
                
  24167609.516   127001655.815    24167615.125    98962339.8754                 
                
  21024338.695   110483647.068    21024343.371    86091195.6074                 
                
  19507310.375   104131373.975    19507314.715    80991086.776    19507314.551  
  19507309.113  
  19472371.211   104017919.094    19472377.535    80902884.192    19472376.562  
  19472370.164  
  22646069.945   119005929.380                    92731961.901    22646079.621  
                
  20107862.664   107601245.907    20107867.895    83689910.418    20107867.387  
  20107861.332  
  20449063.328   107460550.596                    83735564.841    20449069.574  
                
  21437026.281   112652353.153                    87781095.323    21437035.387  
                
 21  8  6  0 38  0.0000000  0 14G 6R13G24R 5G14G22G21G19R22R12G 3R21
                                G17G 1
  23741363.453   124761703.930                    97216968.273    23741374.270  
                
  21800065.391   116411171.891    21800070.496    90542026.763    21800070.242  
  21800063.438  
  23290547.000   122392642.292                    95370940.646    23290556.883  
                
  22683229.789   121254841.994    22683236.418    94309358.416    22683236.340  
  22683228.773  
  20675902.719   108652608.482                    84664407.120    20675909.336  
                
  22783557.805   119728424.200                                                  
                
  24173582.711   127033041.786    24173587.137    98986796.4794                 
                
  21020168.898   110461734.644    21020173.570    86074120.9914                 
                
  19504987.969   104118976.875    19504992.312    80981444.595    19504992.145  
  19504986.707  
  19472951.977   104021021.449    19472958.293    80905297.128    19472957.309  
  19472950.914  
  22642501.969   118987179.582                    92717351.680    22642511.660  
                
  20112208.906   107624503.492    20112214.133    83707999.643    20112213.621  
  20112207.562  
  20448457.906   107457369.087                    83733085.746    20448464.148  
                
  21442094.234   112678985.463                    87801847.785    21442103.371  
                
 21  8  6  0 38 10.0000000  0 14G 6R13G24R 5G14G22G21G19R22R12G 3R21
                                G17G 1
  23734362.180   124724912.098                    97188299.356    23734373.023  
                
  21793621.336   116376761.063    21793626.422    90515262.794    21793626.156  
  21793619.410  
  23288981.961   122384418.022                    95364532.140    23288991.852  
                
  22682347.164   121250123.814    22682353.781    94305688.729    22682353.734  
  22682346.195  
  20679063.922   108669220.648                    84677351.652    20679070.527  
                
  22783459.594   119727907.989                                                  
                
  24179557.375   127064439.922    24179561.793    99011262.4214                 
                
  21016006.172   110439859.374    21016010.836    86057075.3314                 
                
  19502677.266   104106642.179    19502681.605    80971850.951    19502681.418  
  19502676.000  
  19473549.602   104024213.836    19473555.922    80907780.097    19473554.934  
  19473548.535  
  22638945.070   118968487.999                    92702786.825    22638954.777  
                
  20116563.562   107647806.068    20116568.789    83726123.860    20116568.273  
  20116562.199  
  20447859.562   107454224.761                    83730635.626    20447865.797  
                
  21447171.156   112705664.779                    87822636.844    21447180.277  
                
 21  8  6  0 38 20.0000000  0 14G 6R13G24R 5G14G22G21G19R22R12G 3R21
                                G17G 1
  23727364.555   124688139.444                    97159645.358    23727375.391  
                
  21787186.898   116342401.542    21787191.961    90488538.726    21787191.691  
  21787184.988  
  23287429.438   122376259.505                    95358174.868    23287439.336  
                
  22681480.961   121245493.713    22681487.621    94302087.609    22681487.570  
  22681479.910  
  20682235.430   108685887.052                    84690338.461    20682242.035  
                
  22783373.664   119727456.407                                                  
                
  24185534.633   127095850.151    24185538.957    99035738.0084                 
                
  21011850.484   110418021.134    21011855.129    86040058.5314                 
                
  19500378.195   104094369.643    19500382.543    80962305.654    19500382.344  
  19500376.934  
  19474164.078   104027496.260    19474170.395    80910333.087    19474169.410  
  19474163.004  
  22635399.258   118949854.630                    92688267.320    22635408.953  
                
  20120926.562   107671153.364    20120931.801    83744282.860    20120931.297  
  20120925.199  
  20447268.258   107451117.520                    83728214.410    20447274.484  
                
  21452256.961   112732390.883                    87843462.377    21452266.102  
                
 21  8  6  0 38 30.0000000  0 14G 6R13G24R 5G14G22G21G19R22R12G 3R21
                                G17G 1
  23720370.609   124651386.124                    97131006.413    23720381.422  
                
  21780762.094   116308093.480    21780767.133    90461854.676    21780766.879  
  21780760.215  
  23285889.461   122368166.839                    95351868.888    23285899.324  
                
  22680631.305   121240951.885    22680637.941    94298555.078    22680637.875  
  22680630.047  
  20685417.289   108702607.765                    84703367.582    20685423.879  
                
  22783300.000   119727069.493                                                  
                
  24191513.805   127127272.502    24191518.559    99060222.9534                 
                
  21007701.875   110396220.060    21007706.512    86023070.6854                 
                
  19498090.781   104082159.231    19498095.113    80952808.661    19498094.859  
  19498089.531  
  19474795.414   104030868.760    19474801.742    80912956.147    19474800.762  
  19474794.344  
  22631864.539   118931279.598                    92673793.285    22631874.242  
                
  20125297.938   107694545.456    20125303.180    83762476.700    20125302.676  
  20125296.586  
  20446684.047   107448047.466                    83725822.164    20446690.250  
                
  21457351.695   112759163.755                    87864324.310    21457360.836  
                
 21  8  6  0 38 40.0000000  0 14G 6R13G24R 5G14G22G21G19R22R12G 3R21
                                G17G 1
  23713380.336   124614652.138                    97102382.565    23713391.152  
                
  21774346.898   116273836.715    21774351.938    90435210.544    21774351.672  
  21774345.062  
  23284362.000   122360139.974                    95345614.184    23284371.824  
                
  22679798.148   121236498.228    22679804.801    94295091.140    22679804.746  
  22679796.898  
  20688609.445   108719382.659                    84716438.921    20688616.027  
                
  22783238.641   119726747.179                                                  
                
  24197495.570   127158706.792    24197500.441    99084717.2584                 
                
  21003560.320   110374456.098    21003564.957    86006111.7544                 
                
  19495815.023   104070011.108    19495819.367    80943360.129    19495819.105  
  19495813.770  
  19475443.625   104034331.333    19475449.949    80915649.244    19475448.965  
  19475442.551  
  22628340.930   118912762.955                    92659364.740    22628350.648  
                
  20129677.641   107717982.114    20129682.895    83780705.208    20129682.391  
  20129676.301  
  20446106.914   107445014.660                    83723458.943    20446113.102  
                
  21462455.258   112785983.161                    87885222.554    21462464.434  
                
 21  8  6  0 38 50.0000000  0 14G 6R13G24R 5G14G22G21G19R22R12G 3R21
                                G17G 1
  23706393.758   124577937.580                    97073773.860    23706404.586  
                
  21767941.344   116239631.505    21767946.363    90408606.501    21767946.125  
  21767939.535  
  23282847.062   122352178.915                    95339410.755    23282856.875  
                
  22678981.531   121232132.841    22678988.152    94291695.817    22678988.109  
  22678980.250  
  20691811.922   108736211.730                    84729552.465    20691818.496  
                
  22783189.602   119726489.489                                                  
                
  24203479.836   127190152.939    24203484.617    99109220.7554                 
                
  20999425.859   110352729.372    20999430.520    85989181.8444                 
                
  19493550.930   104057925.197    19493555.281    80933959.981    19493555.000  
  19493549.652  
  19476108.680   104037883.909    19476115.016    80918412.357    19476114.023  
  19476107.613  
  22624828.438   118894304.806                    92644981.803    22624838.191  
                
  20134065.656   107741463.244    20134070.930    83798968.310    20134070.426  
  20134064.324  
  20445536.820   107442018.858                    83721124.566    20445543.000  
                
  21467567.672   112812849.057                    87906157.027    21467576.875  
                
 21  8  6  0 39  0.0000000  0 14G 6R13G24R 5G14G22G21G19R22R12G 3R21
                                G17G 1
  23699410.891   124541242.517                    97045180.353    23699421.758  
                
  21761545.516   116205478.141    21761550.496    90382042.779    21761550.258  
  21761543.695  
  23281344.664   122344283.729                    95333258.668    23281354.457  
                
  22678181.375   121227855.730    22678188.027    94288369.212    22678187.988  
  22678180.039  
  20695024.695   108753094.933                    84742708.208    20695031.270  
                
  22783152.844   119726296.454                                                  
                
  24209465.977   127221610.907    24209471.004    99133733.3694                 
                
  20995298.500   110331039.956    20995303.172    85972281.0074                 
                
  19491298.508   104045901.676    19491302.871    80924608.351    19491302.590  
  19491297.227  
  19476790.594   104041526.542    19476796.926    80921245.507    19476795.938  
  19476789.531  
  22621327.109   118875905.217                    92630644.472    22621336.871  
                
  20138461.961   107764988.758    20138467.250    83817265.927    20138466.738  
  20138460.637  
  20444973.781   107439060.066                    83718819.015    20444979.945  
                
  21472688.906   112839761.348                    87927127.653    21472698.152  
                
 21  8  6  0 39 10.0000000  0 14G 6R13G24R 5G14G22G21G19R22R12G 3R21
                                G17G 1
  23692431.766   124504567.068                    97016602.113    23692442.648  
                
  21755159.391   116171376.652    21755164.359    90355519.407    21755164.129  
  21755157.594  
  23279854.797   122336454.427                    95327157.924    23279864.570  
                
  22677397.766   121223666.952    22677404.410    94285111.283    22677404.402  
  22677396.242  
  20698247.773   108770032.276                    84755906.133    20698254.359  
                
  22783128.414   119726168.130                                                  
                
  24215454.219   127253080.715    24215459.668    99158255.3154                 
                
  20991178.250   110309387.884    20991182.930    85955409.2664                 
                
  19489057.750   104033940.387    19489062.117    80915305.134    19489061.836  
  19489056.449  
  19477489.375   104045259.332    19477495.711    80924148.795    19477494.727  
  19477488.344  
  22617836.930   118857564.286                    92616352.854    22617846.703  
                
  20142866.555   107788558.605    20142871.844    83835598.026    20142871.344  
  20142865.219  
  20444417.812   107436138.416                    83716542.409    20444423.973  
                
  21477818.961   112866719.956                    87948134.362    21477828.246  
                
 21  8  6  0 39 20.0000000  0 14G 6R13G24R 5G14G22G21G19R22R12G 3R21
                                G17G 1
  23685456.375   124467911.268                    96988039.182    23685467.262  
                
  21748783.047   116137327.322    21748787.988    90329036.603    21748787.789  
  21748781.273  
  23278377.469   122328691.081                    95321108.568    23278387.227  
                
  22676630.711   121219566.625    22676637.312    94281922.129    22676637.324  
  22676629.055  
  20701481.141   108787023.707                    84769146.191    20701487.723  
                
  22783116.289   119726104.494                                                  
                
  24221444.352   127284562.336    24221450.586    99182786.4644                 
                
  20987065.086   110287773.121    20987069.789    85938566.5944                 
                
  19486828.641   104022041.262    19486833.000    80906050.262    19486832.727  
  19486827.301  
  19478205.031   104049082.219    19478211.363    80927122.148    19478210.379  
  19478204.023  
  22614357.945   118839282.149                    92602107.050    22614367.730  
                
  20147279.383   107812172.576    20147284.676    83853964.452    20147284.188  
  20147278.031  
  20443868.906   107433253.901                    83714294.735    20443875.070  
                
  21482957.828   112893724.779                    87969177.044    21482967.109  
                
 21  8  6  0 39 30.0000000  0 14G 6R13G24R 5G14G22G21G19R22R12G 3R21
                                G17G 1
  23678484.742   124431275.224                    96959491.645    23678495.637  
                
  21742416.531   116103330.497    21742421.453    90302594.631    21742421.242  
  21742414.762  
  23276912.703   122320993.688                    95315110.609    23276922.445  
                
  22675880.203   121215554.627    22675886.754    94278801.653    22675886.770  
  22675878.484  
  20704724.797   108804069.223                    84782428.409    20704731.391  
                
  22783116.508   119726105.573                                                  
                
  24227437.141   127316055.572    24227443.688    99207326.6164                 
                
  20982959.055   110266195.770    20982963.777    85921753.0774                 
                
  19484611.219   104010204.462    19484615.551    80896843.853    19484615.262  
  19484609.852  
  19478937.516   104052995.046    19478943.863    80930165.463    19478942.867  
  19478936.543  
  22610890.164   118821058.884                    92587907.119    22610899.926  
                
  20151700.523   107835830.934    20151705.801    83872365.381    20151705.312  
  20151699.129  
  20443327.078   107430406.570                    83712076.037    20443333.258  
                
  21488105.461   112920775.747                    87990255.715    21488114.758  
                
 21  8  6  0 39 40.0000000  0 14G 6R13G24R 5G14G22G21G19R22R12G 3R21
                                G17G 1
  23671516.883   124394658.997                    96930959.546    23671527.789  
                
  21736059.766   116069385.756    21736064.676    90276193.170    21736064.469  
  21736057.965  
  23275460.492   122313362.292                    95309164.055    23275470.211  
                
  22675146.211   121211631.161    22675152.742    94275750.077    22675152.773  
  22675144.535  
  20707978.734   108821168.772                    84795752.737    20707985.348  
                
  22783129.000   119726171.351                                                  
                
  24233432.383   127347560.289    24233439.656    99231875.7264                 
                
  20978860.125   110244655.760    20978864.863    85904968.6554                 
                
  19482405.438   103998429.889    19482409.766    80887685.853    19482409.512  
  19482404.074  
  19479686.891   104056998.052    19479693.230    80933278.907    19479692.230  
  19479685.930  
  22607433.602   118802894.572                    92573753.117    22607443.336  
                
  20156129.883   107859533.316    20156135.148    83890800.565    20156134.664  
  20156128.477  
  20442792.320   107427596.418                    83709886.308    20442798.508  
                
  21493261.852   112947872.714                    88011370.219    21493271.176  
                
 21  8  6  0 39 50.0000000  0 14G 6R13G24R 5G14G22G21G19R22R12G 3R21
                                G17G 1
  23664552.812   124358062.687                    96902442.971    23664563.730  
                
  21729712.867   116035493.663    21729717.758    90249832.661    21729717.535  
  21729711.039  
  23274020.859   122305796.930                    95303268.956    23274030.559  
                
  22674428.781   121207796.054    22674435.277    94272767.221    22674435.320  
  22674427.098  
  20711242.961   108838322.360                    84809119.161    20711249.578  
                
  22783153.852   119726301.897    22783160.543    93293232.2124                 
                
  24239430.328   127379076.588                                                  
                
  20974768.320   110223153.234    20974773.082    85888213.4554                 
                
  19480211.328   103986717.606    19480215.648    80878576.314    19480215.402  
  19480209.984  
  19480453.117   104061091.064    19480459.449    80936462.353    19480458.445  
  19480452.168  
  22603988.297   118784789.320                    92559645.113    22603998.000  
                
  20160567.445   107883279.596    20160572.707    83909269.884    20160572.215  
  20160566.039  
  20442264.633   107424823.419                    83707725.535    20442270.836  
                
  21498426.969   112975015.613                    88032520.525    21498436.344  
                
 21  8  6  0 40  0.0000000  0 14G 6R13G24R 5G14G22G21G19R22R12G 3R21
                                G17G 1
  23657592.523   124321486.268                    96873941.917    23657603.473  
                
  21723375.836   116001654.338    21723380.719    90223513.201    21723380.488  
  21723373.992  
  23272593.781   122298297.558                    95297425.277    23272603.465  
                
  22673727.898   121204049.460    22673734.352    94269853.197    22673734.438  
  22673726.148  
  20714517.430   108855529.854                    84822527.603    20714524.055  
                
  22783191.000   119726497.087    22783197.219    93293384.3124                 
                
  24245429.875   127410604.222                                                  
                
  20970683.648   110201688.145    20970688.414    85871487.4094                 
                
  19478028.891   103975067.639    19478033.211    80869515.234    19478032.984  
  19478027.570  
  19481236.211   104065274.187    19481242.543    80939715.896    19481241.551  
  19481235.285  
  22600554.211   118766743.122                    92545583.150    22600563.902  
                
  20165013.211   107907069.763    20165018.461    83927773.346    20165017.965  
  20165011.812  
  20441744.008   107422087.485                    83705593.630    20441750.207  
                
  21503600.805   113002204.268                    88053706.487    21503610.195  
                
 21  8  6  0 40 10.0000000  0 14G 6R13G24R 5G14G22G21G19R22R12G 3R21
                                G17G 1
  23650636.031   124284929.836                    96845456.434    23650646.992  
                
  21717048.703   115967867.887    21717053.566    90197234.857    21717053.324  
  21717046.832  
  23271179.250   122290864.189                    95291633.053    23271188.934  
                
  22673043.547   121200391.322    22673050.004    94267007.995    22673050.098  
  22673041.742  
  20717802.172   108872791.256                    84835978.034    20717808.797  
                
  22783240.438   119726756.934    22783246.219    93293586.7964                 
                
  24251431.602   127442143.169                                                  
                
  20966606.078   110180260.436    20966610.844    85854790.5044                 
                
  19475858.086   103963479.817    19475862.414    80860502.502    19475862.184  
  19475856.801  
  19482036.133   104069547.245    19482042.461    80943039.382    19482041.480  
  19482035.219  
  22597131.375   118748756.067                    92531567.275    22597141.086  
                
  20169467.141   107930903.673    20169472.391    83946310.833    20169471.902  
  20169465.754  
  20441230.445   107419388.691                    83703490.674    20441236.656  
                
  21508783.336   113029438.608                    88074928.042    21508792.758  
                
 21  8  6  0 40 20.0000000  0 14G 6R13G24R 5G14G22G21G19R22R12G 3R21
                                G17G 1
  23643683.391   124248393.542                    96816986.608    23643694.312  
                
  21710731.508   115934134.412    21710736.352    90170997.720    21710736.117  
  21710729.621  
  23269777.320   122283496.963                    95285892.361    23269787.012  
                
  22672375.797   121196821.844    22672382.230    94264231.734    22672382.316  
  22672373.926  
  20721097.180   108890106.573                    84849470.480    20721103.805  
                
  22783302.211   119727081.588    22783307.652    93293839.7844                 
                
  24257435.453   127473693.473                                                  
                
  20962535.680   110158870.333    20962540.430    85838122.8944                 
                
  19473698.969   103951954.327    19473703.297    80851538.243    19473703.051  
  19473697.727  
  19482852.953   104073910.485    19482859.281    80946433.010    19482858.301  
  19482852.043  
  22593719.836   118730828.338                    92517597.621    22593729.562  
                
  20173929.250   107954781.279    20173934.492    83964882.296    20173934.008  
  20173927.859  
  20440723.945   107416727.022                    83701416.649    20440730.160  
                
  21513974.539   113056718.576                    88096185.172    21513983.992  
                
 21  8  6  0 40 30.0000000  0 14G 6R13G24R 5G14G22G21G19R22R12G 3R21
                                G17G 1
  23636734.562   124211877.370                    96788532.495    23636745.488  
                
  21704424.227   115900453.932    21704429.055    90144801.802    21704428.816  
  21704422.328  
  23268387.938   122276195.752                    95280203.109    23268397.621  
                
  22671724.594   121193340.893    22671731.039    94261524.339    22671731.090  
  22671722.629  
  20724402.414   108907475.714                    84863004.870    20724409.031  
                
  22783376.305   119727470.929    22783381.617    93294143.1574                 
                
  24263440.609   127505254.950                                                  
                
  20958472.438   110137517.870    20958477.152    85821484.6084                 
                
  19471551.492   103940490.974    19471555.816    80842622.307    19471555.586  
  19471550.266  
  19483686.641   104078363.885    19483692.977    80949896.759    19483691.988  
  19483685.727  
  22590319.594   118712959.955                    92503674.212    22590329.324  
                
  20178399.516   107978702.518    20178404.754    83983487.696    20178404.262  
  20178398.129  
  20440224.500   107414102.446                    83699371.526    20440230.719  
                
  21519174.406   113084044.036                    88117477.728    21519183.867  
                
 21  8  6  0 40 40.0000000  0 14G 6R13G24R 5G14G22G21G19R22R12G 3R21
                                G17G 1
  23629789.586   124175381.400                    96760094.107    23629800.508  
                
  21698126.891   115866826.526    21698131.695    90118647.161    21698131.461  
  21698124.945  
  23267011.133   122268960.623                    95274565.354    23267020.816  
                
  22671089.883   121189948.288    22671096.391    94258885.692    22671096.395  
  22671087.875  
  20727717.891   108924898.627                    84876581.160    20727724.504  
                
  22783462.695   119727924.925    22783467.859    93294496.9084                 
                
  24269449.555   127536827.581                                                  
                
  20954416.352   110116203.037    20954421.039    85804875.6564                 
                
  19469415.672   103929089.832    19469419.996    80833754.750    19469419.742  
  19469414.457  
  19484537.156   104082907.245    19484543.508    80953430.485    19484542.520  
  19484536.246  
  22586930.641   118695150.953                    92489797.074    22586940.375  
                
  20182877.898   108002667.258    20182883.137    84002126.932    20182882.637  
  20182876.531  
  20439732.094   107411514.888                    83697355.246    20439738.309  
                
  21524382.891   113111414.802                    88138805.604    21524392.363  
                
 21  8  6  0 40 50.0000000  0 14G 6R13G24R 5G14G22G21G19R22R12G 3R21
                                G17G 1
  23622848.500   124138905.787                    96731671.553    23622859.387  
                
  21691839.586   115833252.690    21691844.371    90092534.177    21691844.117  
  21691837.641  
  23265646.922   122261791.661                    95268979.159    23265656.621  
                
  22670471.844   121186644.619    22670478.418    94256316.187    22670478.410  
  22670469.758  
  20731043.609   108942375.381                    84890199.406    20731050.215  
                
  22783561.406   119728443.655    22783566.332    93294901.0984                 
                
  24275460.211   127568411.499                                                  
                
  20950367.453   110094925.970    20950372.109    85788296.1334                 
                
  19467291.539   103917751.061    19467295.875    80824935.714    19467295.625  
  19467290.336  
  19485404.570   104087540.715    19485410.922    80957034.281    19485409.934  
  19485403.648  
  22583553.031   118677401.514                    92475966.343    22583562.746  
                
  20187364.391   108026675.373    20187369.633    84020799.906    20187369.137  
  20187363.043  
  20439246.789   107408964.529                    83695367.952    20439252.992  
                
  21529600.031   113138830.935                    88160168.808    21529609.473  
                
 21  8  6  0 41  0.0000000  0 13G 6R13G24R 5G14G22G19R22R12G 3R21G17
                                G 1
  23615911.250   124102450.516                    96703264.899    23615922.152  
                
  21685562.320   115799732.492    21685567.090    90066462.919    21685566.824  
  21685560.391  
  23264295.305   122254688.864                    95263444.512    23264305.016  
                
  22669870.359   121183429.421    22669876.984    94253815.487    22669876.980  
  22669868.352  
  20734379.555   108959905.885                    84903859.532    20734386.160  
                
  22783672.445   119729027.186    22783677.191    93295355.7924                 
                
  20946325.742   110073686.595    20946330.344    85771745.9654                 
                
  19465179.078   103906474.619    19465183.414    80816165.148    19465183.184  
  19465177.863  
  19486288.828   104092264.282    19486295.191    80960708.169    19486294.211  
  19486287.902  
  22580186.750   118659711.674                    92462182.072    22580196.480  
                
  20191858.961   108050726.716    20191864.199    84039506.504    20191863.707  
  20191857.641  
  20438768.531   107406451.293                    83693409.592    20438774.738  
                
  21534825.742   113166292.220                    88181567.200    21534835.180  
                
 21  8  6  0 41 10.0000000  0 13G 6R13G24R 5G14G22G19R22R12G 3R21G17
                                G 1
  23608977.914   124066015.685                    96674874.155    23608988.801  
                
  21679295.086   115766265.799    21679299.848    90040433.272    21679299.605  
  21679293.156  
  23262956.273   122247652.218                    95257961.420    23262966.020  
                
  22669285.500   121180302.973    22669292.129    94251383.783    22669292.121  
  22669283.492  
  20737725.727   108977490.079                    84917561.492    20737732.320  
                
  22783795.812   119729675.434    22783800.387    93295860.9264                 
                
  20942291.195   110052484.928    20942295.750    85755225.1924                 
                
  19463078.250   103895260.296    19463082.602    80807442.902    19463082.363  
  19463077.023  
  19487189.930   104097077.804    19487196.312    80964452.021    19487195.328  
  19487189.004  
  22576831.844   118642081.534                    92448444.309    22576841.566  
                
  20196361.617   108074821.334    20196366.848    84058246.762    20196366.352  
  20196360.316  
  20438297.344   107403975.200                    83691480.175    20438303.543  
                
  21540060.039   113193798.579                    88203000.723    21540069.473  
                
 21  8  6  0 41 20.0000000  0 13G 6R13G24R 5G14G22G19R22R12G 3R21G17
                                G 1
  23602048.477   124029601.343                    96646499.377    23602059.348  
                
  21673037.945   115732853.076    21673042.723    90014445.603    21673042.496  
  21673035.996  
  23261629.828   122240681.747                    95252529.891    23261639.621  
                
  22668717.172   121177265.124    22668723.832    94249021.036    22668723.797  
  22668715.188  
  20741082.102   108995127.934                    84931305.263    20741088.680  
                
  22783931.500   119730388.365    22783935.898    93296416.4374                 
                
  20938263.820   110031321.002    20938268.348    85738733.8364                 
                
  19460989.094   103884108.252    19460993.441    80798769.090    19460993.215  
  19460987.852  
  19488107.867   104101981.311    19488114.270    80968265.863    19488113.285  
  19488106.941  
  22573488.312   118624511.139                    92434753.096    22573498.020  
                
  20200872.344   108098959.083    20200877.559    84077020.549    20200877.059  
  20200871.039  
  20437833.211   107401536.139                    83689579.607    20437839.395  
                
  21545302.898   113221349.934                    88224469.274    21545312.312  
                
 21  8  6  0 41 30.0000000  0 13G 6R13G24R 5G14G22G19R22R12G 3R21G17
                                G 1
  23595122.969   123993207.652                    96618140.675    23595133.805  
                
  21666790.945   115699494.533    21666795.766    89988500.100    21666795.551  
  21666789.008  
  23260316.000   122233777.540                    95247149.993    23260325.812  
                
  22668165.523   121174316.239    22668172.164    94246727.433    22668172.133  
  22668163.531  
  20744448.695   109012819.486                    84945090.887    20744455.262  
                
  22784079.508   119731166.097    22784083.801    93297022.4524                 
                
  20934243.688   110010195.056    20934248.172    85722272.0594                 
                
  19458911.609   103873018.464    19458915.941    80790143.697    19458915.723  
  19458910.359  
  19489042.703   104106974.995    19489049.113    80972149.840    19489048.125  
  19489041.762  
  22570156.164   118607000.641                    92421108.555    22570165.859  
                
  20205391.109   108123139.926    20205396.324    84095827.879    20205395.832  
  20205389.820  
  20437376.133   107399134.240                    83687708.006    20437382.309  
                
  21550554.320   113248946.193                    88245972.829    21550563.695  
                
 21  8  6  0 41 40.0000000  0 13G 6R13G24R 5G14G22G19R22R12G 3R21G17
                                G 1
  23588201.367   123956834.518                    96589798.013    23588212.188  
                
  21660554.062   115666190.055    21660558.941    89962596.641    21660558.727  
  21660552.145  
  23259014.766   122226939.491                    95241821.631    23259024.578  
                
  22667630.430   121171455.920    22667637.082    94244502.735    22667637.043  
  22667628.496  
  20747825.477   109030564.557                    84958918.197    20747832.016  
                
  22784239.789   119732008.499    22784244.070    93297678.8794                 
                
  20930230.711   109989106.785    20930235.160    85705839.6524                 
                
  19456845.758   103861990.862    19456850.090    80781566.684    19456849.875  
  19456844.488  
  19489994.367   104112058.620    19490000.781    80976103.766    19489999.793  
  19489993.418  
  22566835.398   118589549.958                    92407510.639    22566845.074  
                
  20209917.875   108147363.568    20209923.082    84114668.488    20209922.598  
  20209916.586  
  20436926.102   107396769.351                    83685865.244    20436932.270  
                
  21555814.203   113276587.135                    88267511.239    21555823.590  
                
 21  8  6  0 41 50.0000000  0 14G 6R13G24R 5G14G22R 6G19R22R12G 3R21
                                G17G 1
  23581283.734   123920482.196                    96561471.558    23581294.527  
                
  21654327.375   115632939.883    21654332.277    89936735.398    21654332.070  
  21654325.438  
  23257726.164   122220167.784                    95236544.975    23257735.984  
                
  22667111.961   121168684.549    22667118.633    94242347.251    22667118.617  
  22667110.043  
  20751212.477   109048363.287                    84972787.329    20751218.996  
                
  22784412.414   119732915.708    22784416.684    93298385.8184                 
                
  23451551.258   125141932.493                                                  
                
  20926224.992   109968056.565    20926229.414    85689436.8844                 
                
  19454791.586   103851025.524    19454795.898    80773038.085    19454795.672  
  19454790.289  
  19490962.922   104117232.413    19490969.328    80980127.816    19490968.340  
  19490961.953  
  22563526.078   118572159.430                    92393959.586    22563535.723  
                
  20214452.672   108171630.105    20214457.867    84133542.455    20214457.379  
  20214451.379  
  20436483.164   107394441.693                    83684051.491    20436489.320  
                
  21561082.633   113304272.857                    88289084.523    21561092.008  
                
 21  8  6  0 42  0.0000000  0 14G 6R13G24R 5G14G22R 6G19R22R12G 3R21
                                G17G 1
  23574370.016   123884150.563                    96533161.231    23574380.785  
                
  21648110.859   115599744.083    21648115.781    89910916.456    21648115.598  
  21648108.930  
  23256450.125   122213462.244                    95231319.897    23256459.973  
                
  22666610.117   121166001.819    22666616.727    94240260.638    22666616.703  
  22666608.180  
  20754609.641   109066215.459                    84986698.107    20754616.152  
                
  22784597.367   119733887.531    22784601.559    93299143.0494                 
                
  23444990.469   125106924.306                                                  
                
  20922226.461   109947044.236    20922230.887    85673063.6534                 
                
  19452749.016   103840122.262    19452753.324    80764557.783    19452753.141  
  19452747.707  
  19491948.289   104122496.069    19491954.695    80984221.778    19491953.711  
  19491947.316  
  22560228.172   118554828.884                    92380455.283    22560237.793  
                
  20218995.422   108195939.292    20219000.602    84152449.593    20219000.125  
  20218994.125  
  20436047.250   107392150.990                    83682266.533    20436053.391  
                
  21566359.523   113332003.049                    88310692.464    21566368.898  
                
 21  8  6  0 42 10.0000000  0 14G 6R13G24R 5G14G22R 6G19R22R12G 3R21
                                G17G 1
  23567460.297   123847839.856                    96504867.207    23567471.062  
                
  21641904.570   115566602.785    21641909.473    89885139.874    21641909.270  
  21641902.625  
  23255186.727   122206823.012                    95226146.471    23255196.574  
                
  22666124.891   121163408.012    22666131.445    94238243.220    22666131.395  
  22666123.059  
  20758016.992   109084121.172                    85000650.600    20758023.496  
                
  22784794.602   119734924.118    22784798.766    93299950.7994                 
                
  23438436.805   125071954.420                                                  
                
  20918235.180   109926069.900    20918239.609    85656720.0274                 
                
  19450718.156   103829281.362    19450722.449    80756125.977    19450722.254  
  19450716.855  
  19492950.523   104127849.811    19492956.930    80988385.797    19492955.941  
  19492949.531  
  22556941.727   118537558.563                    92366997.920    22556951.344  
                
  20223546.172   108220291.259    20223551.348    84171390.016    20223550.867  
  20223544.871  
  20435618.406   107389897.427                    83680510.521    20435624.539  
                
  21571644.875   113359777.739                    88332335.088    21571654.277  
                
 21  8  6  0 42 20.0000000  0 14G 6R13G24R 5G14G22R 6G19R22R12G 3R21
                                G17G 1
  23560554.578   123811550.141                    96476589.533    23560565.312  
                
  21635708.555   115533516.378    21635713.426    89859405.992    21635713.191  
  21635706.598  
  23253935.945   122200250.149                    95221024.756    23253945.785  
                
  22665656.250   121160902.983    22665662.762    94236294.883    22665662.715  
  22665654.492  
  20761434.523   109102080.381                    85014644.777    20761441.023  
                
  22785004.180   119736025.508    22785008.293    93300809.0224                 
                
  23431890.266   125037022.712                                                  
                
  20914251.133   109905133.622    20914255.570    85640406.0474                 
                
  19448698.953   103818502.727    19448703.234    80747742.592    19448703.043  
  19448697.641  
  19493969.617   104133293.651    19493976.023    80992619.894    19493975.020  
  19493968.617  
  22553666.758   118520348.546                    92353587.525    22553676.344  
                
  20228104.875   108244685.800    20228110.039    84190363.546    20228109.562  
  20228103.559  
  20435196.625   107387680.980                    83678783.426    20435202.742  
                
  21576938.680   113387596.827                    88354012.285    21576948.105  
                
 21  8  6  0 42 30.0000000  0 14G 6R13G24R 5G14G22R 6G19R22R12G 3R21
                                G17G 1
  23553652.844   123775281.401                    96448328.197    23553663.566  
                
  21629522.828   115500484.949    21629527.695    89833714.886    21629527.445  
  21629520.871  
  23252697.773   122193743.589                    95215954.716    23252707.613  
                
  22665204.281   121158486.876    22665210.707    94234415.659    22665210.652  
  22665202.500  
  20764862.211   109120092.988                    85028680.563    20764868.707  
                
  22785226.086   119737191.613    22785230.156    93301717.6674                 
                
  23425351.141   125002129.089                                                  
                
  20910274.336   109884235.472    20910278.789    85624121.7814                 
                
  19446691.406   103807786.301    19446695.688    80739407.601    19446695.492  
  19446690.090  
  19495005.562   104138827.457    19495011.957    80996923.955    19495010.941  
  19495004.555  
  22550403.281   118503198.872                    92340224.145    22550412.836  
                
  20232671.523   108269122.830    20232676.684    84209370.123    20232676.199  
  20232670.191  
  20434781.891   107385501.539                    83677085.158    20434788.004  
                
  21582240.883   113415460.144                    88375723.964    21582250.344  
                
 21  8  6  0 42 40.0000000  0 13G 6R13G24R 5G14G22G19R22R12G 3R21G17
                                G 1
  23546755.133   123739033.729                    96420083.269    23546765.816  
                
  21623347.359   115467508.328    21623352.250    89808066.415    21623352.008  
  21623345.410  
  23251472.250   122187303.394                    95210936.387    23251482.078  
                
  22664768.906   121156159.594    22664775.301    94232605.558    22664775.254  
  22664767.180  
  20768300.070   109138158.972                    85042757.940    20768306.562  
                
  22785460.305   119738422.540    22785464.352    93302676.8414                 
                
  20906304.805   109863375.456    20906309.289    85607867.2254                 
                
  19444695.500   103797132.076    19444699.805    80731120.991    19444699.582  
  19444694.207  
  19496058.352   104144451.241    19496064.750    81001298.006    19496063.723  
  19496057.355  
  22547151.289   118486109.588                    92326907.842    22547160.828  
                
  20237246.062   108293602.130    20237251.227    84228409.576    20237250.742  
  20237244.707  
  20434374.211   107383359.192                    83675415.799    20434380.320  
                
  21587551.516   113443367.631                    88397470.032    21587560.992  
                
 21  8  6  0 42 50.0000000  0 14G 6R13G24R 5G14G22R 6G19R22R12G 3R21
                                G17G 1
  23539861.453   123702807.295                    96391854.893    23539872.117  
                
  21617182.258   115434587.106    21617187.203    89782461.032    21617186.969  
  21617180.316  
  23250259.344   122180929.625                    95205969.828    23250269.180  
                
  22664350.180   121153921.352    22664356.535    94230864.707    22664356.484  
  22664348.477  
  20771748.086   109156278.408                    85056876.970    20771754.590  
                
  22785706.875   119739718.257    22785710.859    93303686.4644                 
                
  23412294.812   124932457.780                                                  
                
  20902342.531   109842553.564    20902347.035    85591642.3734                 
                
  19442711.273   103786540.159    19442715.578    80722882.838    19442715.355  
  19442710.023  
  19497128.000   104150165.084    19497134.383    81005742.101    19497133.352  
  19497126.992  
  22543910.828   118469080.910                    92313638.748    22543920.344  
                
  20241828.539   108318123.832    20241833.695    84247481.997    20241833.219  
  20241827.133  
  20433973.625   107381254.095                    83673775.461    20433979.723  
                
  21592870.539   113471319.276                    88419250.517    21592880.047  
                
 21  8  6  0 43  0.0000000  0 14G 6R13G24R 5G14G22R 6G19R22R12G 3R21
                                G17G 1
  23532971.805   123666602.029                    96363643.029    23532982.473  
                
  21611027.492   115401721.065    21611032.500    89756898.570    21611032.273  
  21611025.590  
  23249059.078   122174622.189                    95201054.946    23249068.891  
                
  22663948.141   121151772.153    22663954.410    94229193.073    22663954.355  
  22663946.379  
  20775206.242   109174451.102                    85071037.499    20775212.762  
                
  22785965.719   119741078.610    22785969.672    93304746.5014                 
                
  23405777.305   124897680.197                                                  
                
  20898387.516   109821769.797    20898392.039    85575447.2354                 
                
  19440738.719   103776010.502    19440743.023    80714693.107    19440742.805  
  19440737.469  
  19498214.477   104155968.818    19498220.852    81010256.110    19498219.816  
  19498213.461  
  22540681.898   118452112.787                    92300416.843    22540691.410  
                
  20246418.891   108342687.728    20246424.055    84266587.249    20246423.578  
  20246417.457  
  20433580.109   107379186.132                    83672164.062    20433586.211  
                
  21598197.930   113499314.814                    88441065.208    21598207.461  
                
 21  8  6  0 43 10.0000000  0 14G 6R13G24R 5G14G22R 6G19R22R12G 3R21
                                G17G 1
  23526086.180   123630417.974                    96335447.678    23526096.836  
                
  21604883.070   115368910.232    21604888.129    89731379.043    21604887.898  
  21604881.203  
  23247871.430   122168381.071                    95196191.735    23247881.227  
                
  22663562.656   121149711.738    22663568.910    94227590.562    22663568.875  
  22663560.898  
  20778674.516   109192676.987                    85085239.482    20778681.059  
                
  22786236.898   119742503.686    22786240.797    93305856.9484                 
                
  23399267.211   124862941.745                                                  
                
  20894439.750   109801024.187    20894444.293    85559281.8224                 
                
  19438777.773   103765542.881    19438782.078    80706551.626    19438781.898  
  19438776.523  
  19499317.781   104161862.463    19499324.156    81014840.052    19499323.117  
  19499316.762  
  22537464.484   118435205.239                    92287242.143    22537473.992  
                
  20251017.102   108367293.672    20251022.273    84285725.196    20251021.797  
  20251015.641  
  20433193.633   107377155.190                    83670581.510    20433199.742  
                
  21603533.625   113527354.131                    88462914.017    21603543.199  
                
 21  8  6  0 43 20.0000000  0 14G 6R13G24R 5G14G22R 6G19R22R12G 3R21
                                G17G 1
  23519204.656   123594255.354                    96307269.014    23519215.266  
                
  21598749.078   115336155.126    21598754.156    89705902.859    21598753.926  
  21598747.238  
  23246696.422   122162206.415                    95191380.337    23246706.207  
                
  22663193.852   121147740.312    22663200.090    94226057.230    22663200.043  
  22663192.055  
  20782152.938   109210956.164                    85099482.988    20782159.508  
                
  22786520.398   119743993.555    22786524.258    93307017.8784                 
                
  23392764.383   124828242.473                                                  
                
  20890499.273   109780316.845    20890503.836    85543146.2334                 
                
  19436828.500   103755137.567    19436832.816    80698458.609    19436832.629  
  19436827.270  
  19500437.953   104167846.200    19500444.320    81019494.063    19500443.281  
  19500436.934  
  22534258.648   118418358.482                    92274114.818    22534268.168  
                
  20255623.180   108391941.719    20255628.359    84304895.893    20255627.879  
  20255621.719  
  20432814.211   107375161.331                    83669027.849    20432820.332  
                
  21608877.664   113555437.244                    88484796.962    21608887.266  
                
 21  8  6  0 43 30.0000000  0 14G 6R13G24R 5G14G22R 6G19R22R12G 3R21
                                G17G 1
  23512327.195   123558114.149                    96279107.072    23512337.785  
                
  21592625.578   115303455.865    21592630.645    89680470.091    21592630.422  
  21592623.758  
  23245534.070   122156098.208                    95186620.701    23245543.859  
                
  22662841.711   121145857.880    22662847.938    94224593.113    22662847.895  
  22662839.863  
  20785641.484   109229288.558                    85113767.965    20785648.086  
                
  22786816.250   119745548.159    22786820.055    93308229.2324                 
                
  23386268.977   124793582.367                                                  
                
  20886566.086   109759647.802    20886570.660    85527040.4874                 
                
  19434890.883   103744794.390    19434895.195    80690413.909    19434895.000  
  19434889.645  
  19501574.953   104173919.832    19501581.312    81024217.990    19501580.277  
  19501573.930  
  22531064.398   118401572.578                    92261034.900    22531073.902  
                
  20260237.102   108416631.676    20260242.285    84324099.181    20260241.812  
  20260235.633  
  20432441.844   107373204.496                    83667503.036    20432447.969  
                
  21614230.000   113583564.000                    88506713.922    21614239.621  
                
 21  8  6  0 43 40.0000000  0 14G 6R13G24R 5G14G22R 6G19R22R12G 3R21
                                G17G 1
  23505453.836   123521994.475                    96250961.906    23505464.410  
                
  21586512.492   115270812.336    21586517.551    89655080.684    21586517.348  
  21586510.680  
  23244384.375   122150056.464                    95181912.824    23244394.145  
                
  22662506.164   121144064.471    22662512.457    94223198.286    22662512.422  
  22662504.305  
  20789140.148   109247674.125                    85128094.383    20789146.785  
                
  22787124.367   119747167.463    22787128.168    93309491.0454                 
                
  23379781.094   124758961.909                                                  
                
  20882640.203   109739017.151    20882644.789    85510964.6564                 
                
  19432964.953   103734513.614    19432969.262    80682417.741    19432969.074  
  19432963.703  
  19502728.789   104180083.338    19502735.133    81029011.819    19502734.094  
  19502727.766  
  22527881.734   118384847.591                    92248002.456    22527891.250  
                
  20264858.820   108441363.409    20264864.012    84343334.962    20264863.539  
  20264857.336  
  20432076.531   107371284.731                    83666007.115    20432082.664  
                
  21619590.656   113611734.367                    88528664.835    21619600.266  
                
 21  8  6  0 43 50.0000000  0 13G 6R13G24R 5G14G22G19R22R12G 3R21G17
                                G 1
  23498584.570   123485896.341                    96222833.509    23498595.117  
                
  21580409.867   115238224.696    21580414.926    89629734.744    21580414.746  
  21580408.055  
  23243247.312   122144081.160                    95177256.754    23243257.086  
                
  22662187.336   121142360.130    22662193.660    94221872.668    22662193.621  
  22662185.438  
  20792648.906   109266112.762                    85142462.144    20792655.570  
                
  22787444.797   119748851.429    22787448.590    93310803.2374                 
                
  20878721.594   109718424.792    20878726.184    85494918.6714                 
                
  19431050.648   103724294.945    19431054.969    80674469.895    19431054.801  
  19431049.410  
  19503899.445   104186336.790    19503905.785    81033875.612    19503904.758  
  19503898.438  
  22524710.664   118368183.540                    92235017.479    22524720.164  
                
  20269488.328   108466136.833    20269493.547    84362603.187    20269493.074  
  20269486.859  
  20431718.266   107369402.058                    83664540.103    20431724.414  
                
  21624959.547   113639948.107                    88550649.586    21624969.168  
                
 21  8  6  0 44  0.0000000  0 13G 6R13G24R 5G14G22G19R22R12G 3R21G17
                                G 1
  23491719.445   123449819.935                    96194722.040    23491729.961  
                
  21574317.758   115205693.251    21574322.852    89604432.533    21574322.684  
  21574315.957  
  23242122.914   122138172.409                    95172652.534    23242132.676  
                
  22661885.156   121140744.785    22661891.496    94220616.277    22661891.449  
  22661883.301  
  20796167.797   109284604.617                    85156871.367    20796174.477  
                
  22787777.586   119750600.308    22787781.363    93312166.0314                 
                
  20874810.336   109697870.983    20874814.910    85478902.7204                 
                
  19429148.023   103714138.597    19429152.332    80666570.513    19429152.176  
  19429146.758  
  19505086.977   104192680.298    19505093.305    81038809.441    19505092.277  
  19505085.984  
  22521551.234   118351580.650                    92222080.168    22521560.715  
                
  20274125.641   108490952.034    20274130.875    84381903.893    20274130.398  
  20274124.172  
  20431367.078   107367556.546                    83663102.040    20431373.230  
                
  21630336.719   113668205.292                    88572668.151    21630346.289  
                
 21  8  6  0 44 10.0000000  0 13G 6R13G24R 5G14G22G19R22R12G 3R21G17
                                G 1
  23484858.445   123413765.202                    96166627.441    23484868.934  
                
  21568236.250   115173218.407    21568241.379    89579174.337    21568241.234  
  21568234.453  
  23241011.148   122132330.109                    95168100.112    23241020.883  
                
  22661599.562   121139218.379    22661605.949    94219429.122    22661605.918  
  22661597.770  
  20799696.773   109303149.472                    85171321.899    20799703.477  
                
  22788122.680   119752413.827    22788126.461    93313579.1794                 
                
  20870906.383   109677355.568    20870910.945    85462916.6844                 
                
  19427257.008   103704044.244    19427261.320    80658719.353    19427261.125  
  19427255.742  
  19506291.305   104199113.646    19506297.641    81043813.165    19506296.609  
  19506290.328  
  22518403.422   118335038.845                    92209190.460    22518412.891  
                
  20278770.711   108515808.727    20278775.957    84401236.868    20278775.477  
  20278769.234  
  20431022.938   107365748.102                    83661692.867    20431029.109  
                
  21635722.117   113696505.651                    88594720.342    21635731.641  
                
 21  8  6  0 44 20.0000000  0 13G 6R13G24R 5G14G22G19R22R12G 3R21G17
                                G 1
  23478001.586   123377732.253                    96138549.844    23478012.066  
                
  21562165.312   115140799.951    21562170.453    89553959.974    21562170.277  
  21562163.480  
  23239912.055   122126554.308                    95163599.481    23239921.746  
                
  22661330.695   121137781.230    22661337.078    94218311.343    22661337.035  
  22661328.926  
  20803235.828   109321747.319                    85185813.716    20803242.555  
                
  22788480.102   119754292.049    22788483.863    93315042.7314                 
                
  20867009.750   109656878.645    20867014.297    85446960.6454                 
                
  19425377.641   103694012.130    19425381.953    80650916.607    19425381.742  
  19425376.398  
  19507512.469   104205636.923    19507518.828    81048886.830    19507517.797  
  19507511.516  
  22515267.273   118318558.286                    92196348.465    22515276.707  
                
  20283423.523   108540706.875    20283428.777    84420602.088    20283428.297  
  20283422.055  
  20430685.859   107363976.777                    83660312.622    20430692.055  
                
  21641115.695   113724849.150                    88616806.220    21641125.250  
                
 21  8  6  0 44 30.0000000  0 14G 6R13G24R 5G14G22G21G19R22R12G 3R21
                                G17G 1
  23471148.898   123341721.205                    96110489.301    23471159.355  
                
  21556105.016   115108438.289    21556110.164    89528789.806    21556110.004  
  21556103.168  
  23238825.641   122120845.098                    95159150.727    23238835.309  
                
  22661078.516   121136433.210    22661084.902    94217262.896    22661084.848  
  22661076.840  
  20806784.977   109340398.177                    85200346.844    20806791.738  
                
  22788849.836   119756235.097    22788853.594    93316556.8014                 
                
  24408192.992   128265910.917                                                  
                
  20863120.461   109636440.318    20863124.988    85431034.6844                 
                
  19423509.922   103684042.105    19423514.227    80643162.147    19423514.023  
  19423508.676  
  19508750.469   104212250.076    19508756.832    81054030.386    19508755.805  
  19508749.496  
  22512142.789   118302139.053                    92183554.281    22512152.238  
                
  20288084.078   108565646.404    20288089.352    84439999.502    20288088.863  
  20288082.621  
  20430355.852   107362242.524                    83658961.246    20430362.043  
                
  21646517.492   113753235.735                    88638925.614    21646527.008  
                
 21  8  6  0 44 40.0000000  0 14G 6R13G24R 5G14G22G21G19R22R12G 3R21
                                G17G 1
  23464300.359   123305731.904                    96082445.699    23464310.809  
                
  21550055.273   115076133.006    21550060.438    89503663.473    21550060.285  
  21550053.445  
  23237751.836   122115202.257                    95154753.708    23237761.484  
                
  22660842.969   121135174.079    22660849.332    94216283.555    22660849.254  
  22660841.371  
  20810344.172   109359101.826                    85214921.101    20810350.945  
                
  22789231.844   119758242.690    22789235.613    93318121.1964                 
                
  24414248.469   128297731.369                                                  
                
  20859238.469   109616040.362    20859242.984    85415138.6224                 
                
  19421653.828   103674134.177    19421658.125    80635455.986    19421657.938  
  19421652.578  
  19510005.281   104218953.027    19510011.637    81059243.785    19510010.605  
  19510004.285  
  22509029.953   118285781.041                    92170807.774    22509039.383  
                
  20292752.312   108590627.075    20292757.590    84459428.905    20292757.113  
  20292750.863  
  20430032.852   107360545.151                    83657638.620    20430039.047  
                
  21651927.422   113781665.096                    88661078.357    21651936.918  
                
 21  8  6  0 44 50.0000000  0 14G 6R13G24R 5G14G22G21G19R22R12G 3R21
                                G17G 1
  23457456.023   123269764.782                    96054419.398    23457466.488  
                
  21544016.250   115043884.954    21544021.434    89478581.657    21544021.273  
  21544014.457  
  23236690.727   122109626.094                    95150408.657    23236700.371  
                
  22660624.125   121134004.268    22660630.457    94215373.708    22660630.383  
  22660622.602  
  20813913.453   109377858.495                    85229536.688    20813920.258  
                
  22789626.211   119760315.116    22789630.004    93319736.0874                 
                
  24420304.961   128329561.314                                                  
                
  20855363.852   109595679.134    20855368.383    85399272.7354                 
                
  19419809.406   103664288.567    19419813.711    80627798.297    19419813.504  
  19419808.145  
  19511276.922   104225745.918    19511283.285    81064527.146    19511282.258  
  19511275.906  
  22505928.844   118269484.616                    92158109.276    22505938.270  
                
  20297428.273   108615649.016    20297433.551    84478890.402    20297433.078  
  20297426.828  
  20429716.930   107358885.015                    83656345.014    20429723.148  
                
  21657345.523   113810137.384                    88683264.555    21657355.000  
                
 21  8  6  0 45  0.0000000  0 14G 6R13G24R 5G14G22G21G19R22R12G 3R21
                                G17G 1
  23450615.867   123233819.621                    96026410.207    23450626.344  
                
  21537987.859   115011693.786    21537993.047    89453544.099    21537992.871  
  21537986.074  
  23235642.266   122104116.435                    95146115.419    23235651.910  
                
  22660421.953   121132923.505    22660428.219    94214533.088    22660428.145  
  22660420.395  
  20817492.773   109396667.952                    85244193.395    20817499.594  
                
  22790032.898   119762452.248    22790036.703    93321401.3604                 
                
  24426364.727   128361400.723                                                  
                
  20851496.562   109575356.448    20851501.098    85383436.8824                 
                
  19417976.617   103654505.062    19417980.922    80620188.904    19417980.723  
  19417975.367  
  19512565.359   104232628.512    19512571.734    81069880.273    19512570.711  
  19512564.344  
  22502839.414   118253249.624                    92145458.641    22502848.832  
                
  20302111.875   108640711.910    20302117.152    84498383.763    20302116.688  
  20302110.406  
  20429408.062   107357261.890                    83655080.237    20429414.281  
                
  21662771.688   113838652.322                    88705484.075    21662781.203  
                
 21  8  6  0 45 10.0000000  0 13G 6R13G24R 5G14G22G19R22R12G 3R21G17
                                G 1
  23443779.953   123197896.665                    95998418.295    23443790.422  
                
  21531970.219   114979559.870    21531975.359    89428551.049    21531975.164  
  21531968.355  
  23234606.477   122098673.396                    95141874.110    23234616.141  
                
  22660236.469   121131931.945    22660242.652    94213761.861    22660242.582  
  22660234.844  
  20821082.148   109415530.256                    85258891.299    20821089.000  
                
  22790451.922   119764654.148    22790455.707    93323117.1074                 
                
  20847636.648   109555072.455    20847641.168    85367631.1774                 
                
  19416155.469   103644783.654    19416159.781    80612627.818    19416159.574  
  19416154.215  
  19513870.625   104239600.979    19513877.008    81075303.302    19513875.992  
  19513869.609  
  22499761.742   118237076.325                    92132856.067    22499771.145  
                
  20306803.172   108665815.974    20306808.461    84517909.141    20306807.996  
  20306801.680  
  20429106.250   107355675.849                    83653844.366    20429112.465  
                
  21668206.047   113867209.960                    88727736.769    21668215.527  
                
 21  8  6  0 45 20.0000000  0 13G 6R13G24R 5G14G22G19R22R12G 3R21G17
                                G 1
  23436948.250   123161995.899                    95970443.686    23436958.703  
                
  21525963.312   114947483.358    21525968.414    89403602.658    21525968.234  
  21525961.414  
  23233583.398   122093296.982                    95137684.673    23233593.012  
                
  22660067.641   121131029.597    22660073.758    94213060.046    22660073.684  
  22660066.016  
  20824681.586   109434445.361                    85273630.328    20824688.449  
                
  22790883.211   119766920.694    22790886.973    93324883.2734                 
                
  20843784.102   109534827.195    20843788.609    85351855.6494                 
                
  19414345.992   103635124.484    19414350.273    80605115.120    19414350.070  
  19414344.730  
  19515192.703   104246663.221    19515199.078    81080796.138    19515198.070  
  19515191.684  
  22496695.781   118220964.721                    92120301.603    22496705.203  
                
  20311502.102   108690960.907    20311507.391    84537466.304    20311506.930  
  20311500.590  
  20428811.492   107354126.892                    83652637.376    20428817.699  
                
  21673648.492   113895810.125                    88750022.581    21673657.934  
                
 21  8  6  0 45 30.0000000  0 13G 6R13G24R 5G14G22G19R22R12G 3R21G17
                                G 1
  23430120.781   123126117.461                    95942486.485    23430131.246  
                
  21519967.180   114915464.320    21519972.258    89378698.955    21519972.062  
  21519965.238  
  23232572.969   122087987.225                    95133547.214    23232582.586  
                
  22659915.578   121130216.678    22659921.598    94212427.749    22659921.516  
  22659913.938  
  20828291.062   109453413.237                    85288410.480    20828297.934  
                
  22791326.797   119769251.991    22791330.555    93326699.9174                 
                
  20839938.930   109514620.732    20839943.465    85336110.3604                 
                
  19412548.125   103625527.417    19412552.418    80597650.735    19412552.195  
  19412546.867  
  19516531.602   104253815.379    19516537.992    81086358.931    19516536.984  
  19516530.609  
  22493641.586   118204914.913                    92107795.282    22493651.031  
                
  20316208.680   108716146.686    20316213.961    84557055.235    20316213.500  
  20316207.168  
  20428523.781   107352615.014                    83651459.300    20428530.000  
                
  21679099.000   113924452.760                    88772341.533    21679108.410  
                
 21  8  6  0 45 40.0000000  0 14G 6R13G24R 5G14G22G21G19R22R12G 3R21
                                G17G 1
  23423297.609   123090261.470                    95914546.769    23423308.086  
                
  21513981.805   114883502.742    21513986.875    89353839.944    21513986.688  
  21513979.898  
  23231575.250   122082744.132                    95129461.679    23231584.867  
                
  22659780.148   121129492.766    22659786.113    94211864.705    22659786.016  
  22659778.473  
  20831910.570   109472433.871                    85303231.758    20831917.449  
                
  22791782.812   119771648.135    22791786.520    93328566.9934                 
                
  24450619.016   128488851.977                                                  
                
  20836101.156   109494453.064    20836105.719    85320395.2934                 
                
  19410761.906   103615992.517    19410766.215    80590234.727    19410765.988  
  19410760.699  
  19517887.320   104261057.368    19517893.719    81091991.583    19517892.711  
  19517886.336  
  22490599.203   118188927.041                    92095337.198    22490608.648  
                
  20320922.852   108741373.259    20320928.152    84576675.917    20320927.691  
  20320921.371  
  20428243.141   107351140.235                    83650310.125    20428249.359  
                
  21684557.594   113953137.753                    88794693.467    21684566.996  
                
 21  8  6  0 45 50.0000000  0 14G 6R13G24R 5G14G22G21G19R22R12G 3R21
                                G17G 1
  23416478.688   123054427.853                    95886624.498    23416489.160  
                
  21508007.266   114851599.021    21508012.355    89329025.946    21508012.195  
  21508005.383  
  23230590.188   122077567.658                    95125428.076    23230599.824  
                
  22659661.430   121128858.192    22659667.395    94211371.153    22659667.277  
  22659659.691  
  20835540.109   109491507.165                    85318094.045    20835546.969  
                
  22792251.086   119774108.940    22792254.770    93330484.4934                 
                
  24456685.578   128520737.709                                                  
                
  20832270.758   109474324.205    20832275.359    85304710.4734                 
                
  19408987.352   103606519.835    19408991.641    80582867.080    19408991.410  
  19408986.172  
  19519259.828   104268389.040    19519266.230    81097693.992    19519265.223  
  19519258.852  
  22487568.578   118173001.063                    92082927.351    22487578.027  
                
  20325644.641   108766640.492    20325649.949    84596328.198    20325649.484  
  20325643.172  
  20427969.562   107349702.548                    83649189.849    20427975.766  
                
  21690024.195   113981864.958                    88817078.308    21690033.613  
                
 21  8  6  0 46  0.0000000  0 14G 6R13G24R 5G14G22G21G19R22R12G 3R21
                                G17G 1
  23409664.047   123018616.735                    95858719.735    23409674.520  
                
  21502043.586   114819753.401    21502048.688    89304257.143    21502048.574  
  21502041.707  
  23229617.805   122072457.809                    95121446.391    23229627.469  
                
  22659559.422   121128312.878    22659565.359    94210946.994    22659565.211  
  22659557.648  
  20839179.656   109510633.047                    85332997.316    20839186.496  
                
  22792731.641   119776634.402    22792735.344    93332452.4114                 
                
  24462754.812   128552632.612                                                  
                
  20828447.758   109454234.247    20828452.395    85289055.9634                 
                
  19407224.414   103597109.152    19407228.695    80575547.655    19407228.453  
  19407223.250  
  19520649.125   104275810.424    19520655.527    81103466.173    19520654.527  
  19520648.160  
  22484549.742   118157137.059                    92070565.811    22484559.230  
                
  20330374.008   108791948.212    20330379.297    84616011.959    20330378.836  
  20330372.531  
  20427703.031   107348301.929                    83648098.459    20427709.223  
                
  21695498.812   114010634.236                    88839495.916    21695508.262  
                
 21  8  6  0 46 10.0000000  0 14G 6R13G24R 5G14G22G21G19R22R12G 3R21
                                G17G 1
  23402853.703   122982828.177                    95830832.561    23402864.191  
                
  21496090.742   114787965.576    21496095.863    89279533.296    21496095.785  
  21496088.855  
  23228658.117   122067414.635                    95117516.658    23228667.805  
                
  22659474.102   121127856.776    22659480.000    94210592.238    22659479.840  
  22659472.332  
  20842829.195   109529811.519                    85347941.582    20842836.035  
                
  22793224.586   119779224.612    22793228.250    93334470.7294                 
                
  24468825.547   128584536.487                                                  
                
  20824632.164   109434183.216    20824636.844    85273431.7944                 
                
  19405473.133   103587760.699    19405477.426    80568276.654    19405477.184  
  19405471.996  
  19522055.234   104283321.578    19522061.641    81109308.178    19522060.641  
  19522054.270  
  22481542.734   118141335.135                    92058252.637    22481552.234  
                
  20335110.914   108817296.337    20335116.195    84635727.165    20335115.746  
  20335109.461  
  20427443.562   107346938.393                    83647035.961    20427449.750  
                
  21700981.430   114039445.536                    88861946.272    21700990.898  
                
 21  8  6  0 46 20.0000000  0 14G 6R13G24R 5G14G22G21G19R22R12G 3R21
                                G17G 1
  23396047.648   122947062.237                    95802963.027    23396058.164  
                
  21490148.758   114756235.720    21490153.883    89254854.523    21490153.816  
  21490146.867  
  23227711.125   122062438.118                    95113638.837    23227720.820  
                
  22659405.453   121127489.848    22659411.312    94210306.858    22659411.199  
  22659403.703  
  20846488.727   109549042.506                    85362926.767    20846495.555  
                
  22793729.781   119781879.443    22793733.473    93336539.4324                 
                
  24474898.531   128616449.214                                                  
                
  20820823.992   109414171.124    20820828.691    85257837.9624                 
                
  19403733.461   103578474.234    19403737.750    80561053.854    19403737.504  
  19403732.328  
  19523478.125   104290922.413    19523484.543    81115219.940    19523483.539  
  19523477.164  
  22478547.555   118125595.350                    92045987.872    22478557.047  
                
  20339855.359   108842684.832    20339860.641    84655473.788    20339860.203  
  20339853.949  
  20427191.141   107345611.914                    83646002.345    20427197.320  
                
  21706472.023   114068298.746                    88884429.283    21706481.508  
                
 21  8  6  0 46 30.0000000  0 14G 6R13G24R 5G14G22G21G19R22R12G 3R21
                                G17G 1
  23389245.969   122911319.025                    95775111.154    23389256.441  
                
  21484217.766   114724564.529    21484222.898    89230221.370    21484222.848  
  21484215.871  
  23226776.820   122057528.285                    95109812.988    23226786.500  
                
  22659353.516   121127212.184    22659359.328    94210090.881    22659359.215  
  22659351.742  
  20850158.266   109568325.984                    85377952.843    20850165.082  
                
  22794247.258   119784598.915    22794251.004    93338658.5244                 
                
  24480972.969   128648370.798                                                  
                
  20817023.219   109394197.947    20817027.926    85242274.4494                 
                
  19402005.430   103569249.935    19402009.719    80553879.403    19402009.453  
  19402004.273  
  19524917.812   104298612.958    19524924.238    81121201.470    19524923.223  
  19524916.832  
  22475564.203   118109917.767                    92033771.563    22475573.691  
                
  20344607.328   108868113.596    20344612.598    84675251.720    20344612.160  
  20344605.953  
  20426945.758   107344322.432                    83644997.551    20426951.914  
                
  21711970.570   114097193.756                    88906944.851    21711980.078  
                
 21  8  6  0 46 40.0000000  0 14G 6R13G24R 5G14G22G21G19R22R12G 3R21
                                G17G 1
  23382448.602   122875598.650                    95747277.091    23382459.039  
                
  21478297.719   114692951.848    21478302.883    89205633.746    21478302.805  
  21478295.863  
  23225855.219   122052685.223                    95106039.162    23225864.848  
                
  22659318.242   121127023.864    22659324.070    94209944.444    22659323.941  
  22659316.410  
  20853837.797   109587661.998                    85393019.856    20853844.602  
                
  22794777.086   119787383.133    22794780.867    93340828.0334                 
                
  24487049.664   128680301.956                                                  
                
  20813229.875   109374263.810    20813234.582    85226741.3574                 
                
  19400289.039   103560087.755    19400293.328    80546753.270    19400293.070  
  19400287.852  
  19526374.305   104306393.212    19526380.730    81127252.768    19526379.711  
  19526373.320  
  22472592.711   118094302.542                    92021603.880    22472602.207  
                
  20349366.812   108893582.595    20349372.066    84695060.937    20349371.629  
  20349365.465  
  20426707.438   107343070.082                    83644021.699    20426713.586  
                
  21717477.070   114126130.536                    88929492.987    21717486.574  
                
 21  8  6  0 46 50.0000000  0 14G 6R13G24R 5G14G22G21G19R22R12G 3R21
                                G17G 1
  23375655.570   122839901.125                    95719460.856    23375666.020  
                
  21472388.633   114661397.690    21472393.809    89181091.625    21472393.711  
  21472386.785  
  23224946.312   122047908.877                    95102317.335    23224955.895  
                
  22659299.711   121126924.784    22659305.508    94209867.362    22659305.383  
  22659297.797  
  20857527.297   109607050.442                    85408127.731    20857534.094  
                
  22795319.195   119790232.050    22795323.055    93343047.9914                 
                
  24493128.062   128712240.686                                                  
                
  20809443.977   109354368.798    20809448.695    85211238.7584                 
                
  19398584.281   103550987.660    19398588.574    80539675.417    19398588.332  
  19398583.082  
  19527847.570   104314263.100    19527853.992    81133373.780    19527852.977  
  19527846.590  
  22469633.109   118078749.751                    92009484.821    22469642.613  
                
  20354133.812   108919091.741    20354139.062    84714901.394    20354138.605  
  20354132.488  
  20426476.180   107341854.789                    83643074.717    20426482.301  
                
  21722991.484   114155108.927                    88952073.543    21723001.000  
                
 21  8  6  0 47  0.0000000  0 14G 6R13G24R 5G14G22G21G19R22R12G 3R21
                                G17G 1
  23368866.914   122804226.554                    95691662.510    23368877.363  
                
  21466490.578   114629902.400    21466495.766    89156595.291    21466495.672  
  21466488.750  
  23224050.102   122043199.288                    95098647.538    23224059.641  
                
  22659297.867   121126914.993    22659303.652    94209859.767    22659303.527  
  22659296.016  
  20861226.789   109626491.342                    85423276.471    20861233.559  
                
  22795873.672   119793145.733    22795877.551    93345318.3744                 
                
  24499206.516   128744188.636                                                  
                
  20805665.547   109334512.985    20805670.254    85195766.6944                 
                
  19396891.172   103541949.731    19396895.461    80532645.918    19396895.246  
  19396889.930  
  19529337.633   104322222.745    19529344.066    81139564.618    19529343.047  
  19529336.660  
  22466685.398   118063259.448                    91997414.474    22466694.902  
                
  20358908.289   108944640.946    20358913.539    84734773.003    20358913.078  
  20358906.988  
  20426251.977   107340676.610                    83642156.657    20426258.090  
                
  21728513.812   114184128.887                    88974686.491    21728523.344  
                
 21  8  6  0 47 10.0000000  0 14G 6R13G24R 5G14G22G21G19R22R12G 3R21
                                G17G 1
  23362082.648   122768574.990                    95663882.071    23362093.094  
                
  21460603.570   114598466.113    21460608.754    89132144.846    21460608.668  
  21460601.746  
  23223166.594   122038556.427                    95095029.722    23223176.102  
                
  22659312.711   121126994.471    22659318.520    94209921.602    22659318.387  
  22659310.945  
  20864936.219   109645984.550                    85438465.981    20864942.977  
                
  22796440.422   119796124.075    22796444.355    93347639.1614                 
                
  24505287.844   128776145.241                                                  
                
  20801894.539   109314696.246    20801899.227    85180325.0884                 
                
  19395209.688   103532973.872    19395213.980    80525664.699    19395213.766  
  19395208.438  
  19530844.469   104330271.963    19530850.902    81145825.116    19530849.891  
  19530843.496  
  22463749.578   118047831.665                    91985392.837    22463759.082  
                
  20363690.234   108970230.104    20363695.469    84754675.678    20363695.004  
  20363688.938  
  20426034.820   107339535.441                    83641267.437    20426040.922  
                
  21734044.000   114213190.210                    88997331.677    21734053.543  
                
 21  8  6  0 47 20.0000000  0 14G 6R13G24R 5G14G22G21G19R22R12G 3R21
                                G17G 1
  23355302.758   122732946.441                    95636119.570    23355313.199  
                
  21454727.641   114567088.964    21454732.805    89107740.392    21454732.695  
  21454725.832  
  23222295.766   122033980.256                    95091463.888    23222305.293  
                
  22659344.281   121127163.321    22659350.148    94210052.945    22659350.012  
  22659342.668  
  20868655.609   109665530.006                    85453696.190    20868662.340  
                
  22797019.484   119799167.055    22797023.477    93350010.3064                 
                
  24511370.922   128808110.330                                                  
                
  20798130.977   109294918.612    20798135.633    85164913.9474                 
                
  19393539.836   103524060.036    19393544.117    80518731.714    19393543.926  
  19393538.590  
  19532368.055   104338410.692    19532374.488    81152155.233    19532373.484  
  19532367.074  
  22460825.664   118032466.427                    91973419.939    22460835.172  
                
  20368479.602   108995858.940    20368484.809    84774609.212    20368484.344  
  20368478.277  
  20425824.711   107338431.310                    83640407.077    20425830.809  
                
  21739582.039   114242292.789                    89020009.007    21739591.609  
                
 21  8  6  0 47 30.0000000  0 14G 6R13G24R 5G14G22G21G19R22R12G 3R21
                                G17G 1
  23348527.266   122697341.065                    95608375.134    23348537.730  
                
  21448862.797   114535771.065    21448867.953    89083382.038    21448867.836  
  21448861.004  
  23221437.664   122029470.898                    95087950.113    23221447.246  
                
  22659392.570   121127421.526    22659398.473    94210253.789    22659398.332  
  22659390.945  
  20872384.945   109685127.766                    85468967.169    20872391.676  
                
  22797610.875   119802274.713    22797614.859    93352431.8244                 
                
  24517455.250   128840083.913                                                  
                
  20794374.883   109275180.220    20794379.512    85149533.3874                 
                
  19391881.594   103515208.288    19391885.887    80511847.024    19391885.699  
  19391880.344  
  19533908.414   104346638.987    19533914.848    81158555.013    19533913.840  
  19533907.430  
  22457913.688   118017163.938                    91961495.933    22457923.195  
                
  20373276.398   109021527.595    20373281.602    84794573.719    20373281.137  
  20373275.043  
  20425621.656   107337364.272                    83639575.619    20425627.762  
                
  21745127.938   114271436.645                    89042718.486    21745137.531  
                
 21  8  6  0 47 40.0000000  0 14G 6R13G24R 5G14G22G21G19R22R12G 3R21
                                G17G 1
  23341756.203   122661758.946                    95580648.818    23341766.668  
                
  21443009.078   114504512.534    21443014.223    89059069.842    21443014.113  
  21443007.293  
  23220592.281   122025028.365                    95084488.394    23220601.887  
                
  22659457.594   121127769.090    22659463.504    94210524.100    22659463.379  
  22659455.914  
  20876124.227   109704777.798                    85484278.874    20876130.953  
                
  22798214.516   119805446.984    22798218.555    93354903.7724                 
                
  24523540.875   128872065.992                                                  
                
  20790626.273   109255481.177    20790630.891    85134183.4834                 
                
  19390234.992   103506418.604    19390239.293    80505010.602    19390239.098  
  19390233.738  
  19535465.562   104354956.916    19535471.984    81165024.498    19535470.984  
  19535464.566  
  22455013.672   118001924.255                    91949620.853    22455023.172  
                
  20378080.609   109047235.911    20378085.836    84814569.078    20378085.359  
  20378079.254  
  20425425.664   107336334.333                    83638773.078    20425431.785  
                
  21750681.664   114300621.633                    89065460.020    21750691.281  
                
 21  8  6  0 47 50.0000000  0 14G 6R13G24R 5G14G22G21G19R22R12G 3R21
                                G17G 1
  23334989.555   122626200.079                    95552940.635    23335000.031  
                
  21437166.531   114473313.621    21437171.672    89034804.020    21437171.570  
  21437164.770  
  23219759.609   122020652.607                    95081078.695    23219769.227  
                
  22659539.328   121128206.021    22659545.234    94210863.940    22659545.129  
  22659537.680  
  20879873.438   109724480.000                    85499631.235    20879880.172  
                
  22798830.469   119808683.853    22798834.512    93357426.0034                 
                
  24529627.727   128904056.359                                                  
                
  20786885.141   109235821.410    20786889.746    85118864.1894                 
                
  19388600.016   103497690.939    19388604.312    80498222.418    19388604.105  
  19388598.750  
  19537039.461   104363364.414    19537045.891    81171563.669    19537044.887  
  19537038.473  
  22452125.594   117986747.381                    91937794.735    22452135.102  
                
  20382892.242   109072983.837    20382897.457    84834595.231    20382896.984  
  20382890.895  
  20425236.727   107335341.482                    83637999.428    20425242.867  
                
  21756243.203   114329847.611                    89088233.497    21756252.816  
                
 21  8  6  0 48  0.0000000  0 14G 6R13G24R 5G14G22G21G19R22R12G 3R21
                                G17G 1
  23328227.367   122590664.590                    95525250.650    23328237.844  
                
  21431335.109   114442174.200    21431340.277    89010584.485    21431340.152  
  21431333.340  
  23218939.633   122016343.601                    95077721.021    23218949.246  
                
  22659637.742   121128732.294    22659643.695    94211273.291    22659643.605  
  22659636.246  
  20883632.570   109744234.355                    85515024.219    20883639.297  
                
  22799458.703   119811985.405    22799462.742    93359998.6644                 
                
  24535716.875   128936055.139                                                  
                
  20783151.492   109216200.963    20783156.082    85103575.5354                 
                
  19386976.648   103489025.343    19386980.953    80491482.509    19386980.730  
  19386975.371  
  19538630.109   104371861.392    19538636.543    81178172.425    19538635.535  
  19538629.117  
  22449249.492   117971633.418                    91926017.634    22449259.016  
                
  20387711.234   109098771.223    20387716.457    84854652.076    20387715.973  
  20387709.906  
  20425054.852   107334385.711                    83637254.663    20425060.996  
                
  21761812.516   114359114.520                    89111038.861    21761822.152  
                
 21  8  6  0 48 10.0000000  0 14G 6R13G24R 5G14G22G21G19R22R12G 3R21
                                G17G 1
  23321469.641   122555152.556                    95497578.946    23321480.125  
                
  21425514.891   114411094.630    21425520.094    88986411.501    21425519.926  
  21425513.129  
  23218132.391   122012101.499                    95074415.490    23218142.012  
                
  22659752.930   121129348.020    22659758.910    94211752.190    22659758.816  
  22659751.551  
  20887401.633   109764040.866                    85530457.857    20887408.367  
                
  22800099.281   119815351.631    22800103.305    93362621.6844                 
                
  24541807.781   128968062.161                                                  
                
  20779425.352   109196619.965    20779429.938    85088317.6154                 
                
  19385364.930   103480421.848    19385369.230    80484790.900    19385369.008  
  19385363.641  
  19540237.531   104380447.936    19540243.969    81184850.839    19540242.957  
  19540236.527  
  22446385.383   117956582.511                    91914289.667    22446394.906  
                
  20392537.570   109124597.962    20392542.805    84874739.546    20392542.332  
  20392536.262  
  20424880.055   107333467.100                    83636538.861    20424886.215  
                
  21767389.594   114388422.256                    89133876.054    21767399.238  
                
 21  8  6  0 48 20.0000000  0 14G 6R13G24R 5G14G22G21G19R22R12G 3R21
                                G17G 1
  23314716.406   122519664.113                    95469925.621    23314726.902  
                
  21419705.930   114380075.100    21419711.145    88962285.201    21419710.977  
  21419704.160  
  23217337.883   122007926.287                    95071162.064    23217347.508  
                
  22659884.820   121130053.102    22659890.852    94212300.595    22659890.746  
  22659883.457  
  20891180.617   109783899.522                    85545932.133    20891187.355  
                
  22800752.148   119818782.532    22800756.199    93365295.1624                 
                
  24547900.188   129000077.488                                                  
                
  20775706.727   109177078.465    20775711.332    85073090.4794                 
                
  19383764.805   103471880.330    19383769.113    80478147.509    19383768.863  
  19383763.523  
  19541861.734   104389124.056    19541868.168    81191598.928    19541867.156  
  19541860.719  
  22443533.297   117941594.724                    91902610.886    22443542.805  
                
  20397371.297   109150464.149    20397376.539    84894857.683    20397376.062  
  20397369.988  
  20424712.305   107332585.588                    83635851.969    20424718.473  
                
  21772974.461   114417770.790                    89156745.017    21772984.121  
                
 21  8  6  0 48 30.0000000  0 14G 6R13G24R 5G14G22G21G19R22R12G 3R21
                                G17G 1
  23307967.625   122484199.157                    95442290.615    23307978.148  
                
  21413908.195   114349115.546    21413913.395    88938205.548    21413913.188  
  21413906.422  
  23216556.055   122003817.799                    95067960.646    23216565.695  
                
  22660033.461   121130847.584    22660039.492    94212918.495    22660039.406  
  22660032.137  
  20894969.477   109803810.118                    85561446.881    20894976.215  
                
  22801417.344   119822278.004    22801421.328    93368018.8494                 
                
  24553994.320   129032100.830                                                  
                
  20771995.570   109157576.260    20772000.195    85057893.9594                 
                
  19382176.305   103463400.829    19382180.602    80471552.340    19382180.332  
  19382175.023  
  19543502.625   104397889.412    19543509.062    81198416.424    19543508.051  
  19543501.598  
  22440693.203   117926670.001                    91890981.235    22440702.699  
                
  20402212.305   109176369.357    20402217.551    84915006.173    20402217.074  
  20402211.016  
  20424551.586   107331741.016                    83635193.859    20424557.762  
                
  21778567.000   114447159.843                    89179645.586    21778576.664  
                
 21  8  6  0 48 40.0000000  0 14G 6R13G24R 5G14G22G21G19R22R12G 3R21
                                G17G 1
  23301223.383   122448757.915                    95414674.071    23301233.906  
                
  21408121.750   114318216.247    21408126.945    88914172.769    21408126.727  
  21408119.973  
  23215786.961   121999776.193                    95064811.340    23215796.613  
                
  22660198.789   121131731.343    22660204.824    94213605.860    22660204.738  
  22660197.551  
  20898768.250   109823772.763                    85577002.175    20898774.980  
                
  22802094.781   119825838.131    22802098.770    93370793.0344                 
                
  24560089.656   129064132.311                                                  
                
  20768291.961   109138113.624    20768296.605    85042728.2734                 
                
  19380599.445   103454983.428    19380603.734    80465005.480    19380603.457  
  19380598.168  
  19545160.266   104406744.246    19545166.715    81205303.513    19545165.699  
  19545159.223  
  22437865.148   117911808.536                    91879400.893    22437874.660  
                
  20407060.641   109202313.789    20407065.902    84935185.176    20407065.414  
  20407059.379  
  20424397.945   107330933.623                    83634564.727    20424404.129  
                
  21784167.281   114476589.446                    89202577.729    21784176.945  
                
 21  8  6  0 48 50.0000000  0 14G 6R13G24R 5G14G22G21G19R22R12G 3R21
                                G17G 1
  23294483.617   122413340.283                    95387075.926    23294494.121  
                
  21402346.625   114287377.443    21402351.801    88890187.040    21402351.582  
  21402344.859  
  23215030.570   121995801.344                    95061714.062    23215040.230  
                
  22660380.828   121132704.475    22660386.871    94214362.742    22660386.789  
  22660379.668  
  20902576.891   109843787.273                    85592597.884    20902583.602  
                
  22802784.547   119829462.773    22802788.477    93373617.4134                 
                
  24566186.492   129096171.710                                                  
                
  20764595.844   109118690.479    20764600.527    85027593.3644                 
                
  19379034.148   103446627.789    19379038.434    80458506.656    19379038.145  
  19379032.875  
  19546834.648   104415688.453    19546841.090    81212260.104    19546840.074  
  19546833.570  
  22435049.117   117897010.269                    91867869.791    22435058.625  
                
  20411916.250   109228297.161    20411921.516    84955394.468    20411921.031  
  20411914.988  
  20424251.336   107330163.219                    83633964.406    20424257.523  
                
  21789775.242   114506059.385                    89225541.298    21789784.895  
                
 21  8  6  0 49  0.0000000  0 14G 6R13G24R 5G14G22G21G19R22R12G 3R21
                                G17G 1
  23287748.383   122377946.379                    95359496.253    23287758.848  
                
  21396582.797   114256598.918    21396587.938    88866248.193    21396587.715  
  21396581.023  
  23214286.906   121991893.301                    95058668.829    23214296.551  
                
  22660579.578   121133766.924    22660585.641    94215189.100    22660585.562  
  22660578.488  
  20906395.391   109863853.596                    85608233.975    20906402.113  
                
  22803486.516   119833151.866    22803490.477    93376492.0694                 
                
  24572284.828   129128218.943                                                  
                
  20760907.266   109099306.880    20760911.977    85012489.2704                 
                
  19377480.461   103438334.114    19377484.734    80452056.024    19377484.461  
  19377479.188  
  19548525.742   104424721.940    19548532.191    81219286.149    19548531.172  
  19548524.641  
  22432245.141   117882275.295                    91856388.012    22432254.645  
                
  20416779.141   109254319.395    20416784.402    84975633.968    20416783.906  
  20416777.883  
  20424111.781   107329429.782                    83633392.895    20424117.965  
                
  21795390.859   114535569.561                    89248536.207    21795400.496  
                
 21  8  6  0 49 10.0000000  0 14G 6R13G24R 5G14G22G21G19R22R12G 3R21
                                G17G 1
  23281017.664   122342576.251                    95331935.103    23281028.113  
                
  21390830.320   114225880.991    21390835.430    88842356.480    21390835.230  
  21390828.559  
  23213555.930   121988052.026                    95055675.635    23213565.590  
                
  22660795.062   121134918.702    22660801.105    94216084.901    22660801.020  
  22660794.008  
  20910223.742   109883971.702                    85623910.415    20910230.469  
                
  22804200.828   119836905.492    22804204.746    93379416.9404                 
                
  24578384.719   129160273.961    24578388.066   100644387.0054                 
                
  20757226.211   109079962.807    20757230.930    84997415.9674                 
                
  19375938.375   103430102.379    19375942.645    80445653.563    19375942.363  
  19375937.125  
  19550233.547   104433844.680    19550240.000    81226381.601    19550238.977  
  19550232.426  
  22429453.211   117867603.673                    91844955.585    22429462.703  
                
  20421649.258   109280380.410    20421654.523    84995903.651    20421654.035  
  20421648.020  
  20423979.250   107328733.350                    83632850.225    20423985.434  
                
  21801014.109   114565119.851                    89271562.380    21801023.707  
                
 21  8  6  0 49 20.0000000  0 14G 6R13G24R 5G14G22G21G19R22R12G 3R21
                                G17G 1
  23274291.469   122307229.879                    95304392.497    23274301.934  
                
  21385089.180   114195223.707    21385094.262    88818511.927    21385094.082  
  21385087.410  
  23212837.648   121984277.440                    95052734.397    23212847.297  
                
  22661027.180   121136159.649    22661033.277    94217050.110    22661033.191  
  22661026.230  
  20914061.922   109904141.440                    85639627.084    20914068.645  
                
  22804927.383   119840723.490    22804931.262    93382392.0034                 
                
  24584486.055   129192336.625    24584489.656   100669370.8094                 
                
  20753552.656   109060658.217    20753557.398    84982373.4374                 
                
  19374407.867   103421932.461    19374412.141    80439299.198    19374411.875  
  19374406.633  
  19551958.031   104443056.557    19551964.480    81233546.387    19551963.461  
  19551956.902  
  22426673.344   117852995.379                    91833572.509    22426682.836  
                
  20426526.594   109306479.985    20426531.855    85016203.313    20426531.371  
  20426525.355  
  20423853.734   107328073.809                    83632336.296    20423859.922  
                
  21806644.945   114594710.046                    89294619.674    21806654.539  
                
 21  8  6  0 49 30.0000000  0 14G 6R13G24R 5G14G22G21G19R22R12G 3R21
                                G17G 1
  23267569.812   122271907.441                    95276868.553    23267580.289  
                
  21379359.430   114164627.165    21379364.484    88794714.617    21379364.320  
  21379357.656  
  23212132.086   121980569.658                    95049845.220    23212141.738  
                
  22661276.047   121137489.964    22661282.156    94218084.784    22661282.062  
  22661275.148  
  20917909.945   109924362.907                    85655384.070    20917916.668  
                
  22805666.180   119844606.045    22805670.105    93385417.4134                 
                
  24590588.781   129224407.047    24590592.617   100694360.8404                 
                
  20749886.641   109041393.175    20749891.379    84967361.7204                 
                
  19372888.961   103413824.491    19372893.234    80432993.000    19372892.977  
  19372887.754  
  19553699.234   104452357.726    19553705.695    81240780.630    19553704.676  
  19553698.102  
  22423905.562   117838450.600                    91822238.912    22423915.043  
                
  20431411.133   109332618.142    20431416.402    85036532.992    20431415.918  
  20431409.887  
  20423735.273   107327451.250                    83631851.185    20423741.453  
                
  21812283.367   114624340.171                    89317708.081    21812292.973  
                
 21  8  6  0 49 40.0000000  0 14G 6R13G24R 5G14G22G21G19R22R12G 3R21
                                G17G 1
  23260852.734   122236608.961                    95249363.241    23260863.184  
                
  21373641.086   114134091.598    21373646.125    88770964.743    21373645.965  
  21373639.324  
  23211439.227   121976928.685                    95047008.098    23211448.875  
                
  22661541.625   121138909.606    22661547.750    94219188.946    22661547.652  
  22661540.754  
  20921767.789   109944636.010                    85671181.286    20921774.508  
                
  22806417.250   119848553.031    22806421.188    93388492.9734                 
                
  24596693.055   129256485.127    24596697.141   100719356.6724                 
                
  20746228.148   109022167.685    20746232.871    84952380.8214                 
                
  19371381.656   103405778.379    19371385.918    80426734.921    19371385.664  
  19371380.453  
  19555457.133   104461748.074    19555463.598    81248084.223    19555462.574  
  19555456.012  
  22421149.867   117823969.367                    91810954.841    22421159.359  
                
  20436302.875   109358794.801    20436308.145    85056892.618    20436307.664  
  20436301.613  
  20423623.836   107326865.640                    83631394.863    20423630.012  
                
  21817929.375   114654010.133                    89340827.529    21817938.973  
                
 21  8  6  0 49 50.0000000  0 14G 6R13G24R 5G14G22G21G19R22R12G 3R21
                                G17G 1
  23254140.242   122201334.659                    95221876.779    23254150.699  
                
  21367934.219   114103617.264    21367939.238    88747262.491    21367939.098  
  21367932.457  
  23210759.117   121973354.613                    95044223.095    23210768.734  
                
  22661823.922   121140418.665    22661830.059    94220362.656    22661829.961  
  22661823.023  
  20925635.477   109964960.818                    85687018.797    20925642.203  
                
  22807180.664   119852564.557    22807184.527    93391618.7824                 
                
  24602798.734   129288570.808    24602803.234   100744358.5724                 
                
  20742577.242   109002982.042    20742581.941    84937430.9714                 
                
  19369885.938   103397794.145    19369890.191    80420524.958    19369889.949  
  19369884.738  
  19557231.719   104471227.636    19557238.195    81255457.221    19557237.188  
  19557230.629  
  22418406.289   117809551.867                    91799720.465    22418415.816  
                
  20441201.797   109385010.018    20441207.078    85077282.234    20441206.613  
  20441200.527  
  20423519.438   107326317.063                    83630967.404    20423525.613  
                
  21823582.969   114683719.910                    89363977.985    21823592.547  
                
 21  8  6  0 50  0.0000000  0 14G 6R13G24R 5G14G22G21G19R22R12G 3R21
                                G17G 1
  23247432.383   122166084.597                    95194409.195    23247442.820  
                
  21362238.859   114073204.414    21362243.875    88723608.071    21362243.742  
  21362237.070  
  23210091.734   121969847.479                    95041490.269    23210101.367  
                
  22662122.930   121142017.093    22662129.090    94221605.897    22662128.988  
  22662122.043  
  20929512.992   109985337.302                    85702896.568    20929519.723  
                
  22807956.305   119856640.527    22807960.180    93394794.8324                 
                
  24608905.867   129320664.130    24608910.652   100769366.2914                 
                
  20738933.930   108983836.302    20738938.602    84922512.2154                 
                
  19368401.836   103389871.897    19368406.082    80414363.211    19368405.836  
  19368400.633  
  19559023.023   104480796.431    19559029.500    81262899.610    19559028.488  
  19559021.953  
  22415674.883   117795198.208                    91788535.795    22415684.395  
                
  20446107.922   109411263.607    20446113.191    85097701.680    20446112.723  
  20446106.629  
  20423422.117   107325805.607                    83630568.869    20423428.297  
                
  21829244.117   114713469.416                    89387159.417    21829253.695  
                
 21  8  6  0 50 10.0000000  0 14G 6R13G24R 5G14G22G21G19R22R12G 3R21
                                G17G 1
  23240729.125   122130858.834                    95166960.572    23240739.562  
                
  21356555.016   114042853.020    21356560.020    88700001.444    21356559.891  
  21356553.191  
  23209437.070   121966407.271                    95038809.594    23209446.723  
                
  22662438.688   121143704.962    22662444.859    94222918.673    22662444.754  
  22662437.773  
  20933400.352   110005765.442                    85718814.597    20933407.070  
                
  22808744.227   119860781.106    22808748.121    93398021.2844                 
                
  24615014.508   129352765.028    24615019.559   100794379.8984                 
                
  20735298.203   108964730.455    20735302.828    84907624.5494                 
                
  19366929.336   103382011.555    19366933.559    80408249.606    19366933.340  
  19366928.113  
  19560831.047   104490454.536    19560837.516    81270411.460    19560836.500  
  19560829.980  
  22412955.625   117780908.441                    91777400.915    22412965.129  
                
  20451021.211   109437555.547    20451026.480    85118150.957    20451026.000  
  20451019.914  
  20423331.836   107325331.211                    83630199.214    20423338.027  
                
  21834912.828   114743258.591                    89410371.732    21834922.371  
                
 21  8  6  0 50 20.0000000  0 14G 6R13G24R 5G14G22G21G19R22R12G 3R21
                                G17G 1
  23234030.500   122095657.422                    95139530.923    23234040.945  
                
  21350882.789   114012563.647    21350887.770    88676443.038    21350887.660  
  21350880.957  
  23208795.148   121963033.966                    95036181.050    23208804.812  
                
  22662771.172   121145482.245    22662777.359    94224301.000    22662777.254  
  22662770.234  
  20937297.500   110026245.110                    85734772.769    20937304.219  
                
  22809544.398   119864986.180    22809548.293    93401297.9864                 
                
  24621124.539   129384873.308    24621129.820   100819399.2894                 
                
  20731670.062   108945664.456    20731674.648    84892767.9294                 
                
  19365468.414   103374213.118    19365472.637    80402184.156    19365472.406  
  19365467.195  
  19562655.727   104500201.627    19562662.199    81277992.533    19562661.184  
  19562654.668  
  22410248.508   117766682.552                    91766315.830    22410258.008  
                
  20455941.625   109463885.691    20455946.906    85138629.956    20455946.430  
  20455940.344  
  20423248.609   107324893.857                    83629858.417    20423254.793  
                
  21840589.008   114773087.162                    89433614.780    21840598.551  
                
 21  8  6  0 50 30.0000000  0 14G 6R13G24R 5G14G22G21G19R22R12G 3R21
                                G17G 1
  23227336.523   122060480.440                    95112120.314    23227346.980  
                
  21345222.094   113982335.875    21345227.062    88652932.558    21345226.977  
  21345220.266  
  23208165.961   121959727.576                    95033604.635    23208175.602  
                
  22663120.367   121147348.907    22663126.566    94225752.847    22663126.473  
  22663119.410  
  20941204.461   110046776.328                    85750771.115    20941211.172  
                
  22810356.914   119869255.843    22810360.797    93404624.9984                 
                
  24627235.953   129416989.027    24627241.504   100844424.5564                 
                
  20728049.508   108926638.396    20728054.082    84877942.4394                 
                
  19364019.117   103366476.650    19364023.324    80396166.904    19364023.090  
  19364017.887  
  19564497.094   104510037.865    19564503.559    81285642.930    19564502.551  
  19564496.035  
  22407553.602   117752520.722                    91755280.639    22407563.094  
                
  20460869.188   109490254.067    20460874.480    85159138.694    20460873.992  
  20460867.895  
  20423172.453   107324493.697                    83629546.606    20423178.645  
                
  21846272.719   114802955.198                    89456888.568    21846282.242  
                
 21  8  6  0 50 40.0000000  0 14G 6R13G24R 5G14G22G21G19R22R12G 3R21
                                G17G 1
  23220647.227   122025327.986                    95084728.803    23220657.684  
                
  21339573.023   113952170.169    21339577.988    88629470.345    21339577.895  
  21339571.207  
  23207549.531   121956488.142                    95031080.378    23207559.125  
                
  22663486.281   121149305.004    22663492.508    94227274.264    22663492.422  
  22663485.273  
  20945121.227   110067359.049                    85766809.594    20945127.941  
                
  22811181.672   119873589.955    22811185.578    93408002.2144                 
                
  24633348.781   129449112.058    24633354.461   100869455.4544                 
                
  20724436.586   108907652.325    20724441.129    84863148.0944                 
                
  19362581.406   103358802.103    19362585.609    80390197.813    19362585.371  
  19362580.184  
  19566355.156   104519963.299    19566361.609    81293362.704    19566360.609  
  19566354.086  
  22404870.883   117738422.976                    91744295.390    22404880.375  
                
  20465803.867   109516660.526    20465809.164    85179677.045    20465808.668  
  20465802.543  
  20423103.352   107324130.552                    83629263.639    20423109.547  
                
  21851963.906   114832862.525                    89480192.947    21851973.414  
                
 21  8  6  0 50 50.0000000  0 14G 6R13G24R 5G14G22G21G19R22R12G 3R21
                                G17G 1
  23213962.609   121990200.149                    95057356.477    23213973.066  
                
  21333935.539   113922066.394    21333940.496    88606056.310    21333940.379  
  21333933.730  
  23206945.828   121953315.655                    95028608.310    23206955.398  
                
  22663868.953   121151350.494    22663875.160    94228865.184    22663875.082  
  22663867.844  
  20949047.781   110087993.234                    85782888.190    20949054.508  
                
  22812018.734   119877988.558    22812022.625    93411429.6544                 
                
  24639462.977   129481242.461    24639468.762   100894492.1544                 
                
  20720831.273   108888706.352    20720835.820    84848385.0084                 
                
  19361155.297   103351189.484    19361159.500    80384276.908    19361159.258  
  19361154.098  
  19568229.914   104529977.877    19568236.363    81301151.816    19568235.371  
  19568228.828  
  22402200.367   117724389.401                    91733360.161    22402209.871  
                
  20470745.641   109543104.920    20470750.941    85200244.896    20470750.449  
  20470744.285  
  20423041.320   107323804.564                    83629009.619    20423047.500  
                
  21857662.547   114862809.086                    89503527.944    21857672.055  
                
 21  8  6  0 51  0.0000000  0 14G 6R13G24R 5G14G22G21G19R22R12G 3R21
                                G17G 1
  23207282.688   121955096.940                    95030003.334    23207293.137  
                
  21328309.695   113892024.720    21328314.641    88582690.571    21328314.500  
  21328307.895  
  23206354.859   121950210.116                    95026188.408    23206364.430  
                
  22664268.297   121153485.295    22664274.520    94230525.596    22664274.426  
  22664267.113  
  20952984.133   110108678.826                    85799006.821    20952990.855  
                
  22812867.953   119882451.644    22812871.945    93414907.4664                 
                
  24645578.695   129513380.044    24645584.375   100919534.2434                 
                
  20717233.602   108869800.470    20717238.172    84833653.1554                 
                
  19359740.781   103343638.685    19359744.965    80378404.065    19359744.750  
  19359739.590  
  19570121.312   104540081.346    19570127.758    81309010.061    19570126.777  
  19570120.234  
  22399542.086   117710420.071                    91722474.990    22399551.590  
                
  20475694.492   109569587.189    20475699.793    85220842.211    20475699.297  
  20475693.125  
  20422986.336   107323515.651                    83628784.496    20422992.520  
                
  21863368.641   114892794.762                    89526893.378    21863378.129  
                
 21  8  6  0 51 10.0000000  0 14G 6R13G24R 5G14G22G21G19R22R12G 3R21
                                G17G 1
  23200607.453   121920018.430                    95002669.446    23200617.895  
                
  21322695.547   113862045.505    21322700.480    88559373.414    21322700.332  
  21322693.746  
  23205776.617   121947171.491                    95023820.672    23205786.184  
                
  22664684.406   121155709.658    22664690.637    94232255.657    22664690.559  
  22664683.133  
  20956930.234   110129415.771                    85815165.484    20956936.961  
                
  22813729.555   119886979.227    22813733.457    93418435.4114                 
                
  24651695.461   129545524.862    24651701.434   100944582.3314                 
                
  20713643.555   108850934.648    20713648.156    84818952.5194                 
                
  19358337.836   103336149.726    19358342.016    80372579.334    19358341.816  
  19358336.664  
  19572029.383   104550273.886    19572035.816    81316937.589    19572034.844  
  19572028.297  
  22396896.047   117696515.030                    91711639.885    22396905.523  
                
  20480650.422   109596107.299    20480655.695    85241468.937    20480655.195  
  20480649.035  
  20422938.406   107323263.759                    83628588.220    20422944.582  
                
  21869082.148   114922819.444                    89550289.236    21869091.637  
                
 21  8  6  0 51 20.0000000  0 14G 6R13G24R 5G14G22G21G19R22R12G 3R21
                                G17G 1
  23193936.945   121884964.725                    94975354.885    23193947.371  
                
  21317093.148   113832129.084    21317098.090    88536105.103    21317097.910  
  21317091.375  
  23205211.125   121944199.846                    95021505.102    23205220.695  
                
  22665117.219   121158023.347    22665123.477    94234055.204    22665123.383  
  22665115.902  
  20960886.109   110150204.022                    85831364.119    20960892.832  
                
  22814603.328   119891571.106    22814607.219    93422013.5494                 
                
  24657812.547   129577676.690    24657820.266   100969635.6854                 
                
  20710061.148   108832108.956    20710065.789    84804283.1494                 
                
  19356946.492   103328722.646    19356950.664    80366802.721    19356950.477  
  19356945.309  
  19573954.117   104560555.428    19573960.539    81324934.328    19573959.555  
  19573953.020  
  22394262.250   117682674.348                    91700854.941    22394271.711  
                
  20485613.375   109622665.017    20485618.648    85262124.937    20485618.152  
  20485612.012  
  20422897.523   107323048.899                    83628420.795    20422903.688  
                
  21874803.078   114952883.030                    89573715.396    21874812.551  
                
 21  8  6  0 51 30.0000000  0 15G 6R13R23G24R 5G14G22G21G19R22R12G 3
                                R21G17G 1
  23187271.133   121849935.761                    94948059.624    23187281.582  
                
  21311502.492   113802275.245    21311507.426    88512885.446    21311507.219  
  21311500.734  
  23565017.195   126056943.212                                                  
  23565016.195  
  23204658.367   121941295.038                    95019241.607    23204667.941  
                
  22665566.734   121160426.285    22665572.996    94235924.151    22665572.887  
  22665565.371  
  20964851.727   110171043.447                    85847602.621    20964858.449  
                
  22815489.445   119896227.381    22815493.223    93425641.7694                 
                
  24663932.984   129609835.556    24663939.633   100994694.4324                 
                
  20706486.352   108813323.280    20706491.031    84789644.9584                 
                
  19355566.695   103321357.215    19355570.867    80361074.048    19355570.664  
  19355565.488  
  19575895.484   104570925.855    19575901.906    81333000.211    19575900.930  
  19575894.395  
  22391640.680   117668898.000                    91690120.140    22391650.160  
                
  20490583.328   109649260.242    20490588.605    85282810.104    20490588.102  
  20490581.984  
  20422863.664   107322870.994                    83628282.169    20422869.824  
                
  21880531.367   114982985.326                    89597171.709    21880540.824  
                
 21  8  6  0 51 40.0000000  0 15G 6R13R23G24R 5G14G22G21G19R22R12G 3
                                R21G17G 1
  23180610.078   121814931.750                    94920783.785    23180620.531  
                
  21305923.562   113772484.143    21305928.516    88489714.606    21305928.266  
  21305921.832  
  23557916.820   126018961.352                                                  
  23557915.789  
  23204118.344   121938457.211                    95017030.305    23204127.918  
                
  22666033.000   121162918.688    22666039.242    94237862.683    22666039.168  
  22666031.555  
  20968827.086   110191934.085                    85863881.041    20968833.812  
                
  22816387.648   119900948.083    22816391.547    93429320.2224                 
                
  24670053.625   129642001.303    24670060.500   101019758.7424                 
                
  20702919.203   108794577.792    20702923.914    84775038.0874                 
                
  19354198.477   103314053.586    19354202.652    80355393.448    19354202.453  
  19354197.242  
  19577853.516   104581385.275    19577859.934    81341135.311    19577858.949  
  19577852.418  
  22389031.398   117655186.145                    91679435.590    22389040.883  
                
  20495560.305   109675893.031    20495565.605    85303524.498    20495565.102  
  20495558.941  
  20422836.852   107322730.122                    83628172.399    20422843.008  
                
  21886267.023   115013126.318                    89620658.174    21886276.469  
                
 21  8  6  0 51 50.0000000  0 15G 6R13R23G24R 5G14G22G21G19R22R12G 3
                                R21G17G 1
  23173953.766   121779952.648                    94893527.347    23173964.219  
                
  21300356.414   113742755.934    21300361.375    88466592.682    21300361.141  
  21300354.691  
  23550819.703   125980996.655                                                  
  23550818.516  
  23203591.047   121935686.237                    95014871.097    23203600.633  
                
  22666515.930   121165500.299    22666522.176    94239870.608    22666522.098  
  22666514.418  
  20972812.164   110212875.831                    85880199.285    20972818.914  
                
  22817298.234   119905733.181    22817302.082    93433048.8714                 
                
  24676176.391   129674173.932    24676182.934   101044828.2704                 
                
  20699359.688   108775872.463    20699364.414    84760462.5124                 
                
  19352841.836   103306811.697    19352846.012    80349760.864    19352845.840  
  19352840.574  
  19579828.156   104591933.414    19579834.562    81349339.412    19579833.574  
  19579827.062  
  22386434.398   117641538.804                    91668801.289    22386443.867  
                
  20500544.281   109702563.292    20500549.590    85324268.017    20500549.086  
  20500542.867  
  20422817.086   107322626.249                    83628091.465    20422823.242  
                
  21892009.984   115043305.819                    89644174.677    21892019.449  
                
 21  8  6  0 52  0.0000000  0 15G 6R13R23G24R 5G14G22G21G19R22R12G 3
                                R21G17G 1
  23167302.242   121744998.621                    94866290.434    23167312.688  
                
  21294801.133   113713091.006    21294806.082    88443519.952    21294805.848  
  21294799.402  
  23543725.742   125943049.198                                                  
  23543724.598  
  23203076.484   121932982.221                    95012764.067    23203086.074  
                
  22667015.625   121168171.374    22667021.859    94241948.088    22667021.777  
  22667014.059  
  20976806.977   110233868.700                    85896557.370    20976813.734  
                
  22818221.047   119910582.628    22818224.984    93436827.7884                 
                
  24682300.023   129706353.481    24682306.508   101069903.1794                 
                
  20695807.852   108757207.432    20695812.582    84745918.3394                 
                
  19351496.773   103299631.714    19351500.977    80344176.444    19351500.820  
  19351495.520  
  19581819.430   104602570.405    19581825.840    81357612.618    19581824.844  
  19581818.340  
  22383849.695   117627956.084                    91658217.335    22383859.137  
                
  20505535.219   109729270.747    20505540.508    85345040.473    20505540.016  
  20505533.785  
  20422804.383   107322559.532                    83628039.481    20422810.543  
                
  21897760.273   115073523.829                    89667721.175    21897769.746  
                
 21  8  6  0 52 10.0000000  0 15G 6R13R23G24R 5G14G22G21G19R22R12G 3
                                R21G17G 1
  23160655.469   121710069.672                    94839073.084    23160665.914  
                
  21289257.625   113683488.942    21289262.559    88420496.124    21289262.332  
  21289255.848  
  23536635.070   125905118.985                                                  
  23536633.926  
  23202574.641   121930345.094                    95010709.204    23202584.289  
                
  22667532.016   121170931.745    22667538.230    94244095.027    22667538.156  
  22667530.531  
  20980811.508   110254912.602                    85912955.209    20980818.266  
                
  22819156.969   119915496.371                                                  
                
  24688424.477   129738539.775    24688431.449   101094983.4554                 
                
  20692263.672   108738582.659    20692268.426    84731405.5364                 
                
  19350163.234   103292513.251    19350167.441    80338639.868    19350167.332  
  19350161.984  
  19583827.305   104613296.094    19583833.719    81365954.818    19583832.723  
  19583826.223  
  22381277.297   117614438.001                    91647683.768    22381286.723  
                
  20510533.094   109756015.417    20510538.367    85365841.884    20510537.883  
  20510531.676  
  20422798.742   107322529.811                    83628016.311    20422804.879  
                
  21903517.867   115103780.144                    89691297.518    21903527.340  
                
 21  8  6  0 52 20.0000000  0 15G 6R13R23G24R 5G14G22G21G19R22R12G 3
                                R21G17G 1
  23154013.477   121675165.833                    94811875.306    23154023.938  
                
  21283725.953   113653950.193    21283730.883    88397521.546    21283730.645  
  21283724.160  
  23529547.625   125867206.038                                                  
  23529546.508  
  23202085.555   121927774.875                    95008706.416    23202095.219  
                
  22668065.078   121173781.379    22668071.309    94246311.429    22668071.246  
  22668063.676  
  20984825.727   110276007.453                    85929392.748    20984832.496  
                
  22820104.852   119920474.393                                                  
                
  24694550.977   129770732.644    24694557.730   101120068.6934                 
                
  20688727.148   108719998.129    20688731.906    84716924.0774                 
                
  19348841.305   103285456.692    19348845.523    80333151.434    19348845.383  
  19348840.023  
  19585851.781   104624110.512    19585858.207    81374366.037    19585857.211  
  19585850.719  
  22378717.195   117600984.615                    91637200.616    22378726.617  
                
  20515537.938   109782797.263    20515543.184    85386672.198    20515542.711  
  20515536.547  
  20422800.102   107322536.987                    83628021.902    20422806.238  
                
  21909282.742   115134074.709                    89714903.666    21909292.203  
                
 21  8  6  0 52 30.0000000  0 15G 6R13R23G24R 5G14G22G21G19R22R12G 3
                                R21G17G 1
  23147376.289   121640287.286                    94784697.234    23147386.758  
                
  21278206.203   113624475.050    21278211.141    88374596.442    21278210.906  
  21278204.410  
  23522463.438   125829310.536                                                  
  23522462.391  
  23201609.195   121925271.623                    95006755.837    23201618.906  
                
  22668614.922   121176720.473    22668621.125    94248597.368    22668621.055  
  22668613.516  
  20988849.664   110297153.338                    85945870.048    20988856.430  
                
  22821063.688   119925516.792                                                  
                
  24700677.984   129802932.231    24700685.570   101145159.1514                 
                
  20685198.320   108701453.993    20685203.059    84702474.1064                 
                
  19347530.953   103278461.930    19347535.180    80327711.058    19347535.004  
  19347529.641  
  19587892.883   104635013.658    19587899.312    81382846.247    19587898.309  
  19587891.816  
  22376169.438   117587596.085                    91626768.001    22376178.852  
                
  20520549.688   109809616.134    20520554.910    85407531.319    20520554.430  
  20520548.316  
  20422808.523   107322581.248                    83628056.393    20422814.664  
                
  21915054.891   115164407.496                    89738539.576    21915064.363  
                
 21  8  6  0 52 40.0000000  0 15G 6R13R23G24R 5G14G22G21G19R22R12G 3
                                R21G17G 1
  23140743.930   121605434.092                    94757538.931    23140754.418  
                
  21272698.383   113595063.598    21272703.316    88351720.871    21272703.098  
  21272696.605  
  23515382.562   125791432.640                                                  
  23515381.582  
  23201145.602   121922835.359                    95004857.444    23201155.316  
                
  22669181.438   121179748.849    22669187.645    94250952.785    22669187.551  
  22669180.035  
  20992883.289   110318350.195                    85962387.074    20992890.066  
                
  22822035.766   119930623.576                                                  
                
  24706806.836   129835138.501                                                  
                
  20681677.156   108682950.185    20681681.863    84688055.5614                 
                
  19346232.156   103271528.850    19346236.379    80322318.657    19346236.176  
  19346230.844  
  19589950.562   104646005.430    19589957.004    81391395.402    19589956.004  
  19589949.496  
  22373634.039   117574272.452                    91616385.947    22373643.438  
                
  20525568.359   109836472.060    20525573.566    85428419.259    20525573.082  
  20525567.008  
  20422823.977   107322662.514                    83628119.734    20422830.133  
                
  21920834.297   115194778.389                    89762205.195    21920843.754  
                
 21  8  6  0 52 50.0000000  0 15G 6R13R23G24R 5G14G22G21G19R22R12G 3
                                R21G17G 1
  23134116.375   121570606.195                    94730400.349    23134126.918  
                
  21267202.516   113565716.023    21267207.477    88328894.993    21267207.242  
  21267200.762  
  23508304.914   125753572.031                                                  
  23508303.934  
  23200694.688   121920465.946                    95003011.182    23200704.453  
                
  22669764.641   121182866.474    22669770.863    94253377.604    22669770.762  
  22669763.277  
  20996926.586   110339597.826                    85978943.673    20996933.371  
                
  22823019.508   119935794.561                                                  
                
  24712936.672   129867351.152                                                  
                
  20678163.672   108664486.726    20678168.352    84673668.4484                 
                
  19344944.875   103264657.281    19344949.105    80316974.109    19344948.879  
  19344943.582  
  19592024.836   104657085.786    19592031.281    81400013.447    19592030.277  
  19592023.781  
  22371110.984   117561013.703                    91606054.454    22371120.387  
                
  20530593.906   109863364.823    20530599.109    85449335.854    20530598.621  
  20530592.578  
  20422846.461   107322780.690                    83628211.813    20422852.609  
                
  21926620.906   115225187.156                    89785900.319    21926630.340  
                
 21  8  6  0 53  0.0000000  0 15G 6R13R23G24R 5G14G22G21G19R22R12G 3
                                R21G17G 1
  23127493.656   121535803.671                    94703281.516    23127504.211  
                
  21261718.594   113536432.201    21261723.555    88306118.683    21261723.324  
  21261716.848  
  23501230.477   125715728.833                                                  
  23501229.457  
  23200256.516   121918163.374                    95001216.986    23200266.301  
                
  22670364.547   121186073.283    22670370.762    94255871.779    22670370.645  
  22670363.164  
  21000979.539   110360896.224                    85995539.820    21000986.316  
                
  22824015.570   119941029.621                                                  
                
  24719068.070   129899570.179                                                  
                
  20674657.883   108646063.717    20674662.535    84659312.8734                 
                
  19343669.148   103257847.418    19343673.387    80311677.555    19343673.188  
  19343667.898  
  19594115.680   104668254.727    19594122.148    81408700.401    19594121.133  
  19594114.633  
  22368600.266   117547819.850                    91595773.540    22368609.660  
                
  20535626.320   109890294.299    20535631.527    85470281.001    20535631.031  
  20535625.012  
  20422875.977   107322935.782                    83628332.666    20422882.113  
                
  21932414.672   115255633.673                    89809624.899    21932424.105  
                
 21  8  6  0 53 10.0000000  0 15G 6R13R23G24R 5G14G22G21G19R22R12G 3
                                R21G17G 1
  23120875.805   121501026.667                    94676182.559    23120886.367  
                
  21256246.672   113507212.445    21256251.641    88283392.223    21256251.414  
  21256244.926  
  23494159.336   125677903.220                                                  
  23494158.188  
  23199831.102   121915927.751                    94999474.940    23199840.887  
                
  22670981.125   121189369.220    22670987.324    94258435.282    22670987.215  
  22670979.715  
  21005042.156   110382245.392                    86012175.533    21005048.918  
                
  22825023.789   119946328.848                                                  
                
  24725200.258   129931795.649                                                  
                
  20671159.805   108627681.249    20671164.441    84644988.8824                 
                
  19342405.000   103251099.247    19342409.227    80306428.977    19342409.031  
  19342403.750  
  19596223.109   104679512.209    19596229.598    81417456.218    19596228.586  
  19596222.039  
  22366101.945   117534691.075                    91585543.326    22366111.336  
                
  20540665.594   109917260.416    20540670.785    85491254.640    20540670.301  
  20540664.277  
  20422912.539   107323127.919                    83628482.385    20422918.684  
                
  21938215.625   115286117.939                    89833378.904    21938225.082  
                
 21  8  6  0 53 20.0000000  0 15G 6R13R23G24R 5G14G22G21G19R22R12G 3
                                R21G17G 1
  23114262.812   121466275.153                    94649103.449    23114273.359  
                
  21250786.758   113478056.820    21250791.727    88260715.631    21250791.496  
  21250785.008  
  23487091.508   125640095.094                                                  
  23487090.359  
  23199418.391   121913758.959                    94997784.968    23199428.172  
                
  22671614.398   121192754.441    22671620.609    94261068.232    22671620.465  
  22671612.980  
  21009114.406   110403645.184                    86028850.692    21009121.164  
                
  22826044.945   119951692.304                                                  
                
  24731333.742   129964027.383                                                  
                
  20667669.445   108609339.283    20667674.078    84630696.4424                 
                
  19341152.352   103244412.596    19341156.574    80301228.265    19341156.402  
  19341151.141  
  19598347.109   104690858.150    19598353.605    81426280.823    19598352.586  
  19598346.016  
  22363616.000   117521627.341                    91575363.790    22363625.379  
                
  20545711.695   109944263.081    20545716.879    85512256.711    20545716.387  
  20545710.379  
  20422956.109   107323356.942                    83628660.852    20422962.258  
                
  21944023.742   115316639.808                    89857162.172    21944033.199  
                
 21  8  6  0 53 30.0000000  0 15G 6R13R23G24R 5G14G22G21G19R22R12G 3
                                R21G17G 1
  23107654.680   121431549.258                    94622044.323    23107665.227  
                
  21245338.859   113448965.376    21245343.840    88238088.961    21245343.617  
  21245337.086  
  23480026.945   125602304.594                                                  
  23480025.902  
  23199018.414   121911657.053                    94996147.110    23199028.191  
                
  22672264.383   121196228.959    22672270.594    94263770.618    22672270.461  
  22672262.969  
  21013196.297   110425095.632                    86045565.309    21013203.051  
                
  22827077.406   119957119.888                                                  
                
  24737468.484   129996265.353                                                  
                
  20664186.805   108591037.901    20664191.441    84616435.6284                 
                
  19339911.242   103237787.481    19339915.445    80296075.396    19339915.301  
  19339910.039  
  19600487.641   104702292.478    19600494.164    81435174.188    19600493.141  
  19600486.523  
  22361142.453   117508628.753                    91565235.019    22361151.828  
                
  20550764.602   109971302.220    20550769.773    85533287.141    20550769.285  
  20550763.281  
  20423006.734   107323622.951                    83628868.132    20423012.871  
                
  21949839.016   115347199.179                    89880974.638    21949848.461  
                
 21  8  6  0 53 40.0000000  0 15G 6R13R23G24R 5G14G22G21G19R22R12G 3
                                R21G17G 1
  23101051.430   121396849.037                    94595005.209    23101061.980  
                
  21239902.992   113419938.253    21239908.004    88215512.327    21239907.754  
  21239901.180  
  23472965.727   125564531.822                                                  
  23472964.762  
  23198631.156   121909622.041                    94994561.398    23198640.945  
                
  22672931.023   121199792.577    22672937.262    94266542.335    22672937.113  
  22672929.602  
  21017287.812   110446596.662                    86062319.351    21017294.562  
                
  22828122.039   119962611.729                                                  
                
  24743604.328   130028509.547                                                  
                
  20660711.867   108572777.015    20660716.512    84602206.3724                 
                
  19338681.672   103231223.977    19338685.871    80290970.454    19338685.719  
  19338680.480  
  19602644.711   104713815.158    19602651.238    81444136.262    19602650.219  
  19602643.582  
  22358681.305   117495695.398                    91555157.091    22358690.676  
                
  20555824.320   109998377.782    20555829.480    85554345.914    20555828.992  
  20555822.992  
  20423064.391   107323925.930                    83629104.217    20423070.520  
                
  21955661.414   115377795.983                    89904816.275    21955670.848  
                
 21  8  6  0 53 50.0000000  0 15G 6R13R23G24R 5G14G22G21G19R22R12G 3
                                R21G17G 1
  23094453.086   121362174.624                    94567986.217    23094463.645  
                
  21234479.266   113390975.773    21234484.281    88192985.947    21234484.020  
  21234477.418  
  23465907.812   125526776.783                                                  
  23465906.891  
  23198256.648   121907653.963                    94993027.829    23198266.434  
                
  22673614.383   121203445.563    22673620.648    94269383.548    22673620.504  
  22673612.949  
  21021388.961   110468148.319                    86079112.840    21021395.691  
                
  22829179.148   119968167.737                                                  
                
  24749741.312   130060759.960                                                  
                
  20657244.688   108554556.853    20657249.336    84588008.8464                 
                
  19337463.664   103224722.158    19337467.867    80285913.483    19337467.719  
  19337462.445  
  19604818.352   104725426.329    19604824.879    81453167.164    19604823.859  
  19604817.234  
  22356232.609   117482827.375                    91545130.047    22356241.969  
                
  20560890.820   110025489.668    20560895.980    85575432.937    20560895.496  
  20560889.500  
  20423129.094   107324265.963                    83629369.178    20423135.223  
                
  21961490.922   115408430.147                    89928687.031    21961500.352  
                
 21  8  6  0 54  0.0000000  0 15G 6R13R23G24R 5G14G22G21G19R22R12G 3
                                R21G17G 1
  23087859.672   121327526.047                    94540987.341    23087870.230  
                
  21229067.641   113362077.978    21229072.660    88170509.876    21229072.391  
  21229065.777  
  23458853.234   125489039.646                                                  
  23458852.320  
  23197894.875   121905752.800                    94991546.391    23197904.668  
                
  22674314.445   121207187.751    22674320.734    94272294.130    22674320.594  
  22674312.973  
  21025499.727   110489750.479                    86095945.674    21025506.430  
                
  22830248.812   119973787.895                                                  
                
  24755879.555   130093016.406    24755886.176   101371213.7794                 
                
  20653785.258   108536377.411    20653789.895    84573843.0384                 
                
  19336257.180   103218281.804    19336261.371    80280904.315    19336261.242  
  19336255.941  
  19607008.531   104737125.799    19607015.062    81462266.742    19607014.043  
  19607007.422  
  22353796.359   117470024.742                    91535153.965    22353805.723  
                
  20565964.102   110052637.794    20565969.242    85596548.144    20565968.781  
  20565962.781  
  20423200.852   107324642.967                    83629662.938    20423206.965  
                
  21967327.492   115439101.514                    89952586.801    21967336.934  
                
 21  8  6  0 54 10.0000000  0 15G 6R13R23G24R 5G14G22G21G19R22R12G 3
                                R21G17G 1
  23081271.172   121292903.346                    94514008.641    23081281.742  
                
  21223668.172   113333245.116    21223673.195    88148084.318    21223672.926  
  21223666.293  
  23451802.000   125451320.456                                                  
  23451800.992  
  23197545.828   121903918.508                    94990117.064    23197555.613  
                
  22675031.172   121211019.108    22675037.492    94275274.076    22675037.363  
  22675029.719  
  21029620.086   110511403.084                    86112817.826    21029626.773  
                
  22831330.383   119979472.047                                                  
                
  24762018.891   130125278.916    24762025.461   101396353.3954                 
                
  20650333.555   108518238.591    20650338.203    84559708.8944                 
                
  19335062.234   103211903.167    19335066.430    80275943.150    19335066.285  
  19335060.965  
  19609215.211   104748913.487    19609221.750    81471434.938    19609220.730  
  19609214.125  
  22351372.523   117457287.477                    91525228.832    22351381.902  
                
  20571044.125   110079822.034    20571049.250    85617691.446    20571048.789  
  20571042.816  
  20423279.609   107325056.877                    83629985.467    20423285.727  
                
  21973171.094   115469809.940                    89976515.474    21973180.551  
                
 21  8  6  0 54 20.0000000  0 15G 6R13R23G24R 5G14G22G21G19R22R12G 3
                                R21G17G 1
  23074687.648   121258306.743                    94487050.259    23074698.203  
                
  21218280.883   113304477.345    21218285.914    88125709.391    21218285.645  
  21218279.000  
  23444754.102   125413619.152                                                  
  23444752.930  
  23197209.523   121902151.226                    94988739.949    23197219.305  
                
  22675764.617   121214939.787    22675770.953    94278323.492    22675770.844  
  22675763.188  
  21033750.055   110533106.234                    86129729.369    21033756.738  
                
  22832424.406   119985220.428                                                  
                
  24768159.461   130157547.494    24768165.953   101421497.6824                 
                
  20646889.594   108500140.504    20646894.258    84545606.4924                 
                
  19333878.812   103205586.019    19333883.004    80271029.820    19333882.836  
  19333877.531  
  19611438.438   104760789.534    19611444.984    81480671.857    19611443.969  
  19611437.359  
  22348961.180   117444615.817                    91515354.830    22348970.586  
                
  20576130.914   110107042.478    20576136.027    85638862.898    20576135.559  
  20576129.602  
  20423365.438   107325507.927                    83630336.934    20423371.555  
                
  21979021.789   115500555.561                    90000473.099    21979031.238  
                
 21  8  6  0 54 30.0000000  0 15G 6R13R23G24R 5G14G22G21G19R22R12G 3
                                R21G17G 1
  23068109.047   121223736.030                    94460112.052    23068119.578  
                
  21212905.789   113275774.620    21212910.840    88103385.061    21212910.578  
  21212903.867  
  23437709.531   125375935.645                                                  
  23437708.309  
  23196885.922   121900450.682                    94987414.853    23196895.684  
                
  22676514.688   121218949.407    22676521.059    94281442.105    22676520.973  
  22676513.316  
  21037889.586   110554859.602                    86146680.043    21037896.258  
                
  22833530.430   119991032.809                                                  
                
  24774301.016   130189821.826    24774307.637   101446646.6004                 
                
  20643453.383   108482083.089    20643458.043    84531535.7844                 
                
  19332706.898   103199330.247    19332711.090    80266164.220    19332710.934  
  19332705.598  
  19613678.172   104772753.768    19613684.719    81489977.358    19613683.703  
  19613677.121  
  22346562.297   117432009.592                    91505531.792    22346571.695  
                
  20581224.391   110134298.706    20581229.492    85660062.196    20581229.027  
  20581223.098  
  20423458.273   107325995.802                    83630717.102    20423464.379  
                
  21984879.500   115531337.975                    90024459.384    21984888.934  
                
 21  8  6  0 54 40.0000000  0 15G 6R13R23G24R 5G14G22G21G19R22R12G 3
                                R21G17G 1
  23061535.430   121189191.491                    94433194.246    23061545.938  
                
  21207542.875   113247137.066    21207547.941    88081111.416    21207547.668  
  21207540.938  
  23430668.383   125338270.386                                                  
  23430667.207  
  23196575.047   121898817.089                    94986141.939    23196584.781  
                
  22677281.453   121223048.239    22677287.852    94284630.090    22677287.762  
  22677280.078  
  21042038.719   110576663.385                    86163669.997    21042045.379  
                
  22834648.781   119996909.338                                                  
                
  24780443.742   130222102.035    24780450.176   101471800.0134                 
                
  20640024.953   108464066.579    20640029.605    84517496.9564                 
                
  19331546.523   103193136.075    19331550.707    80261346.534    19331550.543  
  19331545.215  
  19615934.406   104784806.156    19615940.969    81499351.440    19615939.961  
  19615933.367  
  22344175.906   117419469.038                    91495759.930    22344185.305  
                
  20586324.570   110161590.862    20586329.711    85681289.454    20586329.254  
  20586323.320  
  20423558.164   107326520.700                    83631126.115    20423564.266  
                
  21990744.258   115562157.336                    90048474.430    21990753.633  
                
 21  8  6  0 54 50.0000000  0 16G 6R13R23G24R 5G14G22G21R 6G19R22R12
                                G 3R21G17G 1
  23054966.781   121154673.075                    94406296.793    23054977.258  
                
  21202192.250   113218564.990    21202197.301    88058888.682    21202197.016  
  21202190.301  
  23423630.602   125300623.123                                                  
  23423629.512  
  23196276.906   121897250.353                    94984921.099    23196286.578  
                
  22678064.930   121227236.276    22678071.352    94287887.429    22678071.270  
  22678063.594  
  21046197.391   110598517.384                    86180699.087    21046204.051  
                
  22835779.242   120002849.761                                                  
                
  24786587.625   130254388.017    24786593.828   101496957.8494                 
                
  22963569.742   122537966.172                                                  
                
  20636604.289   108446090.917    20636608.930    84503489.9524                 
                
  19330397.633   103187003.305    19330401.816    80256576.612    19330401.668  
  19330396.328  
  19618207.141   104796946.661    19618213.711    81508794.047    19618212.707  
  19618206.113  
  22341801.992   117406994.110                    91486039.219    22341811.402  
                
  20591431.445   110188918.822    20591436.602    85702544.538    20591436.145  
  20591430.203  
  20423665.062   107327082.477                    83631563.868    20423671.164  
                
  21996615.539   115593013.294                    90072517.990    21996625.180  
                
 21  8  6  0 55  0.0000000  0 16G 6R13R23G24R 5G14G22G21R 6G19R22R12
                                G 3R21G17G 1
  23048403.141   121120180.899                    94379419.752    23048413.578  
                
  21196853.922   113190058.572    21196858.945    88036717.013    21196858.660  
  21196851.953  
  23416596.227   125262994.002                                                  
  23416595.215  
  23195991.516   121895750.506                    94983752.368    23196001.125  
                
  22678865.039   121231513.365    22678871.500    94291214.056    22678871.426  
  22678863.797  
  21050365.633   110620421.586                    86197767.292    21050372.312  
                
  22836921.922   120008854.205                                                  
                
  24792732.492   130286679.693    24792738.668   101522120.2674                 
                
  22957657.547   122506416.336                                                  
                
  20633191.422   108428156.133    20633196.023    84489514.7884                 
                
  19329260.266   103180931.938    19329264.445    80251854.436    19329264.262  
  19329258.961  
  19620496.359   104809175.225    19620502.934    81518305.142    19620501.934  
  19620495.348  
  22339440.594   117394584.899                    91476369.705    22339449.996  
                
  20596544.992   110216282.469    20596550.156    85723827.373    20596549.707  
  20596543.734  
  20423778.992   107327681.237                    83632030.437    20423785.094  
                
  22002494.492   115623905.828                    90096590.128    22002503.906  
                
 21  8  6  0 55 10.0000000  0 16G 6R13R23G24R 5G14G22G21R 6G19R22R12
                                G 3R21G17G 1
  23041844.492   121085715.050                    94352563.274    23041854.938  
                
  21191527.867   113161617.744    21191532.871    88014596.365    21191532.598  
  21191525.883  
  23409565.211   125225382.869                                                  
  23409564.199  
  23195718.828   121894317.528                    94982635.760    23195728.391  
                
  22679681.805   121235879.517    22679688.293    94294609.973    22679688.238  
  22679680.555  
  21054543.430   110642375.990                    86214874.598    21054550.102  
                
  22838076.766   120014922.732                                                  
                
  24798878.375   130318977.030    24798884.586   101547287.0534                 
                
  22951754.602   122474917.486                                                  
                
  20629786.320   108410262.276    20629790.914    84475571.5404                 
                
  19328134.406   103174922.076    19328138.586    80247180.106    19328138.434  
  19328133.117  
  19622802.086   104821491.937    19622808.660    81527884.802    19622807.664  
  19622801.074  
  22337091.719   117382241.502                    91466751.473    22337101.117  
                
  20601665.203   110243681.738    20601670.355    85745137.918    20601669.906  
  20601663.926  
  20423899.969   107328316.955                    83632525.802    20423906.070  
                
  22008379.812   115654834.852                    90120690.702    22008389.355  
                
 21  8  6  0 55 20.0000000  0 16G 6R13R23G24R 5G14G22G21R 6G19R22R12
                                G 3R21G17G 1
  23035290.883   121051275.636                    94325727.384    23035301.312  
                
  21186214.164   113133242.795    21186219.156    87992526.960    21186218.859  
  21186212.129  
  23402537.602   125187790.090                                                  
  23402536.559  
  23195458.859   121892951.444                    94981571.275    23195468.426  
                
  22680515.273   121240334.789    22680521.715    94298075.156    22680521.660  
  22680514.012  
  21058730.758   110664380.560                    86232021.020    21058737.430  
                
  22839243.773   120021055.227                                                  
                
  24805025.445   130351279.960    24805031.562   101572458.1044                 
                
  22945861.156   122443469.371                                                  
                
  20626389.023   108392409.407    20626393.598    84461660.2274                 
                
  19327020.102   103168973.839    19327024.270    80242553.701    19327024.105  
  19327018.820  
  19625124.258   104833896.561    19625130.824    81537532.839    19625129.836  
  19625123.262  
  22334755.391   117369964.008                    91457184.596    22334764.773  
                
  20606792.070   110271116.586    20606797.219    85766476.129    20606796.773  
  20606790.801  
  20424028.000   107328989.710                    83633050.021    20424034.098  
                
  22014273.641   115685800.400                    90144819.672    22014282.039  
                
 21  8  6  0 55 30.0000000  0 15G 6R13R23G24R 5G14G22G21G19R22R12G 3
                                R21G17G 1
  23028742.305   121016862.687                    94298912.127    23028752.738  
                
  21180912.758   113104933.702    21180917.781    87970508.799    21180917.484  
  21180910.699  
  23395513.422   125150215.591                                                  
  23395512.332  
  23195211.633   121891652.262                    94980558.928    23195221.184  
                
  22681365.391   121244879.185    22681371.832    94301609.691    22681371.777  
  22681364.160  
  21062927.617   110686435.230                    86249206.477    21062934.309  
                
  22840422.906   120027251.741                                                  
                
  24811173.570   130383588.551    24811179.641   101597633.5934                 
                
  20622999.547   108374597.613    20623004.086    84447780.9134                 
                
  19325917.281   103163086.888    19325921.453    80237974.964    19325921.270  
  19325915.992  
  19627462.906   104846389.202    19627469.473    81547249.332    19627468.492  
  19627461.926  
  22332431.609   117357752.482                    91447669.117    22332440.977  
                
  20611925.523   110298586.819    20611930.715    85787841.881    20611930.254  
  20611924.297  
  20424163.055   107329699.470                    83633603.077    20424169.152  
                
  22020173.531   115716802.377                    90168976.985    22020181.930  
                
 21  8  6  0 55 40.0000000  0 15G 6R13R23G24R 5G14G22G21R 6G19R22R12
                                G 3R21G17
  23022198.789   120982476.311                    94272117.560    23022209.211  
                
  21175623.758   113076690.764    21175628.797    87948542.081    21175628.500  
  21175621.672  
  23388492.672   125112659.448                                                  
  23388491.512  
  23194977.172   121890420.039                    94979598.735    23194986.715  
                
  22682232.164   121249512.627    22682238.594    94305213.488    22682238.535  
  22682230.926  
  21067134.023   110708540.013                    86266430.984    21067140.723  
                
  22841614.219   120033512.199                                                  
                
  24817322.789   130415902.674    24817328.848   101622813.4224                 
                
  22934103.461   122380726.522                                                  
                
  20619617.891   108356826.919    20619622.406    84433933.6284                 
                
  19324825.961   103157261.388    19324830.141    80233444.021    19324829.945  
  19324824.703  
  19629818.023   104858969.774    19629824.582    81557034.214    19629823.605  
  19629817.059  
  22330120.391   117345606.959                    91438205.083    22330129.758  
                
  20617065.609   110326092.457    20617070.836    85809235.165    20617070.352  
  20617064.402  
  20424305.156   107330446.204                    83634184.950    20424311.270  
                
 21  8  6  0 55 50.0000000  0 15G 6R13R23G24R 5G14G22G21R 6G19R22R12
                                G 3R21G17
  23015660.312   120948116.429                    94245343.626    23015670.742  
                
  21170347.195   113048514.252    21170352.234    87926627.009    21170351.953  
  21170345.074  
  23381475.352   125075121.606                                                  
  23381474.223  
  23194755.391   121889254.566                    94978690.555    23194764.906  
                
  22683115.625   121254235.107    22683122.004    94308886.496    22683121.953  
  22683114.363  
  21071349.922   110730694.702                    86283694.374    21071356.637  
                
  22842817.672   120039836.488                                                  
                
  24823473.016   130448222.144    24823479.031   101647997.3784                 
                
  22928238.508   122349432.200                                                  
                
  20616244.031   108339097.224    20616248.543    84420118.2844                 
                
  19323746.125   103151497.130    19323750.312    80228960.716    19323750.133  
  19323744.875  
  19632189.555   104871638.071    19632196.109    81566887.331    19632195.137  
  19632188.598  
  22327821.719   117333527.404                    91428792.454    22327831.078  
                
  20622212.266   110353633.313    20622217.520    85830655.836    20622217.027  
  20622211.070  
  20424454.266   107331229.813                    83634795.557    20424460.387  
                
 21  8  6  0 56  0.0000000  0 16G 6R13R23G24R 5G14G22G21R 6G19R22R12
                                G 3R21G17G 1
  23009126.922   120913783.240                    94218590.506    23009137.363  
                
  21165083.062   113020404.123    21165088.105    87904763.586    21165087.836  
  21165080.914  
  23374461.500   125037602.279                                                  
  23374460.457  
  23194546.344   121888155.974                    94977834.507    23194555.855  
                
  22684015.688   121259046.538    22684022.059    94312628.736    22684022.000  
  22684014.434  
  21075575.336   110752899.350                    86300996.688    21075582.066  
                
  22844033.305   120046224.662                                                  
                
  24829624.242   130480547.050    24829630.312   101673185.6254                 
                
  22922383.492   122318189.440                                                  
                
  20612878.031   108321408.717    20612882.543    84406335.0244                 
                
  19322677.797   103145794.298    19322681.988    80224525.172    19322681.809  
  19322676.566  
  19634577.555   104884394.288    19634584.105    81576808.825    19634583.129  
  19634576.582  
  22325535.656   117321514.020                    91419431.375    22325544.992  
                
  20627365.516   110381209.389    20627370.770    85852103.897    20627370.281  
  20627364.312  
  20424610.430   107332050.401                    83635434.967    20424616.555  
                
  22037912.086   115810020.453                                                  
                
 21  8  6  0 56 10.0000000  0 16G 6R13R23G24R 5G14G22G21R 6G19R22R12
                                G 3R21G17G 1
  23002598.586   120879476.697                    94191858.147    23002609.051  
                
  21159831.375   112992360.368    21159836.398    87882951.769    21159836.133  
  21159829.188  
  23367451.094   125000101.329                                                  
  23367450.137  
  23194350.016   121887124.192                    94977030.504    23194359.512  
                
  22684932.422   121263946.968    22684938.762    94316440.178    22684938.699  
  22684931.137  
  21079810.219   110775153.814                    86318337.822    21079816.965  
                
  22845261.086   120052676.678                                                  
                
  24835776.562   130512877.316    24835782.562   101698377.9644                 
                
  22916538.148   122286998.272                                                  
  22916536.035  
  20609519.828   108303761.267    20609524.355    84392583.7684                 
                
  19321620.938   103140152.749    19321625.152    80220137.314    19321624.957  
  19321619.738  
  19636981.953   104897238.181    19636988.512    81586798.522    19636987.543  
  19636980.988  
  22323262.148   117309566.726                    91410121.807    22323271.480  
                
  20632525.305   110408820.430    20632530.543    85873579.137    20632530.062  
  20632524.090  
  20424773.594   107332907.844                    83636103.109    20424779.727  
                
  22043839.203   115841165.965                    90265869.628    22043847.797  
                
 21  8  6  0 56 20.0000000  0 16G 6R13R23G24R 5G14G22G21R 6G19R22R12
                                G 3R21G17G 1
  22996075.383   120845197.004                    94165146.703    22996085.852  
                
  21154592.117   112964383.046    21154597.145    87861191.632    21154596.887  
  21154589.930  
  23360444.156   124962618.935                                                  
  23360443.281  
  23194166.391   121886159.273                    94976278.639    23194175.914  
                
  22685865.836   121268936.531    22685872.121    94320320.930    22685872.066  
  22685864.543  
  21084054.602   110797458.152                    86335717.828    21084061.371  
                
  22846501.023   120059192.548                                                  
                
  24841929.859   130545212.888    24841935.852   101723574.4844                 
                
  22910702.617   122255858.922                                                  
  22910700.629  
  20606169.469   108286154.987    20606174.012    84378864.5934                 
                
  19320575.586   103134572.630    19320579.832    80215797.231    19320579.621  
  19320574.406  
  19639402.781   104910169.757    19639409.336    81596856.404    19639408.367  
  19639401.816  
  22321001.281   117297685.712                    91400863.864    22321010.582  
                
  20637691.641   110436466.533    20637696.863    85895081.667    20637696.395  
  20637690.426  
  20424943.805   107333802.307                    83636800.091    20424949.945  
                
  22049773.031   115872347.894                    90290167.249    22049781.730  
                
 21  8  6  0 56 30.0000000  0 16G 6R13R23G24R 5G14G22G21R 6G19R22R12
                                G 3R21G17G 1
  22989557.273   120810944.133                    94138456.159    22989567.730  
                
  21149365.406   112936472.717    21149370.438    87839483.605    21149370.172  
  21149363.207  
  23353440.672   124925155.143                                                  
  23353439.801  
  23193995.492   121885261.179                    94975578.826    23194005.035  
                
  22686815.820   121274014.809    22686822.090    94324270.720    22686822.020  
  22686814.566  
  21088308.445   110819812.253                    86353136.609    21088315.234  
                
  22847753.086   120065772.203                                                  
                
  24848084.047   130577553.517    24848090.070   101748775.0094                 
                
  22904876.859   122224771.618                                                  
  22904874.691  
  20602826.953   108268589.935    20602831.504    84365177.5324                 
                
  19319541.711   103129053.719    19319545.977    80211504.742    19319545.746  
  19319540.516  
  19641840.016   104923188.990    19641846.566    81606982.472    19641845.602  
  19641839.035  
  22318752.984   117285870.930                    91391657.559    22318762.297  
                
  20642864.508   110464147.581    20642869.734    85916611.370    20642869.273  
  20642863.309  
  20425121.055   107334733.694                    83637525.842    20425127.184  
                
  22055713.812   115903565.502                    90314492.655    22055722.332  
                
 21  8  6  0 56 40.0000000  0 16G 6R13R23G24R 5G14G22G21R 6G19R22R12
                                G 3R21G17G 1
  22983044.273   120776718.127                    94111786.539    22983054.719  
                
  21144151.234   112908629.401    21144156.281    87817827.702    21144156.027  
  21144149.047  
  23346440.633   124887709.832                                                  
  23346439.656  
  23193837.281   121884429.824                    94974931.022    23193846.836  
                
  22687782.453   121279182.016    22687788.691    94328289.651    22687788.613  
  22687781.234  
  21092571.742   110842216.035                    86370594.104    21092578.559  
                
  22849017.320   120072415.640    22849020.242    93562916.1364                 
                
  24854239.477   130609899.262    24854244.141   101773979.5354                 
                
  22899060.859   122193736.643                                                  
  22899058.746  
  20599492.266   108251066.018    20599496.812    84351522.5294                 
                
  19318519.273   103123595.910    19318523.539    80207259.775    19318523.332  
  19318518.062  
  19644293.641   104936295.800    19644300.191    81617176.650    19644299.223  
  19644292.641  
  22316517.320   117274122.456                    91382502.903    22316526.621  
                
  20648043.875   110491863.416    20648049.109    85938168.133    20648048.648  
  20648042.691  
  20425305.297   107335701.952                    83638280.330    20425311.430  
                
  22061662.492   115934819.217                                                  
                
 21  8  6  0 56 50.0000000  0 16G 6R13R23G24R 5G14G22G21R 6G19R22R12
                                G 3R21G17G 1
  22976536.398   120742519.112                    94085137.970    22976546.844  
                
  21138949.633   112880853.121    21138954.672    87796223.924    21138954.422  
  21138947.441  
  23339444.086   124850283.208                                                  
  23339442.953  
  23193691.812   121883665.343                    94974335.317    23193701.375  
                
  22688765.734   121284438.165    22688771.965    94332377.761    22688771.895  
  22688764.555  
  21096844.500   110864669.504                    86388090.304    21096851.336  
                
  22850293.680   120079122.887    22850296.875    93568142.5544                 
                
  24860395.586   130642250.106    24860400.258   101799187.9214                 
                
  22893254.727   122162753.895                                                  
  22893252.570  
  20596165.430   108233583.408    20596169.984    84337899.7194                 
                
  19317508.367   103118199.583    19317512.637    80203062.632    19317512.426  
  19317507.082  
  19646763.664   104949490.189    19646770.207    81627438.944    19646769.238  
  19646762.648  
  22314294.297   117262440.387                    91373399.990    22314303.578  
                
  20653229.727   110519613.946    20653234.980    85959751.877    20653234.516  
  20653228.555  
  20425496.586   107336707.197                    83639063.641    20425502.727  
                
  22067613.836   115966107.433                    90363226.535    22067624.035  
                
 21  8  6  0 57  0.0000000  0 16G 6R13R23G24R 5G14G22G21R 6G19R22R12
                                G 3R21G17G 1
  22970033.680   120708347.081                    94058510.423    22970044.121  
                
  21133760.617   112853144.073    21133765.637    87774672.448    21133765.387  
  21133758.418  
  23332451.039   124812875.244                                                  
  23332449.910  
  23193559.023   121882967.557                    94973791.586    23193568.586  
                
  22689765.633   121289783.228    22689771.883    94336535.042    22689771.824  
  22689764.531  
  21101126.695   110887172.525                    86405625.112    21101133.535  
                
  22851582.188   120085893.831    22851585.484    93573418.5784                 
                
  24866552.672   130674605.843    24866557.324   101824400.2194                 
                
  22887458.344   122131823.745                                                  
  22887454.941  
  20592846.461   108216142.095    20592851.004    84324309.0844                 
                
  19316508.914   103112864.428    19316513.164    80198913.064    19316512.977  
  19316507.645  
  19649250.055   104962772.049    19649256.590    81637769.279    19649255.609  
  19649249.016  
  22312083.906   117250824.698                    91364348.809    22312093.176  
                
  20658422.055   110547399.115    20658427.328    85981362.559    20658426.844  
  20658420.891  
  20425694.875   107337749.230                    83639875.619    20425701.020  
                
  22073575.086   115997431.896                                                  
                
 21  8  6  0 57 10.0000000  0 16G 6R13R23G24R 5G14G22G21R 6G19R22R12
                                G 3R21G17G 1
  22963536.102   120674202.173                    94031904.020    22963546.555  
                
  21128584.180   112825502.162    21128589.180    87753173.182    21128588.953  
  21128581.988  
  23325461.523   124775486.074                                                  
  23325460.496  
  23193438.961   121882336.609                    94973299.938    23193448.520  
                
  22690782.164   121295217.081    22690788.426    94340761.347    22690788.348  
  22690781.152  
  21105418.312   110909725.126                    86423198.569    21105425.168  
                
  22852882.758   120092728.472    22852886.266    93578744.3054                 
                
  24872710.984   130706966.631    24872715.434   101849616.3264                 
                
  22881671.867   122100946.197                                                  
  22881669.840  
  20589535.344   108198742.110    20589539.895    84310750.6674                 
                
  19315520.922   103107590.424    19315525.145    80194811.059    19315524.953  
  19315519.637  
  19651752.820   104976141.352    19651759.340    81648167.620    19651758.352  
  19651751.762  
  22309886.180   117239275.530                    91355349.451    22309895.418  
                
  20663620.836   110575218.836    20663626.141    86003000.116    20663625.645  
  20663619.715  
  20425900.188   107338828.132                    83640716.318    20425906.320  
                
  22079542.141   116028790.686                    90412070.638    22079551.836  
                
 21  8  6  0 57 20.0000000  0 16G 6R13R23G24R 5G14G22G21R 6G19R22R12
                                G 3R21G17G 1
  22957043.727   120640084.528                    94005318.849    22957054.172  
                
  21123420.406   112797927.897    21123425.387    87731726.518    21123425.172  
  21123418.215  
  23318475.523   124738115.808                                                  
  23318474.578  
  23193331.609   121881772.496                    94972860.379    23193341.188  
                
  22691815.289   121300739.809    22691821.590    94345056.815    22691821.527  
  22691814.379  
  21109719.375   110932327.340                    86440810.675    21109726.250  
                
  22854195.508   120099626.896    22854199.113    93584119.6984                 
                
  24878870.156   130739332.406    24878874.609   101874836.3964                 
                
  22875895.547   122070121.369                                                  
  22875892.629  
  20586232.125   108181383.563    20586236.676    84297224.5224                 
                
  19314544.398   103102377.704    19314548.598    80190756.731    19314548.395  
  19314543.117  
  19654271.969   104989598.167    19654278.484    81658634.025    19654277.484  
  19654270.887  
  22307701.133   117227793.023                    91346402.042    22307710.383  
                
  20668826.055   110603072.990    20668831.375    86024664.452    20668830.879  
  20668824.930  
  20426112.531   107339944.027                    83641585.850    20426118.668  
                
  22085517.562   116060185.251                    90436533.966    22085526.105  
                
 21  8  6  0 57 30.0000000  0 16G 6R13R23G24R 5G14G22G21R 6G19R22R12
                                G 3R21G17G 1
  22950556.531   120605994.125                    93978754.903    22950566.961  
                
  21118269.258   112770421.076    21118274.238    87710332.331    21118274.027  
  21118267.082  
  23311493.078   124700764.474                                                  
  23311492.215  
  23193236.969   121881275.178                    94972472.861    23193246.574  
                
  22692865.047   121306351.342    22692871.352    94349421.336    22692871.297  
  22692864.125  
  21114029.844   110954978.986                    86458461.307    21114036.734  
                
  22855520.352   120106588.949    22855524.074    93589544.6564                 
                
  24885030.141   130771702.962    24885034.637   101900060.1634                 
                
  22870128.641   122039349.613                                                  
  22870126.988  
  20582936.773   108164066.443    20582941.340    84283730.6734                 
                
  19313579.289   103097225.944    19313583.480    80186749.817    19313583.320  
  19313578.039  
  19656807.461   105003142.279    19656813.969    81669168.327    19656812.957  
  19656806.371  
  22305528.742   117216377.105                    91337506.538    22305538.016  
                
  20674037.719   110630961.641    20674043.043    86046355.624    20674042.551  
  20674036.559  
  20426331.898   107341096.818                    83642484.135    20426338.039  
                
  22091498.117   116091614.952                    90461024.659    22091506.992  
                
 21  8  6  0 57 40.0000000  0 16G 6R13R23G24R 5G14G22G21R 6G19R22R12
                                G 3R21G17G 1
  22944074.531   120571931.095                    93952212.307    22944084.961  
                
  21113130.805   112742982.108    21113135.805    87688990.927    21113135.598  
  21113128.664  
  23304514.164   124663432.107                                                  
  23304513.363  
  23193155.047   121880844.706                    94972137.431    23193164.703  
                
  22693931.422   121312051.697    22693937.723    94353854.937    22693937.695  
  22693930.508  
  21118349.742   110977680.143                    86476150.500    21118356.633  
                
  22856857.305   120113614.618    22856861.152    93595019.1744                 
                
  24891190.945   130804078.357    24891195.602   101925287.8044                 
                
  22864372.031   122008631.006                                                  
  22864370.160  
  20579649.344   108146790.899    20579653.930    84270269.2194                 
                
  19312625.680   103092135.527    19312629.867    80182790.614    19312629.691  
  19312624.465  
  19659359.320   105016773.790    19659365.809    81679770.601    19659364.801  
  19659358.250  
  22303369.078   117205027.980                    91328663.062    22303378.324  
                
  20679255.812   110658884.651    20679261.113    86068073.491    20679260.637  
  20679254.605  
  20426558.320   107342286.669                    83643411.283    20426564.461  
                
  22097485.359   116123079.713                    90485542.620    22097494.586  
                
 21  8  6  0 57 50.0000000  0 16G 6R13R23G24R 5G14G22G21R 6G19R22R12
                                G 3R21G17G 1
  22937597.742   120537895.439                    93925691.037    22937608.180  
                
  21108005.070   112715611.060    21108010.098    87667702.358    21108009.859  
  21108002.938  
  23297538.766   124626118.516                                                  
  23297538.008  
  23193085.820   121880480.950                    94971853.995    23193095.531  
                
  22695014.406   121317840.849    22695020.699    94358357.602    22695020.680  
  22695013.531  
  21122679.008   111000430.629                    86493878.152    21122685.918  
                
  22858206.352   120120703.927    22858210.312    93600543.3224                 
                
  24897352.492   130836458.478    24897357.477   101950519.0814                 
                
  22858625.172   121977965.563                                                  
  22858622.500  
  20576369.805   108129556.843    20576374.398    84256840.0844                 
                
  19311683.539   103087106.352    19311687.711    80178879.033    19311687.543  
  19311682.328  
  19661927.516   105030492.594    19661933.992    81690440.772    19661932.984  
  19661926.469  
  22301222.094   117193745.527                    91319871.545    22301231.340  
                
  20684480.281   110686841.815    20684485.582    86089817.946    20684485.094  
  20684479.070  
  20426791.758   107343513.423                    83644367.202    20426797.902  
                
  22103479.484   116154579.348                    90510087.771    22103488.797  
                
 21  8  6  0 58  0.0000000  0 15G 6R13R23G24R 5G14G22G21G19R22R12G 3
                                R21G17G 1
  22931126.211   120503887.358                    93899191.245    22931136.637  
                
  21102892.133   112688308.268    21102897.156    87646466.858    21102896.898  
  21102890.004  
  23290566.930   124588824.122                                                  
  23290565.945  
  23193029.320   121880184.044                    94971622.636    23193039.051  
                
  22696114.000   121323718.867    22696120.324    94362929.411    22696120.340  
  22696113.230  
  21127017.695   111023230.555                    86511644.324    21127024.617  
                
  22859567.516   120127856.953    22859571.527    93606117.1144                 
                
  24903515.148   130868843.439    24903521.363   101975753.9804                 
                
  20573098.195   108112364.391    20573102.805    84243443.3644                 
                
  19310752.836   103082138.212    19310757.000    80175014.937    19310756.852  
  19310751.656  
  19664512.031   105044298.607    19664518.496    81701178.779    19664517.484  
  19664511.008  
  22299087.844   117182529.971                    91311132.156    22299097.094  
                
  20689711.133   110714833.128    20689716.445    86111588.965    20689715.961  
  20689709.953  
  20427032.234   107344777.143                    83645351.926    20427038.379  
                
  22109480.266   116186113.874                    90534660.106    22109489.676  
                
 21  8  6  0 58 10.0000000  0 15G 6R13R23G24R 5G14G22G21G19R22R12G 3
                                R21G17G 1
  22924659.930   120469906.820                    93872712.907    22924670.320  
                
  21097791.930   112661073.516    21097796.965    87625284.273    21097796.699  
  21097789.820  
  23283598.703   124551548.931                                                  
  23283597.562  
  23192985.516   121879953.907                    94971443.316    23192995.258  
                
  22697230.219   121329685.601    22697236.555    94367570.190    22697236.578  
  22697229.520  
  21131365.766   111046079.768                    86529448.897    21131372.695  
                
  22860940.805   120135073.599    22860944.879    93611740.4734                 
                
  24909678.664   130901232.952    24909684.660   102000992.5834                 
                
  20569834.492   108095213.533    20569839.125    84230079.0654                 
                
  19309833.609   103077231.323    19309837.766    80171198.465    19309837.621  
  19309832.418  
  19667112.906   105058191.960    19667119.355    81711984.708    19667118.348  
  19667111.895  
  22296966.320   117171381.322                    91302444.899    22296975.582  
                
  20694948.375   110742858.645    20694953.695    86133386.584    20694953.203  
  20694947.211  
  20427279.734   107346077.783                    83646365.412    20427285.883  
                
  22115487.852   116217683.076                    90559259.483    22115497.121  
                
 21  8  6  0 58 20.0000000  0 15G 6R13R23G24R 5G14G22G21G19R22R12G 3
                                R21G17G 1
  22918198.898   120435953.920                    93846256.107    22918209.270  
                
  21092704.562   112633907.197    21092709.578    87604154.909    21092709.324  
  21092702.449  
  23276634.078   124514292.924                                                  
  23276632.965  
  23192954.438   121879790.580                    94971316.048    23192964.199  
                
  22698362.984   121335740.962    22698369.336    94372279.931    22698369.383  
  22698362.328  
  21135723.203   111068978.255                    86547291.859    21135730.137  
                
  22862326.180   120142353.810    22862330.309    93617413.3714                 
                
  24915842.867   130933627.099    24915848.695   102026234.7044                 
                
  20566578.711   108078104.283    20566583.355    84216747.1824                 
                
  19308925.836   103072385.606    19308929.992    80167429.583    19308929.855  
  19308924.641  
  19669730.062   105072172.364    19669736.512    81722858.354    19669735.496  
  19669729.066  
  22294857.547   117160299.630                    91293809.809    22294866.812  
                
  20700191.945   110770918.041    20700197.273    86155210.555    20700196.781  
  20700190.773  
  20427534.273   107347415.391                    83647407.707    20427540.430  
                
  22121501.938   116249286.928                    90583885.869    22121511.137  
                
 21  8  6  0 58 30.0000000  0 15G 6R13R23G24R 5G14G22G21G19R22R12G 3
                                R21G17G 1
  22911743.133   120402028.705                    93819820.888    22911753.484  
                
  21087629.961   112606809.198    21087634.977    87583078.698    21087634.727  
  21087627.875  
  23269673.008   124477056.059                                                  
  23269672.031  
  23192936.055   121879693.987                    94971240.772    23192945.828  
                
  22699512.375   121341885.066    22699518.703    94377058.676    22699518.770  
  22699511.699  
  21140090.008   111091925.917                    86565173.145    21140096.945  
                
  22863723.648   120149697.574    22863727.820    93623135.7684                 
                
  24922008.281   130966025.701    24922013.645   102051480.3444                 
                
  20563330.859   108061036.698    20563335.520    84203447.7584                 
                
  19308029.500   103067600.920    19308033.656    80163708.159    19308033.516  
  19308028.273  
  19672363.555   105086239.971    19672370.012    81733799.823    19672368.992  
  19672362.574  
  22292761.516   117149284.908                    91285226.903    22292770.781  
                
  20705441.852   110799011.343    20705447.176    86177060.895    20705446.703  
  20705440.695  
  20427795.844   107348789.945                    83648478.778    20427801.992  
                
  22127522.688   116280925.278                    90608539.106    22127531.742  
                
 21  8  6  0 58 40.0000000  0 15G 6R13R23G24R 5G14G22G21G19R22R12G 3
                                R21G17G 1
  22905292.648   120368131.195                    93793407.247    22905302.992  
                
  21082568.172   112579779.639    21082573.215    87562055.734    21082572.977  
  21082566.121  
  23262715.531   124439838.343                                                  
  23262714.625  
  23192930.367   121879664.105                    94971217.491    23192940.141  
                
  22700678.352   121348117.809    22700684.621    94381906.334    22700684.691  
  22700677.680  
  21144466.156   111114922.692                    86583092.697    21144473.109  
                
  22865133.203   120157104.818    22865137.398    93628907.6384                 
                
  24928174.594   130998428.742    24928179.516   102076729.4654                 
                
  20560090.930   108044010.802    20560095.617    84190180.8394                 
                
  19307144.609   103062877.301    19307148.762    80160034.236    19307148.617  
  19307143.363  
  19675013.305   105100394.417    19675019.758    81744808.824    19675018.742  
  19675012.332  
  22290678.234   117138337.200                    91276696.227    22290687.520  
                
  20710698.094   110827138.491    20710703.406    86198937.556    20710702.938  
  20710696.957  
  20428064.422   107350201.355                    83649578.585    20428070.582  
                
  22133549.852   116312598.091                    90633219.199    22133558.898  
                
 21  8  6  0 58 50.0000000  0 15G 6R13R23G24R 5G14G22G21G19R22R12G 3
                                R21G17G 1
  22898847.422   120334261.453                    93767015.283    22898857.789  
                
  21077519.289   112552818.887    21077524.344    87541086.261    21077524.105  
  21077517.227  
  23255761.719   124402640.062                                                  
  23255760.895  
  23192937.375   121879700.951                    94971246.209    23192947.133  
                
  22701860.922   121354439.140    22701867.102    94386822.889    22701867.160  
  22701860.324  
  21148851.641   111137968.539                    86601050.486    21148858.586  
                
  22866554.812   120164575.483    22866559.051    93634728.9424                 
                
  24934341.688   131030836.200    24934346.305   102101982.0014                 
                
  20556858.953   108027026.618    20556863.652    84176946.4044                 
                
  19306271.164   103058214.758    19306275.305    80156407.798    19306275.160  
  19306269.867  
  19677679.344   105114635.885    19677685.809    81755885.515    19677684.797  
  19677678.391  
  22288607.703   117127456.568                    91268217.830    22288617.016  
                
  20715960.617   110855299.305    20715965.922    86220840.407    20715965.453  
  20715959.488  
  20428340.031   107351649.691                    83650707.151    20428346.184  
                
  22139583.328   116344305.158                    90657926.029    22139592.551  
                
 21  8  6  0 59  0.0000000  0 15G 6R13R23G24R 5G14G22G21G19R22R12G 3
                                R21G17G 1
  22892407.531   120300419.635                    93740645.039    22892417.898  
                
  21072483.289   112525926.890    21072488.340    87520170.252    21072488.086  
  21072481.246  
  23248811.508   124365461.126                                                  
  23248810.801  
  23192957.086   121879804.493                    94971326.887    23192966.816  
                
  22703060.016   121360849.151    22703066.191    94391808.487    22703066.270  
  22703059.543  
  21153246.453   111161063.428                    86619046.497    21153253.391  
                
  22867988.555   120172109.719    22867992.797    93640599.7434                 
                
  24940509.156   131063248.060    24940514.000   102127238.0864                 
                
  20553634.914   108010084.190    20553639.621    84163744.5104                 
                
  19305409.109   103053613.004    19305413.250    80152828.654    19305413.137  
  19305407.789  
  19680361.641   105128964.212    19680368.117    81767029.764    19680367.102  
  19680360.688  
  22286549.984   117116643.125                    91259791.760    22286559.297  
                
  20721229.422   110883493.739    20721234.738    86242769.413    20721234.258  
  20721228.297  
  20428622.672   107353134.946                    83651864.492    20428628.828  
                
  22145623.664   116376046.485                    90682659.486    22145632.715  
                
 21  8  6  0 59 10.0000000  0 15G 6R13R23G24R 5G14G22G21G19R22R12G 3
                                R21G17G 1
  22885972.961   120266605.737                    93714296.550    22885983.320  
                
  21067460.148   112499103.757    21067465.238    87499307.842    21067465.012  
  21067458.168  
  23241864.883   124328301.351                                                  
  23241864.121  
  23192989.484   121879974.749                    94971459.554    23192999.215  
                
  22704275.758   121367347.780    22704281.887    94396862.940    22704281.949  
  22704275.309  
  21157650.594   111184207.276                    86637080.660    21157657.527  
                
  22869434.328   120179707.346    22869438.621    93646519.9764                 
                
  24946678.383   131095664.129    24946682.352   102152497.3674                 
                
  20550418.828   107993183.546    20550423.555    84150575.1864                 
                
  19304558.484   103049072.291    19304562.637    80149296.988    19304562.504  
  19304557.191  
  19683060.195   105143379.388    19683066.676    81778241.563    19683065.676  
  19683059.258  
  22284505.023   117105896.846                    91251418.061    22284514.375  
                
  20726504.508   110911721.760    20726509.836    86264724.533    20726509.352  
  20726503.387  
  20428912.336   107354657.099                    83653050.579    20428918.492  
                
  22151670.398   116407821.843                    90707419.558    22151679.371  
                
 21  8  6  0 59 20.0000000  0 16G 6R13R23G24R 5G14G22G21R 6G19R22R12
                                G 3R21G17G 1
  22879543.703   120232819.821                    93687969.878    22879554.070  
                
  21062449.961   112472349.671    21062455.043    87478499.120    21062454.816  
  21062447.980  
  23234921.859   124291160.995                                                  
  23234920.957  
  23193034.555   121880211.650                    94971644.161    23193044.281  
                
  22705507.984   121373934.753    22705514.090    94401986.133    22705514.148  
  22705507.531  
  21162064.039   111207400.030                    86655152.921    21162070.969  
                
  22870892.188   120187368.394    22870896.496    93652489.6034                 
                
  24952846.828   131128084.423    24952852.355   102177759.8544                 
                
  22807358.523   121704406.049                                                  
                
  20547210.695   107976324.730    20547215.438    84137438.4554                 
                
  19303719.289   103044592.658    19303723.461    80145812.831    19303723.312  
  19303718.012  
  19685775.000   105157881.369    19685781.492    81789520.876    19685780.492  
  19685774.062  
  22282472.867   117095217.832                    91243096.755    22282482.234  
                
  20731785.820   110939983.143    20731791.168    86286705.616    20731790.676  
  20731784.730  
  20429209.000   107356216.123                    83654265.412    20429215.168  
                
  22157723.531   116439631.218                    90732206.108    22157732.469  
                
 21  8  6  0 59 30.0000000  0 16G 6R13R23G24R 5G14G22G21R 6G19R22R12
                                G 3R21G17G 1
  22873119.797   120199062.023                    93661665.118    22873130.172  
                
  21057452.805   112445665.055    21057457.863    87457744.411    21057457.645  
  21057450.840  
  23227982.531   124254040.238                                                  
  23227981.672  
  23193092.352   121880515.281                    94971880.744    23193102.051  
                
  22706756.812   121380610.296    22706762.855    94407178.196    22706762.895  
  22706756.324  
  21166486.789   111230641.683                    86673263.297    21166493.723  
                
  22872362.086   120195092.817    22872366.434    93658508.6524                 
                
  24959017.352   131160509.027    24959023.109   102203025.8104                 
                
  22801713.758   121674282.637                                                  
                
  20544010.531   107959507.771    20544015.270    84124334.3384                 
                
  19302891.539   103040174.051    19302895.715    80142376.137    19302895.586  
  19302890.273  
  19688506.047   105172470.096    19688512.551    81800867.660    19688511.555  
  19688505.109  
  22280453.547   117084606.165                    91234827.915    22280462.926  
                
  20737073.383   110968277.947    20737078.723    86308712.685    20737078.227  
  20737072.297  
  20429512.711   107357812.105                    83655509.031    20429518.871  
                
  22163783.164   116471474.584                    90757019.088    22163792.082  
                
 21  8  6  0 59 40.0000000  0 16G 6R13R23G24R 5G14G22G21R 6G19R22R12
                                G 3R21G17G 1
  22866701.266   120165332.415                    93635382.308    22866711.637  
                
  21052468.625   112419049.814    21052473.656    87437043.661    21052473.430  
  21052466.672  
  23221046.875   124216939.136                                                  
  23221046.148  
  23193162.805   121880885.580                    94972169.294    23193172.516  
                
  22708022.148   121387374.271    22708028.156    94412439.069    22708028.172  
  22708021.652  
  21170918.820   111253932.176                    86691411.731    21170925.758  
                
  22873844.039   120202880.548    22873848.367    93664577.0204                 
                
  24965187.758   131192937.718    24965194.910   102228294.9334                 
                
  22796079.070   121644214.447                                                  
                
  20540818.352   107942732.787    20540823.051    84111262.9194                 
                
  19302075.188   103035816.342    19302079.363    80138986.813    19302079.227  
  19302073.941  
  19691253.328   105187145.571    19691259.828    81812281.910    19691258.832  
  19691252.383  
  22278447.047   117074061.908                    91226611.598    22278456.422  
                
  20742367.188   110996606.096    20742372.492    86330745.675    20742372.008  
  20742366.078  
  20429823.438   107359445.024                    83656781.436    20429829.605  
                
  22169849.188   116503351.729                    90781858.445    22169858.148  
                
 21  8  6  0 59 50.0000000  0 16G 6R13R23G24R 5G14G22G21R 6G19R22R12
                                G 3R21G17G 1
  22860288.078   120131630.934                    93609121.417    22860298.449  
                
  21047497.430   112392503.940    21047502.457    87416396.875    21047502.211  
  21047495.496  
  23214114.859   124179857.504                                                  
  23214114.293  
  23193245.945   121881322.487                    94972509.742    23193255.648  
                
  22709304.039   121394226.779    22709310.043    94417768.819    22709310.051  
  22709303.566  
  21175360.125   111277271.367                    86709598.104    21175367.062  
                
  22875338.055   120210731.586    22875342.328    93670694.6914                 
                
  24971359.219   131225370.961                                                  
                
  22790454.734   121614201.313                                                  
                
  20537634.148   107925999.675    20537638.820    84098224.1344                 
                
  19301270.227   103031519.414    19301274.410    80135644.759    19301274.270  
  19301268.996  
  19694016.812   105201907.554    19694023.316    81823763.445    19694022.320  
  19694015.875  
  22276453.352   117063584.984                    91218447.758    22276462.730  
                
  20747667.172   111024967.403    20747672.461    86352804.469    20747671.980  
  20747666.047  
  20430141.180   107361114.750                    83658082.519    20430147.344  
                
  22175921.625   116535262.546                    90806724.010    22175930.605  
                
 21  8  6  1  0  0.0000000  0 16G 6R13R23G24R 5G14G22G21R 6G19R22R12
                                G 3R21G17G 1
  22853880.266   120097957.710                    93582882.554    22853890.660  
                
  21042539.273   112366027.696    21042544.309    87395804.244    21042544.059  
  21042537.355  
  23207186.500   124142795.473                                                  
  23207186.016  
  23193341.773   121881826.016                    94972902.094    23193351.477  
                
  22710602.445   121401167.567    22710608.434    94423167.223    22710608.430  
  22710601.988  
  21179810.695   111300659.254                    86727822.426    21179817.645  
                
  22876844.109   120218645.910    22876848.348    93676861.6974                 
                
  24977531.500   131257807.661                                                  
                
  22784840.781   121584243.405                                                  
                
  20534457.930   107909308.576    20534462.578    84085218.0904                 
                
  19300476.680   103027283.405    19300480.852    80132350.089    19300480.688  
  19300475.434  
  19696796.500   105216756.163    19696803.016    81835312.367    19696802.039  
  19696795.590  
  22274472.492   117053175.523                    91210336.494    22274481.871  
                
  20752973.344   111053361.756    20752978.605    86374888.963    20752978.125  
  20752972.219  
  20430465.930   107362821.329                    83659412.319    20430472.094  
                
  22182000.422   116567206.931                    90831615.753    22182009.434  
                
 21  8  6  1  0 10.0000000  0 15G 6R13R23G24R 5G14G22R 6G19R22R12G 3
                                R21G17G 1
  22847477.859   120064312.849                    93556665.778    22847488.254  
                
  21037594.203   112339621.323    21037599.254    87375265.968    21037599.012  
  21037592.285  
  23200261.852   124105753.236                                                  
  23200261.387  
  23193450.281   121882396.168                    94973346.340    23193459.988  
                
  22711917.398   121408196.800    22711923.402    94428634.423    22711923.371  
  22711916.875  
  21184270.531   111324095.809                    86746084.666    21184277.492  
                
  22878362.180   120226623.516    22878366.410    93683078.0244                 
                
  22779237.102   121554340.985                                                  
                
  20531289.719   107892659.495    20531294.352    84072244.7834                 
                
  19299694.555   103023108.335    19299698.711    80129102.815    19299698.543  
  19299693.285  
  19699592.375   105231691.174    19699598.887    81846928.473    19699597.914  
  19699591.473  
  22272504.484   117042833.589                    91202277.847    22272513.859  
                
  20758285.672   111081789.088    20758290.922    86396999.112    20758290.445  
  20758284.570  
  20430797.719   107364564.860                    83660770.916    20430803.879  
                
  22188085.617   116599184.855                    90856533.616    22188094.629  
                
 21  8  6  1  0 20.0000000  0 15G 6R13R23G24R 5G14G22R 6G19R22R12G 3
                                R21G17G 1
  22841080.836   120030696.326                    93530471.095    22841091.238  
                
  21032662.188   112313284.649    21032667.223    87354781.896    21032667.000  
  21032660.266  
  23193340.836   124068730.490                                                  
  23193340.324  
  23193571.445   121883032.862                    94973842.466    23193581.156  
                
  22713248.883   121415314.345    22713254.875    94434170.279    22713254.852  
  22713248.273  
  21188739.609   111347580.904                    86764384.724    21188746.582  
                
  22879892.305   120234664.292    22879896.516    93689343.5364                 
                
  22773643.836   121524494.268                                                  
                
  20528129.492   107876052.405    20528134.121    84059304.1924                 
                
  19298923.789   103018993.960    19298927.945    80125902.745    19298927.746  
  19298922.527  
  19702404.430   105246712.635    19702410.957    81858611.827    19702409.992  
  19702403.547  
  22270549.320   117032559.166                    91194271.814    22270558.707  
                
  20763604.156   111110249.386    20763609.410    86419134.903    20763608.922  
  20763603.078  
  20431136.508   107366345.257                    83662158.236    20431142.680  
                
  22194177.156   116631196.138                    90881477.461    22194186.168  
                
 21  8  6  1  0 30.0000000  0 15G 6R13R23G24R 5G14G22R 6G19R22R12G 3
                                R21G17G 1
  22834689.234   119997108.271                    93504298.599    22834699.660  
                
  21027743.273   112287017.934    21027748.281    87334352.220    21027748.070  
  21027741.359  
  23186423.500   124031727.546                                                  
  23186422.793  
  23193705.266   121883736.127                    94974390.478    23193714.988  
                
  22714596.883   121422520.165    22714602.855    94439774.815    22714602.836  
  22714596.207  
  21193217.922   111371114.525                    86782722.598    21193224.895  
                
  22881434.453   120242768.298    22881438.699    93695658.3444                 
                
  22768061.062   121494703.432                                                  
                
  20524977.281   107859487.428    20524981.918    84046396.4184                 
                
  19298164.414   103014940.378    19298168.559    80122749.962    19298168.352  
  19298163.145  
  19705232.648   105261820.435    19705239.180    81870362.328    19705238.219  
  19705231.770  
  22268607.039   117022352.382                    91186318.472    22268616.434  
                
  20768928.789   111138742.578    20768934.062    86441296.277    20768933.578  
  20768927.715  
  20431482.312   107368162.504                    83663574.279    20431488.492  
                
  22200275.031   116663240.719                    90906447.262    22200284.070  
                
 21  8  6  1  0 40.0000000  0 15G 6R13R23G24R 5G14G22R 6G19R22R12G 3
                                R21G17G 1
  22828303.047   119963548.710                    93478148.299    22828313.484  
                
  21022837.516   112260821.440    21022842.508    87313977.168    21022842.281  
  21022835.605  
  23179509.906   123994744.460                                                  
  23179509.047  
  23193851.758   121884505.976                    94974990.349    23193861.500  
                
  22715961.375   121429814.200    22715967.324    94445447.967    22715967.301  
  22715960.652  
  21197705.453   111394696.618                    86801098.250    21197712.445  
                
  22882988.617   120250935.444    22882992.895    93702022.3484                 
                
  22762488.711   121464968.371                                                  
                
  20521833.070   107842964.523    20521837.723    84033521.4344                 
                
  19297416.422   103010947.555    19297420.551    80119644.438    19297420.352  
  19297415.156  
  19708077.016   105277014.518    19708083.555    81882179.941    19708082.594  
  19708076.137  
  22266677.625   117012213.244                    91178417.848    22266687.020  
                
  20774259.539   111167268.479    20774264.824    86463483.089    20774264.344  
  20774258.457  
  20431835.148   107370016.602                    83665019.022    20431841.320  
                
  22206379.227   116695318.469                    90931442.924    22206388.301  
                
 21  8  6  1  0 50.0000000  0 15G 6R13R23G24R 5G14G22R 6G19R22R12G 3
                                R21G17G 1
  22821922.289   119930017.663                    93452020.227    22821932.730  
                
  21017944.891   112234695.172    21017949.875    87293656.754    21017949.625  
  21017942.977  
  23172600.023   123957781.198                                                  
  23172599.152  
  23194010.906   121885342.264                    94975641.990    23194020.645  
                
  22717342.328   121437196.400    22717348.297    94451189.729    22717348.273  
  22717341.590  
  21202202.172   111418327.066                    86819511.589    21202209.191  
                
  22884554.766   120259165.667    22884559.102    93708435.5164                 
                
  22756926.883   121435289.365                                                  
                
  20518696.867   107826483.694    20518701.527    84020679.2294                 
                
  19296679.797   103007015.389    19296683.910    80116586.091    19296683.730  
  19296678.512  
  19710937.516   105292294.816    19710944.078    81894064.625    19710943.113  
  19710936.633  
  22264761.086   117002141.743                    91170569.916    22264770.469  
                
  20779596.383   111195826.985    20779601.672    86485695.256    20779601.203  
  20779595.277  
  20432194.977   107371907.536                    83666492.480    20432201.156  
                
  22212489.719   116727429.236                    90956464.298    22212498.832  
                
 21  8  6  1  1  0.0000000  0 15G 6R13R23G24R 5G14G22R 6G19R22R12G 3
                                R21G17G 1
  22815547.008   119896515.313                    93425914.497    22815557.414  
                
  21013065.461   112208639.333    21013070.445    87273391.117    21013070.211  
  21013063.520  
  23165693.852   123920837.848                                                  
  23165693.055  
  23194182.711   121886245.112                    94976345.517    23194192.465  
                
  22718739.844   121444666.948    22718745.805    94457000.150    22718745.770  
  22718739.090  
  21206708.125   111442005.941                    86837962.640    21206715.137  
                
  22886132.938   120267459.018    22886137.316    93714897.8594                 
                
  22751375.695   121405666.949                                                  
                
  20515568.703   107810045.095    20515573.348    84007869.9354                 
                
  19295954.555   103003143.996    19295958.664    80113575.006    19295958.484  
  19295953.270  
  19713814.164   105307661.296    19713820.723    81906016.324    19713819.754  
  19713813.234  
  22262857.453   116992138.050                    91162774.822    22262866.809  
                
  20784939.328   111224418.115    20784944.617    86507932.797    20784944.152  
  20784938.199  
  20432561.820   107373835.342                    83667994.668    20432568.012  
                
  22218606.484   116759573.032                    90981511.412    22218615.625  
                
 21  8  6  1  1 10.0000000  0 16G 6R13R23G24R 5G14G22G21R 6G19R22R12
                                G 3R21G17G 1
  22809177.203   119863041.742                    93399831.194    22809187.574  
                
  21008199.242   112182654.113    21008204.238    87253180.405    21008204.016  
  21008197.312  
  23158791.422   123883914.495                                                  
  23158790.676  
  23194367.188   121887214.546                    94977100.930    23194376.934  
                
  22720153.875   121452225.634    22720159.816    94462879.117    22720159.773  
  22720153.172  
  21211223.266   111465733.149                    86856451.371    21211230.293  
                
  22887723.133   120275815.467    22887727.512    93721409.3504                 
                
  25020761.367   131484966.756                                                  
                
  22745834.977   121376100.599                                                  
                
  20512448.578   107793648.729    20512453.211    83995093.5544                 
                
  19295240.695   102999333.401    19295244.812    80110611.220    19295244.613  
  19295239.418  
  19716706.953   105323114.026    19716713.508    81918035.103    19716712.535  
  19716705.996  
  22260966.727   116982202.225                    91155032.633    22260976.086  
                
  20790288.344   111253041.744    20790293.637    86530195.612    20790293.168  
  20790287.227  
  20432935.695   107375800.048                    83669525.610    20432941.883  
                
  22224729.523   116791749.765                    91006584.194    22224738.680  
                
 21  8  6  1  1 20.0000000  0 14G 6R13R23G24R 5G14G22G19R22R12G 3R21
                                G17G 1
  22802812.859   119829596.910                    93373770.282    22802823.211  
                
  21003346.266   112156739.525    21003351.277    87233024.621    21003351.086  
  21003344.324  
  23151892.750   123847011.183                                                  
  23151892.070  
  23194564.312   121888250.458                    94977908.127    23194574.023  
                
  22721584.344   121459872.466    22721590.309    94468826.669    22721590.258  
  22721583.750  
  21215747.594   111489508.592                    86874977.677    21215754.637  
                
  22889325.266   120284234.918    22889329.711    93727970.0094                 
                
  20509336.469   107777294.519    20509341.094    83982350.0204                 
                
  19294538.172   102995583.330    19294542.285    80107694.501    19294542.109  
  19294536.895  
  19719615.820   105338652.693    19719622.371    81930120.726    19719621.406  
  19719614.848  
  22259088.906   116972334.239                    91147343.297    22259098.262  
                
  20795643.391   111281697.735    20795648.703    86552483.610    20795648.227  
  20795642.293  
  20433316.570   107377801.587                    83671085.254    20433322.762  
                
  22230858.766   116823959.256                    91031682.507    22230867.973  
                
 21  8  6  1  1 30.0000000  0 15G 6R13R23G24R 5G14G22R 6G19R22R12G 3
                                R21G17G 1
  22796454.000   119796180.970                    93347731.910    22796464.355  
                
  20998506.578   112130895.827    20998511.586    87212923.959    20998511.418  
  20998504.578  
  23144997.805   123810127.945                                                  
  23144997.145  
  23194774.109   121889352.895                    94978767.161    23194783.805  
                
  22723031.344   121467607.443    22723037.266    94474842.758    22723037.223  
  22723030.812  
  21220281.102   111513332.292                    86893541.590    21220288.145  
                
  22890939.430   120292717.364    22890943.883    93734579.7014                 
                
  22734784.219   121317138.524                                                  
                
  20506232.422   107760982.659    20506237.023    83969639.4844                 
                
  19293847.039   102991893.978    19293851.152    80104825.004    19293850.922  
  19293845.766  
  19722540.828   105354277.479    19722547.371    81942273.330    19722546.406  
  19722539.848  
  22257224.016   116962534.203                    91139706.913    22257233.383  
                
  20801004.492   111310386.096    20801009.828    86574796.784    20801009.352  
  20801003.398  
  20433704.477   107379840.032                    83672673.651    20433710.656  
                
  22236994.266   116856201.517                    91056806.335    22237003.512  
                
 21  8  6  1  1 40.0000000  0 15G 6R13R23G24R 5G14G22R 6G19R22R12G 3
                                R21G17G 1
  22790100.664   119762793.978                    93321716.081    22790111.020  
                
  20993680.164   112105123.136    20993685.195    87192878.551    20993685.016  
  20993678.160  
  23138106.609   123773264.824                                                  
  23138105.844  
  23194996.539   121890521.834                    94979678.034    23195006.215  
                
  22724494.805   121475430.521    22724500.711    94480927.383    22724500.680  
  22724494.266  
  21224823.766   111537204.151                    86912143.033    21224830.812  
                
  22892565.578   120301262.785    22892570.012    93741238.4654                 
                
  22729275.859   121287742.619                                                  
                
  20503136.438   107744713.135    20503141.012    83956961.9314                 
                
  19293167.266   102988265.332    19293171.383    80102002.726    19293171.156  
  19293165.980  
  19725481.906   105369988.243    19725488.457    81954492.816    19725487.496  
  19725480.934  
  22255372.070   116952802.165                    91132123.509    22255381.430  
                
  20806371.625   111339106.687    20806376.980    86597135.017    20806376.512  
  20806370.516  
  20434099.383   107381915.310                    83674290.754    20434105.562  
                
  22243135.969   116888476.370                    91081955.558    22243145.266  
                
 21  8  6  1  1 50.0000000  0 15G 6R13R23G24R 5G14G22R 6G19R22R12G 3
                                R21G17G 1
  22783752.844   119729435.986                    93295722.852    22783763.203  
                
  20988867.062   112079421.458    20988872.098    87172888.363    20988871.934  
  20988865.043  
  23131219.211   123736421.909                                                  
  23131218.273  
  23195231.633   121891757.227                    94980640.667    23195241.281  
                
  22725974.758   121483341.686    22725980.633    94487080.510    22725980.570  
  22725974.148  
  21229375.594   111561124.142                    86930781.973    21229382.637  
                
  22894203.695   120309871.192    22894208.098    93747946.3244                 
                
  22723777.906   121258403.710                                                  
                
  20500048.500   107728485.946    20500053.059    83944317.3714                 
                
  19292498.852   102984697.319    19292502.969    80099227.602    19292502.758  
  19292497.543  
  19728439.070   105385784.847    19728445.613    81966779.055    19728444.652  
  19728438.094  
  22253533.062   116943138.142                    91124593.105    22253542.422  
                
  20811744.773   111367859.484    20811750.160    86619498.305    20811749.695  
  20811743.629  
  20434501.305   107384027.458                    83675936.591    20434507.488  
                
  22249283.875   116920783.736                    91107130.125    22249293.172  
                
 21  8  6  1  2  0.0000000  0 15G 6R13R23G24R 5G14G22R 6G19R22R12G 3
                                R21G17G 1
  22777410.555   119696107.091                    93269752.293    22777420.922  
                
  20984067.258   112053790.792    20984072.309    87152953.414    20984072.125  
  20984065.223  
  23124335.586   123699599.224                                                  
  23124334.648  
  23195479.367   121893059.101                    94981655.122    23195489.016  
                
  22727471.156   121491340.803    22727477.031    94493302.050    22727476.977  
  22727470.551  
  21233936.578   111585092.228                    86949458.397    21233943.609  
                
  22895853.797   120318542.555    22895858.152    93754703.2454                 
                
  22718290.742   121229122.056                                                  
                
  20496968.656   107712301.229    20496973.211    83931705.9024                 
                
  19291841.828   102981190.042    19291845.945    80096499.719    19291845.785  
  19291840.508  
  19731412.336   105401667.440    19731418.883    81979132.178    19731417.914  
  19731411.359  
  22251707.031   116933542.273                    91117115.804    22251716.383  
                
  20817123.930   111396644.460    20817129.355    86641886.623    20817128.879  
  20817122.746  
  20434910.266   107386176.530                    83677611.194    20434916.438  
                
  22255437.953   116953123.559                    91132329.969    22255447.234  
                
 21  8  6  1  2 10.0000000  0 16G 6R13R23G24R 5G14G22G21R 6G19R22R12
                                G 3R21G17G 1
  22771073.789   119662807.224                    93243804.361    22771084.180  
                
  20979280.844   112028231.618    20979285.887    87133074.054    20979285.684  
  20979278.789  
  23117455.758   123662796.800                                                  
  23117454.887  
  23195739.734   121894427.337                    94982721.277    23195749.398  
                
  22728983.945   121499427.594    22728989.840    94499591.793    22728989.777  
  22728983.312  
  21238506.672   111609108.220                    86968172.149    21238513.699  
                
  22897515.859   120327276.724    22897520.152    93761509.0784                 
                
  25057838.820   131679817.948    25057843.312   102607677.2524                 
                
  22712814.289   121199897.643                                                  
                
  20493896.859   107696158.841    20493901.418    83919127.4214                 
                
  19291196.094   102977743.078    19291200.215    80093818.747    19291200.031  
  19291194.773  
  19734401.633   105417635.687    19734408.180    81991551.920    19734407.211  
  19734400.648  
  22249893.938   116924014.414                    91109691.500    22249903.305  
                
  20822509.078   111425461.386    20822514.508    86664299.765    20822514.039  
  20822507.848  
  20435326.211   107388362.343                    83679314.421    20435332.387  
                
  22261598.133   116985495.591                    91157554.930    22261607.410  
                
 21  8  6  1  2 20.0000000  0 16G 6R13R23G24R 5G14G22G21R 6G19R22R12
                                G 3R21G17G 1
  22764742.594   119629536.543                    93217879.151    22764752.973  
                
  20974507.820   112002743.916    20974512.859    87113250.280    20974512.652  
  20974505.758  
  23110579.727   123626014.601                                                  
  23110578.961  
  23196012.750   121895861.985                    94983839.171    23196022.402  
                
  22730513.258   121507602.592    22730519.180    94505950.109    22730519.113  
  22730512.535  
  21243085.898   111633172.129                    86986923.227    21243092.910  
                
  22899189.867   120336073.792    22899194.102    93768363.9724                 
                
  25064021.008   131712304.623    25064025.418   102632991.5324                 
                
  22707348.609   121170730.949                                                  
                
  20490833.156   107680058.935    20490837.730    83906582.0324                 
                
  19290561.719   102974356.684    19290565.840    80091184.881    19290565.652  
  19290560.395  
  19737406.961   105433689.587    19737413.504    82004038.272    19737412.535  
  19737405.965  
  22248093.820   116914554.715                    91102320.293    22248103.168  
                
  20827900.156   111454310.072    20827905.590    86686737.612    20827905.113  
  20827898.922  
  20435749.180   107390585.009                    83681046.361    20435755.352  
                
  22267764.438   117017899.785                    91182804.955    22267773.730  
                
 21  8  6  1  2 30.0000000  0 16G 6R13R23G24R 5G14G22G21R 6G19R22R12
                                G 3R21G17G 1
  22758416.938   119596295.067                    93191976.719    22758427.332  
                
  20969748.188   111977327.795    20969753.223    87093482.193    20969752.996  
  20969746.152  
  23103707.500   123589252.803                                                  
  23103706.828  
  23196298.367   121897362.965                    94985008.765    23196308.043  
                
  22732058.969   121515865.342    22732064.930    94512376.701    22732064.855  
  22732058.133  
  21247674.219   111657283.898                    87005711.611    21247681.223  
                
  22900875.844   120344933.648    22900879.965    93775267.7584                 
                
  25070203.461   131744794.458    25070208.199   102658308.2884                 
                
  22701893.734   121141621.828                                                  
                
  20487777.523   107664001.509    20487782.125    83894069.7534                 
                
  19289938.664   102971030.866    19289942.801    80088598.138    19289942.598  
  19289937.340  
  19740428.312   105449829.082    19740434.855    82016591.202    19740433.883  
  19740427.316  
  22246306.664   116905163.215                    91095002.258    22246316.016  
                
  20833297.180   111483190.611    20833302.621    86709200.254    20833302.133  
  20833295.934  
  20436179.148   107392844.538                    83682807.036    20436185.340  
                
  22273936.844   117050336.106                    91208080.010    22273946.141  
                
