     2.11           OBSERVATION DATA    M (MIXED)           RINEX VERSION / TYPE
EFT-CORS.RU                             20210813 101212 UTC PGM / RUN BY / DATE 
ANGR                                                        MARKER NAME         
                                                            MARKER NUMBER       
ANGR                EFT-CORS.RU                             OBSERVER / AGENCY   
0                   TRIMBLE BD970       2.0                 REC # / TYPE / VERS 
0                   UNKNOWN EXT NONE                        ANT # / TYPE        
  -931437.4817  3778495.1924  5036899.3175                  APPROX POSITION XYZ 
        0.0000        0.0000        0.0000                  ANTENNA: DELTA H/E/N
     1     1                                                WAVELENGTH FACT L1/2
     6    C1    L1    P2    L2    C2    P1                  # / TYPES OF OBSERV 
    10.000                                                  INTERVAL            
  2021     8     6     0    30    0.0000000     GPS         TIME OF FIRST OBS   
  2021     8     6     1    30    0.0000000     GPS         TIME OF LAST OBS    
     0                                                      RCV CLOCK OFFS APPL 
                                                            END OF HEADER       
 21  8  6  0 30  0.0000000  0 14G19R13R22G 1G21G22G14G 6R 5G24R12R21
                                G 3G17
  21236569.984   111598943.592    21236573.230    86960227.4984                 
                
  22147699.383   118267479.853    22147704.156    91985840.778    22147703.484  
  22147697.598  
  19632570.086   104800074.620    19632573.340    81511135.083    19632573.156  
  19632568.844  
  21210177.688   111460245.750    21210186.008    86852182.8544   21210185.918  
                
  23893909.617   125563363.462    23893914.090    97841590.4114                 
                
  22794522.562   119786068.057    22794526.148    93339805.6774                 
                
  20524938.211   107859284.595    20524943.785    84046219.7064   20524944.027  
                
  24067116.281   126473585.660    24067125.266    98550860.8684   24067126.406  
                
  22755491.484   121641142.330    22755496.750    94609781.268    22755496.727  
  22755490.742  
  23407469.070   123007099.705    23407477.332    95849712.0734   23407477.695  
                
  19469634.305   104003296.557    19469638.617    80891443.714    19469638.465  
  19469633.594  
  19918900.031   106590056.607    19918904.242    82903376.293    19918903.750  
  19918899.312  
  22807483.844   119854154.067    22807491.230    93392894.5144   22807491.988  
                
  20489713.625   107674178.099    20489718.625    83901983.2894   20489718.844  
                
 21  8  6  0 30 10.0000000  0 14G19R13R22G 1G21G22G14G 6R 5G24R12R21
                                G 3G17
  21232081.336   111575355.631    21232084.586    86941847.2864                 
                
  22140808.359   118230682.163    22140813.113    91957220.357    22140812.406  
  22140806.570  
  19629725.141   104784888.122    19629728.387    81499323.372    19629728.207  
  19629723.910  
  21214822.648   111484655.211    21214830.980    86871203.2144   21214830.887  
                
  23899762.703   125594121.578    23899767.148    97865557.7614                 
                
  22793874.594   119782662.997    22793878.160    93337152.4054                 
                
  20527556.109   107873041.691    20527561.676    84056939.5134   20527561.918  
                
  24059970.047   126436032.283    24059979.113    98521598.5324   24059980.242  
                
  22753865.547   121632450.690    22753870.801    94603021.119    22753870.770  
  22753864.824  
  23405294.773   122995673.622    23405303.008    95840808.6394   23405303.387  
                
  19469378.961   104001932.578    19469383.305    80890382.836    19469383.137  
  19469378.250  
  19922832.969   106611102.569    19922837.176    82919745.365    19922836.699  
  19922832.250  
  22803447.938   119832945.362    22803455.266    93376368.2454   22803456.062  
                
  20488766.281   107669199.788    20488771.273    83898104.0904   20488771.492  
                
 21  8  6  0 30 20.0000000  0 14G19R13R22G 1G21G22G14G 6R 5G24R12R21
                                G 3G17
  21227599.375   111551802.748    21227602.629    86923494.3904                 
                
  22133925.578   118193928.517    22133930.328    91928634.192    22133929.633  
  22133923.750  
  19626891.750   104769763.260    19626894.980    81487559.584    19626894.812  
  19626890.535  
  21219477.375   111509116.041    21219485.699    86890263.5994   21219485.621  
                
  23905618.672   125624894.873    23905623.070    97889536.9594                 
                
  22793238.812   119779321.958    22793242.359    93334549.0184                 
                
  20530184.625   107886854.602    20530190.195    84067702.8104   20530190.426  
                
  24052826.891   126398494.896    24052835.988    98492348.6604   24052837.121  
                
  22752255.656   121623844.870    22752260.906    94596327.703    22752260.871  
  22752254.941  
  23403132.664   122984311.665    23403140.887    95831955.1794   23403141.270  
                
  19469140.367   104000658.026    19469144.746    80889391.520    19469144.543  
  19469139.660  
  19926775.055   106632197.455    19926779.273    82936152.492    19926778.793  
  19926774.305  
  22799422.336   119811790.788    22799429.637    93359884.1734   22799430.461  
                
  20487825.961   107664258.364    20487830.941    83894253.6254   20487831.172  
                
 21  8  6  0 30 30.0000000  0 14G19R13R22G 1G21G22G14G 6R 5G24R12R21
                                G 3G17
  21223124.055   111528284.823    21223127.309    86905168.7394                 
                
  22127051.023   118157218.827    22127055.793    91900082.234    22127055.102  
  22127049.184  
  19624069.945   104754700.355    19624073.180    81475844.001    19624073.023  
  19624068.738  
  21224141.875   111533628.178    21224150.180    86909363.9684   21224150.109  
                
  23911477.539   125655683.412    23911481.898    97913528.0134                 
                
  22792615.227   119776044.980    22792618.750    93331995.5424                 
                
  20532823.766   107900723.319    20532829.324    84078509.5924   20532829.562  
                
  24045686.883   126360973.647    24045695.871    98463111.2864   24045697.023  
                
  22750661.891   121615325.207    22750667.152    94589701.298    22750667.102  
  22750661.203  
  23400982.773   122973013.885    23400990.980    95823151.6994   23400991.383  
                
  19468918.500   103999472.867    19468922.879    80888469.730    19468922.688  
  19468917.797  
  19930726.273   106653341.189    19930730.488    82952597.617    19930730.012  
  19930725.520  
  22795407.047   119790690.417    22795414.324    93343442.3514   22795415.168  
                
  20486892.656   107659353.833    20486897.629    83890431.9184   20486897.867  
                
 21  8  6  0 30 40.0000000  0 14G19R13R22G 1G21G22G14G 6R 5G24R12R21
                                G 3G17
  21218655.406   111504801.874    21218658.656    86886870.3464                 
                
  22120184.742   118120553.230    22120189.527    91871564.566    22120188.824  
  22120182.895  
  19621259.680   104739698.991    19621262.914    81464176.285    19621262.742  
  19621258.473  
  21228816.109   111558191.408    21228824.387    86928504.1444   21228824.309  
                
  23917339.273   125686486.947    23917343.645    97937530.7594                 
                
  22792003.812   119772831.947    22792007.328    93329491.8984                 
                
  20535473.500   107914647.716    20535479.039    84089359.7634   20535479.277  
                
  24038549.836   126323468.440    24038558.859    98433886.4664   24038560.008  
                
  22749084.195   121606891.523    22749089.426    94583141.777    22749089.379  
  22749083.516  
  23398845.086   122961780.210    23398853.312    95814398.1924   23398853.691  
                
  19468713.336   103998376.904    19468717.711    80887617.313    19468717.527  
  19468712.633  
  19934686.555   106674533.455    19934690.785    82969080.484    19934690.312  
  19934685.797  
  22791402.070   119769644.254    22791409.355    93327042.7604   22791410.195  
                
  20485966.367   107654486.117    20485971.336    83886638.8924   20485971.578  
                
 21  8  6  0 30 50.0000000  0 14G19R13R22G 1G21G22G14G 6R 5G24R12R21
                                G 3G17
  21214193.406   111481353.926    21214196.660    86868599.2224                 
                
  22113326.766   118083932.096    22113331.555    91843081.471    22113330.871  
  22113324.926  
  19618460.938   104724759.115    19618464.156    81452556.381    19618463.996  
  19618459.742  
  21233500.039   111582805.653    21233508.289    86947684.0834   21233508.227  
                
  23923203.836   125717305.418    23923208.258    97961545.1414                 
                
  22791404.570   119769682.899    22791408.105    93327038.1084                 
                
  20538133.828   107928627.775    20538139.359    84100253.3054   20538139.598  
                
  24031415.852   126285979.338    24031424.902    98404674.2064   24031426.047  
                
  22747522.602   121598543.903    22747527.840    94576649.201    22747527.789  
  22747521.914  
  23396719.609   122950610.669    23396727.852    95805694.6574   23396728.191  
                
  19468524.930   103997370.423    19468529.316    80886834.493    19468529.137  
  19468524.227  
  19938655.914   106695774.248    19938660.137    82985601.098    19938659.656  
  19938655.160  
  22787407.430   119748652.442    22787414.734    93310685.5194   22787415.570  
                
  20485047.078   107649655.244    20485052.051    83882874.5804   20485052.301  
                
 21  8  6  0 31  0.0000000  0 14G19R13R22G 1G21G22G14G 6R 5G24R12R21
                                G 3G17
  21209738.078   111457941.038    21209741.340    86850355.4224                 
                
  22106477.109   118047355.424    22106481.914    91814632.967    22106481.250  
  22106475.301  
  19615673.789   104709881.140    19615676.996    81440984.633    19615676.840  
  19615672.578  
  21238193.656   111607470.793    21238201.891    86966903.6724   21238201.836  
                
  23929071.234   125748138.787    23929075.703    97985571.1264                 
                
  22790817.477   119766597.704    22790821.004    93324634.0684                 
                
  20540804.734   107942663.449    20540810.266    84111190.1854   20540810.492  
                
  24024284.977   126248506.468    24024294.148    98375474.6104   24024295.238  
                
  22745977.094   121590282.311    22745982.328    94570223.517    22745982.262  
  22745976.375  
  23394606.344   122939505.340    23394614.590    95797041.1544   23394614.906  
                
  19468353.234   103996453.273    19468357.645    80886121.155    19468357.453  
  19468352.527  
  19942634.344   106717063.599    19942638.555    83002159.480    19942638.078  
  19942633.609  
  22783423.156   119727715.031    22783430.492    93294370.6674   22783431.301  
                
  20484134.805   107644861.238    20484139.785    83879138.9924   20484140.031  
                
 21  8  6  0 31 10.0000000  0 14G19R13R22G 1G21G22G14G 6R 5G24R12R21
                                G 3G17
  21205289.344   111434562.799    21205292.605    86832138.6214                 
                
  22099635.750   118010823.008    22099640.520    91786218.868    22099639.895  
  22099633.953  
  19612898.102   104695064.338    19612901.281    81429460.458    19612901.121  
  19612896.891  
  21242896.867   111632186.345    21242905.102    86986162.5404   21242905.031  
                
  23934941.375   125778986.588    23934945.828    98009608.3764                 
                
  22790242.508   119763576.197    22790246.031    93322279.6654                 
                
  20543486.156   107956754.347    20543491.684    84122170.1024   20543491.902  
                
  24017157.211   126211049.500    24017166.328    98346287.3534   24017167.406  
                
  22744447.648   121582106.529    22744452.875    94563864.584    22744452.785  
  22744446.918  
  23392505.219   122928463.848    23392513.461    95788437.3954   23392513.762  
                
  19468198.188   103995625.053    19468202.602    80885476.977    19468202.414  
  19468197.473  
  19946621.711   106738400.762    19946625.918    83018755.044    19946625.438  
  19946620.973  
  22779449.164   119706831.723    22779456.527    93278097.9784   22779457.324  
                
  20483229.477   107640103.689    20483234.465    83875431.8074   20483234.699  
                
 21  8  6  0 31 20.0000000  0 14G19R13R22G 1G21G22G14G 6R 5G24R12R21
                                G 3G17
  21200847.312   111411219.752    21200850.570    86813949.2374                 
                
  22092802.734   117974335.104    22092807.488    91757839.386    22092806.871  
  22092800.953  
  19610133.953   104680309.143    19610137.129    81417984.192    19610136.961  
  19610132.750  
  21247609.734   111656952.629    21247617.965    87005460.9394   21247617.887  
                
  23940814.336   125809849.181    23940818.742    98033657.1494                 
                
  22789679.750   119760618.831    22789683.266    93319975.2414                 
                
  20546178.164   107970900.880    20546183.668    84133193.3604   20546183.891  
                
  24010032.539   126173608.917    24010041.605    98317112.8884   24010042.672  
                
  22742934.297   121574016.806    22742939.504    94557572.587    22742939.414  
  22742933.512  
  23390416.336   122917486.672    23390424.574    95779883.7574   23390424.879  
                
  19468059.914   103994886.397    19468064.320    80884902.465    19468064.125  
  19468059.199  
  19950618.109   106759786.257    19950622.316    83035388.202    19950621.844  
  19950617.383  
  22775485.586   119686003.059    22775492.961    93261867.8824   22775493.758  
                
  20482331.156   107635383.014    20482336.156    83871753.3644   20482336.387  
                
 21  8  6  0 31 30.0000000  0 14G19R13R22G 1G21G22G14G 6R 5G24R12R21
                                G 3G17
  21196411.984   111387911.953    21196415.238    86795787.3294                 
                
  22085978.188   117937892.415    22085982.926    91729495.080    22085982.312  
  22085976.418  
  19607381.406   104665615.870    19607384.586    81406556.096    19607384.398  
  19607380.215  
  21252332.258   111681769.618    21252340.469    87024798.8514   21252340.402  
                
  23946690.125   125840726.652    23946694.492    98057717.5184                 
                
  22789129.195   119757725.668    22789132.680    93317720.8424                 
                
  20548880.766   107985103.068    20548886.250    84144259.9934   20548886.480  
                
  24002910.883   126136184.810    24002919.934    98287951.2604   24002921.035  
                
  22741437.141   121566013.673    22741442.328    94551347.926    22741442.242  
  22741436.355  
  23388339.703   122906573.869    23388347.918    95771380.2904   23388348.258  
                
  19467938.391   103994237.218    19467942.793    80884397.552    19467942.613  
  19467937.676  
  19954623.523   106781220.014    19954627.730    83052058.898    19954627.254  
  19954622.797  
  22771532.430   119665229.207    22771539.805    93245680.4744   22771540.617  
                
  20481439.898   107630699.428    20481444.914    83868103.8164   20481445.125  
                
 21  8  6  0 31 40.0000000  0 14G19R13R22G 1G21G22G14G 6R 5G24R12R21
                                G 3G17
  21191983.359   111364639.412    21191986.605    86777652.8884                 
                
  22079162.062   117901494.766    22079166.793    91701185.815    22079166.176  
  22079160.281  
  19604640.406   104650984.338    19604643.582    81395176.031    19604643.363  
  19604639.207  
  21257064.414   111706637.243    21257072.602    87044176.2224   21257072.562  
                
  23952568.719   125871618.841    23952573.078    98081789.3284                 
                
  22788590.859   119754896.740    22788594.309    93315516.4994                 
                
  20551593.945   107999360.906    20551599.422    84155369.9864   20551599.660  
                
  23995792.492   126098777.351    23995801.566    98258802.6164   23995802.637  
                
  22739956.117   121558096.814    22739961.301    94545190.385    22739961.211  
  22739955.305  
  23386275.336   122895725.533    23386283.516    95762927.0594   23386283.891  
                
  19467833.625   103993677.609    19467838.012    80883962.297    19467837.844  
  19467832.906  
  19958637.945   106802701.993    19958642.145    83068767.092    19958641.680  
  19958637.227  
  22767589.734   119644510.278    22767597.098    93229535.8644   22767597.922  
                
  20480555.641   107626052.657    20480560.660    83864482.9534   20480560.867  
                
 21  8  6  0 31 50.0000000  0 14G19R13R22G 1G21G22G14G 6R 5G24R12R21
                                G 3G17
  21187561.414   111341401.904    21187564.656    86759545.7454                 
                
  22072354.359   117865142.034    22072359.082    91672911.487    22072358.461  
  22072352.520  
  19601910.938   104636414.294    19601914.121    81383843.772    19601913.867  
  19601909.723  
  21261806.133   111731555.083    21261814.301    87063592.7224   21261814.273  
                
  23958450.047   125902525.441    23958454.402    98105872.3934                 
                
  22788064.711   119752131.774    22788068.117    93313361.9904                 
                
  20554317.672   108013674.111    20554323.148    84166523.1254   20554323.383  
                
  23988677.297   126061386.326    23988686.328    98229666.7564   23988687.375  
                
  22738491.250   121550266.269    22738496.406    94539099.967    22738496.324  
  22738490.434  
  23384223.203   122884941.451    23384231.383    95754523.8754   23384231.762  
                
  19467745.602   103993207.350    19467749.965    80883596.534    19467749.812  
  19467744.891  
  19962661.320   106824231.781    19962665.543    83085512.483    19962665.059  
  19962660.641  
  22763657.453   119623846.063    22763664.816    93213433.9024   22763665.652  
                
  20479678.352   107621442.480    20479683.375    83860890.6104   20479683.574  
                
 21  8  6  0 32  0.0000000  0 14G19R13R22G 1G21G22G14G 6R 5G24R12R21
                                G 3G17
  21183146.164   111318199.692    21183149.406    86741466.1014                 
                
  22065555.180   117828834.873    22065559.891    91644672.590    22065559.266  
  22065553.293  
  19599193.016   104621905.886    19599196.180    81372559.462    19599195.910  
  19599191.781  
  21266557.406   111756523.199    21266565.566    87083048.3924   21266565.555  
                
  23964334.117   125933446.404    23964338.484    98129966.6404                 
                
  22787550.750   119749430.928    22787554.129    93311257.4354                 
                
  20557051.938   108028042.742    20557057.391    84177719.4514   20557057.637  
                
  23981565.180   126024011.885    23981574.336    98200543.8534   23981575.309  
                
  22737042.516   121542521.996    22737047.637    94533076.636    22737047.582  
  22737041.699  
  23382183.305   122874221.729    23382191.512    95746170.8334   23382191.863  
                
  19467674.305   103992826.532    19467678.648    80883300.338    19467678.512  
  19467673.598  
  19966693.586   106845809.266    19966697.832    83102294.969    19966697.324  
  19966692.926  
  22759735.617   119603236.773    22759743.000    93197374.7434   22759743.816  
                
  20478808.055   107616869.059    20478813.078    83857326.9014   20478813.277  
                
 21  8  6  0 32 10.0000000  0 14G19R13R22G 1G21G22G14G 6R 5G24R12R21
                                G 3G17
  21178737.641   111295032.708    21178740.879    86723413.9204                 
                
  22058764.531   117792573.189    22058769.238    91616469.065    22058768.613  
  22058762.625  
  19596486.672   104607459.222    19596489.840    81361323.175    19596489.547  
  19596485.406  
  21271318.227   111781541.422    21271326.383    87102543.1194   21271326.375  
                
  23970220.922   125964381.700    23970225.258    98154072.0724                 
                
  22787048.992   119746794.132    22787052.355    93309202.8104                 
                
  20559796.758   108042466.771    20559802.203    84188958.9514   20559802.461  
                
  23974456.164   125986654.068    23974465.398    98171433.8794   23974466.340  
                
  22735609.977   121534864.177    22735615.113    94527120.583    22735615.055  
  22735609.184  
  23380155.656   122863566.365    23380163.879    95737867.9724   23380164.207  
                
  19467619.789   103992535.246    19467624.117    80883073.779    19467623.988  
  19467619.090  
  19970734.805   106867434.561    19970739.066    83119114.634    19970738.535  
  19970734.141  
  22755824.273   119582682.507    22755831.668    93181358.4334   22755832.461  
                
  20477944.766   107612332.381    20477949.781    83853791.8394   20477949.992  
                
 21  8  6  0 32 20.0000000  0 14G19R13R22G 1G21G22G14G 6R 5G24R12R21
                                G 3G17
  21174335.828   111271901.098    21174339.051    86705389.2984                 
                
  22051982.406   117756357.043    22051987.113    91588300.954    22051986.488  
  22051980.504  
  19593791.875   104593074.270    19593795.031    81350134.878    19593794.750  
  19593790.605  
  21276088.594   111806609.813    21276096.738    87122076.9264   21276096.730  
                
  23976110.469   125995331.391    23976114.758    98178188.7134                 
                
  22786559.453   119744221.557    22786562.773    93307198.2224                 
                
  20562552.125   108056946.273    20562557.574    84200241.6704   20562557.828  
                
  23967350.344   125949313.051    23967359.656    98142337.0364   23967360.582  
                
  22734193.617   121527292.942    22734198.754    94521231.849    22734198.707  
  22734192.867  
  23378140.289   122852975.542    23378148.496    95729615.3834   23378148.848  
                
  19467582.031   103992333.533    19467586.352    80882916.890    19467586.223  
  19467581.336  
  19974784.938   106889107.584    19974789.191    83135971.430    19974788.656  
  19974784.277  
  22751923.422   119562183.457    22751930.816    93165385.1544   22751931.598  
                
  20477088.469   107607832.521    20477093.477    83850285.4564   20477093.691  
                
 21  8  6  0 32 30.0000000  0 14G19R13R22G 1G21G22G14G 6R 5G24R12R21
                                G 3G17
  21169940.797   111248805.085    21169943.992    86687392.4134                 
                
  22045208.898   117720186.936    22045213.617    91560168.654    22045212.969  
  22045207.031  
  19591108.664   104578751.174    19591111.801    81338994.694    19591111.504  
  19591107.367  
  21280868.492   111831728.331    21280876.617    87141649.7954   21280876.613  
                
  23982002.734   126026295.434    23982006.969    98202316.5304                 
                
  22786082.156   119741713.327    22786085.410    93305243.7674                 
                
  20565318.055   108071481.329    20565323.508    84211567.6764   20565323.750  
                
  23960247.906   125911989.080    23960257.082    98113253.4024   23960258.020  
                
  22732793.484   121519808.397    22732798.562    94515410.533    22732798.543  
  22732792.742  
  23376137.227   122842449.388    23376145.438    95721413.1924   23376145.809  
                
  19467561.078   103992221.606    19467565.395    80882829.831    19467565.266  
  19467560.395  
  19978843.984   106910828.377    19978848.207    83152865.378    19978847.688  
  19978843.332  
  22748033.117   119541739.803    22748040.512    93149455.0484   22748041.273  
                
  20476239.203   107603369.643    20476244.195    83846807.8884   20476244.426  
                
 21  8  6  0 32 40.0000000  0 14G19R13R22G 1G21G22G14G 6R 5G24R12R21
                                G 3G17
  21165552.500   111225744.466    21165555.680    86669423.1094                 
                
  22038443.984   117684062.677    22038448.680    91532072.013    22038448.043  
  22038442.121  
  19588437.016   104564489.792    19588440.145    81327902.520    19588439.875  
  19588435.727  
  21285657.883   111856896.719    21285665.996    87161261.5244   21285666.004  
                
  23987897.688   126057273.634    23987901.910    98226455.3904                 
                
  22785617.062   119739269.233    22785620.262    93303339.2974                 
                
  20568094.523   108086071.747    20568099.973    84222936.8264   20568100.223  
                
  23953148.656   125874681.985    23953157.805    98084182.9624   23953158.719  
                
  22731409.555   121512410.464    22731414.629    94509656.588    22731414.602  
  22731408.820  
  23374146.430   122831987.747    23374154.668    95713261.2604   23374155.039  
                
  19467556.883   103992199.178    19467561.199    80882812.387    19467561.070  
  19467556.219  
  19982911.906   106932596.590    19982916.117    83169796.211    19982915.621  
  19982911.254  
  22744153.352   119521351.478    22744160.758    93133568.0454   22744161.504  
                
  20475396.938   107598943.527    20475401.910    83843358.9664   20475402.145  
                
 21  8  6  0 32 50.0000000  0 14G19R13R22G 1G21G22G14G 6R 5G24R12R21
                                G 3G17
  21161170.953   111202719.316    21161174.141    86651481.4434                 
                
  22031687.688   117647984.412    22031692.344    91504011.148    22031691.734  
  22031685.824  
  19585776.930   104550290.071    19585780.055    81316858.293    19585779.781  
  19585775.660  
  21290456.742   111882114.839    21290464.848    87180912.0014   21290464.863  
                
  23993795.328   126088265.921    23993799.570    98250605.2174                 
                
  22785164.172   119736889.250    22785167.328    93301484.7704                 
                
  20570881.516   108100717.442    20570886.957    84234349.0494   20570887.223  
                
  23946052.484   125837391.797    23946061.762    98055125.6994   23946062.637  
                
  22730041.812   121505099.097    22730046.926    94503969.991    22730046.871  
  22730041.078  
  23372167.922   122821590.633    23372176.184    95705159.6244   23372176.555  
                
  19467569.453   103992266.300    19467573.777    80882864.589    19467573.645  
  19467568.797  
  19986988.680   106954412.207    19986992.895    83186763.907    19986992.395  
  19986988.023  
  22740284.117   119501018.500    22740291.535    93117724.1894   22740292.262  
                
  20474561.664   107594554.108    20474566.617    83839938.6384   20474566.859  
                
 21  8  6  0 33  0.0000000  0 14G19R13R22G 1G21G22G14G 6R 5G24R12R21
                                G 3G17
  21156796.164   111179729.694    21156799.352    86633567.4644                 
                
  22024940.016   117611952.303    22024944.652    91475986.178    22024944.055  
  22024938.168  
  19583128.414   104536152.139    19583131.539    81305862.126    19583131.277  
  19583127.145  
  21295265.047   111907382.647    21295273.156    87200601.2034   21295273.176  
                
  23999695.672   126119272.425    23999699.949    98274766.1134                 
                
  22784723.508   119734573.540    22784726.637    93299680.3374                 
                
  20573679.031   108115418.497    20573684.480    84245804.4024   20573684.746  
                
  23938959.641   125800118.708    23938968.938    98026081.7764   23938969.824  
                
  22728690.305   121497874.457    22728695.410    94498350.830    22728695.352  
  22728689.574  
  23370201.703   122811258.141    23370209.957    95697108.3414   23370210.348  
                
  19467598.812   103992423.159    19467603.141    80882986.585    19467603.004  
  19467598.160  
  19991074.289   106976275.107    19991078.508    83203768.375    19991077.984  
  19991073.637  
  22736425.453   119480741.098    22736432.902    93101923.6194   22736433.609  
                
  20473733.375   107590201.472    20473738.309    83836546.9724   20473738.562  
                
 21  8  6  0 33 10.0000000  0 14G19R13R22G 1G21G22G14G 6R 5G24R12R21
                                G 3G17
  21152428.141   111156775.603    21152431.309    86615681.1624                 
                
  22018201.078   117575966.692    22018205.699    91447997.376    22018205.098  
  22018199.250  
  19580491.508   104522076.173    19580494.613    81294914.156    19580494.371  
  19580490.250  
  21300082.812   111932700.121    21300090.941    87220329.1024   21300090.949  
                
  24005598.688   126150292.889    24005602.973    98298937.9014                 
                
  22784295.086   119732322.140    22784298.188    93297926.0114                 
                
  20576487.102   108130174.925    20576492.559    84257302.9144   20576492.812  
                
  23931870.023   125762862.818    23931879.270    97997051.2184   23931880.234  
                
  22727355.039   121490736.662    22727360.109    94492799.210    22727360.043  
  22727354.312  
  23368247.805   122800990.408    23368256.027    95689107.5144   23368256.441  
                
  19467644.984   103992669.732    19467649.320    80883178.367    19467649.180  
  19467644.348  
  19995168.727   106998185.218    19995172.945    83220809.575    19995172.434  
  19995168.074  
  22732577.383   119460519.383    22732584.840    93086166.4454   22732585.551  
                
  20472912.125   107585885.738    20472917.043    83833184.0604   20472917.309  
                
 21  8  6  0 33 20.0000000  0 14G19R13R22G 1G21G22G14G 6R 5G24R12R21
                                G 3G17
  21148066.883   111133857.099    21148070.027    86597822.5974                 
                
  22011470.812   117540027.383    22011475.430    91420044.587    22011474.816  
  22011468.980  
  19577866.164   104508061.936    19577869.273    81284014.198    19577869.039  
  19577864.914  
  21304910.008   111958067.141    21304918.137    87240095.6084   21304918.137  
                
  24011504.344   126181327.320    24011508.617    98323120.5624                 
                
  22783878.891   119730135.050    22783881.969    93296221.7854                 
                
  20579305.688   108144986.693    20579311.141    84268844.5484   20579311.402  
                
  23924783.812   125725624.260    23924792.910    97968034.1414   23924793.934  
                
  22726036.031   121483685.784    22726041.062    94487315.205    22726041.008  
  22726035.309  
  23366306.227   122790787.408    23366314.426    95681157.1214   23366314.867  
                
  19467707.930   103993005.966    19467712.281    80883439.876    19467712.125  
  19467707.289  
  19999271.992   107020142.605    19999276.207    83237887.544    19999275.715  
  19999271.340  
  22728739.938   119440353.451    22728747.379    93070452.7504   22728748.109  
                
  20472097.883   107581606.865    20472102.789    83829849.8764   20472103.055  
                
 21  8  6  0 33 30.0000000  0 14G19R13R22G 1G21G22G14G 6R 5G24R12R21
                                G 3G17
  21143712.391   111110974.093    21143715.520    86579991.6884                 
                
  22004749.273   117504134.662    22004753.883    91392128.041    22004753.246  
  22004747.418  
  19575252.352   104494109.217    19575255.453    81273162.094    19575255.293  
  19575251.102  
  21309746.570   111983483.412    21309754.715    87259900.4914   21309754.707  
                
  24017412.617   126212375.440    24017416.891    98347313.8954                 
                
  22783474.891   119728012.044    22783477.895    93294567.5064                 
                
  20582134.766   108159853.555    20582140.207    84280429.1074   20582140.484  
                
  23917700.742   125688402.781    23917709.812    97939030.3984   23917710.852  
                
  22724733.234   121476721.644    22724738.254    94481898.664    22724738.215  
  22724732.535  
  23364376.945   122780648.989    23364385.129    95673257.0594   23364385.578  
                
  19467787.633   103993431.748    19467792.000    80883771.034    19467791.828  
  19467786.992  
  20003384.016   107042146.901    20003388.227    83255001.995    20003387.754  
  20003383.355  
  22724913.078   119420243.179    22724920.512    93054782.4174   22724921.254  
                
  20471290.625   107577364.701    20471295.531    83826544.2954   20471295.797  
                
 21  8  6  0 33 40.0000000  0 14G19R13R22G 1G21G22G14G 6R 5G24R12R21
                                G 3G17
  21139364.742   111088127.076    21139367.855    86562188.8234                 
                
  21998036.562   117468289.170    21998041.164    91364248.230    21998040.539  
  21998034.668  
  19572650.195   104480218.688    19572653.289    81262358.348    19572653.121  
  19572648.980  
  21314592.570   112008949.243    21314600.715    87279743.9944   21314600.715  
                
  24023323.531   126243437.532    24023327.801    98371518.1164                 
                
  22783083.188   119725953.612    22783086.086    93292963.5414                 
                
  20584974.406   108174775.936    20584979.852    84292056.9304   20584980.133  
                
  23910621.008   125651198.889    23910630.090    97910040.4014   23910631.141  
                
  22723446.742   121469844.669    22723451.789    94476549.912    22723451.734  
  22723446.062  
  23362460.047   122770575.601    23362468.176    95665407.6724   23362468.660  
                
  19467884.195   103993947.564    19467888.574    80884172.216    19467888.402  
  19467883.559  
  20007504.875   107064198.430    20007509.098    83272153.184    20007508.621  
  20007504.211  
  22721096.922   119400189.104    22721104.359    93039155.8704   22721105.109  
                
  20470490.422   107573159.626    20470495.332    83823267.6084   20470495.590  
                
 21  8  6  0 33 50.0000000  0 14G19R13R22G 1G21G22G14G 6R 5G24R12R21
                                G 3G17
  21135023.852   111065315.601    21135026.965    86544413.6634                 
                
  21991332.586   117432490.484    21991337.172    91336404.821    21991336.570  
  21991330.695  
  19570059.539   104466389.629    19570062.641    81251602.421    19570062.516  
  19570058.324  
  21319447.898   112034464.139    21319456.055    87299625.7284   21319456.059  
                
  24029237.016   126274513.136    24029241.270    98395732.8854                 
                
  22782703.680   119723959.343    22782706.484    93291409.5764                 
                
  20587824.523   108189753.377    20587829.984    84303727.6574   20587830.254  
                
  23903544.727   125614012.380    23903553.695    97881063.8744   23903554.734  
                
  22722176.500   121463054.514    22722181.543    94471268.667    22722181.500  
  22722175.832  
  23360555.445   122760566.873    23360563.512    95657608.6844   23360564.043  
                
  19467997.547   103994553.042    19468001.926    80884643.137    19468001.762  
  19467996.902  
  20011634.438   107086296.559    20011638.668    83289340.609    20011638.180  
  20011633.754  
  22717291.375   119380190.887    22717298.820    93023572.8634   22717299.574  
                
  20469697.188   107568991.151    20469702.102    83820019.4424   20469702.359  
                
 21  8  6  0 34  0.0000000  0 14G19R13R22G 1G21G22G14G 6R 5G24R12R21
                                G 3G17
  21130689.750   111042539.794    21130692.867    86526666.2844                 
                
  21984637.516   117396739.210    21984642.070    91308598.273    21984641.477  
  21984635.660  
  19567480.461   104452622.364    19567483.562    81240894.554    19567483.430  
  19567479.254  
  21324312.555   112060028.061    21324320.723    87319545.6554   21324320.723  
                
  24035153.086   126305602.249    24035157.344    98419958.1714                 
                
  22782336.406   119722029.345    22782339.125    93289905.6994                 
                
  20590685.125   108204785.921    20590690.586    84315441.3284   20590690.855  
                
  23896471.680   125576843.241    23896480.645    97852100.9404   23896481.668  
                
  22720922.523   121456351.321    22720927.578    94466055.085    22720927.516  
  22720921.863  
  23358663.180   122750622.908    23358671.211    95649860.1504   23358671.754  
                
  19468127.672   103995248.156    19468132.051    80885183.781    19468131.891  
  19468127.035  
  20015772.727   107108441.401    20015776.949    83306564.376    20015776.473  
  20015772.016  
  22713496.500   119360248.683    22713503.957    93008033.5034   22713504.699  
                
  20468910.930   107564859.369    20468915.848    83816799.8754   20468916.109  
                
 21  8  6  0 34 10.0000000  0 14G19R13R22G 1G21G22G14G 6R 5G24R12R21
                                G 3G17
  21126362.461   111019799.808    21126365.566    86508946.8254                 
                
  21977951.281   117361035.189    21977955.816    91280828.480    21977955.246  
  21977949.457  
  19564912.961   104438916.898    19564916.047    81230234.750    19564915.926  
  19564911.762  
  21329186.539   112085641.011    21329194.723    87339503.7964   21329194.707  
                
  24041071.758   126336705.031    24041076.027    98444194.0674                 
                
  22781981.398   119720163.755    22781984.059    93288451.9964                 
                
  20593556.234   108219873.664    20593561.695    84327198.0034   20593561.973  
                
  23889401.969   125539691.746    23889410.945    97823151.7264   23889411.941  
                
  22719684.859   121449735.242    22719689.906    94460909.259    22719689.844  
  22719684.164  
  23356783.266   122740743.865    23356791.281    95642162.2004   23356791.812  
                
  19468274.617   103996033.080    19468279.008    80885794.281    19468278.840  
  19468273.980  
  20019919.750   107130632.958    20019923.969    83323824.478    20019923.504  
  20019919.035  
  22709712.320   119340362.729    22709719.773    92992537.9624   22709720.508  
                
  20468131.695   107560764.466    20468136.613    83813609.0474   20468136.871  
                
 21  8  6  0 34 20.0000000  0 14G19R13R22G 1G21G22G14G 6R 5G24R12R21
                                G 3G17
  21122042.133   110997096.362    21122045.227    86491255.8284                 
                
  21971274.023   117325379.051    21971278.551    91253095.927    21971277.988  
  21971272.207  
  19562357.172   104425273.924    19562360.238    81219623.550    19562360.125  
  19562355.980  
  21334069.953   112111303.540    21334078.129    87359500.5674   21334078.117  
                
  24046993.102   126367821.897    24046997.402    98468440.9784                 
                
  22781638.750   119718363.165    22781641.355    93287048.9494                 
                
  20596437.953   108235017.197    20596443.426    84338998.1514   20596443.695  
                
  23882335.719   125502558.562    23882344.734    97794216.8064   23882345.715  
                
  22718463.594   121443206.896    22718468.621    94455831.646    22718468.590  
  22718462.891  
  23354915.828   122730930.402    23354923.828    95634515.3464   23354924.336  
                
  19468438.508   103996908.583    19468442.902    80886475.216    19468442.715  
  19468437.855  
  20024075.594   107152871.752    20024079.797    83341121.316    20024079.344  
  20024074.852  
  22705938.969   119320533.729    22705946.426    92977086.7954   22705947.168  
                
  20467359.594   107556707.056    20467364.516    83810447.4284   20467364.781  
                
 21  8  6  0 34 30.0000000  0 14G19R13R22G 1G21G22G14G 6R 5G24R12R21
                                G 3G17
  21117728.539   110974428.295    21117731.629    86473592.4074                 
                
  21964605.602   117289770.008    21964610.113    91225400.024    21964609.543  
  21964603.738  
  19559812.859   104411692.253    19559815.910    81209060.042    19559815.809  
  19559811.672  
  21338962.562   112137014.367    21338970.719    87379534.9744   21338970.734  
                
  24052916.898   126398951.634    24052921.207    98492697.9074                 
                
  22781308.250   119716626.428    22781310.805    93285695.6604                 
                
  20599330.070   108250215.347    20599335.566    84350840.8574   20599335.824  
                
  23875272.820   125465442.659    23875281.816    97765295.3344   23875282.773  
                
  22717258.555   121436765.313    22717263.590    94450821.533    22717263.570  
  22717257.816  
  23353060.664   122721181.384    23353068.676    95626918.7084   23353069.164  
                
  19468619.133   103997873.426    19468623.539    80887225.651    19468623.340  
  19468618.473  
  20028240.055   107175156.626    20028244.270    83358454.000    20028243.816  
  20028239.305  
  22702176.266   119300760.606    22702183.742    92961679.1864   22702184.477  
                
  20466594.406   107552685.967    20466599.328    83807314.1124   20466599.594  
                
 21  8  6  0 34 40.0000000  0 14G19R13R22G 1G21G22G14G 6R 5G24R12R21
                                G 3G17
  21113421.734   110951795.920    21113424.824    86455956.7954                 
                
  21957946.023   117254208.263    21957950.543    91197740.896    21957949.988  
  21957944.141  
  19557280.086   104398172.148    19557283.117    81198544.399    19557283.031  
  19557278.887  
  21343864.398   112162773.701    21343872.555    87399607.1784   21343872.582  
                
  24058843.211   126430094.562    24058847.539    98516965.1204                 
                
  22780989.969   119714953.893    22780992.484    93284392.3844                 
                
  20602232.633   108265468.376    20602238.145    84362726.3224   20602238.391  
                
  23868213.242   125428344.347    23868222.230    97736387.5534   23868223.195  
                
  22716069.805   121430410.794    22716074.836    94445879.130    22716074.812  
  22716069.027  
  23351217.797   122711497.135    23351225.816    95619372.5574   23351226.309  
                
  19468816.531   103998927.885    19468820.934    80888045.784    19468820.738  
  19468815.867  
  20032413.141   107197487.675    20032417.379    83375822.580    20032416.898  
  20032412.352  
  22698424.273   119281043.763    22698431.785    92946315.4224   22698432.508  
                
  20465836.188   107548701.562    20465841.117    83804209.3834   20465841.383  
                
 21  8  6  0 34 50.0000000  0 14G19R13R22G 1G21G22G14G 6R 5G24R12R21
                                G 3G17
  21109121.758   110929199.410    21109124.852    86438349.1374                 
                
  21951295.438   117218694.451    21951299.930    91170119.042    21951299.371  
  21951293.562  
  19554758.891   104384713.847    19554761.914    81188076.842    19554761.801  
  19554757.695  
  21348775.477   112188581.556    21348783.645    87419717.1884   21348783.668  
                
  24064772.055   126461250.738    24064776.398    98541242.6614                 
                
  22780683.930   119713345.684    22780686.410    93283139.2494                 
                
  20605145.656   108280776.384    20605151.168    84374654.6324   20605151.422  
                
  23861157.000   125391263.830    23861166.113    97707493.6724   23861167.031  
                
  22714897.352   121424143.400    22714902.363    94441004.473    22714902.336  
  22714896.551  
  23349387.305   122701877.831    23349395.309    95611876.9934   23349395.801  
                
  19469030.734   104000072.120    19469035.129    80888935.736    19469034.922  
  19469030.059  
  20036594.867   107219864.904    20036599.129    83393227.092    20036598.633  
  20036594.074  
  22694683.023   119261383.411    22694690.559    92930995.6804   22694691.258  
                
  20465084.961   107544753.859    20465089.891    83801133.2554   20465090.148  
                
 21  8  6  0 35  0.0000000  0 14G19R13R22G 1G21G22G14G 6R 5G24R12R21
                                G 3G17
  21104828.609   110906638.793    21104831.707    86420769.4424                 
                
  21944653.797   117183228.477    21944658.281    91142534.401    21944657.703  
  21944651.934  
  19552249.297   104371317.498    19552252.305    81177657.466    19552252.180  
  19552248.098  
  21353695.766   112214437.888    21353703.961    87439864.9724   21353703.957  
                
  24070703.391   126492420.147    24070707.742    98565530.4994                 
                
  22780390.148   119711801.897    22780392.598    93281936.2964                 
                
  20608069.141   108296139.379    20608074.656    84386625.7894   20608074.902  
                
  23854104.156   125354201.207    23854113.332    97678613.7184   23854114.223  
                
  22713741.195   121417963.152    22713746.184    94436197.635    22713746.164  
  22713740.324  
  23347569.180   122692323.527    23347577.172    95604432.0674   23347577.660  
                
  19469261.766   104001306.248    19469266.160    80889895.610    19469265.949  
  19469261.102  
  20040785.219   107242288.347    20040789.492    83410667.548    20040788.996  
  20040784.430  
  22690952.539   119241779.680    22690960.090    92915720.0574   22690960.781  
                
  20464340.719   107540842.891    20464345.656    83798085.7464   20464345.910  
                
 21  8  6  0 35 10.0000000  0 14G19R13R22G 1G21G22G14G 6R 5G24R12R21
                                G 3G17
  21100542.336   110884114.267    21100545.441    86403217.8724                 
                
  21938021.188   117147810.726    21938025.668    91114987.266    21938025.117  
  21938019.301  
  19549751.289   104357982.959    19549754.309    81167286.166    19549754.148  
  19549750.090  
  21358625.289   112240342.684    21358633.500    87460050.5284   21358633.480  
                
  24076637.250   126523602.722    24076641.609    98589828.5864                 
                
  22780108.648   119710322.607    22780111.066    93280783.6204                 
                
  20611003.117   108311557.456    20611008.648    84398639.8644   20611008.887  
                
  23847054.844   125317156.708    23847063.973    97649747.8764   23847064.848  
                
  22712601.375   121411870.323    22712606.352    94431458.781    22712606.332  
  22712600.438  
  23345763.453   122682834.379    23345771.445    95597037.9354   23345771.922  
                
  19469509.641   104002630.330    19469514.047    80890925.452    19469513.824  
  19469508.980  
  20044984.211   107264758.009    20044988.500    83428143.954    20044988.020  
  20044983.406  
  22687232.883   119222232.770    22687240.426    92900488.7134   22687241.125  
                
  20463603.508   107536968.818    20463608.449    83795066.9904   20463608.703  
                
 21  8  6  0 35 20.0000000  0 14G19R13R22G 1G21G22G14G 6R 5G24R12R21
                                G 3G17
  21096262.938   110861625.927    21096266.051    86385694.5004                 
                
  21931397.656   117112441.513    21931402.164    91087477.902    21931401.633  
  21931395.754  
  19547264.891   104344710.436    19547267.918    81156963.094    19547267.754  
  19547263.680  
  21363564.031   112266295.888    21363572.234    87480273.8084   21363572.230  
                
  24082573.609   126554798.474    24082578.031    98614136.9634                 
                
  22779839.430   119708907.872    22779841.820    93279681.2294                 
                
  20613947.570   108327030.616    20613953.105    84410696.8634   20613953.336  
                
  23840009.016   125280130.428    23840018.117    97620896.2284   23840018.973  
                
  22711477.953   121405865.076    22711482.898    94426788.033    22711482.875  
  22711476.973  
  23343970.133   122673410.439    23343978.137    95589694.6124   23343978.594  
                
  19469774.375   104004044.451    19469778.793    80892025.322    19469778.562  
  19469773.715  
  20049191.820   107287273.780    20049196.133    83445656.204    20049195.652  
  20049191.000  
  22683524.078   119202742.831    22683531.613    92885301.7514   22683532.309  
                
  20462873.320   107533131.662    20462878.270    83792077.0024   20462878.520  
                
 21  8  6  0 35 30.0000000  0 14G19R13R22G 1G21G22G14G 6R 5G24R12R21
                                G 3G17
  21091990.383   110839173.547    21091993.504    86368199.1504                 
                
  21924783.133   117077120.467    21924787.668    91060005.987    21924787.152  
  21924781.223  
  19544790.047   104331499.615    19544793.082    81146688.015    19544792.914  
  19544788.820  
  21368511.906   112292297.196    21368520.082    87500534.5584   21368520.098  
                
  24088512.461   126586007.248    24088516.938    98638455.4934                 
                
  22779582.453   119707557.519    22779584.812    93278629.0124                 
                
  20616902.453   108342558.594    20616907.988    84422796.5834   20616908.219  
                
  23832966.531   125243122.158    23832975.762    97592058.6504   23832976.566  
                
  22710370.859   121399947.153    22710375.766    94422185.191    22710375.770  
  22710369.859  
  23342189.180   122664051.519    23342197.215    95582401.9634   23342197.656  
                
  19470055.898   104005548.305    19470060.301    80893194.986    19470060.070  
  19470055.227  
  20053408.000   107309835.426    20053412.328    83463204.143    20053411.855  
  20053407.172  
  22679826.070   119183309.678    22679833.621    92870159.0544   22679834.305  
                
  20462150.117   107529331.254    20462155.070    83789115.6474   20462155.324  
                
 21  8  6  0 35 40.0000000  0 14G19R13R22G 1G21G22G14G 6R 5G24R12R21
                                G 3G17
  21087724.719   110816757.342    21087727.852    86350731.9814                 
                
  21918177.734   117041848.133    21918182.301    91032571.959    21918181.770  
  21918175.836  
  19542326.797   104318350.658    19542329.840    81136461.058    19542329.664  
  19542325.570  
  21373468.953   112318346.578    21373477.121    87520832.7744   21373477.133  
                
  24094453.758   126617228.890    24094458.250    98662784.0354                 
                
  22779337.742   119706271.601    22779340.070    93277627.0114                 
                
  20619867.789   108358141.484    20619873.320    84434939.0794   20619873.559  
                
  23825927.609   125206132.157    23825936.844    97563235.2794   23825937.617  
                
  22709280.141   121394116.650    22709285.016    94417650.374    22709285.047  
  22709279.086  
  23340420.633   122654757.735    23340428.723    95575160.0574   23340429.121  
                
  19470354.266   104007142.132    19470358.652    80894434.630    19470358.438  
  19470353.590  
  20057632.742   107332442.846    20057637.098    83480787.695    20057636.613  
  20057631.918  
  22676138.906   119163933.525    22676146.457    92855060.7664   22676147.121  
                
  20461433.922   107525567.641    20461438.883    83786182.9634   20461439.129  
                
 21  8  6  0 35 50.0000000  0 14G19R13R22G 1G21G22G14G 6R 5G24R12R21
                                G 3G17
  21083465.930   110794377.310    21083469.074    86333293.0014                 
                
  21911581.406   117006624.254    21911586.000    91005175.619    21911585.480  
  21911579.535  
  19539875.109   104305263.403    19539878.160    81126282.083    19539877.992  
  19539873.871  
  21378435.109   112344443.883    21378443.293    87541168.3404   21378443.293  
                
  24100397.477   126648463.303    24100401.961    98687122.5294                 
                
  22779105.297   119705050.107    22779107.590    93276675.2184                 
                
  20622843.555   108373779.203    20622849.086    84447124.3034   20622849.324  
                
  23818892.117   125169160.373    23818901.391    97534426.1324   23818902.129  
                
  22708205.812   121388373.759    22708210.684    94413183.668    22708210.711  
  22708204.746  
  23338664.469   122645529.110    23338672.613    95567968.9224   23338672.969  
                
  19470669.477   104008825.946    19470673.867    80895744.250    19470673.648  
  19470668.793  
  20061866.016   107355095.914    20061870.379    83498406.740    20061869.902  
  20061865.176  
  22672462.609   119144614.451    22672470.148    92840006.9514   22672470.820  
                
  20460724.727   107521840.794    20460729.695    83783278.9364   20460729.938  
                
 21  8  6  0 36  0.0000000  0 14G19R13R22G 1G21G22G14G 6R 5G24R12R21
                                G 3G17
  21079214.078   110772033.696    21079217.230    86315882.3974                 
                
  21904994.305   116971449.571    21904998.895    90977817.526    21904998.379  
  21904992.477  
  19537435.055   104292238.301    19537438.102    81116151.443    19537437.938  
  19537433.801  
  21383410.414   112370589.292    21383418.613    87561541.3774   21383418.613  
                
  24106343.641   126679710.677    24106348.086    98711471.1104                 
                
  22778885.148   119703893.271    22778887.430    93275773.7884                 
                
  20625829.805   108389471.965    20625835.344    84459352.4274   20625835.578  
                
  23811860.180   125132207.224    23811869.363    97505631.4304   23811870.121  
                
  22707147.852   121382718.384    22707152.734    94408785.048    22707152.770  
  22707146.789  
  23336920.758   122636365.884    23336928.926    95560828.7554   23336929.266  
                
  19471001.586   104010599.959    19471005.984    80897124.038    19471005.750  
  19471000.910  
  20066107.852   107377794.857    20066112.227    83516061.470    20066111.758  
  20066107.012  
  22668797.227   119125352.748    22668804.730    92824997.8444   22668805.418  
                
  20460022.562   107518150.945    20460027.539    83780403.7274   20460027.785  
                
 21  8  6  0 36 10.0000000  0 14G19R13R22G 1G21G22G14G 6R 5G24R12R21
                                G 3G17
  21074969.102   110749726.253    21074972.258    86298499.9904                 
                
  21898416.359   116936323.719    21898420.934    90950497.435    21898420.430  
  21898414.531  
  19535006.578   104279274.919    19535009.637    81106068.823    19535009.461  
  19535005.316  
  21388394.805   112396782.419    21388403.016    87581951.6014   21388403.016  
                
  24112292.219   126710970.655    24112296.652    98735829.5394                 
                
  22778677.250   119702800.819    22778679.551    93274922.5314                 
                
  20628826.469   108405219.492    20628832.016    84471623.2164   20628832.250  
                
  23804831.594   125095272.372    23804840.945    97476851.0724   23804841.648  
                
  22706106.305   121377150.696    22706111.223    94404454.624    22706111.258  
  22706105.250  
  23335189.453   122627267.850    23335197.656    95553739.3824   23335197.977  
                
  19471350.508   104012463.833    19471354.898    80898573.726    19471354.660  
  19471349.840  
  20070358.188   107400539.268    20070362.570    83533751.565    20070362.090  
  20070357.324  
  22665142.734   119106148.266    22665150.188    92810033.3164   22665150.914  
                
  20459327.398   107514497.829    20459332.379    83777557.1454   20459332.621  
                
 21  8  6  0 36 20.0000000  0 14G19R13R22G 1G21G22G14G 6R 5G24R12R21
                                G 3G17
  21070731.047   110727455.151    21070734.211    86281145.8854                 
                
  21891847.609   116901247.071    21891852.188    90923215.611    21891851.707  
  21891845.797  
  19532589.695   104266373.512    19532592.781    81096034.402    19532592.594  
  19532588.438  
  21393388.258   112423023.207    21393396.477    87602398.9604   21393396.469  
                
  24118243.211   126742243.325    24118247.637    98760197.8294                 
                
  22778481.633   119701772.842    22778483.934    93274121.5184                 
                
  20631833.555   108421021.803    20631839.109    84483936.6974   20631839.344  
                
  23797806.609   125058356.054    23797816.008    97448085.1374   23797816.695  
                
  22705081.156   121371670.653    22705086.078    94400192.368    22705086.117  
  22705080.098  
  23333470.570   122618235.081    23333478.801    95546700.8544   23333479.094  
                
  19471716.266   104014417.625    19471720.637    80900093.334    19471720.410  
  19471715.590  
  20074617.000   107423329.055    20074621.375    83551476.949    20074620.902  
  20074616.129  
  22661499.148   119087001.137    22661506.586    92795113.4884   22661507.336  
                
  20458639.234   107510881.535    20458644.223    83774739.2564   20458644.461  
                
 21  8  6  0 36 30.0000000  0 14G19R13R22G 1G21G22G14G 6R 5G24R12R21
                                G 3G17
  21066499.867   110705220.181    21066503.035    86263819.9424                 
                
  21885288.102   116866219.666    21885292.652    90895972.071    21885292.203  
  21885286.285  
  19530184.375   104253533.761    19530187.465    81086047.940    19530187.289  
  19530183.121  
  21398390.758   112449311.486    21398398.961    87622883.3374   21398398.973  
                
  24124196.602   126773528.510    24124201.016    98784575.9014                 
                
  22778298.273   119700809.327    22778300.586    93273370.7314                 
                
  20634851.039   108436878.777    20634856.609    84496292.7764   20634856.832  
                
  23790785.188   125021458.256    23790794.633    97419333.6044   23790795.258  
                
  22704072.352   121366278.031    22704077.289    94395998.108    22704077.324  
  22704071.297  
  23331764.102   122609267.529    23331772.371    95539713.1604   23331772.633  
                
  19472098.859   104016461.368    19472103.211    80901682.907    19472102.996  
  19472098.180  
  20078884.305   107446164.247    20078888.668    83569237.649    20078888.203  
  20078883.434  
  22657866.484   119067911.366    22657873.922    92780238.3604   22657874.648  
                
  20457958.055   107507301.918    20457963.047    83771949.9484   20457963.285  
                
 21  8  6  0 36 40.0000000  0 14G19R13R22G 1G21G22G14G 6R 5G24R12R21
                                G 3G17
  21062275.641   110683021.736    21062278.812    86246522.4624                 
                
  21878737.844   116831241.682    21878742.398    90868766.983    21878741.938  
  21878736.039  
  19527790.664   104240756.038    19527793.746    81076109.717    19527793.559  
  19527789.414  
  21403402.320   112475647.409    21403410.512    87643404.8334   21403410.539  
                
  24130152.414   126804826.434    24130156.836    98808963.8834                 
                
  22778127.227   119699910.484    22778129.570    93272670.3414                 
                
  20637878.984   108452790.650    20637884.566    84508691.6324   20637884.793  
                
  23783767.367   124984579.286    23783776.781    97390596.7454   23783777.387  
                
  22703079.992   121360973.345    22703085.012    94391872.251    22703085.035  
  22703078.965  
  23330070.102   122600365.485    23330078.406    95532776.5064   23330078.652  
                
  19472498.344   104018595.296    19472502.680    80903342.627    19472502.484  
  19472497.668  
  20083160.094   107469044.818    20083164.445    83587033.649    20083164.000  
  20083159.227  
  22654244.805   119048879.304    22654252.215    92765408.1924   22654252.957  
                
  20457283.906   107503759.228    20457288.895    83769189.4164   20457289.133  
                
 21  8  6  0 36 50.0000000  0 14G19R13R22G 1G21G22G14G 6R 5G24R12R21
                                G 3G17
  21058058.289   110660859.455    21058061.457    86229253.1654                 
                
  21872196.820   116796312.972    21872201.383    90841600.222    21872200.906  
  21872195.051  
  19525408.516   104228039.956    19525411.574    81066219.434    19525411.402  
  19525407.277  
  21408422.852   112502030.436    21408431.039    87663963.0354   21408431.055  
                
  24136110.516   126836136.507    24136114.949    98833361.3294                 
                
  22777968.406   119699075.911    22777970.789    93272020.0254                 
                
  20640917.266   108468756.949    20640922.852    84521132.8914   20640923.070  
                
  23776753.000   124947718.740    23776762.395    97361874.2584   23776763.023  
                
  22702104.016   121355756.202    22702109.086    94387814.477    22702109.078  
  22702103.023  
  23328388.484   122591528.530    23328396.789    95525890.5624   23328397.027  
                
  19472914.602   104020818.855    19472918.934    80905072.060    19472918.742  
  19472913.930  
  20087444.273   107491970.302    20087448.645    83604864.572    20087448.180  
  20087443.395  
  22650634.039   119029904.599    22650641.453    92750622.7284   22650642.188  
                
  20456616.703   107500253.056    20456621.691    83766457.3314   20456621.922  
                
 21  8  6  0 37  0.0000000  0 14G19R13R22G 1G21G22G14G 6R 5G24R12R21
                                G 3G17
  21053847.922   110638733.858    21053851.086    86212012.4444                 
                
  21865665.156   116761434.316    21865669.723    90814472.382    21865669.266  
  21865663.391  
  19523038.008   104215386.019    19523041.059    81056377.491    19523040.906  
  19523036.773  
  21413452.406   112528460.931    21413460.602    87684558.2134   21413460.617  
                
  24142071.023   126867459.127    24142075.441    98857768.5604                 
                
  22777821.883   119698305.996    22777824.285    93271420.1074                 
                
  20643965.992   108484778.078    20643971.582    84533616.8804   20643971.789  
                
  23769742.312   124910877.200    23769751.711    97333166.5734   23769752.312  
                
  22701144.500   121350627.058    22701149.590    94383825.144    22701149.590  
  22701143.512  
  23326719.344   122582757.114    23326727.621    95519055.6984   23326727.871  
                
  19473347.758   104023132.689    19473352.086    80906871.705    19473351.898  
  19473347.082  
  20091736.906   107514941.074    20091741.277    83622730.727    20091740.805  
  20091736.039  
  22647034.289   119010987.796    22647041.699    92735882.3684   22647042.434  
                
  20455956.523   107496783.826    20455961.520    83763754.0394   20455961.738  
                
 21  8  6  0 37 10.0000000  0 14G19R13R22G 1G21G22G14G 6R 5G24R12R21
                                G 3G17
  21049644.500   110616644.738    21049647.668    86194800.1484                 
                
  21859142.898   116726605.735    21859147.441    90787383.503    21859146.953  
  21859141.125  
  19520679.078   104202793.894    19520682.137    81046583.625    19520682.004  
  19520677.859  
  21418490.945   112554938.611    21418499.156    87705190.1724   21418499.152  
                
  24148033.891   126898794.067    24148038.238    98882185.3884                 
                
  22777687.648   119697600.602    22777690.062    93270870.4574                 
                
  20647025.117   108500853.874    20647030.715    84546143.4684   20647030.922  
                
  23762735.242   124874054.569    23762744.656    97304473.6254   23762745.203  
                
  22700201.422   121345585.732    22700206.523    94379904.116    22700206.516  
  22700200.426  
  23325062.664   122574051.163    23325070.918    95512271.8404   23325071.180  
                
  19473797.773   104025536.553    19473802.105    80908741.374    19473801.922  
  19473797.086  
  20096037.969   107537956.846    20096042.336    83640631.870    20096041.855  
  20096037.117  
  22643445.539   118992128.802    22643452.938    92721187.0644   22643453.695  
                
  20455303.367   107493351.494    20455308.367    83761079.4904   20455308.590  
                
 21  8  6  0 37 20.0000000  0 14G19R13R22G 1G21G22G14G 6R 5G24R12R21
                                G 3G17
  21045448.023   110594592.155    21045451.207    86177616.3244                 
                
  21852629.992   116691827.103    21852634.523    90760333.459    21852634.027  
  21852628.211  
  19518331.719   104190263.544    19518334.754    81036837.802    19518334.625  
  19518330.488  
  21423538.445   112581463.350    21423546.668    87725858.7964   21423546.656  
                
  24153999.078   126930141.181    24154003.375    98906611.7284                 
                
  22777565.703   119696959.836    22777568.121    93270371.1674                 
                
  20650094.641   108516984.284    20650100.238    84558712.6094   20650100.449  
                
  23755731.664   124837250.824    23755741.105    97275795.4164   23755741.645  
                
  22699274.750   121340632.154    22699279.852    94376051.322    22699279.859  
  22699273.766  
  23323418.438   122565410.645    23323426.668    95505538.9674   23323426.949  
                
  19474264.641   104028030.453    19474268.977    80910681.074    19474268.801  
  19474263.973  
  20100347.422   107561017.517    20100351.777    83658567.945    20100351.297  
  20100346.621  
  22639867.805   118973327.712    22639875.203    92706536.8824   22639875.973  
                
  20454657.211   107489955.901    20454662.219    83758433.5794   20454662.430  
                
 21  8  6  0 37 30.0000000  0 14G19R13R22G 1G21G22G14G 6R 5G24R12R21
                                G 3G17
  21041258.531   110572576.285    21041261.734    86160461.1044                 
                
  21846126.508   116657098.794    21846131.055    90733322.566    21846130.559  
  21846124.727  
  19515996.023   104177795.419    19515999.059    81027140.372    19515998.914  
  19515994.785  
  21428594.898   112608035.198    21428603.129    87746564.1244   21428603.109  
                
  24159966.602   126961500.634    24159970.863    98931047.6544                 
                
  22777456.078   119696383.780    22777458.504    93269922.3074                 
                
  20653174.562   108533169.397    20653180.156    84571324.3804   20653180.383  
                
  23748731.773   124800466.275    23748741.145    97247132.1284   23748741.719  
                
  22698364.570   121335766.721    22698369.648    94372267.100    22698369.645  
  22698363.637  
  23321786.680   122556835.740    23321794.895    95498857.2204   23321795.215  
                
  19474748.391   104030614.551    19474752.719    80912690.922    19474752.551  
  19474747.719  
  20104665.273   107584123.145    20104669.617    83676538.990    20104669.121  
  20104664.527  
  22636301.133   118954584.752    22636308.531    92691931.9904   22636309.289  
                
  20454018.078   107486597.254    20454023.082    83755816.4534   20454023.293  
                
 21  8  6  0 37 40.0000000  0 14G19R13R22G 1G21G22G14G 6R 5G24R12R21
                                G 3G17
  21037075.992   110550596.943    21037079.203    86143334.3534                 
                
  21839632.391   116622420.611    21839636.977    90706350.669    21839636.492  
  21839630.613  
  19513671.891   104165389.020    19513674.941    81017490.964    19513674.801  
  19513670.664  
  21433660.258   112634653.844    21433668.488    87767305.9294   21433668.473  
                
  24165936.414   126992872.151    24165940.695    98955492.9734                 
                
  22777358.727   119695872.226    22777361.184    93269523.7104                 
                
  20656264.859   108549409.003    20656270.453    84583978.6104   20656270.695  
                
  23741735.523   124763700.733    23741744.977    97218483.6964   23741745.504  
                
  22697470.844   121330989.219    22697475.859    94368551.277    22697475.863  
  22697469.977  
  23320167.383   122548326.276    23320175.570    95492226.4634   23320175.934  
                
  19475248.984   104033288.611    19475253.301    80914770.747    19475253.145  
  19475248.328  
  20108991.453   107607273.326    20108995.770    83694544.690    20108995.277  
  20108990.750  
  22632745.500   118935899.795    22632752.926    92677372.2964   22632753.648  
                
  20453385.938   107483275.370    20453390.934    83753227.9734   20453391.141  
                
 21  8  6  0 37 50.0000000  0 14G19R13R22G 1G21G22G14G 6R 5G24R12R21
                                G 3G17
  21032900.367   110528653.903    21032903.574    86126235.8884                 
                
  21833147.695   116587792.728    21833152.293    90679417.876    21833151.789  
  21833145.938  
  19511359.305   104153044.301    19511362.344    81007889.522    19511362.191  
  19511358.094  
  21438734.500   112661319.161    21438742.742    87788084.0864   21438742.715  
                
  24171908.484   127024255.561    24171912.793    98979947.5694                 
                
  22777273.633   119695425.175    22777276.156    93269175.3574                 
                
  20659365.508   108565703.006    20659371.102    84596675.2304   20659371.359  
                
  23734742.914   124726954.276    23734752.352    97189850.0854   23734752.867  
                
  22696593.508   121326299.371    22696598.422    94364903.603    22696598.473  
  22696592.668  
  23318560.531   122539882.206    23318568.699    95485646.6664   23318569.098  
                
  19475766.430   104036052.678    19475770.738    80916920.570    19475770.602  
  19475765.766  
  20113325.969   107630468.155    20113330.254    83712585.109    20113329.766  
  20113325.285  
  22629200.906   118917272.855    22629208.367    92662857.8194   22629209.059  
                
  20452760.781   107479990.127    20452765.762    83750668.0454   20452765.969  
                
 21  8  6  0 38  0.0000000  0 14G19R13R22G 1G21G22G14G 6R 5G24R12R21
                                G 3G17
  21028731.789   110506747.923    21028735.004    86109166.3044                 
                
  21826672.500   116553215.591    21826677.098    90652524.548    21826676.570  
  21826670.746  
  19509058.383   104140761.812    19509061.387    80998336.470    19509061.285  
  19509057.195  
  21443817.664   112688031.371    21443825.926    87808898.7884   21443825.883  
                
  24177882.875   127055651.126    24177887.164    99004411.6314                 
                
  22777200.883   119695042.979    22777203.449    93268877.5544                 
                
  20662476.570   108582051.754    20662482.172    84609414.5034   20662482.430  
                
  23727753.961   124690227.249    23727763.406    97161231.6664   23727763.914  
                
  22695732.695   121321697.859    22695737.523    94361324.644    22695737.598  
  22695731.883  
  23316966.188   122531503.929    23316974.336    95479118.1434   23316974.773  
                
  19476300.773   104038907.055    19476305.074    80919140.642    19476304.957  
  19476300.105  
  20117668.836   107653707.685    20117673.094    83730660.301    20117672.625  
  20117668.156  
  22625667.445   118898704.425    22625674.926    92648388.9204   22625675.594  
                
  20452142.672   107476741.973    20452147.633    83748137.0164   20452147.852  
                
 21  8  6  0 38 10.0000000  0 14G19R13R22G 1G21G22G14G 6R 5G24R12R21
                                G 3G17
  21024570.180   110484878.590    21024573.410    86092125.2684                 
                
  21820206.820   116518689.249    21820211.398    90625670.733    21820210.867  
  21820205.082  
  19506769.039   104128541.186    19506772.027    80988831.541    19506771.945  
  19506767.852  
  21448909.664   112714790.050    21448917.941    87829749.7034   21448917.902  
                
  24183859.492   127087058.404    24183863.754    99028884.8544                 
                
  22777140.422   119694725.264    22777143.020    93268629.9814                 
                
  20665597.984   108598454.848    20665603.578    84622196.1244   20665603.852  
                
  23720768.703   124653519.461    23720778.090    97132628.1954   23720778.617  
                
  22694888.328   121317184.295    22694893.078    94357814.074    22694893.172  
  22694887.547  
  23315384.312   122523191.157    23315392.461    95472640.6524   23315392.906  
                
  19476851.953   104041851.347    19476856.258    80921430.650    19476856.152  
  19476851.277  
  20122019.992   107676991.583    20122024.230    83748769.994    20122023.797  
  20122019.336  
  22622145.070   118880194.217    22622152.559    92633965.3804   22622153.215  
                
  20451531.547   107473530.504    20451536.484    83745634.5724   20451536.723  
                
 21  8  6  0 38 20.0000000  0 14G19R13R22G 1G21G22G14G 6R 5G24R12R21
                                G 3G17
  21020415.594   110463046.120    21020418.840    86075112.9594                 
                
  21813750.727   116484214.093    21813755.301    90598856.734    21813754.781  
  21813748.977  
  19504491.305   104116382.531    19504494.316    80979374.822    19504494.211  
  19504490.113  
  21454010.539   112741595.320    21454018.832    87850636.9244   21454018.789  
                
  24189838.406   127118477.717    24189842.617    99053367.4374                 
                
  22777092.273   119694472.290    22777094.891    93268432.8714                 
                
  20668729.773   108614912.499    20668735.371    84635020.2734   20668735.652  
                
  23713787.141   124616831.143    23713796.551    97104039.9374   23713797.055  
                
  22694060.469   121312758.915    22694065.203    94354372.108    22694065.285  
  22694059.691  
  23313814.953   122514944.113    23313823.094    95466214.3864   23313823.551  
                
  19477420.031   104044885.879    19477424.340    80923790.839    19477424.230  
  19477419.348  
  20126379.453   107700319.923    20126383.699    83766914.258    20126383.273  
  20126378.789  
  22618633.828   118861742.543    22618641.340    92619587.4724   22618641.988  
                
  20450927.453   107470355.953    20450932.375    83743160.9034   20450932.621  
                
 21  8  6  0 38 30.0000000  0 14G19R13R22G 1G21G22G14G 6R 5G24R12R21
                                G 3G17
  21016267.945   110441250.181    21016271.211    86058129.1234                 
                
  21807304.164   116449789.783    21807308.715    90572082.275    21807308.195  
  21807302.418  
  19502225.102   104104285.369    19502228.105    80969965.923    19502227.988  
  19502223.918  
  21459120.188   112768446.731    21459128.500    87871560.0894   21459128.445  
                
  24195819.500   127149908.576    24195823.668    99077859.0034                 
                
  22777056.367   119694283.707    22777058.992    93268285.9264                 
                
  20671871.867   108631424.309    20671877.488    84647886.6014   20671877.754  
                
  23706809.281   124580162.097    23706818.711    97075466.6514   23706819.172  
                
  22693249.031   121308421.370    22693253.758    94350998.463    22693253.852  
  22693248.270  
  23312258.031   122506762.460    23312266.148    95459839.0694   23312266.605  
                
  19478004.922   104048010.262    19478009.234    80926220.907    19478009.129  
  19478004.238  
  20130747.148   107723692.334    20130751.406    83785092.788    20130750.977  
  20130746.473  
  22615133.664   118843349.148    22615141.199    92605254.9724   22615141.840  
                
  20450330.312   107467217.976    20450335.211    83740715.7254   20450335.469  
                
 21  8  6  0 38 40.0000000  0 14G19R13R22G 1G21G22G14G 6R 5G24R12R21
                                G 3G17
  21012127.367   110419491.309    21012130.645    86041174.1604                 
                
  21800867.219   116415416.755    21800871.715    90545347.713    21800871.238  
  21800865.457  
  19499970.562   104092250.434    19499973.559    80960605.417    19499973.445  
  19499969.383  
  21464238.695   112795344.630    21464247.039    87892519.4844   21464246.977  
                
  24201802.891   127181351.429    24201807.062    99102359.9244                 
                
  22777032.820   119694159.987    22777035.434    93268189.5214                 
                
  20675024.359   108647990.720    20675030.000    84660795.4854   20675030.254  
                
  23699835.141   124543512.788    23699844.629    97046908.7894   23699845.051  
                
  22692454.141   121304172.226    22692458.801    94347693.556    22692458.945  
  22692453.383  
  23310713.664   122498646.735    23310721.773    95453515.1324   23310722.250  
                
  19478606.734   104051225.037    19478611.074    80928721.286    19478610.949  
  19478606.062  
  20135123.148   107747109.150    20135127.418    83803305.867    20135127.004  
  20135122.461  
  22611644.727   118825014.621    22611652.285    92590968.3314   22611652.898  
                
  20449740.258   107464117.202    20449745.137    83738299.5444   20449745.410  
                
 21  8  6  0 38 50.0000000  0 14G19R13R22G 1G21G22G14G 6R 5G24R12R21
                                G 3G17
  21007993.789   110397769.268    21007997.078    86024247.9094                 
                
  21794439.852   116381094.895    21794444.293    90518652.943    21794443.844  
  21794438.059  
  19497727.586   104080277.285    19497730.570    80951292.975    19497730.488  
  19497726.422  
  21469365.961   112822288.610    21469374.340    87913514.7944   21469374.270  
                
  24207788.461   127212805.781    24207792.652    99126869.7934                 
                
  22777021.531   119694100.756    22777024.129    93268143.3904                 
                
  20678187.164   108664611.375    20678192.820    84673746.6484   20678193.062  
                
  23692864.711   124506882.986    23692874.195    97018366.1084   23692874.613  
                
  22691675.727   121300011.182    22691680.359    94344457.187    22691680.527  
  22691675.012  
  23309181.766   122490596.610    23309189.898    95447242.2974   23309190.363  
                
  19479225.398   104054529.811    19479229.750    80931291.663    19479229.617  
  19479224.734  
  20139507.359   107770569.936    20139511.652    83821553.126    20139511.227  
  20139506.648  
  22608166.914   118806738.674    22608174.488    92576727.3424   22608175.102  
                
  20449157.164   107461053.044    20449162.031    83735911.8904   20449162.312  
                
 21  8  6  0 39  0.0000000  0 14G19R13R22G 1G21G22G14G 6R 5G24R12R21
                                G 3G17
  21003867.273   110376084.333    21003870.574    86007350.5624                 
                
  21788022.141   116346824.699    21788026.543    90491998.351    21788026.109  
  21788020.348  
  19495496.258   104068366.295    19495499.246    80942028.880    19495499.156  
  19495495.105  
  21474502.023   112849278.764    21474510.441    87934546.0754   21474510.359  
                
  24213776.258   127244271.807    24213780.473    99151388.7694                 
                
  22777022.570   119694106.320    22777025.148    93268147.7254                 
                
  20681360.328   108681286.460    20681365.980    84686740.2044   20681366.234  
                
  23685898.062   124470272.958    23685907.582    96989838.8514   23685907.969  
                
  22690913.844   121295938.506    22690918.504    94341289.540    22690918.668  
  22690913.109  
  23307662.398   122482612.325    23307670.559    95441020.7844   23307671.020  
                
  19479860.953   104057924.815    19479865.312    80933932.215    19479865.195  
  19479860.293  
  20143899.805   107794074.772    20143904.113    83839834.665    20143903.691  
  20143899.094  
  22604700.305   118788521.562    22604707.895    92562532.2204   22604708.508  
                
  20448581.078   107458025.679    20448585.930    83733552.9054   20448586.223  
                
 21  8  6  0 39 10.0000000  0 14G19R13R22G 1G21G22G14G 6R 5G24R12R21
                                G 3G17
  20999747.766   110354436.253    20999751.086    85990481.9384                 
                
  21781614.055   116312605.927    21781618.441    90465383.763    21781618.016  
  21781612.277  
  19493276.484   104056517.033    19493279.457    80932812.792    19493279.367  
  19493275.352  
  21479646.805   112876314.744    21479655.250    87955613.0584   21479655.141  
                
  24219766.211   127275749.225    24219770.426    99175916.6054                 
                
  22777035.883   119694176.391    22777038.445    93268202.3424                 
                
  20684543.805   108698015.678    20684549.461    84699775.9534   20684549.715  
                
  23678935.148   124433682.560    23678944.617    96961326.8584   23678945.012  
                
  22690168.430   121291953.899    22690173.164    94338190.401    22690173.301  
  22690167.645  
  23306155.508   122474693.609    23306163.688    95434850.3644   23306164.137  
                
  19480513.359   104061409.886    19480517.738    80936642.829    19480517.621  
  19480512.695  
  20148300.414   107817623.343    20148304.719    83858150.214    20148304.305  
  20148299.707  
  22601244.867   118770363.176    22601252.434    92548382.8324   22601253.059  
                
  20448011.961   107455034.976    20448016.805    83731222.4884   20448017.098  
                
 21  8  6  0 39 20.0000000  0 14G19R13R22G 1G21G22G14G 6R 5G24R12R21
                                G 3G17
  20995635.297   110332825.109    20995638.633    85973642.0874                 
                
  21775215.688   116278438.963    21775220.066    90438809.463    21775219.637  
  21775213.918  
  19491068.289   104044729.538    19491071.266    80923644.741    19491071.211  
  19491067.152  
  21484800.305   112903396.540    21484808.762    87976715.7534   21484808.660  
                
  24225758.359   127307238.190    24225762.594    99200453.4584                 
                
  22777061.523   119694311.104    22777064.062    93268307.3194                 
                
  20687737.586   108714799.078    20687743.258    84712853.9264   20687743.496  
                
  23671975.992   124397111.938    23671985.430    96932830.2914   23671985.836  
                
  22689439.547   121288057.591    22689444.328    94335159.939    22689444.457  
  22689438.730  
  23304661.125   122466840.650    23304669.340    95428731.1824   23304669.785  
                
  19481182.641   104064985.056    19481187.043    80939423.517    19481186.902  
  19481181.961  
  20152709.188   107841215.570    20152713.492    83876499.723    20152713.078  
  20152708.473  
  22597800.648   118752263.732    22597808.203    92534279.3714   22597808.824  
                
  20447449.852   107452081.052    20447454.695    83728920.7294   20447454.984  
                
 21  8  6  0 39 30.0000000  0 14G19R13R22G 1G21G22G14G 6R 5G24R12R21
                                G 3G17
  20991529.938   110311251.299    20991533.289    85956831.3314                 
                
  21768827.141   116244324.452    21768831.535    90412275.960    21768831.090  
  21768825.391  
  19488871.750   104033004.254    19488874.742    80914525.078    19488874.648  
  19488870.609  
  21489962.562   112930524.388    21489971.027    87997854.3264   21489970.922  
                
  24231752.711   127338738.722    24231756.961    99224999.3174                 
                
  22777099.516   119694510.760    22777102.059    93268462.9024                 
                
  20690941.742   108731636.986    20690947.422    84725974.3634   20690947.656  
                
  23665020.664   124360561.493    23665030.105    96904349.4434   23665030.523  
                
  22688727.211   121284249.784    22688732.035    94332198.318    22688732.152  
  22688726.359  
  23303179.328   122459053.747    23303187.551    95422663.4664   23303187.996  
                
  19481868.828   104068650.501    19481873.250    80942274.408    19481873.098  
  19481868.148  
  20157126.219   107864851.981    20157130.531    83894883.602    20157130.105  
  20157125.488  
  22594367.711   118734223.594    22594375.270    92520222.1284   22594375.895  
                
  20446894.805   107449164.244    20446899.652    83726647.8944   20446899.938  
                
 21  8  6  0 39 40.0000000  0 14G19R13R22G 1G21G22G14G 6R 5G24R12R21
                                G 3G17
  20987431.562   110289714.258    20987434.934    85940049.2334                 
                
  21762448.219   116210261.467    21762452.633    90385782.542    21762452.152  
  21762446.480  
  19486686.773   104021340.632    19486689.770    80905453.378    19486689.645  
  19486685.609  
  21495133.477   112957697.678    21495141.949    88019028.3144   21495141.840  
                
  24237749.148   127370250.294    24237753.445    99249553.7724                 
                
  22777149.758   119694774.867    22777152.281    93268668.7024                 
                
  20694156.172   108748528.853    20694161.852    84739136.8484   20694162.082  
                
  23658069.062   124324030.758    23658078.492    96875883.9694   23658078.914  
                
  22688031.383   121280530.232    22688036.281    94329305.342    22688036.375  
  22688030.523  
  23301710.016   122451332.475    23301718.242    95416646.8794   23301718.699  
                
  19482571.859   104072405.943    19482576.293    80945195.308    19482576.129  
  19482571.172  
  20161551.344   107888531.755    20161555.668    83913301.200    20161555.234  
  20161550.590  
  22590945.977   118716242.323    22590953.547    92506210.7774   22590954.172  
                
  20446346.719   107446284.057    20446351.566    83724403.5944   20446351.848  
                
 21  8  6  0 39 50.0000000  0 14G19R13R22G 1G21G22G14G 6R 5G24R12R21
                                G 3G17
  20983340.344   110268214.761    20983343.730    85923296.3804                 
                
  21756079.188   116176251.213    21756083.598    90359330.137    21756083.109  
  21756077.445  
  19484513.445   104009739.319    19484516.434    80896430.137    19484516.293  
  19484512.285  
  21500313.133   112984916.945    21500321.609    88040238.1254   21500321.488  
                
  24243747.820   127401773.483    24243752.145    99274117.2794                 
                
  22777212.398   119695104.052    22777214.898    93268925.2184                 
                
  20697380.984   108765475.279    20697386.664    84752341.8484   20697386.902  
                
  23651121.406   124287520.503    23651130.770    96847434.4344   23651131.211  
                
  22687352.141   121276899.336    22687357.098    94326481.327    22687357.164  
  22687351.316  
  23300253.305   122443677.444    23300261.582    95410681.9264   23300262.016  
                
  19483291.820   104076251.838    19483296.273    80948186.553    19483296.105  
  19483291.137  
  20165984.672   107912255.363    20165989.004    83931752.890    20165988.566  
  20165983.895  
  22587535.602   118698320.696    22587543.148    92492245.8904   22587543.785  
                
  20445805.719   107443441.077    20445810.566    83722188.2884   20445810.844  
                
 21  8  6  0 40  0.0000000  0 15G19R13R22G 1G21G22G14G 6R 5G24R12R 6
                                R21G 3G17
  20979256.117   110246752.047    20979259.508    85906572.1934                 
                
  21749719.906   116142293.141    21749724.324    90332918.304    21749723.836  
  21749718.184  
  19482351.680   103998199.665    19482354.691    80887454.860    19482354.516  
  19482350.520  
  21505501.375   113012181.311    21505509.836    88061483.0814   21505509.727  
                
  24249748.547   127433307.512    24249752.906    99298689.2374                 
                
  22777287.273   119695497.623    22777289.789    93269231.8954                 
                
  20700616.023   108782475.496    20700621.715    84765588.7644   20700621.945  
                
  23644177.461   124251029.990    23644186.836    96819000.2974   23644187.266  
                
  22686689.398   121273356.595    22686694.387    94323725.862    22686694.445  
  22686688.598  
  23298809.070   122436087.935    23298817.387    95404768.0334   23298817.785  
                
  19484028.609   104080187.609    19484033.086    80951247.708    19484032.910  
  19484027.922  
  23508253.938   125444536.108                                                  
                
  20170426.055   107936022.130    20170430.414    83950238.149    20170429.938  
  20170425.273  
  22584136.438   118680458.018    22584143.965    92478326.9244   22584144.617  
                
  20445271.656   107440634.532    20445276.504    83720001.3764   20445276.777  
                
 21  8  6  0 40 10.0000000  0 15G19R13R22G 1G21G22G14G 6R 5G24R12R 6
                                R21G 3G17
  20975178.977   110225326.571    20975182.379    85889877.0254                 
                
  21743370.516   116108387.794    21743374.941    90306547.491    21743374.461  
  21743368.793  
  19480201.523   103986722.001    19480204.562    80878527.784    19480204.352  
  19480200.363  
  21510698.289   113039491.200    21510706.746    88082763.5124   21510706.633  
                
  24255751.438   127464852.795    24255755.805    99323269.9704                 
                
  22777374.484   119695955.992    22777377.020    93269589.0764                 
                
  20703861.383   108799529.938    20703867.086    84778877.9354   20703867.297  
                
  23637237.359   124214559.788    23637246.844    96790582.0134   23637247.242  
                
  22686043.234   121269902.422    22686048.277    94321039.282    22686048.297  
  22686042.438  
  23297377.398   122428564.472    23297385.688    95398905.6054   23297386.105  
                
  19484782.273   104084213.550    19484786.762    80954378.993    19484786.586  
  19484781.574  
  23501645.617   125409272.000                                                  
                
  20174875.570   107959832.381    20174879.930    83968757.235    20174879.453  
  20174874.758  
  22580748.578   118662654.826    22580756.113    92464454.3304   22580756.770  
                
  20444744.641   107437864.999    20444749.484    83717843.3014   20444749.762  
                
 21  8  6  0 40 20.0000000  0 15G19R13R22G 1G21G22G14G 6R 5G24R12R 6
                                R21G 3G17
  20971108.922   110203938.319    20971112.328    85873210.8574                 
                
  21737030.984   116074535.076    21737035.414    90280217.616    21737034.914  
  21737029.246  
  19478062.953   103975306.241    19478066.020    80869648.867    19478065.797  
  19478061.793  
  21515903.797   113066846.341    21515912.230    88104079.1954   21515912.125  
                
  24261756.391   127496409.076    24261760.785    99347859.2634                 
                
  22777474.000   119696479.057    22777476.578    93269996.6534                 
                
  20707117.023   108816638.419    20707122.730    84792209.2084   20707122.941  
                
  23630301.148   124178109.826    23630310.672    96762179.4914   23630311.027  
                
  22685413.625   121266536.738    22685418.703    94318421.536    22685418.699  
  22685412.844  
  23295958.273   122421106.950    23295966.504    95393094.5554   23295966.977  
                
  19485552.812   104088329.705    19485557.328    80957580.435    19485557.141  
  19485552.109  
  23495044.047   125374044.317                                                  
                
  20179333.148   107983685.833    20179337.504    83987309.909    20179337.039  
  20179332.305  
  22577372.039   118644911.093    22577379.547    92450628.0624   22577380.203  
                
  20444224.594   107435132.209    20444229.438    83715713.8574   20444229.719  
                
 21  8  6  0 40 30.0000000  0 15G19R13R22G 1G21G22G14G 6R 5G24R12R 6
                                R21G 3G17
  20967045.969   110182587.392    20967049.387    85856573.7794                 
                
  21730701.328   116040735.086    21730705.762    90253928.744    21730705.297  
  21730699.574  
  19475935.969   103963952.312    19475939.043    80860818.038    19475938.816  
  19475934.801  
  21521117.914   113094246.652    21521126.316    88125430.0864   21521126.238  
                
  24267763.445   127527976.334    24267767.891    99372457.1254                 
                
  22777585.844   119697066.843    22777588.484    93270454.6734                 
                
  20710382.953   108833800.925    20710388.668    84805582.5864   20710388.871  
                
  23623368.852   124141680.228    23623378.258    96733792.7924   23623378.613  
                
  22684800.562   121263259.550    22684805.641    94315872.604    22684805.641  
  22684799.801  
  23294551.703   122413715.353    23294559.891    95387334.8654   23294560.398  
                
  19486340.266   104092536.119    19486344.801    80960852.089    19486344.598  
  19486339.547  
  23488449.414   125338853.248                                                  
                
  20183798.820   108007582.537    20183803.188    84005896.232    20183802.707  
  20183797.953  
  22574006.852   118627226.925    22574014.324    92436848.1814   22574014.977  
                
  20443711.578   107432436.232    20443716.418    83713613.0994   20443716.695  
                
 21  8  6  0 40 40.0000000  0 15G19R13R22G 1G21G22G14G 6R 5G24R12R 6
                                R21G 3G17
  20962990.156   110161273.968    20962993.582    85839965.9224                 
                
  21724381.594   116006988.064    21724386.004    90227681.072    21724385.566  
  21724379.816  
  19473820.617   103952660.419    19473823.684    80852035.453    19473823.469  
  19473819.434  
  21526340.625   113121692.135    21526348.984    88146816.1774   21526348.914  
                
  24273772.570   127559554.617    24273777.059    99397063.5544                 
                
  22777710.031   119697719.446    22777712.699    93270963.1984                 
                
  20713659.188   108851017.544    20713664.918    84818998.1274   20713665.105  
                
  23616440.430   124105271.153    23616449.801    96705422.1144   23616450.176  
                
  22684204.078   121260070.873    22684209.148    94313392.519    22684209.156  
  22684203.336  
  23293157.719   122406389.851    23293165.914    95381626.6994   23293166.418  
                
  19487144.609   104096832.770    19487149.145    80964193.926    19487148.941  
  19487143.883  
  23481861.555   125303699.202                                                  
                
  20188272.562   108031522.496    20188276.938    84024516.201    20188276.469  
  20188271.684  
  22570653.023   118609602.513    22570660.484    92423114.8824   22570661.137  
                
  20443205.578   107429777.148    20443210.414    83711541.0884   20443210.699  
                
 21  8  6  0 40 50.0000000  0 15G19R13R22G 1G21G22G14G 6R 5G24R12R 6
                                R21G 3G17
  20958941.430   110139997.740    20958944.844    85823387.0434                 
                
  21718071.773   115973294.067    21718076.148    90201474.637    21718075.711  
  21718069.988  
  19471716.828   103941430.305    19471719.887    80843300.929    19471719.695  
  19471715.641  
  21531571.859   113149182.388    21531580.184    88168237.1514   21531580.121  
                
  24279783.766   127591143.726    24279788.277    99421678.4084                 
                
  22777846.469   119698436.519    22777849.156    93271521.9564                 
                
  20716945.641   108868287.938    20716951.375    84832455.5624   20716951.555  
                
  23609515.859   124068882.343    23609525.281    96677067.2334   23609525.621  
                
  22683624.141   121256970.764    22683629.234    94310981.329    22683629.211  
  22683623.422  
  23291776.234   122399130.148    23291784.473    95375969.7874   23291784.934  
                
  19487965.781   104101219.332    19487970.320    80967605.698    19487970.125  
  19487965.051  
  23475280.445   125268581.887                                                  
                
  20192754.289   108055505.155    20192758.691    84043169.373    20192758.211  
  20192753.395  
  22567310.500   118592037.583    22567317.980    92409427.9534   22567318.625  
                
  20442706.547   107427154.704    20442711.379    83709497.6244   20442711.656  
                
 21  8  6  0 41  0.0000000  0 15G19R13R22G 1G21G22G14G 6R 5G24R12R 6
                                R21G 3G17
  20954899.797   110118758.880    20954903.207    85806837.2954                 
                
  21711771.961   115939653.459    21711776.297    90175309.719    21711775.883  
  21711770.164  
  19469624.672   103930262.194    19469627.715    80834614.623    19469627.539  
  19469623.449  
  21536811.625   113176717.513    21536819.945    88189693.0794   21536819.863  
                
  24285797.008   127622743.547    24285801.578    99446301.6604                 
                
  22777995.250   119699218.398    22777997.934    93272131.2144                 
                
  20720242.352   108885612.267    20720248.090    84845955.0384   20720248.273  
                
  23602595.227   124032514.120    23602604.660    96648728.3824   23602604.977  
                
  22683060.750   121253959.067    22683065.859    94308638.903    22683065.824  
  22683060.066  
  23290407.328   122391936.487    23290415.613    95370364.3374   23290416.027  
                
  19488803.844   104105696.119    19488808.398    80971087.634    19488808.207  
  19488803.105  
  23468706.406   125233501.953                                                  
                
  20197244.016   108079530.637    20197248.438    84061855.858    20197247.965  
  20197243.098  
  22563979.375   118574532.483    22563986.844    92395787.6304   22563987.504  
                
  20442214.523   107424569.100    20442219.355    83707482.8704   20442219.637  
                
 21  8  6  0 41 10.0000000  0 15G19R13R22G 1G21G22G14G 6R 5G24R12R 6
                                R21G 3G17
  20950865.289   110097557.401    20950868.688    85790316.6624                 
                
  21705482.109   115906066.026    21705486.418    90149186.163    21705486.012  
  21705480.352  
  19467544.062   103919155.823    19467547.102    80825976.344    19467546.941  
  19467542.832  
  21542059.891   113204297.349    21542068.203    88211183.8564   21542068.113  
                
  24291812.289   127654354.037    24291816.871    99470933.1964                 
                
  22778156.336   119700064.937    22778159.043    93272790.8614                 
                
  20723549.320   108902990.437    20723555.051    84859496.4594   20723555.238  
                
  23595678.492   123996166.455    23595687.863    96620405.5514   23595688.207  
                
  22682513.906   121251035.961    22682519.020    94306365.390    22682518.957  
  22682513.195  
  23289050.969   122384808.782    23289059.250    95364810.2874   23289059.668  
                
  19489658.758   104110262.920    19489663.309    80974639.583    19489663.125  
  19489658.016  
  23462139.422   125198459.207                                                  
                
  20201741.750   108103598.959    20201746.203    84080575.654    20201745.711  
  20201740.805  
  22560659.633   118557087.241    22560667.082    92382193.9364   22560667.742  
                
  20441729.508   107422020.292    20441734.344    83705496.7884   20441734.625  
                
 21  8  6  0 41 20.0000000  0 15G19R13R22G 1G21G22G14G 6R 5G24R12R 6
                                R21G 3G17
  20946837.883   110076393.223    20946841.270    85773825.0964                 
                
  21699202.289   115872532.128    21699206.586    90123104.253    21699206.195  
  21699200.535  
  19465475.039   103908111.251    19465478.094    80817386.116    19465477.887  
  19465473.797  
  21547316.648   113231921.696    21547324.945    88232709.3244   21547324.867  
                
  24297829.562   127685974.947    24297834.152    99495572.8404                 
                
  22778329.703   119700976.028    22778332.441    93273500.8084                 
                
  20726866.516   108920422.323    20726872.242    84873079.7404   20726872.426  
                
  23588765.633   123959839.305    23588774.941    96592098.7184   23588775.340  
                
  22681983.625   121248201.330    22681988.746    94304160.686    22681988.672  
  22681982.852  
  23287707.164   122377747.012    23287715.410    95359307.6184   23287715.859  
                
  19490530.516   104114919.671    19490535.062    80978261.503    19490534.875  
  19490529.777  
  23455579.422   125163453.817                                                  
                
  20206247.445   108127709.829    20206251.934    84099328.550    20206251.449  
  20206246.484  
  22557351.266   118539701.790    22557358.711    92368646.8374   22557359.379  
                
  20441251.453   107419508.091    20441256.297    83703539.2344   20441256.578  
                
 21  8  6  0 41 30.0000000  0 15G19R13R22G 1G21G22G14G 6R 5G24R12R 6
                                R21G 3G17
  20942817.672   110055266.885    20942821.051    85757363.0314                 
                
  21692932.602   115839052.348    21692936.887    90097064.436    21692936.484  
  21692930.859  
  19463417.633   103897128.812    19463420.688    80808844.224    19463420.527  
  19463416.371  
  21552581.922   113259590.861    21552590.203    88254269.7114   21552590.145  
                
  24303848.898   127717606.754    24303853.484    99520221.0054                 
                
  22778515.445   119701952.125    22778518.219    93274261.4114                 
                
  20730193.984   108937908.300    20730199.707    84886705.1644   20730199.895  
                
  23581856.773   123923533.175    23581866.082    96563808.2764   23581866.512  
                
  22681469.992   121245455.729    22681475.121    94302025.228    22681475.043  
  22681469.160  
  23286375.984   122370751.590    23286384.211    95353856.6404   23286384.672  
                
  19491419.211   104119666.910    19491423.770    80981953.796    19491423.582  
  19491418.465  
  23449026.594   125128486.414                                                  
                
  20210761.148   108151863.638    20210765.676    84118114.829    20210765.168  
  20210760.164  
  22554054.375   118522376.664    22554061.797    92355146.7564   22554062.496  
                
  20440780.445   107417032.967    20440785.297    83701610.5664   20440785.578  
                
 21  8  6  0 41 40.0000000  0 15G19R13R22G 1G21G22G14G 6R 5G24R12R 6
                                R21G 3G17
  20938804.609   110034178.101    20938807.969    85740930.2094                 
                
  21686673.023   115805626.532    21686677.281    90071066.591    21686676.906  
  21686671.297  
  19461371.852   103886208.381    19461374.938    80800350.563    19461374.738  
  19461370.574  
  21557855.672   113287304.549    21557863.957    88275864.7764   21557863.914  
                
  24309870.258   127749249.106    24309874.773    99544877.3824                 
                
  22778713.516   119702993.015    22778716.312    93275072.5044                 
                
  20733531.711   108955448.111    20733537.422    84900372.5444   20733537.613  
                
  23574951.883   123887247.914    23574961.211    96535534.0994   23574961.656  
                
  22680972.961   121242798.818    22680978.051    94299958.748    22680977.980  
  22680972.121  
  23285057.383   122363822.330    23285065.602    95348457.2254   23285066.066  
                
  19492324.781   104124504.340    19492329.352    80985716.235    19492329.152  
  19492324.031  
  23442480.719   125093556.750                                                  
                
  20215282.805   108176059.977    20215287.352    84136934.191    20215286.832  
  20215281.816  
  22550768.945   118505111.718    22550776.348    92341693.5594   22550777.055  
                
  20440316.453   107414594.704    20440321.316    83699710.6264   20440321.590  
                
 21  8  6  0 41 50.0000000  0 15G19R13R22G 1G21G22G14G 6R 5G24R12R 6
                                R21G 3G17
  20934798.562   110013126.216    20934801.902    85724526.1514                 
                
  21680423.406   115772253.906    21680427.613    90045110.113    21680427.234  
  21680421.648  
  19459337.539   103875349.053    19459340.641    80791904.423    19459340.438  
  19459336.277  
  21563137.727   113315061.885    21563146.039    88297493.8614   21563145.977  
                
  24315893.477   127780901.241    24315897.969    99569541.3844                 
                
  22778923.781   119704097.926    22778926.582    93275933.4724                 
                
  20736879.531   108973040.993    20736885.234    84914081.2684   20736885.426  
                
  23568050.883   123850982.919    23568060.211    96507275.6874   23568060.645  
                
  22680492.406   121240230.035    22680497.480    94297960.789    22680497.406  
  22680491.539  
  23283751.242   122356958.494    23283759.445    95343108.7874   23283759.914  
                
  19493247.109   104129431.209    19493251.672    80989548.244    19493251.488  
  19493246.367  
  23435941.914   125058664.490                                                  
                
  20219812.266   108200297.986    20219816.793    84155785.968    20219816.273  
  20219811.297  
  22547494.852   118487906.327    22547502.207    92328286.7594   22547502.938  
                
  20439859.344   107412192.572    20439864.219    83697838.8314   20439864.492  
                
 21  8  6  0 42  0.0000000  0 15G19R13R22G 1G21G22G14G 6R 5G24R12R 6
                                R21G 3G17
  20930799.805   109992112.639    20930803.113    85708151.9354                 
                
  21674184.039   115738936.110    21674188.199    90019196.279    21674187.852  
  21674182.270  
  19457314.906   103864552.169    19457317.988    80783506.846    19457317.809  
  19457313.645  
  21568428.312   113342864.081    21568436.660    88319157.9054   21568436.570  
                
  24321918.820   127812564.538    24321923.273    99594214.0854                 
                
  22779146.469   119705268.116    22779149.273    93276845.3234                 
                
  20740237.695   108990688.213    20740243.391    84927832.3344   20740243.586  
                
  23561153.945   123814739.481    23561163.297    96479034.0884   23561163.711  
                
  22680028.562   121237750.443    22680033.625    94296032.212    22680033.535  
  22680027.680  
  23282457.805   122350161.414    23282466.000    95337812.3744   23282466.473  
                
  19494186.406   104134448.782    19494190.941    80993450.800    19494190.770  
  19494185.664  
  23429410.305   125023810.786                                                  
                
  20224349.750   108224578.947    20224354.242    84174671.160    20224353.715  
  20224348.812  
  22544232.320   118470761.794    22544239.641    92314927.4014   22544240.398  
                
  20439409.336   107409827.799    20439414.227    83695996.1574   20439414.488  
                
 21  8  6  0 42 10.0000000  0 15G19R13R22G 1G21G22G14G 6R 5G24R12R 6
                                R21G 3G17
  20926808.180   109971136.554    20926811.477    85691806.9484                 
                
  21667954.789   115705672.356    21667958.922    89993324.469    21667958.566  
  21667953.027  
  19455303.867   103853817.131    19455306.941    80775157.378    19455306.766  
  19455302.598  
  21573727.281   113370710.291    21573735.652    88340856.2434   21573735.551  
                
  24327946.070   127844237.891    24327950.480    99618894.6104                 
                
  22779381.438   119706502.900    22779384.219    93277807.4924                 
                
  20743606.047   109008388.976    20743611.738    84941625.1294   20743611.930  
                
  23554260.992   123778516.948    23554270.297    96450808.7714   23554270.723  
                
  22679581.305   121235359.587    22679586.352    94294172.642    22679586.250  
  22679580.449  
  23281176.930   122343430.352    23281185.145    95332567.3854   23281185.605  
                
  19495142.555   104139556.350    19495147.066    80997423.349    19495146.918  
  19495141.820  
  23422886.000   124988995.512                                                  
                
  20228895.117   108248902.101    20228899.578    84193589.174    20228899.062  
  20228894.211  
  22540981.273   118453677.502    22540988.574    92301614.9914   22540989.340  
                
  20438966.305   107407499.696    20438971.207    83694182.0504   20438971.469  
                
 21  8  6  0 42 20.0000000  0 15G19R13R22G 1G21G22G14G 6R 5G24R12R 6
                                R21G 3G17
  20922823.719   109950198.066    20922826.996    85675491.2474                 
                
  21661735.742   115672463.066    21661739.848    89967495.019    21661739.504  
  21661734.008  
  19453304.398   103843143.865    19453307.477    80766855.952    19453307.293  
  19453303.117  
  21579034.609   113398600.451    21579042.980    88362588.8204   21579042.891  
                
  24333975.258   127875921.300    24333979.668    99643582.9844                 
                
  22779628.711   119707802.336    22779631.473    93278820.0254                 
                
  20746984.594   109026143.301    20746990.277    84955459.6544   20746990.477  
                
  23547372.055   123742315.442    23547381.289    96422599.8284   23547381.727  
                
  22679150.641   121233057.331    22679155.652    94292382.000    22679155.543  
  22679149.816  
  23279908.633   122336765.386    23279916.891    95327373.9134   23279917.312  
                
  19496115.562   104144753.993    19496120.062    81001465.956    19496119.930  
  19496114.816  
  23416368.805   124954218.594                                                  
                
  20233448.352   108273267.291    20233452.781    84212539.867    20233452.262  
  20233447.457  
  22537741.719   118436653.588    22537749.004    92288349.6024   22537749.766  
                
  20438530.266   107405208.282    20438535.176    83692396.5354   20438535.438  
                
 21  8  6  0 42 30.0000000  0 15G19R13R22G 1G21G22G14G 6R 5G24R12R 6
                                R21G 3G17
  20918846.453   109929297.365    20918849.711    85659204.9934                 
                
  21655526.930   115639308.430    21655531.039    89941708.084    21655530.680  
  21655525.168  
  19451316.508   103832532.441    19451319.598    80758602.623    19451319.406  
  19451315.238  
  21584350.297   113426534.489    21584358.652    88384355.5974   21584358.594  
                
  24340006.344   127907614.819    24340010.801    99668279.2204                 
                
  22779888.289   119709166.441    22779891.035    93279882.9684                 
                
  20750373.320   109043951.179    20750379.004    84969335.9124   20750379.207  
                
  23540487.141   123706135.074    23540496.391    96394407.3574   23540496.805  
                
  22678736.547   121230843.812    22678741.559    94290660.372    22678741.406  
  22678735.719  
  23278652.906   122330166.559    23278661.211    95322231.9734   23278661.590  
                
  19497105.430   104150041.650    19497109.922    81005578.579    19497109.793  
  19497104.695  
  23409858.758   124919480.001                                                  
                
  20238009.430   108297674.513    20238013.805    84231523.262    20238013.301  
  20238008.559  
  22534513.664   118419690.159    22534520.949    92275131.3504   22534521.719  
                
  20438101.195   107402953.530    20438106.105    83690639.5844   20438106.371  
                
 21  8  6  0 42 40.0000000  0 15G19R13R22G 1G21G22G14G 6R 5G24R12R 6
                                R21G 3G17
  20914876.422   109908434.780    20914879.664    85642948.4404                 
                
  21649328.383   115606208.640    21649332.520    89915963.819    21649332.125  
  21649326.586  
  19449340.273   103821983.172    19449343.352    80750397.646    19449343.164  
  19449339.012  
  21589674.375   113454512.654    21589682.723    88406156.7674   21589682.684  
                
  24346039.414   127939318.781    24346043.883    99692983.6084                 
                
  22780160.242   119710595.629    22780162.988    93280996.6344                 
                
  20753772.305   109061812.922    20753777.992    84983254.1484   20753778.199  
                
  23533606.297   123669976.245    23533615.520    96366231.6744   23533615.945  
                
  22678339.133   121228719.441    22678344.133    94289008.082    22678343.965  
  22678338.273  
  23277409.852   122323634.255    23277418.180    95317141.8674   23277418.520  
                
  19498112.219   104155419.733    19498116.711    81009761.523    19498116.586  
  19498111.484  
  23403356.094   124884780.742                                                  
                
  20242578.391   108322123.923    20242582.699    84250539.472    20242582.227  
  20242577.547  
  22531297.195   118402787.626    22531304.477    92261960.5714   22531305.250  
                
  20437679.188   107400735.893    20437684.094    83688911.5574   20437684.367  
                
 21  8  6  0 42 50.0000000  0 15G19R13R22G 1G21G22G14G 6R 5G24R12R 6
                                R21G 3G17
  20910913.523   109887609.614    20910916.738    85626721.0394                 
                
  21643140.117   115573163.614    21643144.258    89890262.131    21643143.836  
  21643138.312  
  19447375.578   103811495.500    19447378.652    80742240.567    19447378.461  
  19447374.328  
  21595006.727   113482534.297    21595015.082    88427991.8084   21595015.043  
                
  24352074.352   127971032.564    24352078.828    99717695.6134                 
                
  22780444.461   119712089.232    22780447.195    93282160.4694                 
                
  20757181.430   109079727.946    20757187.129    84997213.9004   20757187.320  
                
  23526729.453   123633838.421    23526738.680    96338072.3904   23526739.137  
                
  22677958.281   121226683.616    22677963.262    94287424.653    22677963.102  
  22677957.422  
  23276179.344   122317167.873    23276187.695    95312103.1424   23276188.016  
                
  19499135.812   104160887.583    19499140.301    81014014.294    19499140.172  
  19499135.094  
  23396860.562   124850119.998                                                  
                
  20247155.141   108346614.934    20247159.410    84269588.027    20247158.945  
  20247154.328  
  22528092.234   118385945.508    22528099.484    92248836.8504   22528100.273  
                
  20437264.141   107398554.823    20437269.043    83687212.0234   20437269.316  
                
 21  8  6  0 43  0.0000000  0 15G19R13R22G 1G21G22G14G 6R 5G24R12R 6
                                R21G 3G17
  20906957.961   109866823.031    20906961.156    85610523.7084                 
                
  21636962.266   115540174.239    21636966.410    89864603.738    21636965.961  
  21636960.441  
  19445422.625   103801070.494    19445425.711    80734132.232    19445425.516  
  19445421.387  
  21600347.508   113510600.275    21600355.895    88449861.3954   21600355.848  
                
  24358111.328   128002757.033    24358115.801    99742415.9844                 
                
  22780741.125   119713648.226    22780743.859    93283375.2804                 
                
  20760600.867   109097697.186    20760606.555    85011215.8974   20760606.742  
                
  23519856.859   123597722.749    23519866.066    96309930.3174   23519866.527  
                
  22677594.219   121224737.484    22677599.195    94285911.003    22677599.043  
  22677593.387  
  23274961.586   122310768.477    23274969.934    95307116.6054   23274970.234  
                
  19500176.406   104166446.207    19500180.879    81018337.669    19500180.766  
  19500175.711  
  23390372.633   124815499.141                                                  
                
  20251739.844   108371148.511    20251744.098    84288669.707    20251743.633  
  20251739.070  
  22524898.992   118369164.910    22524906.223    92235761.0774   22524907.035  
                
  20436856.250   107396411.354    20436861.148    83685541.7944   20436861.422  
                
 21  8  6  0 43 10.0000000  0 15G19R13R22G 1G21G22G14G 6R 5G24R12R 6
                                R21G 3G17
  20903009.367   109846073.069    20903012.547    85594354.9034                 
                
  21630794.445   115507238.553    21630798.562    89838987.095    21630798.125  
  21630792.641  
  19443480.984   103790705.939    19443484.078    80726070.916    19443483.898  
  19443479.773  
  21605696.320   113538708.516    21605704.746    88471763.9074   21605704.680  
                
  24364149.914   128034490.102    24364154.438    99767143.0254                 
                
  22781049.859   119715270.672    22781052.605    93284639.5324                 
                
  20764030.234   109115718.577    20764035.918    85025258.5334   20764036.117  
                
  23512988.086   123561627.255    23512997.273    96281803.9774   23512997.758  
                
  22677246.523   121222878.914    22677251.523    94284465.449    22677251.371  
  22677245.703  
  23273756.188   122304434.061    23273764.516    95302180.6964   23273764.816  
                
  19501233.609   104172093.617    19501238.047    81022730.092    19501237.969  
  19501232.914  
  23383891.828   124780916.465                                                  
                
  20256332.086   108395722.491    20256336.340    84307782.794    20256335.875  
  20256331.344  
  22521717.055   118352443.843    22521724.289    92222731.6844   22521725.102  
                
  20436455.117   107394303.397    20436460.012    83683899.2304   20436460.297  
                
 21  8  6  0 43 20.0000000  0 15G19R13R22G 1G21G22G14G 6R 5G24R12R 6
                                R21G 3G17
  20899068.094   109825361.533    20899071.262    85578216.0584                 
                
  21624637.117   115474358.839    21624641.207    89813413.984    21624640.797  
  21624635.332  
  19441551.062   103780403.834    19441554.141    80718058.172    19441553.922  
  19441549.867  
  21611053.508   113566860.713    21611061.961    88493700.6674   21611061.883  
                
  24370190.492   128066233.529    24370195.020    99791878.1664                 
                
  22781371.023   119716958.398    22781373.770    93285954.6454                 
                
  20767469.875   109133793.937    20767475.543    85039343.2294   20767475.750  
                
  23506123.500   123525553.795    23506132.785    96253694.8394   23506133.223  
                
  22676915.562   121221109.705    22676920.547    94283089.373    22676920.395  
  22676914.785  
  23272563.508   122298166.477    23272571.820    95297296.8584   23272572.125  
                
  19502307.797   104177831.709    19502312.223    81027193.047    19502312.176  
  19502307.098  
  23377418.539   124746373.841                                                  
                
  20260932.211   108420338.654    20260936.477    84326928.700    20260936.012  
  20260931.484  
  22518546.836   118335784.242    22518554.086    92209750.2044   22518554.879  
                
  20436061.078   107392232.707    20436065.973    83682285.7114   20436066.250  
                
 21  8  6  0 43 30.0000000  0 15G19R13R22G 1G21G22G14G 6R 5G24R12R 6
                                R21G 3G17
  20895134.031   109804687.946    20895137.180    85562106.7714                 
                
  21618490.188   115441534.626    21618494.273    89787884.053    21618493.871  
  21618488.371  
  19439632.688   103770163.472    19439635.754    80710093.447    19439635.500  
  19439631.504  
  21616418.930   113595056.203    21616427.387    88515671.1674   21616427.316  
                
  24376232.922   128097986.718    24376237.418    99816620.8904                 
                
  22781704.484   119718710.780    22781707.211    93287320.1364                 
                
  20770919.664   109151922.674    20770925.320    85053469.5064   20770925.535  
                
  23499263.000   123489501.913    23499272.371    96225602.5224   23499272.777  
                
  22676601.219   121219429.359    22676606.191    94281782.439    22676606.062  
  22676600.453  
  23271383.430   122291965.150    23271391.727    95292464.6654   23271392.039  
                
  19503398.828   104183659.768    19503403.277    81031725.986    19503403.207  
  19503398.133  
  23370952.539   124711870.645                                                  
                
  20265540.086   108444996.291    20265544.348    84346106.850    20265543.902  
  20265539.379  
  22515388.219   118319185.663    22515395.457    92196816.2464   22515396.250  
                
  20435674.008   107390198.699    20435678.898    83680700.7694   20435679.184  
                
 21  8  6  0 43 40.0000000  0 15G19R13R22G 1G21G22G14G 6R 5G24R12R 6
                                R21G 3G17
  20891207.250   109784052.617    20891210.379    85546027.2924                 
                
  21612353.680   115408766.063    21612357.777    89762397.403    21612357.387  
  21612351.859  
  19437726.000   103759985.357    19437729.051    80702177.135    19437728.820  
  19437724.805  
  21621792.625   113623295.125    21621801.055    88537675.5144   21621801.012  
                
  24382277.250   128129749.820    24382281.777    99841371.3344                 
                
  22782050.305   119720528.068    22782053.000    93288736.2024                 
                
  20774379.648   109170104.964    20774385.289    85067637.5224   20774385.516  
                
  23492406.711   123453471.921    23492416.105    96197527.2334   23492416.473  
                
  22676303.570   121217838.197    22676308.559    94280544.871    22676308.445  
  22676302.840  
  23270216.008   122285830.323    23270224.277    95287684.2844   23270224.613  
                
  19504506.734   104189577.999    19504511.195    81036329.054    19504511.102  
  19504506.055  
  23364494.164   124677407.508                                                  
                
  20270155.742   108469695.477    20270160.039    84365317.323    20270159.574  
  20270155.059  
  22512241.266   118302648.354    22512248.496    92183930.0404   22512249.293  
                
  20435293.992   107388201.659    20435298.871    83679144.6374   20435299.156  
                
 21  8  6  0 43 50.0000000  0 15G19R13R22G 1G21G22G14G 6R 5G24R12R 6
                                R21G 3G17
  20887287.711   109763455.354    20887290.824    85529977.4884                 
                
  21606227.625   115376053.229    21606231.719    89736954.093    21606231.348  
  21606225.770  
  19435830.875   103749869.088    19435833.922    80694308.938    19435833.719  
  19435829.680  
  21627174.531   113651577.224    21627182.945    88559713.5084   21627182.926  
                
  24388323.438   128161522.718    24388328.000    99866129.4304                 
                
  22782408.445   119722410.078    22782411.125    93290202.7114                 
                
  20777849.797   109188340.622    20777855.426    85081847.1184   20777855.668  
                
  23485554.586   123417463.767    23485563.938    96169468.9254   23485564.312  
                
  22676022.570   121216336.040    22676027.578    94279376.525    22676027.453  
  22676021.871  
  23269061.227   122279761.922    23269069.473    95282955.6774   23269069.836  
                
  19505631.531   104195586.415    19505635.977    81041002.254    19505635.883  
  19505630.859  
  23358043.273   124642984.510                                                  
                
  20274779.117   108494436.071    20274783.457    84384560.005    20274782.957  
  20274778.477  
  22509105.961   118286172.271    22509113.191    92171091.5534   22509114.000  
                
  20434920.984   107386241.516    20434925.852    83677617.2564   20434926.145  
                
 21  8  6  0 44  0.0000000  0 15G19R13R22G 1G21G22G14G 6R 5G24R12R 6
                                R21G 3G17
  20883375.484   109742896.485    20883378.590    85513957.5904                 
                
  21600112.062   115343396.451    21600116.168    89711554.386    21600115.816  
  21600110.199  
  19433947.391   103739814.942    19433950.430    80686489.047    19433950.223  
  19433946.203  
  21632564.664   113679902.599    21632573.070    88581785.2214   21632573.039  
                
  24394371.508   128193305.460    24394376.047    99890895.1874                 
                
  22782778.953   119724357.126    22782781.629    93291719.8874                 
                
  20781330.125   109206629.830    20781335.746    85096098.4434   20781335.984  
                
  23478706.586   123381477.607    23478715.965    96141427.8144   23478716.328  
                
  22675758.234   121214922.995    22675763.277    94278277.501    22675763.145  
  22675757.555  
  23267919.109   122273760.098    23267927.344    95278278.9414   23267927.711  
                
  19506773.227   104201685.131    19506777.660    81045745.701    19506777.582  
  19506772.562  
  23351599.992   124608601.872                                                  
                
  20279410.258   108519218.192    20279414.629    84403834.976    20279414.121  
  20279409.598  
  22505982.359   118269757.709    22505989.570    92158300.9884   22505990.387  
                
  20434555.023   107384318.391    20434559.887    83676118.7174   20434560.180  
                
 21  8  6  0 44 10.0000000  0 15G19R13R22G 1G21G22G14G 6R 5G24R12R 6
                                R21G 3G17
  20879470.445   109722375.440    20879473.547    85497967.1684                 
                
  21594006.977   115310795.761    21594011.105    89686198.294    21594010.766  
  21594005.160  
  19432075.406   103729822.196    19432078.430    80678716.919    19432078.246  
  19432074.230  
  21637962.914   113708270.580    21637971.316    88603890.1314   21637971.270  
                
  24400421.328   128225097.403    24400425.859    99915668.1274                 
                
  22783161.719   119726368.585    22783164.426    93293287.2604                 
                
  20784820.531   109224971.991    20784826.148    85110391.0324   20784826.391  
                
  23471862.734   123345513.064    23471872.090    96113403.5334   23471872.453  
                
  22675510.477   121213598.596    22675515.555    94277247.422    22675515.422  
  22675509.828  
  23266789.578   122267824.373    23266797.793    95273653.6984   23266798.180  
                
  19507931.719   104207873.578    19507936.141    81050558.935    19507936.070  
  19507931.051  
  23345164.242   124574259.218                                                  
                
  20284049.023   108544041.145    20284053.418    84423141.707    20284052.891  
  20284048.359  
  22502870.383   118253404.170    22502877.566    92145557.9854   22502878.395  
                
  20434196.008   107382431.793    20434200.863    83674648.6424   20434201.160  
                
 21  8  6  0 44 20.0000000  0 15G19R13R22G 1G21G22G14G 6R 5G24R12R 6
                                R21G 3G17
  20875572.664   109701892.494    20875575.758    85482006.4334                 
                
  21587912.422   115278251.120    21587916.539    89660885.786    21587916.234  
  21587910.660  
  19430215.008   103719891.257    19430218.023    80670992.860    19430217.816  
  19430213.824  
  21643369.297   113736681.317    21643377.684    88626028.3674   21643377.633  
                
  24406472.945   128256898.728    24406477.453    99940448.3784                 
                
  22783556.781   119728444.627    22783559.527    93294904.9564                 
                
  20788321.047   109243367.287    20788326.668    85124725.0224   20788326.918  
                
  23465023.086   123309570.437    23465032.410    96085396.2964   23465032.773  
                
  22675279.383   121212363.241    22675284.492    94276286.593    22675284.344  
  22675278.742  
  23265672.672   122261954.945    23265680.879    95269080.1154   23265681.277  
                
  19509107.062   104214151.987    19509111.492    81055442.140    19509111.418  
  19509106.402  
  23338736.094   124539956.992                                                  
                
  20288695.445   108568905.086    20288699.844    84442480.318    20288699.312  
  20288694.762  
  22499770.078   118237111.980    22499777.242    92132862.7814   22499778.074  
                
  20433844.000   107380581.946    20433848.855    83673207.2034   20433849.148  
                
 21  8  6  0 44 30.0000000  0 15G19R13R22G 1G21G22G14G 6R 5G24R12R 6
                                R21G 3G17
  20871682.180   109681447.874    20871685.273    85466075.5704                 
                
  21581828.445   115245763.035    21581832.551    89635617.283    21581832.266  
  21581826.668  
  19428366.172   103710022.118    19428369.184    80663316.870    19428368.969  
  19428364.984  
  21648783.828   113765134.850    21648792.180    88648199.9474   21648792.156  
                
  24412526.344   128288709.520    24412530.887    99965235.9874                 
                
  22783964.172   119730585.502    22783966.941    93296573.1704                 
                
  20791831.695   109261815.841    20791837.320    85139100.5124   20791837.570  
                
  23458187.602   123273649.910    23458196.977    96057406.3154   23458197.328  
                
  22675064.953   121211216.996    22675070.098    94275395.085    22675069.953  
  22675064.285  
  23264568.414   122256152.027    23264576.629    95264558.3574   23264577.012  
                
  19510299.250   104220520.428    19510303.719    81060395.368    19510303.602  
  19510298.594  
  23332315.484   124505695.441                                                  
                
  20293349.531   108593810.040    20293353.918    84461850.839    20293353.395  
  20293348.836  
  22496681.492   118220881.348    22496688.652    92120215.5464   22496689.480  
                
  20433498.992   107378768.932    20433503.852    83671794.4614   20433504.141  
                
 21  8  6  0 44 40.0000000  0 15G19R13R22G 1G21G22G14G 6R 5G24R12R 6
                                R21G 3G17
  20867798.961   109661041.442    20867802.062    85450174.4624                 
                
  21575754.984   115213331.181    21575759.105    89610392.529    21575758.852  
  21575753.180  
  19426528.945   103700214.870    19426531.957    80655689.007    19426531.746  
  19426527.766  
  21654206.469   113793630.998    21654214.781    88670404.7354   21654214.789  
                
  24418581.539   128320529.673    24418586.090    99990030.8854                 
                
  22784383.891   119732791.068    22784386.656    93298291.8054                 
                
  20795352.461   109280317.511    20795358.094    85153517.3864   20795358.336  
                
  23451356.328   123237751.424    23451365.684    96029433.5054   23451366.023  
                
  22674867.172   121210159.703    22674872.336    94274572.745    22674872.188  
  22674866.496  
  23263476.789   122250415.481    23263485.020    95260088.3334   23263485.387  
                
  19511508.305   104226978.948    19511512.797    81065418.649    19511512.664  
  19511507.656  
  23325902.555   124471474.751                                                  
                
  20298011.266   108618755.889    20298015.637    84481253.157    20298015.105  
  20298010.562  
  22493604.625   118204712.288    22493611.789    92107616.2914   22493612.602  
                
  20433160.977   107376992.643    20433165.828    83670410.3404   20433166.117  
                
 21  8  6  0 44 50.0000000  0 15G19R13R22G 1G21G22G14G 6R 5G24R12R 6
                                R21G 3G17
  20863923.016   109640673.262    20863926.129    85434303.1494                 
                
  21569692.195   115180956.146    21569696.281    89585211.953    21569696.012  
  21569690.383  
  19424703.281   103690469.411    19424706.289    80648109.198    19424706.047  
  19424702.105  
  21659637.180   113822169.616    21659645.473    88692642.6104   21659645.477  
                
  24424638.477   128352359.054    24424643.004   100014832.9924                 
                
  22784815.898   119735061.285    22784818.652    93300060.8114                 
                
  20798883.312   109298872.264    20798888.961    85167975.6284   20798889.191  
                
  23444529.312   123201875.156    23444538.609    96001477.9774   23444538.938  
                
  22674686.047   121209191.491    22674691.219    94273819.699    22674691.070  
  22674685.383  
  23262397.805   122244745.386    23262406.043    95255670.0664   23262406.387  
                
  19512734.180   104233527.370    19512738.664    81070511.863    19512738.551  
  19512733.535  
  23319497.297   124437294.980                                                  
                
  20302680.594   108643742.436    20302684.941    84500687.142    20302684.398  
  20302679.883  
  22490539.477   118188604.841    22490546.660    92095065.0404   22490547.453  
                
  20432829.961   107375253.152    20432834.805    83669054.8974   20432835.094  
                
 21  8  6  0 45  0.0000000  0 15G19R13R22G 1G21G22G14G 6R 5G24R12R 6
                                R21G 3G17
  20860054.352   109620343.344    20860057.488    85418461.6624                 
                
  21563640.008   115148637.801    21563644.051    89560075.465    21563643.789  
  21563638.188  
  19422889.195   103680785.721    19422892.223    80640577.452    19422891.953  
  19422888.031  
  21665075.969   113850750.620    21665084.258    88714913.5144   21665084.250  
                
  24430697.164   128384197.643    24430701.715   100039642.2784                 
                
  22785260.219   119737396.180    22785262.957    93301880.2094                 
                
  20802424.258   109317480.029    20802429.914    85182475.1744   20802430.145  
                
  23437706.500   123166021.072    23437715.789    95973539.7514   23437716.121  
                
  22674521.578   121208312.247    22674526.742    94273135.844    22674526.598  
  22674520.891  
  23261331.461   122239141.672    23261339.688    95251303.5384   23261340.039  
                
  19513976.875   104240165.640    19513981.344    81075674.966    19513981.250  
  19513976.223  
  23313099.719   124403156.305                                                  
                
  20307357.516   108668769.610    20307361.836    84520152.714    20307361.312  
  20307356.762  
  22487486.062   118172559.072    22487493.281    92082561.8514   22487494.055  
                
  20432505.938   107373550.401    20432510.770    83667728.0794   20432511.066  
                
 21  8  6  0 45 10.0000000  0 15G19R13R22G 1G21G22G14G 6R 5G24R12R 6
                                R21G 3G17
  20856192.984   109600051.759    20856196.137    85402650.0454                 
                
  21557598.469   115116376.366    21557602.488    89534983.239    21557602.242  
  21557596.668  
  19421086.672   103671163.771    19421089.703    80633093.717    19421089.461  
  19421085.527  
  21670522.812   113879373.954    21670531.105    88737217.3974   21670531.090  
                
  24436757.602   128416045.410    24436762.168   100064458.7054                 
                
  22785716.852   119739795.797    22785719.582    93303750.0484                 
                
  20805975.289   109336140.814    20805980.961    85197016.0444   20805981.195  
                
  23430887.914   123130189.308    23430897.234    95945618.9164   23430897.535  
                
  22674373.773   121207522.117    22674378.930    94272521.313    22674378.801  
  22674373.070  
  23260277.766   122233604.429    23260285.965    95246988.8144   23260286.340  
                
  19515236.422   104246893.879    19515240.879    81080908.037    19515240.801  
  19515235.750  
  23306709.805   124369058.839                                                  
                
  20312042.047   108693837.491    20312046.355    84539649.958    20312045.859  
  20312041.270  
  22484444.398   118156575.112    22484451.668    92070106.8344   22484452.410  
                
  20432188.914   107371884.422    20432193.742    83666429.9184   20432194.035  
                
 21  8  6  0 45 20.0000000  0 15G19R13R22G 1G21G22G14G 6R 5G24R12R 6
                                R21G 3G17
  20852338.961   109579798.725    20852342.133    85386868.4694                 
                
  21551567.680   115084172.203    21551571.691    89509935.550    21551571.426  
  21551565.887  
  19419295.781   103661603.836    19419298.809    80625658.211    19419298.582  
  19419294.629  
  21675977.719   113908039.634    21675986.004    88759554.2844   21675985.984  
                
  24442819.781   128447902.355    24442824.316   100089282.2964                 
                
  22786185.820   119742260.217    22786188.535    93305670.3774                 
                
  20809536.438   109354854.737    20809542.117    85211598.3174   20809542.348  
                
  23424073.602   123094380.049    23424082.879    95917715.6324   23424083.227  
                
  22674242.680   121206821.282    22674247.836    94271976.215    22674247.699  
  22674241.957  
  23259236.750   122228133.825    23259244.945    95242726.0064   23259245.332  
                
  19516512.820   104253712.162    19516517.273    81086211.142    19516517.203  
  19516512.141  
  23300327.805   124335003.040                                                  
                
  20316734.172   108718945.996    20316738.461    84559178.787    20316737.980  
  20316733.359  
  22481414.555   118140653.177    22481421.887    92057700.1494   22481422.594  
                
  20431878.922   107370255.373    20431883.742    83665160.5274   20431884.043  
                
 21  8  6  0 45 30.0000000  0 15G19R13R22G 1G21G22G14G 6R 5G24R12R 6
                                R21G 3G17
  20848492.258   109559584.216    20848495.465    85371116.9044                 
                
  21545547.570   115052025.259    21545551.633    89484932.392    21545551.336  
  21545545.781  
  19417516.445   103652105.671    19417519.473    80618270.756    19417519.262  
  19417515.301  
  21681440.641   113936747.503    21681448.906    88781924.0574   21681448.891  
                
  24448883.688   128479768.451    24448888.215   100114112.9944                 
                
  22786667.102   119744789.382    22786669.801    93307641.1594                 
                
  20813107.664   109373621.708    20813113.336    85226221.9144   20813113.578  
                
  23417263.602   123058593.360    23417272.855    95889829.9124   23417273.211  
                
  22674128.289   121206209.779    22674133.414    94271500.602    22674133.289  
  22674127.551  
  23258208.406   122222729.821    23258216.594    95238515.0884   23258216.969  
                
  19517806.086   104260620.554    19517810.551    81091584.325    19517810.469  
  19517805.402  
  23293953.578   124300989.006                                                  
                
  20321433.859   108744094.989    20321438.129    84578739.118    20321437.676  
  20321433.023  
  22478396.500   118124793.302    22478403.906    92045341.8044   22478404.555  
                
  20431575.930   107368663.165    20431580.746    83663919.8414   20431581.043  
                
 21  8  6  0 45 40.0000000  0 14G19R13R22G 1G21G22G14G 6R 5G24R12R21
                                G 3G17
  20844652.836   109539407.965    20844656.082    85355395.1564                 
                
  21539538.164   115019935.315    21539542.238    89459973.549    21539541.902  
  21539536.395  
  19415748.656   103642669.135    19415751.680    80610931.228    19415751.465  
  19415747.504  
  21686911.531   113965497.212    21686919.758    88804326.4244   21686919.766  
                
  24454949.258   128511643.315    24454953.809   100138950.5364                 
                
  22787160.664   119747383.114    22787163.363    93309662.2414                 
                
  20816688.938   109392441.404    20816694.598    85240886.6064   20816694.844  
                
  23410457.836   123022829.024    23410467.086    95861961.6214   23410467.438  
                
  22674030.500   121205687.027    22674035.586    94271094.017    22674035.480  
  22674029.738  
  23257192.672   122217392.129    23257200.863    95234355.8514   23257201.211  
                
  19519116.148   104267618.660    19519120.629    81097027.294    19519120.523  
  19519115.473  
  20326141.055   108769284.169    20326145.301    84598330.692    20326144.879  
  20326140.188  
  22475390.227   118108995.278    22475397.719    92033031.6774   22475398.289  
                
  20431279.898   107367107.528    20431284.711    83662707.6654   20431285.008  
                
 21  8  6  0 45 50.0000000  0 15G19R13R22G 1G21G22G14G 6R 5G24R12R 6
                                R21G 3G17
  20840820.719   109519270.030    20840823.977    85339703.2644                 
                
  21533539.500   114987902.786    21533543.562    89435059.349    21533543.203  
  21533537.750  
  19413992.430   103633294.244    19413995.445    80603639.651    19413995.227  
  19413991.254  
  21692390.367   113994288.633    21692398.566    88826761.2954   21692398.598  
                
  24461016.508   128543526.897    24461021.047   100163794.8574                 
                
  22787666.508   119750041.324    22787669.223    93311733.5924                 
                
  20820280.234   109411313.776    20820285.883    85255592.3424   20820286.152  
                
  23403656.320   122987087.079    23403665.594    95834110.7814   23403665.945  
                
  22673949.367   121205253.322    22673954.410    94270756.689    22673954.320  
  22673948.578  
  23256189.570   122212120.795    23256197.785    95230248.3124   23256198.094  
                
  19520442.992   104274706.410    19520447.484    81102539.980    19520447.371  
  19520442.320  
  23281228.305   124233086.016                                                  
                
  20330855.727   108794513.421    20330859.977    84617953.446    20330859.566  
  20330854.824  
  22472395.734   118093259.160    22472403.258    92020769.7854   22472403.805  
                
  20430990.844   107365588.529    20430995.660    83661524.0284   20430995.957  
                
 21  8  6  0 46  0.0000000  0 15G19R13R22G 1G21G22G14G 6R 5G24R12R 6
                                R21G 3G17
  20836995.883   109499170.419    20836999.152    85324041.2364                 
                
  21527551.609   114955927.829    21527555.645    89410189.936    21527555.277  
  21527549.852  
  19412247.688   103623980.730    19412250.684    80596395.812    19412250.477  
  19412246.500  
  21697877.094   114023121.578    21697885.289    88849228.5154   21697885.316  
                
  24467085.398   128575419.042    24467089.938   100188645.8694                 
                
  22788184.609   119752763.932    22788187.352    93313855.1034                 
                
  20823881.523   109430238.700    20823887.168    85270339.0244   20823887.453  
                
  23396859.102   122951367.530    23396868.359    95806277.3924   23396868.727  
                
  22673884.859   121204908.496    22673889.863    94270488.494    22673889.781  
  22673884.090  
  23255199.070   122206915.684    23255207.293    95226192.3794   23255207.586  
                
  19521786.609   104281883.736    19521791.102    81108122.339    19521790.977  
  19521785.930  
  23274877.602   124199197.258                                                  
                
  20335577.852   108819782.510    20335582.098    84637607.169    20335581.715  
  20335576.906  
  22469413.016   118077584.969    22469420.570    92008556.1314   22469421.094  
                
  20430708.734   107364106.056    20430713.559    83660368.8554   20430713.840  
                
 21  8  6  0 46 10.0000000  0 15G19R13R22G 1G21G22G14G 6R 5G24R12R 6
                                R21G 3G17
  20833178.523   109479110.012    20833181.805    85308409.7604                 
                
  21521574.625   114924010.997    21521578.621    89385365.742    21521578.270  
  21521572.875  
  19410514.656   103614729.723    19410517.645    80589200.579    19410517.457  
  19410513.461  
  21703371.875   114051996.816    21703380.113    88871728.6964   21703380.125  
                
  24473156.086   128607320.573    24473160.598   100213504.1914                 
                
  22788715.125   119755551.828    22788717.906    93316027.4904                 
                
  20827492.992   109449217.026    20827498.633    85285127.3194   20827498.930  
                
  23390066.336   122915671.339    23390075.590    95778462.1924   23390075.969  
                
  22673837.148   121204653.446    22673842.113    94270290.122    22673842.047  
  22673836.395  
  23254221.352   122201777.737    23254229.559    95222188.7884   23254229.875  
                
  19523147.172   104289151.575    19523151.652    81113775.100    19523151.527  
  19523146.492  
  23268534.891   124165351.199                                                  
                
  20340307.570   108845092.220    20340311.805    84657292.506    20340311.477  
  20340306.594  
  22466442.266   118061973.628    22466449.855    91996391.4624   22466450.344  
                
  20430433.750   107362660.960    20430438.582    83659242.8084   20430438.867  
                
 21  8  6  0 46 20.0000000  0 15G19R13R22G 1G21G22G14G 6R 5G24R12R 6
                                R21G 3G17
  20829368.430   109459087.854    20829371.723    85292808.0824                 
                
  21515608.352   114892151.482    21515612.309    89360586.124    21515611.957  
  21515606.602  
  19408793.094   103605539.933    19408796.082    80582052.964    19408795.895  
  19408791.887  
  21708874.492   114080913.259    21708882.793    88894260.9744   21708882.762  
                
  24479228.328   128639230.414    24479232.781   100238368.9924                 
                
  22789257.867   119758403.939    22789260.691    93318249.9114                 
                
  20831114.406   109468247.692    20831120.051    85299956.4044   20831120.348  
                
  23383277.797   122879997.516    23383287.031    95750664.4254   23383287.410  
                
  22673806.023   121204487.119    22673811.000    94270160.757    22673810.934  
  22673805.309  
  23253256.211   122196705.937    23253264.418    95218236.7374   23253264.742  
                
  19524524.469   104296508.845    19524528.941    81119497.417    19524528.816  
  19524523.781  
  23262200.023   124131547.427                                                  
                
  20345044.688   108870441.557    20345048.930    84677008.647    20345048.637  
  20345043.680  
  22463483.305   118046424.221    22463490.895    91984275.0624   22463491.371  
                
  20430165.680   107361252.273    20430170.523    83658145.1274   20430170.797  
                
 21  8  6  0 46 30.0000000  0 15G19R13R22G 1G21G22G14G 6R 5G24R12R 6
                                R21G 3G17
  20825565.734   109439104.581    20825569.055    85277236.6994                 
                
  21509653.070   114860350.680    21509657.035    89335852.166    21509656.684  
  21509651.297  
  19407083.164   103596412.251    19407086.152    80574953.670    19407085.938  
  19407081.980  
  21714385.055   114109871.469    21714393.406    88916825.8084   21714393.355  
                
  24485302.266   128671149.159    24485306.672   100263240.7264                 
                
  22789812.961   119761320.973    22789815.820    93320522.9184                 
                
  20834745.914   109487331.362    20834751.555    85314826.7824   20834751.855  
                
  23376493.688   122844346.868    23376502.910    95722884.7224   23376503.266  
                
  22673791.625   121204410.195    22673796.633    94270100.930    22673796.547  
  22673790.938  
  23252303.805   122191700.997    23252312.023    95214336.7904   23252312.371  
                
  19525918.641   104303956.267    19525923.121    81125289.845    19525922.996  
  19525917.957  
  23255873.180   124097786.443                                                  
                
  20349789.305   108895831.032    20349793.590    84696756.018    20349793.293  
  20349788.254  
  22460536.266   118030937.494    22460543.848    91972207.4954   22460544.328  
                
  20429904.656   107359880.581    20429909.508    83657076.2794   20429909.777  
                
 21  8  6  0 46 40.0000000  0 15G19R13R22G 1G21G22G14G 6R 5G24R12R 6
                                R21G 3G17
  20821770.352   109419159.706    20821773.680    85261695.2474                 
                
  21503708.641   114828607.802    21503712.633    89311163.272    21503712.254  
  21503706.848  
  19405384.758   103587346.020    19405387.738    80567902.158    19405387.531  
  19405383.594  
  21719903.461   114138870.843    21719911.832    88939422.7044   21719911.793  
                
  24491377.797   128703076.255    24491382.113   100288119.0014                 
                
  22790380.297   119764302.378    22790383.188    93322846.0964                 
                
  20838387.398   109506467.456    20838393.047    85329738.0174   20838393.344  
                
  23369713.898   122808718.919    23369723.047    95695122.6984   23369723.434  
                
  22673793.867   121204422.243    22673798.910    94270110.309    22673798.816  
  22673793.145  
  23251364.008   122186762.376    23251372.234    95210488.5154   23251372.582  
                
  19527329.578   104311493.208    19527334.059    81131151.902    19527333.930  
  19527328.879  
  23249554.242   124064067.892                                                  
                
  20354541.312   108921260.056    20354545.641    84716534.130    20354545.320  
  20354540.223  
  22457601.086   118015513.017    22457608.648    91960188.4314   22457609.113  
                
  20429650.586   107358545.415    20429655.449    83656035.8944   20429655.707  
                
 21  8  6  0 46 50.0000000  0 15G19R13R22G 1G21G22G14G 6R 5G24R12R 6
                                R21G 3G17
  20817982.406   109399253.913    20817985.738    85246184.2444                 
                
  21497775.156   114796923.448    21497779.199    89286519.901    21497778.785  
  21497773.352  
  19403697.953   103578341.756    19403700.938    80560898.849    19403700.754  
  19403696.781  
  21725429.766   114167911.786    21725438.168    88962052.0024   21725438.113  
                
  24497455.000   128735012.148    24497459.258   100313004.0934                 
                
  22790960.000   119767348.737    22790962.898    93325219.8694                 
                
  20842038.953   109525656.478    20842044.625    85344690.4954   20842044.910  
                
  23362938.547   122773114.287    23362947.652    95667378.8324   23362948.055  
                
  22673812.836   121204523.704    22673817.898    94270189.204    22673817.793  
  22673812.098  
  23250436.953   122181890.658    23250445.180    95206692.3734   23250445.543  
                
  19528757.375   104319120.187    19528761.836    81137083.992    19528761.723  
  19528756.688  
  23243243.430   124030392.759                                                  
                
  20359300.812   108946729.097    20359305.207    84736343.380    20359304.832  
  20359299.738  
  22454677.867   118000151.387    22454685.379    91948218.3394   22454685.867  
                
  20429403.562   107357247.291    20429408.434    83655024.3714   20429408.684  
                
 21  8  6  0 47  0.0000000  0 15G19R13R22G 1G21G22G14G 6R 5G24R12R 6
                                R21G 3G17
  20814201.852   109379386.966    20814205.188    85230703.5074                 
                
  21491852.656   114765297.666    21491856.691    89261922.076    21491856.285  
  21491850.828  
  19402022.727   103569399.286    19402025.723    80553943.598    19402025.516  
  19402021.559  
  21730963.922   114196993.947    21730972.340    88984713.4264   21730972.285  
                
  24503533.844   128766956.493    24503538.105   100337895.7884                 
                
  22791552.016   119770459.817    22791554.910    93327644.0854                 
                
  20845700.523   109544898.120    20845706.215    85359683.9754   20845706.480  
                
  23356167.586   122737532.752    23356176.668    95639652.9794   23356177.082  
                
  22673848.508   121204714.352    22673853.602    94270337.505    22673853.480  
  22673847.738  
  23249522.578   122177085.570    23249530.793    95202948.1334   23249531.164  
                
  19530201.992   104326837.052    19530206.445    81143086.001    19530206.328  
  19530201.324  
  23236940.797   123996760.688                                                  
                
  20364067.719   108972237.786    20364072.172    84756183.460    20364071.746  
  20364066.637  
  22451766.570   117984852.408    22451774.035    91936297.0834   22451774.555  
                
  20429163.539   107355985.972    20429168.414    83654041.5314   20429168.664  
                
 21  8  6  0 47 10.0000000  0 15G19R13R22G 1G21G22G14G 6R 5G24R12R 6
                                R21G 3G17
  20810428.609   109359558.402    20810431.957    85215252.6854                 
                
  21485941.070   114733730.239    21485945.074    89237369.632    21485944.715  
  21485939.215  
  19400359.000   103560518.169    19400361.992    80547036.065    19400361.816  
  19400357.812  
  21736505.820   114226116.803    21736514.242    89007406.5554   21736514.203  
                
  24509614.219   128798908.865    24509618.480   100362793.7374                 
                
  22792156.250   119773635.150    22792159.160    93330118.3804                 
                
  20849372.016   109564191.929    20849377.723    85374718.1034   20849377.977  
                
  23349400.953   122701973.982    23349410.043    95611944.8694   23349410.438  
                
  22673900.773   121204993.779    22673905.883    94270554.837    22673905.754  
  22673900.016  
  23248620.797   122172346.705    23248628.988    95199255.5164   23248629.387  
                
  19531663.328   104334643.254    19531667.773    81149157.479    19531667.656  
  19531662.664  
  23230646.102   123963171.485                                                  
                
  20368841.945   108997785.645    20368846.465    84776054.017    20368845.969  
  20368840.867  
  22448867.125   117969615.776    22448874.559    91924424.3884   22448875.105  
                
  20428930.438   107354761.012    20428935.309    83653087.0194   20428935.566  
                
 21  8  6  0 47 20.0000000  0 14G19R13R22G 1G21G22G14G 6R 5G24R12R21
                                G 3G17
  20806662.844   109339769.173    20806666.211    85199832.5074                 
                
  21480040.633   114702222.234    21480044.609    89212863.411    21480044.289  
  21480038.766  
  19398706.922   103551699.250    19398709.926    80540176.907    19398709.746  
  19398705.742  
  21742055.625   114255281.141    21742064.051    89030132.0014   21742064.020  
                
  24515696.242   128830870.071    24515700.484   100387698.5424                 
                
  22792772.883   119776875.600    22792775.824    93332643.3914                 
                
  20853053.602   109583538.735    20853059.316    85389793.5304   20853059.570  
                
  23342638.828   122666438.933    23342647.879    95584255.2324   23342648.297  
                
  22673969.859   121205363.061    22673974.977    94270842.058    22673974.867  
  22673969.094  
  23247731.789   122167674.968    23247739.961    95195615.2054   23247740.395  
                
  19533141.562   104342539.657    19533146.000    81155299.117    19533145.883  
  19533140.914  
  20373623.617   109023373.365    20373628.148    84795955.572    20373627.641  
  20373622.539  
  22445979.727   117954442.416    22445987.133    91912600.9974   22445987.691  
                
  20428704.438   107353573.347    20428709.301    83652161.5644   20428709.562  
                
 21  8  6  0 47 30.0000000  0 14G19R13R22G 1G21G22G14G 6R 5G24R12R21
                                G 3G17
  20802904.359   109320018.237    20802907.750    85184442.1744                 
                
  21474151.117   114670772.607    21474155.105    89188402.600    21474154.801  
  21474149.246  
  19397066.281   103542941.421    19397069.312    80533365.268    19397069.125  
  19397065.090  
  21747613.086   114284485.818    21747621.535    89052888.8804   21747621.500  
                
  24521779.734   128862838.953    24521783.992   100412609.3714                 
                
  22793401.703   119780180.086    22793404.672    93335218.3234                 
                
  20856745.062   109602937.445    20856750.793    85404909.3954   20856751.039  
                
  23335881.039   122630926.631    23335890.082    95556583.3284   23335890.512  
                
  22674055.531   121205820.975    22674060.660    94271198.211    22674060.531  
  22674054.758  
  23246855.367   122163069.298    23246863.535    95192026.3804   23246863.969  
                
  19534636.469   104350525.136    19534640.902    81161510.039    19534640.785  
  19534635.832  
  20378412.547   109048999.875    20378417.059    84815887.298    20378416.566  
  20378411.477  
  22443104.180   117939331.349    22443111.559    91900826.1604   22443112.141  
                
  20428485.312   107352421.865    20428490.172    83651264.3094   20428490.438  
                
 21  8  6  0 47 40.0000000  0 14G19R13R22G 1G21G22G14G 6R 5G24R12R21
                                G 3G17
  20799153.312   109300306.356    20799156.711    85169082.2694                 
                
  21468272.656   114639382.090    21468276.684    89163987.763    21468276.371  
  21468270.805  
  19395437.195   103534245.315    19395440.246    80526601.635    19395440.035  
  19395436.023  
  21753178.320   114313731.326    21753186.797    89075677.5854   21753186.758  
                
  24527864.805   128894816.105    24527869.055   100437526.6194                 
                
  22794042.828   119783549.218    22794045.832    93337843.6144                 
                
  20860446.500   109622388.657    20860452.262    85420066.1774   20860452.484  
                
  23329127.719   122595437.777    23329136.781    95528929.6854   23329137.195  
                
  22674157.891   121206368.124    22674162.988    94271623.774    22674162.883  
  22674157.102  
  23245991.625   122158530.353    23245999.793    95188489.5364   23246000.234  
                
  19536148.180   104358600.400    19536152.602    81167790.801    19536152.492  
  19536147.535  
  20383208.820   109074665.688    20383213.309    84835849.598    20383212.805  
  20383207.785  
  22440240.617   117924283.282    22440247.973    91889100.4044   22440248.562  
                
  20428273.203   107351307.238    20428278.055    83650395.7684   20428278.320  
                
 21  8  6  0 47 50.0000000  0 15G19R13R22G 1G21G22G14G 6R 5G24R12R 6
                                R21G 3G17
  20795409.648   109280633.243    20795413.059    85153752.5794                 
                
  21462405.289   114608050.725    21462409.328    89139618.945    21462409.039  
  21462403.422  
  19393819.648   103525610.689    19393822.703    80519885.817    19393822.480  
  19393818.477  
  21758751.273   114343017.354    21758759.770    89098497.8524   21758759.711  
                
  24533951.367   128926801.157    24533955.539   100462450.0424                 
                
  22794696.195   119786982.697    22794699.238    93340519.0554                 
                
  20864157.898   109641892.080    20864163.680    85435263.6464   20864163.887  
                
  23322378.820   122559972.174    23322387.898    95501294.1694   23322388.309  
                
  22674276.930   121207004.406    22674282.008    94272118.665    22674281.922  
  22674276.133  
  23245140.539   122154057.902    23245148.707    95185004.5004   23245149.160  
                
  19537676.656   104366765.222    19537681.078    81174141.216    19537680.965  
  19537676.008  
  23205549.422   123829250.998                                                  
                
  20388012.391   109100370.543    20388016.855    84855842.262    20388016.375  
  20388011.359  
  22437389.016   117909298.037    22437396.348    91877423.6044   22437396.953  
                
  20428068.070   107350229.219    20428072.906    83649555.7514   20428073.184  
                
 21  8  6  0 48  0.0000000  0 15G19R13R22G 1G21G22G14G 6R 5G24R12R 6
                                R21G 3G17
  20791673.469   109260999.525    20791676.895    85138453.5804                 
                
  21456549.102   114576779.012    21456553.125    89115296.502    21456552.836  
  21456547.219  
  19392213.711   103517038.148    19392216.770    80513218.287    19392216.586  
  19392212.562  
  21764332.016   114372344.359    21764340.516    89121350.0564   21764340.457  
                
  24540039.547   128958794.679    24540043.664   100487380.0524                 
                
  22795361.930   119790481.198    22795364.988    93343245.1574                 
                
  20867879.312   109661448.253    20867885.094    85450502.2134   20867885.309  
                
  23315634.469   122524530.482    23315643.516    95473677.2734   23315643.949  
                
  22674412.711   121207730.316    22674417.793    94272683.264    22674417.727  
  22674411.891  
  23244302.203   122149652.493    23244310.367    95181571.7114   23244310.840  
                
  19539221.984   104375020.062    19539226.422    81180561.632    19539226.277  
  19539221.328  
  23199295.945   123795880.944                                                  
                
  20392823.320   109126114.854    20392827.793    84875865.614    20392827.316  
  20392822.293  
  22434549.484   117894376.261    22434556.805    91865796.2584   22434557.418  
                
  20427870.000   107349188.379    20427874.828    83648744.7074   20427875.113  
                
 21  8  6  0 48 10.0000000  0 15G19R13R22G 1G21G22G14G 6R 5G24R12R 6
                                R21G 3G17
  20787944.547   109241403.931    20787947.984    85123184.2954                 
                
  21450703.891   114545565.887    21450707.918    89091019.633    21450707.570  
  21450702.031  
  19390619.172   103508526.327    19390622.227    80506597.993    19390622.031  
  19390618.035  
  21769920.297   114401710.903    21769928.785    89144233.0764   21769928.730  
                
  24546129.070   128990795.336    24546133.164   100512315.6324                 
                
  22796039.789   119794043.381    22796042.867    93346020.8794                 
                
  20871610.516   109681055.816    20871616.301    85465780.8364   20871616.523  
                
  23308894.453   122489111.439    23308903.480    95446078.0274   23308903.914  
                
  22674565.031   121208544.576    22674570.125    94273316.567    22674570.070  
  22674564.207  
  23243476.398   122145312.865    23243484.566    95178190.1794   23243485.020  
                
  19540783.914   104383363.597    19540788.348    81187051.048    19540788.195  
  19540783.254  
  23193050.570   123762554.096                                                  
                
  20397641.359   109151897.146    20397645.859    84895918.504    20397645.363  
  20397640.309  
  22431721.812   117879516.734    22431729.105    91854217.4264   22431729.738  
                
  20427678.766   107348183.426    20427683.586    83647961.6284   20427683.883  
                
 21  8  6  0 48 20.0000000  0 15G19R13R22G 1G21G22G14G 6R 5G24R12R 6
                                R21G 3G17
  20784223.180   109221848.060    20784226.609    85107945.9584                 
                
  21444869.961   114514413.078    21444873.992    89066789.667    21444873.641  
  21444868.137  
  19389036.266   103500076.678    19389039.324    80500026.047    19389039.133  
  19389035.113  
  21775516.375   114431118.480    21775524.840    89167148.0604   21775524.785  
                
  24552220.227   129022804.575    24552224.328   100537257.8434                 
                
  22796730.039   119797670.735    22796733.137    93348847.3884                 
                
  20875351.789   109700716.281    20875357.590    85481100.6754   20875357.797  
                
  23302159.039   122453716.681    23302168.016    95418497.6964   23302168.473  
                
  22674734.148   121209448.630    22674739.285    94274019.724    22674739.242  
  22674733.312  
  23242663.398   122141040.562    23242671.566    95174861.1054   23242672.012  
                
  19542362.742   104391797.411    19542367.172    81193610.677    19542367.016  
  19542362.082  
  23186813.609   123729272.206                                                  
                
  20402466.789   109177719.059    20402471.305    84916002.194    20402470.812  
  20402465.742  
  22428906.273   117864721.054    22428913.562    91842688.3354   22428914.219  
                
  20427494.641   107347215.836    20427499.453    83647207.6614   20427499.754  
                
 21  8  6  0 48 30.0000000  0 15G19R13R22G 1G21G22G14G 6R 5G24R12R 6
                                R21G 3G17
  20780509.250   109202331.209    20780512.672    85092738.0234                 
                
  21439047.203   114483320.015    21439051.242    89042606.186    21439050.930  
  21439045.418  
  19387464.914   103491688.718    19387467.961    80493502.074    19387467.793  
  19387463.766  
  21781120.117   114460566.302    21781128.562    89190094.4174   21781128.504  
                
  24558312.891   129054821.683    24558317.012   100562206.2234                 
                
  22797432.586   119801362.652    22797435.699    93351724.2104                 
                
  20879103.000   109720428.961    20879108.820    85496461.1934   20879109.008  
                
  23295428.148   122418345.598    23295437.090    95390935.8324   23295437.555  
                
  22674919.977   121210441.971    22674925.176    94274792.344    22674925.129  
  22674919.152  
  23241863.094   122136834.916    23241871.254    95171583.9784   23241871.699  
                
  19543958.312   104400320.654    19543962.730    81200239.869    19543962.582  
  19543957.641  
  23180584.945   123696035.077                                                  
                
  20407299.477   109203579.639    20407304.004    84936115.973    20407303.496  
  20407298.445  
  22426102.781   117849988.641    22426110.082    91831208.5474   22426110.727  
                
  20427317.508   107346284.944    20427322.316    83646482.2934   20427322.613  
                
 21  8  6  0 48 40.0000000  0 15G19R13R22G 1G21G22G14G 6R 5G24R12R 6
                                R21G 3G17
  20776802.766   109182853.548    20776806.172    85077560.6344                 
                
  21433235.664   114452286.911    21433239.715    89018469.331    21433239.398  
  21433233.891  
  19385905.125   103483362.440    19385908.180    80487026.081    19385907.969  
  19385903.977  
  21786731.500   114490054.318    21786739.926    89213072.0884   21786739.879  
                
  24564407.047   129086846.663    24564411.195   100587160.7394                 
                
  22798147.422   119805119.158    22798150.535    93354651.3524                 
                
  20882864.141   109740193.851    20882869.957    85511862.4044   20882870.148  
                
  23288701.781   122382998.360    23288710.691    95363392.5374   23288711.160  
                
  22675122.461   121211524.486    22675127.695    94275634.305    22675127.648  
  22675121.648  
  23241075.484   122132695.994    23241083.629    95168358.8514   23241084.066  
                
  19545570.648   104408933.489    19545575.062    81206938.732    19545574.914  
  19545569.973  
  23174364.727   123662842.668                                                  
                
  20412139.391   109229479.000    20412143.910    84956259.928    20412143.414  
  20412138.395  
  22423311.352   117835319.629    22423318.660    91819778.1574   22423319.297  
                
  20427147.375   107345390.891    20427152.188    83645785.6324   20427152.484  
                
 21  8  6  0 48 50.0000000  0 15G19R13R22G 1G21G22G14G 6R 5G24R12R 6
                                R21G 3G17
  20773103.766   109163415.226    20773107.145    85062413.8964                 
                
  21427435.461   114421314.199    21427439.520    88994379.449    21427439.184  
  21427433.707  
  19384356.867   103475097.715    19384359.934    80480597.968    19384359.676  
  19384355.711  
  21792350.531   114519582.530    21792358.941    89236081.0634   21792358.914  
                
  24570502.695   129118879.504    24570506.898   100612121.3874                 
                
  22798874.547   119808940.277    22798877.664    93357628.8484                 
                
  20886635.227   109760010.988    20886641.027    85527304.3254   20886641.242  
                
  23281979.977   122347675.064    23281988.855    95335867.9004   23281989.324  
                
  22675341.703   121212696.453    22675346.945    94276545.829    22675346.887  
  22675340.863  
  23240300.594   122128623.883    23240308.715    95165185.7824   23240309.148  
                
  19547199.773   104417635.997    19547204.207    81213707.346    19547204.047  
  19547199.102  
  23168152.828   123629695.189                                                  
                
  20416986.539   109255417.099    20416991.031    84976434.008    20416990.555  
  20416985.566  
  22420532.016   117820714.150    22420539.355    91808397.2794   22420539.984  
                
  20426984.266   107344533.724    20426989.074    83645117.7064   20426989.367  
                
 21  8  6  0 49  0.0000000  0 15G19R13R22G 1G21G22G14G 6R 5G24R12R 6
                                R21G 3G17
  20769412.289   109144016.418    20769415.645    85047297.9424                 
                
  21421646.578   114390401.809    21421650.625    88970336.484    21421650.305  
  21421644.773  
  19382820.203   103466894.894    19382823.277    80474217.996    19382823.000  
  19382819.043  
  21797977.211   114549150.925    21797985.641    89259121.3624   21797985.602  
                
  24576599.859   129150920.270    24576604.137   100637088.1864                 
                
  22799614.016   119812826.119    22799617.137    93360656.7724                 
                
  20890416.281   109779880.466    20890422.082    85542787.0244   20890422.297  
                
  23275262.773   122312375.921    23275271.582    95308362.0834   23275272.094  
                
  22675577.672   121213957.891    22675582.914    94277526.959    22675582.863  
  22675576.781  
  23239538.430   122124618.725    23239546.566    95162064.8744   23239546.961  
                
  19548845.703   104426428.249    19548850.145    81220545.757    19548849.973  
  19548845.016  
  23161949.344   123596593.089                                                  
                
  20421840.945   109281393.968    20421845.426    84996638.234    20421844.953  
  20421839.996  
  22417764.812   117806172.425    22417772.215    91797066.0754   22417772.781  
                
  20426828.188   107343713.522    20426833.000    83644478.5904   20426833.281  
                
 21  8  6  0 49 10.0000000  0 15G19R13R22G 1G21G22G14G 6R 5G24R12R 6
                                R21G 3G17
  20765728.219   109124656.521    20765731.551    85032212.3164                 
                
  21415868.898   114359549.443    21415872.969    88946340.211    21415872.629  
  21415867.086  
  19381295.008   103458753.335    19381298.062    80467885.674    19381297.785  
  19381293.840  
  21803611.414   114578758.845    21803619.879    89282192.4584   21803619.816  
                
  24582698.391   129182968.269    24582702.742   100662060.6284                 
                
  22800365.656   119816776.145    22800368.812    93363734.7134                 
                
  20894207.156   109799801.641    20894212.984    85558310.0134   20894213.176  
                
  23268550.078   122277100.447    23268558.832    95280874.6964   23268559.379  
                
  22675830.281   121215308.277    22675835.504    94278577.248    22675835.469  
  22675829.363  
  23238788.898   122120679.963    23238797.055    95158995.7064   23238797.414  
                
  19550508.312   104435309.599    19550512.750    81227453.467    19550512.582  
  19550507.598  
  23155754.406   123563535.964                                                  
                
  20426702.484   109307408.944    20426706.941    85016872.106    20426706.480  
  20426701.574  
  22415009.641   117791693.920    22415017.117    91785784.1424   22415017.621  
                
  20426679.047   107342929.761    20426683.859    83643867.8704   20426684.129  
                
 21  8  6  0 49 20.0000000  0 15G19R13R22G 1G21G22G14G 6R 5G24R12R 6
                                R21G 3G17
  20762051.648   109105336.045    20762054.941    85017157.4034                 
                
  21410102.594   114328757.731    21410106.684    88922391.114    21410106.316  
  21410100.770  
  19379781.383   103450673.491    19379784.441    80461601.352    19379784.156  
  19379780.203  
  21809253.211   114608406.628    21809261.695    89305294.6184   21809261.625  
                
  24588798.383   129215023.981    24588802.770   100687039.0784                 
                
  22801129.609   119820790.745    22801132.762    93366862.9734                 
                
  20898007.961   109819774.936    20898013.801    85573873.6114   20898013.980  
                
  23261841.945   122241849.120    23261850.691    95253406.1584   23261851.254  
                
  22676099.602   121216747.996    22676104.816    94279697.040    22676104.789  
  22676098.641  
  23238052.094   122116808.021    23238060.242    95155978.6034   23238060.586  
                
  19552187.680   104444280.514    19552192.094    81234430.839    19552191.949  
  19552186.953  
  23149567.977   123530524.174                                                  
  23149565.902  
  20431571.211   109333462.360    20431575.668    85037135.867    20431575.195  
  20431570.363  
  22412266.609   117777279.179    22412274.125    91774551.8804   22412274.602  
                
  20426536.914   107342182.864    20426541.723    83643285.8734   20426541.992  
                
 21  8  6  0 49 30.0000000  0 15G19R13R22G 1G21G22G14G 6R 5G24R12R 6
                                R21G 3G17
  20758382.555   109086054.842    20758385.805    85002133.0924                 
                
  21404347.609   114298026.560    21404351.719    88898489.101    21404351.328  
  21404345.762  
  19378279.297   103442655.258    19378282.375    80455364.957    19378282.055  
  19378278.109  
  21814902.555   114638094.107    21814911.043    89328427.7114   21814910.973  
                
  24594899.820   129247087.267    24594904.242   100712023.4314                 
                
  22801905.812   119824869.941    22801908.988    93370041.5754                 
                
  20901818.656   109839800.237    20901824.484    85589477.7404   20901824.684  
                
  23255138.438   122206621.957    23255147.195    95225956.4484   23255147.738  
                
  22676385.633   121218277.026    22676390.836    94280886.274    22676390.816  
  22676384.645  
  23237327.992   122113002.850    23237336.117    95153013.5454   23237336.477  
                
  19553883.805   104453340.940    19553888.211    81241477.835    19553888.074  
  19553883.062  
  23143390.156   123497558.078                                                  
  23143387.793  
  20436447.086   109359554.019    20436451.551    85057429.390    20436451.062  
  20436446.297  
  22409535.695   117762928.183    22409543.242    91763369.3024   22409543.711  
                
  20426401.781   107341472.730    20426406.586    83642732.5194   20426406.859  
                
 21  8  6  0 49 40.0000000  0 15G19R13R22G 1G21G22G14G 6R 5G24R12R 6
                                R21G 3G17
  20754720.938   109066812.915    20754724.148    84987139.3784                 
                
  21398604.023   114267356.130    21398608.145    88874634.328    21398607.715  
  21398602.168  
  19376788.742   103434698.571    19376791.820    80449176.426    19376791.520  
  19376787.543  
  21820559.430   114667821.104    21820567.934    89351591.6044   21820567.852  
                
  24601002.695   129279157.998    24601007.160   100737013.6004                 
                
  22802694.289   119829013.546    22802697.473    93373270.3404                 
                
  20905639.227   109859877.431    20905645.043    85605122.2944   20905645.270  
                
  23248439.555   122171418.982    23248448.297    95198525.5544   23248448.812  
                
  22676688.359   121219895.301    22676693.547    94282144.931    22676693.543  
  22676687.344  
  23236616.586   122109264.396    23236624.688    95150100.4674   23236625.078  
                
  19555596.664   104462490.713    19555601.078    81248594.318    19555600.941  
  19555595.910  
  23137220.875   123464637.822                                                  
  23137218.746  
  20441330.086   109385683.856    20441334.578    85077752.591    20441334.078  
  20441329.348  
  22406816.922   117748640.936    22406824.504    91752236.3814   22406824.945  
                
  20426273.633   107340799.292    20426278.426    83642207.7644   20426278.707  
                
 21  8  6  0 49 50.0000000  0 15G19R13R22G 1G21G22G14G 6R 5G24R12R 6
                                R21G 3G17
  20751066.773   109047610.208    20751069.949    84972176.2434                 
                
  21392871.789   114236746.400    21392875.922    88850826.773    21392875.453  
  21392869.914  
  19375309.641   103426803.094    19375312.715    80443035.498    19375312.438  
  19375308.441  
  21826223.766   114697587.344    21826232.285    89374786.0694   21826232.188  
                
  24607106.922   129311235.857    24607111.402   100762009.3274                 
                
  22803494.977   119833221.323    22803498.164    93376549.1304                 
                
  20909469.625   109880006.271    20909475.449    85620807.0934   20909475.660  
                
  23241745.227   122136240.046    23241753.930    95171113.4014   23241754.480  
                
  22677007.734   121221602.607    22677012.891    94283472.821    22677012.891  
  22677006.719  
  23235917.828   122105592.459    23235925.918    95147239.2234   23235926.328  
                
  19557326.203   104471729.598    19557330.645    81255780.108    19557330.500  
  19557325.441  
  23131060.180   123431763.146                                                  
  23131058.320  
  20446220.164   109411851.583    20446224.688    85098105.261    20446224.168  
  20446219.445  
  22404110.250   117734417.316    22404117.863    91741153.0544   22404118.273  
                
  20426152.422   107340162.331    20426157.203    83641711.4314   20426157.488  
                
 21  8  6  0 50  0.0000000  0 15G19R13R22G 1G21G22G14G 6R 5G24R12R 6
                                R21G 3G17
  20747420.195   109028447.331    20747423.344    84957244.1304                 
                
  21387151.062   114206198.144    21387155.215    88827067.026    21387154.727  
  21387149.168  
  19373842.125   103418969.455    19373845.215    80436942.679    19373844.938  
  19373840.914  
  21831895.641   114727393.237    21831904.160    89398011.4244   21831904.070  
                
  24613212.586   129343321.389    24613217.078   100787011.0044                 
                
  22804307.977   119837493.794    22804311.188    93379878.3254                 
                
  20913309.945   109900187.249    20913315.781    85636532.5224   20913315.980  
                
  23235055.570   122101085.742    23235064.293    95143720.4464   23235064.828  
                
  22677343.867   121223399.410    22677348.984    94284870.345    22677348.977  
  22677342.867  
  23235231.836   122101987.582    23235239.918    95144430.2284   23235240.328  
                
  19559072.516   104481058.105    19559076.980    81263035.611    19559076.816  
  19559071.750  
  23124908.156   123398934.956                                                  
  23124906.434  
  20451117.375   109438057.536    20451121.918    85118487.665    20451121.391  
  20451116.656  
  22401415.812   117720257.930    22401423.461    91730119.7724   22401423.832  
                
  20426038.266   107339562.441    20426043.031    83641243.9864   20426043.324  
                
 21  8  6  0 50 10.0000000  0 15G19R13R22G 1G21G22G14G 6R 5G24R12R 6
                                R21G 3G17
  20743781.117   109009323.858    20743784.242    84942342.7224                 
                
  21381441.773   114175710.914    21381445.926    88803354.736    21381445.469  
  21381439.887  
  19372386.117   103411197.181    19372389.223    80430897.586    19372388.934  
  19372384.914  
  21837574.984   114757238.298    21837583.500    89421267.3044   21837583.418  
                
  24619319.625   129375414.105    24619324.156   100812018.2944                 
                
  22805133.242   119841830.661    22805136.500    93383257.6994                 
                
  20917160.109   109920419.938    20917165.930    85652298.2494   20917166.137  
                
  23228370.555   122065955.757    23228379.301    95116346.4494   23228379.812  
                
  22677696.680   121225285.344    22677701.758    94286337.186    22677701.770  
  22677695.691  
  23234558.539   122098449.395    23234566.617    95141673.1804   23234567.051  
                
  19560835.555   104490475.909    19560840.027    81270360.560    19560839.863  
  19560834.781  
  23118764.859   123366152.677                                                  
  23118763.113  
  20456021.656   109464301.298    20456026.211    85138899.461    20456025.672  
  20456020.922  
  22398733.531   117706162.448    22398741.238    91719136.2914   22398741.582  
                
  20425931.078   107338999.167    20425935.828    83640805.0694   20425936.121  
                
 21  8  6  0 50 20.0000000  0 15G19R13R22G 1G21G22G14G 6R 5G24R12R 6
                                R21G 3G17
  20740149.523   108990239.748    20740152.629    84927471.9944                 
                
  21375744.016   114145285.294    21375748.145    88779690.375    21375747.762  
  21375742.125  
  19370941.602   103403486.289    19370944.703    80424900.228    19370944.469  
  19370940.414  
  21843261.727   114787122.331    21843270.266    89444553.5574   21843270.172  
                
  24625428.008   129407513.830    24625432.551   100837031.0764                 
                
  22805970.750   119846231.827    22805974.043    93386687.1694                 
                
  20921020.094   109940704.241    20921025.887    85668104.2044   20921026.137  
                
  23221690.172   122030850.084    23221698.875    95088991.3974   23221699.426  
                
  22678066.156   121227260.441    22678071.227    94287873.369    22678071.246  
  22678065.215  
  23233897.914   122094977.817    23233906.016    95138968.0724   23233906.441  
                
  19562615.242   104499982.717    19562619.723    81277754.741    19562619.547  
  19562614.453  
  23112630.188   123333416.786                                                  
  23112628.426  
  20460932.969   109490582.730    20460937.512    85159340.574    20460936.977  
  20460932.234  
  22396063.398   117692130.872    22396071.152    91708202.6054   22396071.469  
                
  20425830.852   107338472.493    20425835.590    83640394.6764   20425835.898  
                
 21  8  6  0 50 30.0000000  0 15G19R13R22G 1G21G22G14G 6R 5G24R12R 6
                                R21G 3G17
  20736525.484   108971195.310    20736528.566    84912632.1754                 
                
  21370057.766   114114921.058    21370061.891    88756073.754    21370061.539  
  21370055.863  
  19369508.641   103395837.032    19369511.738    80418950.807    19369511.496  
  19369507.449  
  21848955.938   114817045.552    21848964.500    89467870.3504   21848964.387  
                
  24631537.766   129439620.826    24631542.305   100862049.4654                 
                
  22806820.562   119850697.524    22806823.812    93390166.9304                 
                
  20924889.945   109961040.380    20924895.730    85683950.5354   20924895.988  
                
  23215014.477   121995769.091    23215023.211    95061655.5654   23215023.746  
                
  22678452.359   121229324.874    22678457.449    94289479.036    22678457.461  
  22678451.434  
  23233250.031   122091573.099    23233258.168    95136315.0534   23233258.578  
                
  19564411.656   104509578.875    19564416.141    81285218.415    19564415.961  
  19564410.871  
  23106504.242   123300727.611                                                  
  23106502.535  
  20465851.367   109516902.074    20465855.859    85179811.177    20465855.344  
  20465850.629  
  22393405.492   117678163.559    22393413.258    91697318.9864   22393413.574  
                
  20425737.664   107337982.790    20425742.387    83640013.0944   20425742.699  
                
 21  8  6  0 50 40.0000000  0 15G19R13R22G 1G21G22G14G 6R 5G24R12R 6
                                R21G 3G17
  20732908.977   108952190.443    20732912.035    84897823.1874                 
                
  21364383.062   114084618.527    21364387.195    88732505.131    21364386.859  
  21364381.141  
  19368087.195   103388249.242    19368090.293    80413049.200    19368090.062  
  19368086.004  
  21854657.547   114847007.695    21854666.125    89491217.4584   21854666.008  
                
  24637648.867   129471734.884    24637653.422   100887073.3924                 
                
  22807682.617   119855227.600    22807685.801    93393696.8654                 
                
  20928769.617   109981428.141    20928775.406    85699837.1014   20928775.648  
                
  23208343.453   121960712.680    23208352.203    95034338.8974   23208352.715  
                
  22678855.258   121231478.573    22678860.391    94291154.118    22678860.387  
  22678854.383  
  23232614.836   122088235.124    23232622.992    95133714.0374   23232623.414  
                
  19566224.797   104519264.314    19566229.273    81292751.521    19566229.109  
  19566224.008  
  23100387.078   123268084.998                                                  
  23100385.383  
  20470776.789   109543259.023    20470781.250    85200311.024    20470780.742  
  20470776.055  
  22390759.812   117664260.425    22390767.574    91686485.3774   22390767.898  
                
  20425651.453   107337529.738    20425656.164    83639660.0644   20425656.480  
                
 21  8  6  0 50 50.0000000  0 15G19R13R22G 1G21G22G14G 6R 5G24R12R 6
                                R21G 3G17
  20729300.023   108933225.277    20729303.074    84883045.1344                 
                
  21358719.906   114054377.590    21358724.059    88708984.418    21358723.719  
  21358717.926  
  19366677.258   103380722.908    19366680.371    80407195.384    19366680.094  
  19366676.070  
  21860366.547   114877008.652    21860375.148    89514594.8124   21860375.020  
                
  24643761.312   129503855.879    24643765.828   100912102.7694                 
                
  22808556.906   119859822.025    22808560.012    93397276.9314                 
                
  20932659.117   110001867.500    20932664.906    85715763.8734   20932665.141  
                
  23201677.141   121925680.936    23201685.859    95007041.4464   23201686.387  
                
  22679274.828   121233721.387    22679280.008    94292898.532    22679279.980  
  22679273.969  
  23231992.352   122084963.919    23232000.520    95131165.0404   23232000.949  
                
  19568054.633   104529038.961    19568059.117    81300354.026    19568058.957  
  19568053.863  
  23094278.703   123235489.240                                                  
  23094276.930  
  20475709.219   109569653.435    20475713.617    85220840.012    20475713.133  
  20475708.473  
  22388126.352   117650421.511    22388134.129    91675701.8314   22388134.461  
                
  20425572.242   107337113.466    20425576.949    83639335.6994   20425577.262  
                
 21  8  6  0 51  0.0000000  0 16G19R13R22G 1G21G22G14R23G 6R 5G24R12
                                R 6R21G 3G17
  20725698.656   108914299.978    20725701.691    84868298.1464                 
                
  21353068.344   114024198.621    21353072.516    88685511.886    21353072.180  
  21353066.328  
  19365278.844   103373258.120    19365281.949    80401389.441    19365281.660  
  19365277.652  
  21866082.953   114907048.510    21866091.578    89538002.4864   21866091.441  
                
  24649875.109   129535984.072    24649879.551   100937137.6774                 
                
  22809443.477   119864480.987    22809446.477    93400907.2824                 
                
  20936558.453   110022358.605    20936564.227    85731730.9574   20936564.465  
                
  23587696.773   126178268.583                                                  
  23587695.457  
  23195015.578   121890674.118    23195024.289    94979763.3994   23195024.812  
                
  22679711.117   121236053.555    22679716.328    94294712.430    22679716.281  
  22679710.320  
  23231382.609   122081759.651    23231390.801    95128668.2134   23231391.227  
                
  19569901.172   104538902.790    19569905.684    81308025.877    19569905.496  
  19569900.402  
  23088179.148   123202940.761                                                  
  23088177.344  
  20480648.695   109596085.485    20480653.027    85241398.269    20480652.586  
  20480647.953  
  22385505.180   117636647.133    22385512.949    91664968.5544   22385513.293  
                
  20425500.055   107336734.103    20425504.766    83639040.0914   20425505.082  
                
 21  8  6  0 51 10.0000000  0 16G19R13R22G 1G21G22G14R23G 6R 5G24R12
                                R 6R21G 3G17
  20722104.758   108895413.962    20722107.801    84853581.7854                 
                
  21347428.336   113994081.403    21347432.520    88662087.396    21347432.172  
  21347426.332  
  19363891.867   103365854.361    19363894.957    80395630.968    19363894.676  
  19363890.684  
  21871806.625   114937126.646    21871815.250    89561439.9794   21871815.133  
                
  24655990.141   129568118.774    24655994.520   100962177.6874                 
                
  22810342.234   119869203.912    22810345.133    93404587.4804                 
                
  20940467.523   110042900.864    20940473.285    85747737.9064   20940473.527  
                
  23580614.617   126140384.962                                                  
  23580613.473  
  23188358.641   121855691.725    23188367.387    94952504.4084   23188367.875  
                
  22680164.039   121238474.701    22680169.293    94296595.552    22680169.234  
  22680163.309  
  23230785.484   122078621.764    23230793.715    95126223.1074   23230794.105  
                
  19571764.320   104548855.416    19571768.852    81315766.805    19571768.652  
  19571763.559  
  23082088.289   123170438.996                                                  
  23082086.504  
  20485595.078   109622554.522    20485599.367    85261985.306    20485598.941  
  20485594.336  
  22382896.180   117622936.767    22382903.938    91654285.1554   22382904.301  
                
  20425434.766   107336391.056    20425439.477    83638772.7834   20425439.789  
                
 21  8  6  0 51 20.0000000  0 16G19R13R22G 1G21G22G14R23G 6R 5G24R12
                                R 6R21G 3G17
  20718518.531   108876568.243    20718521.562    84838896.8054                 
                
  21341800.148   113964027.208    21341804.328    88638711.919    21341803.969  
  21341798.164  
  19362516.500   103358512.578    19362519.582    80389920.692    19362519.344  
  19362515.316  
  21877537.742   114967243.838    21877546.348    89584907.9134   21877546.262  
                
  24662106.586   129600260.826    24662110.891   100987223.4494                 
                
  22811253.320   119873991.640    22811256.164    93408318.1724                 
                
  20944386.500   110063495.131    20944392.270    85763785.3794   20944392.496  
                
  23573535.953   126102518.906                                                  
  23573534.652  
  23181706.547   121820734.743    23181715.289    94925265.2164   23181715.781  
                
  22680633.750   121240985.557    22680639.035    94298548.442    22680638.973  
  22680633.000  
  23230201.188   122075551.230    23230209.441    95123830.4744   23230209.805  
                
  19573644.258   104558897.674    19573648.793    81323577.447    19573648.602  
  19573643.512  
  23076006.461   123137984.946                                                  
  23076004.668  
  20490548.500   109649061.287    20490552.785    85282601.678    20490552.371  
  20490547.801  
  22380299.555   117609291.397    22380307.297    91643652.4084   22380307.680  
                
  20425376.570   107336085.235    20425381.289    83638534.4814   20425381.598  
                
 21  8  6  0 51 30.0000000  0 16G19R13R22G 1G21G22G14R23G 6R 5G24R12
                                R 6R21G 3G17
  20714939.734   108857761.601    20714942.750    84824242.2834                 
                
  21336183.523   113934034.757    21336187.691    88615384.453    21336187.363  
  21336181.555  
  19361152.500   103351231.450    19361155.582    80384257.597    19361155.309  
  19361151.336  
  21883276.047   114997398.830    21883284.660    89608405.3024   21883284.566  
                
  24668224.180   129632409.014    24668228.402   101012273.9904                 
                
  22812176.516   119878843.046    22812179.352    93412098.4834                 
                
  20948315.133   110084140.203    20948320.926    85779872.4434   20948321.121  
                
  23566460.391   126064669.356                                                  
  23566459.125  
  23175059.094   121785802.099    23175067.781    94898044.9714   23175068.281  
                
  22681120.008   121243584.937    22681125.328    94300570.181    22681125.258  
  22681119.207  
  23229629.461   122072546.794    23229637.699    95121489.3734   23229638.055  
                
  19575540.758   104569028.404    19575545.316    81331456.895    19575545.129  
  19575540.035  
  23069933.492   123105578.071                                                  
  23069931.609  
  20495508.758   109675604.577    20495513.051    85303246.470    20495512.637  
  20495508.059  
  22377715.086   117595709.923    22377722.816    91633069.4494   22377723.195  
                
  20425325.234   107335815.504    20425329.961    83638324.3014   20425330.266  
                
 21  8  6  0 51 40.0000000  0 16G19R13R22G 1G21G22G14R23G 6R 5G24R12
                                R 6R21G 3G17
  20711368.602   108838995.198    20711371.602    84809619.1064                 
                
  21330578.648   113904105.135    21330582.809    88592105.863    21330582.496  
  21330576.699  
  19359800.070   103344012.114    19359803.156    80378642.558    19359802.879  
  19359798.898  
  21889021.742   115027592.583    21889030.375    89631932.8904   21889030.273  
                
  24674343.156   129664564.309    24674347.355   101037330.0424                 
                
  22813112.023   119883759.206    22813114.867    93415929.2644                 
                
  20952253.633   110104837.091    20952259.422    85795999.8834   20952259.617  
                
  23559388.023   126026837.307                                                  
  23559386.836  
  23168416.492   121750894.913    23168425.137    94870844.5724   23168425.656  
                
  22681623.062   121246274.027    22681628.398    94302661.686    22681628.316  
  22681622.254  
  23229070.531   122069609.594    23229078.727    95119200.6524   23229079.113  
                
  19577454.023   104579248.656    19577458.594    81339405.982    19577458.398  
  19577453.324  
  23063869.492   123073219.170                                                  
  23063867.578  
  20500476.031   109702185.462    20500480.332    85323920.472    20500479.918  
  20500475.293  
  22375142.984   117582193.491    22375150.684    91622537.1724   22375151.078  
                
  20425280.969   107335582.884    20425285.707    83638143.0444   20425286.004  
                
 21  8  6  0 51 50.0000000  0 16G19R13R22G 1G21G22G14R23G 6R 5G24R12
                                R 6R21G 3G17
  20707804.984   108820268.299    20707807.980    84795026.7264                 
                
  21324985.453   113874237.827    21324989.578    88568875.737    21324989.297  
  21324983.516  
  19358459.062   103336853.811    19358462.141    80373074.990    19358461.895  
  19358457.895  
  21894774.641   115057824.213    21894783.293    89655489.9984   21894783.180  
                
  24680463.312   129696725.938    24680467.504   101062391.0254                 
                
  22814059.711   119888739.409    22814062.543    93419809.9184                 
                
  20956201.836   110125585.007    20956207.613    85812167.0774   20956207.816  
                
  23552318.906   125989022.222                                                  
  23552317.719  
  23161778.594   121716012.472    23161787.289    94843663.4644   23161787.773  
                
  22682142.711   121249051.886    22682148.047    94304822.254    22682147.957  
  22682141.906  
  23228524.242   122066738.853    23228532.434    95116963.7014   23228532.812  
                
  19579383.859   104589557.484    19579388.441    81347423.948    19579388.266  
  19579383.168  
  23057814.328   123040907.747                                                  
  23057812.418  
  20505450.172   109728803.078    20505454.480    85344623.064    20505454.066  
  20505449.430  
  22372583.141   117568741.409    22372590.805    91612055.0234   22372591.215  
                
  20425243.633   107335386.681    20425248.371    83637990.1504   20425248.664  
                
 21  8  6  0 52  0.0000000  0 16G19R13R22G 1G21G22G14R23G 6R 5G24R12
                                R 6R21G 3G17
  20704249.008   108801581.585    20704252.004    84780465.6544                 
                
  21319404.109   113844433.753    21319408.203    88545694.791    21319407.941  
  21319402.156  
  19357129.625   103329757.255    19357132.695    80367555.449    19357132.457  
  19357128.441  
  21900534.844   115088094.244    21900543.508    89679077.0334   21900543.383  
                
  24686584.773   129728894.427    24686588.926   101087457.3864                 
                
  22815019.695   119893784.132    22815022.484    93423740.8724                 
                
  20960159.844   110146384.477    20960165.625    85828374.4544   20960165.828  
                
  23545253.039   125951224.598                                                  
  23545251.855  
  23155145.516   121681155.450    23155154.301    94816502.1734   23155154.719  
                
  22682679.125   121251919.294    22682684.418    94307052.440    22682684.324  
  22682678.320  
  23227990.719   122063935.174    23227998.969    95114779.0214   23227999.305  
                
  19581330.406   104599955.524    19581335.016    81355511.305    19581334.816  
  19581329.738  
  23051768.188   123008644.595                                                  
  23051766.266  
  20510431.234   109755457.764    20510435.559    85365354.482    20510435.160  
  20510430.449  
  22370035.648   117555354.279    22370043.270    91601623.5134   22370043.715  
                
  20425213.352   107335227.549    20425218.090    83637866.1564   20425218.379  
                
 21  8  6  0 52 10.0000000  0 16G19R13R22G 1G21G22G14R23G 6R 5G24R12
                                R 6R21G 3G17
  20700700.602   108782934.637    20700703.594    84765935.5704                 
                
  21313834.445   113814692.114    21313838.539    88522562.418    21313838.270  
  21313832.492  
  19355811.625   103322721.681    19355814.672    80362083.333    19355814.457  
  19355810.461  
  21906302.242   115118402.150    21906310.895    89702693.5714   21906310.777  
                
  24692707.445   129761069.322    24692711.574   101112528.6704                 
                
  22815991.867   119898892.911    22815994.590    93427721.7404                 
                
  20964127.586   110167235.066    20964133.383    85844621.6614   20964133.578  
                
  23538190.312   125913444.137                                                  
  23538189.195  
  23148517.203   121646323.511    23148526.035    94789360.4224   23148526.438  
                
  22683232.180   121254875.691    22683237.469    94309351.871    22683237.371  
  22683231.352  
  23227469.875   122061198.128    23227478.184    95112646.2594   23227478.473  
                
  19583293.547   104610442.293    19583298.195    81363667.679    19583297.977  
  19583292.902  
  23045731.055   122976429.516                                                  
  23045729.113  
  20515419.141   109782149.123    20515423.504    85386114.425    20515423.094  
  20515418.320  
  22367500.469   117542031.830    22367508.047    91591242.3864   22367508.531  
                
  20425190.023   107335104.994    20425194.766    83637770.6554   20425195.062  
                
 21  8  6  0 52 20.0000000  0 16G19R13R22G 1G21G22G14R23G 6R 5G24R12
                                R 6R21G 3G17
  20697159.828   108764327.745    20697162.812    84751436.6884                 
                
  21308276.617   113785013.715    21308280.742    88499479.224    21308280.473  
  21308274.660  
  19354505.172   103315747.748    19354508.199    80356659.177    19354508.020  
  19354504.008  
  21912076.891   115148748.116    21912085.504    89726339.7784   21912085.414  
                
  24698831.383   129793250.758    24698835.473   101137605.1044                 
                
  22816976.289   119904066.054    22816978.945    93431752.7584                 
                
  20968105.086   110188136.991    20968110.887    85860908.8664   20968111.082  
                
  23531130.898   125875681.094                                                  
  23531129.746  
  23141893.750   121611517.002    23141902.578    94762238.4684   23141902.980  
                
  22683801.953   121257921.443    22683807.230    94311720.776    22683807.148  
  22683801.105  
  23226961.758   122058527.992    23226970.086    95110565.6344   23226970.363  
                
  19585273.375   104621018.118    19585278.066    81371893.313    19585277.820  
  19585272.742  
  23039702.984   122944263.002                                                  
  23039701.094  
  20520413.961   109808877.418    20520418.383    85406903.091    20520417.945  
  20520413.129  
  22364977.648   117528774.367    22364985.199    91580911.8964   22364985.715  
                
  20425173.695   107335019.199    20425178.434    83637703.7994   20425178.738  
                
 21  8  6  0 52 30.0000000  0 16G19R13R22G 1G21G22G14R23G 6R 5G24R12
                                R 6R21G 3G17
  20693626.672   108745760.920    20693629.656    84736969.0404                 
                
  21302730.656   113755398.646    21302734.773    88476445.286    21302734.531  
  21302728.727  
  19353210.219   103308835.233    19353213.242    80351282.779    19353213.066  
  19353209.043  
  21917858.758   115179131.984    21917867.324    89750015.5214   21917867.262  
                
  24704956.555   129825438.671    24704960.547   101162686.5894                 
                
  22817972.945   119909303.539    22817975.555    93435833.9034                 
                
  20972092.352   110209090.150    20972098.141    85877236.0034   20972098.355  
                
  23524074.766   125837935.562                                                  
  23524073.590  
  23135275.133   121576735.935    23135283.953    94735136.3564   23135284.371  
                
  22684388.414   121261056.435    22684393.719    94314159.109    22684393.648  
  22684387.547  
  23226466.375   122055924.744    23226474.691    95108537.1164   23226474.973  
                
  19587269.836   104631682.831    19587274.555    81380188.085    19587274.289  
  19587269.215  
  23033684.023   122912144.873                                                  
  23033682.117  
  20525415.633   109835642.400    20525420.125    85427720.287    20525419.668  
  20525414.789  
  22362467.211   117515581.928    22362474.766    91570632.0824   22362475.262  
                
  20425164.375   107334970.202    20425169.113    83637665.6214   20425169.426  
                
 21  8  6  0 52 40.0000000  0 16G19R13R22G 1G21G22G14R23G 6R 5G24R12
                                R 6R21G 3G17
  20690101.070   108727233.782    20690104.055    84722532.3124                 
                
  21297196.523   113725846.725    21297200.609    88453460.454    21297200.402  
  21297194.621  
  19351926.695   103301983.697    19351929.699    80345953.801    19351929.543  
  19351925.508  
  21923647.742   115209553.342    21923656.297    89773720.4714   21923656.246  
                
  24711082.875   129857632.694    24711086.797   101187772.8804                 
                
  22818981.773   119914605.002    22818984.355    93439964.9104                 
                
  20976089.281   110230094.198    20976095.078    85893602.7874   20976095.297  
                
  23517021.867   125800207.366                                                  
  23517020.715  
  23128661.297   121541980.046    23128670.125    94708053.8684   23128670.535  
                
  22684991.508   121264280.325    22684996.832    94316666.572    22684996.750  
  22684990.605  
  23225983.648   122053388.051    23225991.969    95106560.4764   23225992.250  
                
  19589282.859   104642436.030    19589287.598    81388551.684    19589287.328  
  19589282.246  
  23027674.156   122880075.235                                                  
  23027672.242  
  20530424.109   109862443.745    20530428.656    85448565.767    20530428.168  
  20530423.258  
  22359969.086   117502454.231    22359976.641    91560402.7134   22359977.137  
                
  20425161.984   107334957.633    20425166.727    83637655.8294   20425167.043  
                
 21  8  6  0 52 50.0000000  0 16G19R13R22G 1G21G22G14R23G 6R 5G24R12
                                R 6R21G 3G17
  20686583.086   108708746.644    20686586.066    84708126.7514                 
                
  21291674.297   113696358.375    21291678.363    88430525.064    21291678.195  
  21291672.422  
  19350654.617   103295193.244    19350657.621    80340672.350    19350657.469  
  19350653.434  
  21929443.875   115240012.239    21929452.457    89797454.6564   21929452.387  
                
  24717210.391   129889832.963    24717214.242   101212863.9884                 
                
  22820002.805   119919970.595    22820005.375    93444145.8814                 
                
  20980095.930   110251149.255    20980101.750    85910009.3184   20980101.957  
                
  23509972.234   125762496.516                                                  
  23509971.105  
  23122052.328   121507249.606    23122061.168    94680991.1884   23122061.535  
                
  22685611.258   121267593.280    22685616.621    94319243.331    22685616.527  
  22685610.348  
  23225513.617   122050918.074    23225521.965    95104635.8254   23225522.219  
                
  19591312.492   104653277.973    19591317.246    81396984.297    19591316.977  
  19591311.891  
  23021673.492   122848054.358                                                  
  23021671.539  
  20535439.391   109889281.509    20535443.980    85469439.587    20535443.457  
  20535438.570  
  22357483.320   117489391.538    22357490.871    91550223.9884   22357491.387  
                
  20425166.555   107334981.660    20425171.305    83637674.5534   20425171.609  
                
 21  8  6  0 53  0.0000000  0 16G19R13R22G 1G21G22G14R23G 6R 5G24R12
                                R 6R21G 3G17
  20683072.773   108690299.833    20683075.758    84693752.6164                 
                
  21286164.008   113666933.725    21286168.074    88407639.234    21286167.891  
  21286162.152  
  19349394.055   103288464.355    19349397.059    80335438.770    19349396.918  
  19349392.883  
  21935247.180   115270508.820    21935255.812    89821218.2014   21935255.711  
                
  24723339.102   129922039.554    24723342.914   101237960.0214                 
                
  22821036.055   119925400.404    22821038.602    93448376.9034                 
                
  20984112.320   110272255.504    20984118.168    85926455.7324   20984118.352  
                
  23502925.898   125724803.354                                                  
  23502924.762  
  23115448.234   121472544.888    23115457.062    94653948.5644   23115457.430  
                
  22686247.711   121270995.521    22686253.066    94321889.509    22686252.984  
  22686246.836  
  23225056.336   122048515.064    23225064.723    95102763.3424   23225064.941  
                
  19593358.789   104664208.885    19593363.570    81405486.113    19593363.289  
  19593358.180  
  23015681.992   122816082.578                                                  
  23015680.016  
  20540461.500   109916155.813    20540466.117    85490341.816    20540465.570  
  20540460.664  
  22355009.977   117476394.104    22355017.531    91540096.1324   22355018.062  
                
  20425178.141   107335042.544    20425182.902    83637721.9954   20425183.199  
                
 21  8  6  0 53 10.0000000  0 16G19R13R22G 1G21G22G14R23G 6R 5G24R12
                                R 6R21G 3G17
  20679570.109   108671893.229    20679573.105    84679409.8164                 
                
  21280665.680   113637572.912    21280669.719    88384803.048    21280669.543  
  21280663.832  
  19348144.984   103281796.752    19348147.996    80330252.856    19348147.863  
  19348143.805  
  21941057.602   115301042.837    21941066.277    89845010.9454   21941066.156  
                
  24729468.992   129954252.390    24729472.809   101263060.8894                 
                
  22822081.516   119930894.363    22822084.047    93452657.9124                 
                
  20988138.406   110293412.751    20988144.277    85942941.9004   20988144.445  
                
  23495882.820   125687127.880                                                  
  23495881.734  
  23108849.023   121437865.842    23108857.812    94626925.9394   23108858.199  
                
  22686900.812   121274486.728    22686906.148    94324604.908    22686906.086  
  22686899.914  
  23224611.773   122046178.866    23224620.168    95100942.9204   23224620.367  
                
  19595421.695   104675228.515    19595426.488    81414056.930    19595426.195  
  19595421.078  
  23009699.633   122784159.877                                                  
  23009697.648  
  20545490.383   109943066.396    20545494.992    85511272.276    20545494.445  
  20545489.559  
  22352549.039   117463461.881    22352556.637    91530019.0864   22352557.129  
                
  20425196.727   107335140.192    20425201.508    83637798.0864   20425201.789  
                
 21  8  6  0 53 20.0000000  0 16G19R13R22G 1G21G22G14R23G 6R 5G24R12
                                R 6R21G 3G17
  20676075.078   108653526.661    20676078.086    84665098.2074                 
                
  21275179.289   113608275.838    21275183.309    88362016.438    21275183.141  
  21275177.430  
  19346907.352   103275190.146    19346910.355    80325114.386    19346910.211  
  19346906.191  
  21946875.078   115331613.968    21946883.754    89868832.5954   21946883.645  
                
  24735600.023   129986471.120    24735603.855   101288166.3984                 
                
  22823139.141   119936452.264    22823141.703    93456988.7374                 
                
  20992174.148   110314620.731    20992180.035    85959467.5944   20992180.211  
                
  23488843.023   125649469.755                                                  
  23488841.973  
  23102254.656   121403212.275    23102263.453    94599923.1754   23102263.828  
                
  22687570.570   121278067.000    22687575.883    94327389.556    22687575.820  
  22687569.676  
  23224179.883   122043909.265    23224188.273    95099174.3994   23224188.480  
                
  19597501.164   104686336.635    19597505.953    81422696.576    19597505.656  
  19597500.531  
  23003726.555   122752286.324                                                  
  23003724.484  
  20550526.008   109970013.035    20550530.590    85532230.771    20550530.070  
  20550525.148  
  22350100.484   117450594.741    22350108.125    91519992.7434   22350108.574  
                
  20425222.250   107335274.329    20425227.051    83637902.6104   20425227.320  
                
 21  8  6  0 53 30.0000000  0 16G19R13R22G 1G21G22G14R23G 6R 5G24R12
                                R 6R21G 3G17
  20672587.695   108635200.374    20672590.719    84650817.9904                 
                
  21269704.859   113579042.722    21269708.871    88339279.574    21269708.730  
  21269702.992  
  19345681.156   103268644.687    19345684.152    80320023.481    19345684.020  
  19345680.023  
  21952699.656   115362222.354    21952708.297    89892683.2664   21952708.234  
                
  24741732.203   130018695.910    24741736.043   101313276.6144                 
                
  22824208.992   119942074.332    22824211.570    93461369.5674                 
                
  20996219.586   110335879.652    20996225.500    85976032.9654   20996225.656  
                
  23481806.539   125611829.321                                                  
  23481805.488  
  23095665.211   121368584.511    23095674.020    94572940.5194   23095674.395  
                
  22688257.023   121281736.437    22688262.273    94330243.554    22688262.234  
  22688256.133  
  23223760.703   122041706.486    23223769.074    95097457.9504   23223769.289  
                
  19599597.219   104697533.369    19599602.000    81431405.140    19599601.703  
  19599596.586  
  22997762.648   122720462.237                                                  
  22997760.637  
  20555568.383   109996995.786    20555572.961    85553217.355    20555572.441  
  20555567.539  
  22347664.359   117437792.929    22347672.012    91510017.2914   22347672.449  
                
  20425254.766   107335445.183    20425259.586    83638035.7434   20425259.836  
                
 21  8  6  0 53 40.0000000  0 16G19R13R22G 1G21G22G14R23G 6R 5G24R12
                                R 6R21G 3G17
  20669108.023   108616914.543    20669111.047    84636569.2874                 
                
  21264242.492   113549873.957    21264246.512    88316592.762    21264246.363  
  21264240.625  
  19344466.500   103262160.761    19344469.484    80314980.434    19344469.379  
  19344465.391  
  21958531.344   115392868.098    21958539.969    89916563.0644   21958539.930  
                
  24747865.578   130050926.987    24747869.457   101338391.6954                 
                
  22825291.086   119947760.784    22825293.703    93465800.5794                 
                
  21000274.750   110357189.645    21000280.719    85992638.1584   21000280.832  
                
  23474773.414   125574206.950                                                  
  23474772.383  
  23089080.734   121333982.886    23089089.590    94545978.2234   23089089.930  
                
  22688960.172   121285495.145    22688965.371    94333166.998    22688965.340  
  22688959.297  
  23223354.297   122039570.759    23223362.633    95095793.7534   23223362.867  
                
  19601709.898   104708818.901    19601714.656    81440182.778    19601714.391  
  19601709.270  
  22991808.117   122688688.018                                                  
  22991806.145  
  20560617.547   110024014.893    20560622.137    85574232.218    20560621.621  
  20560616.695  
  22345240.727   117425056.767    22345248.387    91500093.0214   22345248.820  
                
  20425294.312   107335653.023    20425299.152    83638197.6954   20425299.391  
                
 21  8  6  0 53 50.0000000  0 16G19R13R22G 1G21G22G14R23G 6R 5G24R12
                                R 6R21G 3G17
  20665635.984   108598668.863    20665639.012    84622351.8864                 
                
  21258792.117   113520769.333    21258796.164    88293955.834    21258795.984  
  21258790.262  
  19343263.273   103255737.882    19343266.246    80309984.865    19343266.141  
  19343262.176  
  21964370.047   115423550.662    21964378.703    89940471.5654   21964378.641  
                
  24754000.047   130083163.835    24754004.016   101363511.3224                 
                
  22826385.352   119953511.194    22826388.000    93470281.3934                 
                
  21004339.539   110378550.274    21004345.539    86009282.8014   21004345.637  
                
  23467743.570   125536602.153                                                  
  23467742.543  
  23082501.141   121299406.971    23082510.023    94519035.9784   23082510.355  
                
  22689679.969   121289342.865    22689685.113    94336159.656    22689685.086  
  22689679.109  
  23222960.570   122037501.651    23222968.871    95094181.4604   23222969.121  
                
  19603839.133   104720192.879    19603843.867    81449029.198    19603843.625  
  19603838.492  
  22985862.812   122656963.304                                                  
  22985860.918  
  20565673.383   110051069.728    20565677.988    85595274.866    20565677.461  
  20565672.531  
  22342829.523   117412385.868    22342837.172    91490219.5944   22342837.617  
                
  20425340.820   107335897.422    20425345.672    83638388.1314   20425345.906  
                
 21  8  6  0 54  0.0000000  0 16G19R13R22G 1G21G22G14R23G 6R 5G24R12
                                R 6R21G 3G17
  20662171.648   108580463.648    20662174.688    84608166.0064                 
                
  21253353.852   113491729.273    21253357.918    88271369.117    21253357.723  
  21253352.016  
  19342071.516   103249376.174    19342074.488    80305036.873    19342074.355  
  19342070.426  
  21970215.797   115454270.264    21970224.504    89964408.8974   21970224.402  
                
  24760135.648   130115406.643    24760139.695   101388635.5134                 
                
  22827491.820   119959325.719    22827494.477    93474812.1944                 
                
  21008414.008   110399961.751    21008420.008    86025967.0514   21008420.113  
                
  23460717.070   125499015.319                                                  
  23460716.027  
  23075926.516   121264857.135    23075935.359    94492114.0414   23075935.734  
                
  22690416.445   121293279.720    22690421.516    94339221.639    22690421.469  
  22690415.582  
  23222579.562   122035499.428    23222587.844    95092621.2884   23222588.117  
                
  19605984.945   104731655.431    19605989.676    81457944.506    19605989.422  
  19605984.301  
  22979926.875   122625288.631                                                  
  22979925.059  
  20570735.945   110078160.512    20570740.590    85616345.474    20570740.043  
  20570735.078  
  22340430.797   117399780.575    22340438.449    91480397.3034   22340438.898  
                
  20425394.320   107336178.592    20425399.184    83638607.2284   20425399.410  
                
 21  8  6  0 54 10.0000000  0 16G19R13R22G 1G21G22G14R23G 6R 5G24R12
                                R 6R21G 3G17
  20658714.938   108562298.520    20658717.996    84594011.3644                 
                
  21247927.641   113462753.651    21247931.699    88248832.520    21247931.512  
  21247925.809  
  19340891.195   103243075.563    19340894.156    80300136.394    19340894.047  
  19340890.113  
  21976068.492   115485026.422    21976077.215    89988374.7304   21976077.109  
                
  24766272.320   130147655.032    24766276.422   101413764.1334                 
                
  22828610.406   119965203.996    22828613.051    93479392.6644                 
                
  21012498.078   110421423.677    21012504.074    86042690.6224   21012504.195  
                
  23453693.906   125461446.321                                                  
  23453692.863  
  23069356.797   121230333.100    23069365.633    94465212.2084   23069366.016  
                
  22691169.547   121297305.417    22691174.559    94342352.726    22691174.523  
  22691168.715  
  23222211.211   122033563.745    23222219.508    95091112.9624   23222219.773  
                
  19608147.266   104743206.170    19608151.984    81466928.406    19608151.727  
  19608146.613  
  22974000.406   122593663.914                                                  
  22973998.570  
  20575805.141   110105286.847    20575809.805    85637443.731    20575809.250  
  20575804.234  
  22338044.492   117387240.607    22338052.148    91470625.9054   22338052.605  
                
  20425454.750   107336496.181    20425459.621    83638854.7004   20425459.848  
                
 21  8  6  0 54 20.0000000  0 16G19R13R22G 1G21G22G14R23G 6R 5G24R12
                                R 6R21G 3G17
  20655265.938   108544173.929    20655269.020    84579888.3084                 
                
  21242513.602   113433843.013    21242517.645    88226346.468    21242517.520  
  21242511.801  
  19339722.336   103236836.183    19339725.301    80295283.549    19339725.176  
  19339721.254  
  21981928.242   115515819.531    21981936.965    90012369.3624   21981936.883  
                
  24772410.148   130179909.436    24772414.316   101438897.4254                 
                
  22829741.242   119971146.556    22829743.867    93484023.2294                 
                
  21016591.844   110442936.507    21016597.855    86059453.8624   21016597.969  
                
  23446674.141   125423895.465                                                  
  23446673.121  
  23062792.102   121195835.437    23062800.934    94438330.9234   23062801.316  
                
  22691939.352   121301420.412    22691944.363    94345553.269    22691944.309  
  22691938.586  
  23221855.633   122031695.118    23221863.957    95089656.8924   23221864.199  
                
  19610326.195   104754845.593    19610330.883    81475981.287    19610330.656  
  19610325.531  
  22968083.438   122562089.767                                                  
  22968081.570  
  20580881.055   110132449.138    20580885.746    85658569.954    20580885.184  
  20580880.137  
  22335670.734   117374766.535    22335678.395    91460905.8514   22335678.844  
                
  20425522.227   107336850.769    20425527.098    83639131.0064   20425527.320  
                
 21  8  6  0 54 30.0000000  0 16G19R13R22G 1G21G22G14R23G 6R 5G24R12
                                R 6R21G 3G17
  20651824.633   108526089.749    20651827.727    84565796.7524                 
                
  21237111.703   113404997.247    21237115.762    88203910.884    21237115.641  
  21237109.898  
  19338564.922   103230657.883    19338567.895    80290478.202    19338567.770  
  19338563.828  
  21987794.938   115546649.214    21987803.684    90036392.4744   21987803.598  
                
  24778549.039   130212169.505    24778553.309   101464035.0934                 
                
  22830884.258   119977153.118    22830886.895    93488703.6624                 
                
  21020695.219   110464499.896    21020701.254    86076256.4974   21020701.355  
                
  23439657.711   125386362.484                                                  
  23439656.688  
  23056232.367   121161363.891    23056241.207    94411469.9894   23056241.586  
                
  22692725.805   121305624.307    22692730.828    94348822.960    22692730.754  
  22692725.023  
  23221512.750   122029893.224    23221521.074    95088252.8094   23221521.320  
                
  19612521.680   104766573.446    19612526.340    81485102.950    19612526.137  
  19612521.016  
  22962175.805   122530565.923                                                  
  22962173.934  
  20585963.609   110159646.935    20585968.348    85679723.789    20585967.773  
  20585962.691  
  22333309.461   117362358.090    22333317.121    91451236.9504   22333317.590  
                
  20425596.672   107337241.986    20425601.547    83639435.8534   20425601.777  
                
 21  8  6  0 54 40.0000000  0 16G19R13R22G 1G21G22G14R23G 6R 5G24R12
                                R 6R21G 3G17
  20648390.984   108508045.808    20648394.082    84551736.5414                 
                
  21231721.922   113376216.052    21231726.004    88181525.511    21231725.859  
  21231720.105  
  19337418.922   103224540.415    19337421.910    80285720.170    19337421.762  
  19337417.824  
  21993668.531   115577515.130    21993677.324    90060443.8344   21993677.199  
                
  24784688.938   130244434.836    24784693.281   101489176.9234                 
                
  22832039.398   119983223.399    22832042.043    93493433.7474                 
                
  21024808.164   110486113.580    21024814.199    86093098.3224   21024814.312  
                
  23432644.602   125348847.438                                                  
  23432643.598  
  23049677.586   121126918.316    23049686.449    94384629.3114   23049686.812  
                
  22693528.828   121309916.912    22693533.848    94352161.640    22693533.805  
  22693528.066  
  23221182.516   122028157.836    23221190.824    95086900.5444   23221191.117  
                
  19614733.633   104778389.307    19614738.285    81494293.061    19614738.078  
  19614732.953  
  22956277.586   122499092.138                                                  
  22956275.711  
  20591052.750   110186879.957    20591057.523    85700905.022    20591056.945  
  20591051.828  
  22330960.656   117350015.148    22330968.301    91441619.0684   22330968.781  
                
  20425678.047   107337669.607    20425682.914    83639769.0594   20425683.152  
                
 21  8  6  0 54 50.0000000  0 16G19R13R22G 1G21G22G14R23G 6R 5G24R12
                                R 6R21G 3G17
  20644965.117   108490042.789    20644968.211    84537708.2194                 
                
  21226344.398   113347500.482    21226348.504    88159191.186    21226348.344  
  21226342.578  
  19336284.422   103218484.370    19336287.422    80281009.917    19336287.266  
  19336283.332  
  21999549.109   115608417.795    21999557.895    90084523.8224   21999557.770  
                
  24790829.953   130276706.132    24790834.316   101514323.3704                 
                
  22833206.773   119989357.948    22833209.418    93498213.9184                 
                
  21028930.789   110507778.133    21028936.805    86109979.7864   21028936.953  
                
  23425634.852   125311350.797                                                  
  23425633.938  
  23043127.891   121092499.445    23043136.707    94357809.4174   23043137.070  
                
  22694348.586   121314298.982    22694353.609    94355569.922    22694353.574  
  22694347.812  
  23220865.055   122026489.589    23220873.363    95085600.6184   23220873.676  
                
  19616962.188   104790293.890    19616966.824    81503552.167    19616966.625  
  19616961.504  
  22950389.016   122467669.913                                                  
  22950387.172  
  20596148.594   110214148.837    20596153.402    85722114.144    20596152.809  
  20596147.660  
  22328624.445   117337738.390    22328632.066    91432052.7644   22328632.547  
                
  20425766.461   107338134.247    20425771.324    83640131.1224   20425771.566  
                
 21  8  6  0 55  0.0000000  0 16G19R13R22G 1G21G22G14R23G 6R 5G24R12
                                R 6R21G 3G17
  20641546.953   108472080.201    20641550.059    84523711.4064                 
                
  21220979.125   113318850.257    21220983.242    88136907.682    21220983.070  
  21220977.312  
  19335161.328   103212489.238    19335164.336    80276347.039    19335164.191  
  19335160.238  
  22005436.602   115639356.668    22005445.336    90108632.0254   22005445.277  
                
  24796972.008   130308982.851    24796976.391   101539474.0134                 
                
  22834386.312   119995556.348    22834388.973    93503043.8234                 
                
  21033063.000   110529493.032    21033069.012    86126900.4814   21033069.176  
                
  23418628.539   125273872.215                                                  
  23418627.648  
  23036583.203   121058106.834    23036591.941    94331009.9944   23036592.332  
                
  22695184.977   121318769.902    22695190.004    94359047.307    22695189.961  
  22695184.199  
  23220560.281   122024888.004    23220568.605    95084352.6264   23220568.918  
                
  19619207.258   104802286.600    19619211.855    81512879.826    19619211.676  
  19619206.578  
  22944509.953   122436298.199                                                  
  22944508.121  
  20601251.031   110241452.935    20601255.859    85743350.659    20601255.266  
  20601250.082  
  22326300.758   117325527.388    22326308.336    91422537.7014   22326308.867  
                
  20425861.844   107338635.498    20425866.707    83640521.7024   20425866.953  
                
 21  8  6  0 55 10.0000000  0 16G19R13R22G 1G21G22G14R23G 6R 5G24R12
                                R 6R21G 3G17
  20638136.508   108454158.217    20638139.625    84509746.2294                 
                
  21215626.078   113290265.346    21215630.238    88114674.977    21215630.012  
  21215624.270  
  19334049.688   103206555.209    19334052.695    80271731.681    19334052.547  
  19334048.602  
  22011330.961   115670331.743    22011339.664    90132768.4474   22011339.648  
                
  24803115.109   130341264.989    24803119.520   101564628.9354                 
                
  22835578.023   120001818.759    22835580.727    93507923.6274                 
                
  21037204.805   110551258.363    21037210.844    86143860.4714   21037210.969  
                
  23411625.648   125236411.782                                                  
  23411624.762  
  23030043.539   121023740.698    23030052.238    94304231.1914   23030052.641  
                
  22696037.984   121323329.736    22696042.996    94362593.834    22696042.957  
  22696037.211  
  23220268.211   122023353.194    23220276.523    95083156.6634   23220276.848  
                
  19621468.859   104814367.639    19621473.426    81522276.188    19621473.270  
  19621468.191  
  22938640.523   122404977.806                                                  
  22938638.688  
  20606360.039   110268792.280    20606364.863    85764614.597    20606364.289  
  20606359.121  
  22323989.625   117313382.343    22323997.176    91413074.0364   22323997.742  
                
  20425964.211   107339173.426    20425969.074    83640940.8734   20425969.328  
                
 21  8  6  0 55 20.0000000  0 16G19R13R22G 1G21G22G14R23G 6R 5G24R12
                                R 6R21G 3G17
  20634733.773   108436276.749    20634736.891    84495812.6184                 
                
  21210285.289   113261745.920    21210289.512    88092493.207    21210289.254  
  21210283.492  
  19332949.477   103200682.237    19332952.492    80267163.823    19332952.324  
  19332948.375  
  22017232.188   115701342.850    22017240.914    90156932.9404   22017240.883  
                
  24809259.211   130373552.409    24809263.625   101589787.9394                 
                
  22836781.859   120008144.923    22836784.590    93512853.1094                 
                
  21041356.172   110573073.971    21041362.227    86160859.6384   21041362.336  
                
  23404626.250   125198969.553                                                  
  23404625.312  
  23023508.891   120989400.977    23023517.625    94277472.9854   23023518.000  
                
  22696907.617   121327978.340    22696912.586    94366209.431    22696912.562  
  22696906.875  
  23219988.820   122021885.044    23219997.125    95082012.6654   23219997.461  
                
  19623746.922   104826536.651    19623751.461    81531740.965    19623751.324  
  19623746.238  
  22932780.516   122373708.278                                                  
  22932778.723  
  20611475.594   110296166.669    20611480.426    85785905.796    20611479.855  
  20611474.676  
  22321691.031   117301303.220    22321698.566    91403661.7284   22321699.125  
                
  20426073.531   107339747.974    20426078.398    83641388.5694   20426078.656  
                
 21  8  6  0 55 30.0000000  0 16G19R13R22G 1G21G22G14R23G 6R 5G24R12
                                R 6R21G 3G17
  20631339.094   108418437.645    20631342.215    84481912.0214                 
                
  21204957.117   113233293.789    21204961.367    88070363.762    21204961.102  
  21204955.344  
  19331860.992   103194871.828    19331864.008    80262644.616    19331863.852  
  19331859.898  
  22023140.570   115732391.609    22023149.316    90181126.7704   22023149.281  
                
  24815404.648   130405846.834    24815409.082   101614952.3944                 
                
  22837998.164   120014536.611    22838000.902    93517833.6424                 
                
  21045517.430   110594941.536    21045523.461    86177899.3044   21045523.586  
                
  23397630.453   125161547.264                                                  
  23397629.590  
  23016979.602   120955089.499    23016988.371    94250736.7854   23016988.734  
                
  22697794.195   121332717.598    22697799.168    94369895.542    22697799.152  
  22697793.469  
  23219722.469   122020485.333    23219730.742    95080921.9794   23219731.082  
                
  19626041.805   104838795.524    19626046.340    81541275.632    19626046.203  
  19626041.117  
  22926930.555   122342491.773                                                  
  22926928.750  
  20616598.008   110323577.773    20616602.844    85807225.545    20616602.297  
  20616597.082  
  22319405.328   117289291.821    22319412.840    91394302.1954   22319413.422  
                
  20426190.164   107340360.882    20426195.035    83641866.1584   20426195.285  
                
 21  8  6  0 55 40.0000000  0 16G19R13R22G 1G21G22G14R23G 6R 5G24R12
                                R 6R21G 3G17
  20627951.602   108400636.244    20627954.723    84468040.8074                 
                
  21199640.695   113204904.412    21199644.973    88048283.147    21199644.695  
  21199638.934  
  19330783.359   103189119.349    19330786.379    80258170.465    19330786.219  
  19330782.273  
  22029055.219   115763473.263    22029063.961    90205346.2424   22029063.918  
                
  24821550.508   130438143.560    24821554.961   101640118.6504                 
                
  22839226.055   120020989.163    22839228.797    93522861.6014                 
                
  21049687.688   110616856.389    21049693.684    86194975.8094   21049693.832  
                
  23390637.555   125124140.284                                                  
  23390636.766  
  23010454.844   120920801.692    23010463.559    94224019.0214   23010463.965  
                
  22698696.828   121337542.670    22698701.793    94373648.381    22698701.781  
  22698696.078  
  23219468.266   122019149.388    23219476.492    95079880.9774   23219476.871  
                
  19628352.617   104851139.400    19628357.137    81550876.423    19628357.000  
  19628351.926  
  22921089.672   122311323.794                                                  
  22921087.848  
  20621726.391   110351020.823    20621731.234    85828570.128    20621730.691  
  20621725.453  
  22317131.633   117277343.506    22317139.133    91384991.8364   22317139.734  
                
  20426313.203   107341007.442    20426318.082    83642369.9694   20426318.332  
                
 21  8  6  0 55 50.0000000  0 16G19R13R22G 1G21G22G14R23G 6R 5G24R12
                                R 6R21G 3G17
  20624572.109   108382876.895    20624575.223    84454202.3574                 
                
  21194336.914   113176582.618    21194341.227    88026255.095    21194340.973  
  21194335.164  
  19329717.398   103183429.137    19329720.426    80253744.751    19329720.277  
  19329716.305  
  22034976.930   115794592.012    22034985.645    90229594.6134   22034985.625  
                
  24827697.562   130470446.833    24827702.086   101665289.9984                 
                
  22840466.336   120027506.830    22840469.082    93527940.2924                 
                
  21053867.758   110638822.784    21053873.742    86212092.4644   21053873.895  
                
  23383648.547   125086753.087                                                  
  23383647.660  
  23003935.398   120886541.874    23003944.109    94197323.0854   23003944.531  
                
  22699616.336   121342458.020    22699621.281    94377471.420    22699621.289  
  22699615.547  
  23219226.992   122017881.503    23219235.184    95078893.0094   23219235.598  
                
  19630680.141   104863572.618    19630684.641    81560546.693    19630684.516  
  19630679.453  
  22915258.781   122280208.998                                                  
  22915256.910  
  20626861.562   110378500.122    20626866.410    85849942.906    20626865.855  
  20626860.637  
  22314870.789   117265462.714    22314878.281    91375734.0664   22314878.895  
                
  20426443.461   107341691.982    20426448.348    83642903.3774   20426448.590  
                
 21  8  6  0 56  0.0000000  0 16G19R13R22G 1G21G22G14R23G 6R 5G24R12
                                R 6R21G 3G17
  20621200.328   108365158.049    20621203.430    84440395.4614                 
                
  21189045.469   113148326.652    21189049.820    88004278.238    21189049.508  
  21189043.719  
  19328662.797   103177799.588    19328665.820    80249366.216    19328665.715  
  19328661.707  
  22040905.367   115825746.182    22040914.082    90253870.5694   22040914.051  
                
  24833845.625   130502754.971    24833850.152   101690465.2134                 
                
  22841718.680   120034087.979    22841721.434    93533068.4614                 
                
  21058057.297   110660839.018    21058063.273    86229247.9714   21058063.430  
                
  23376662.789   125049384.028                                                  
  23376661.926  
  22997421.016   120852308.590    22997429.727    94170647.8074   22997430.125  
                
  22700552.406   121347461.880    22700557.363    94381363.292    22700557.336  
  22700551.605  
  23218998.359   122016680.033    23219006.535    95077956.8044   23219006.969  
                
  19633024.102   104876093.587    19633028.582    81570285.219    19633028.453  
  19633023.414  
  22909437.414   122249145.673                                                  
  22909435.609  
  20632003.180   110406013.925    20632008.027    85871342.537    20632007.484  
  20632002.277  
  22312622.484   117253647.841    22312629.992    91366527.6764   22312630.598  
                
  20426580.641   107342412.889    20426585.523    83643465.1244   20426585.773  
                
 21  8  6  0 56 10.0000000  0 16G19R13R22G 1G21G22G14R23G 6R 5G24R12
                                R 6R21G 3G17
  20617836.383   108347480.386    20617839.477    84426620.6564                 
                
  21183766.484   113120137.238    21183770.855    87982353.138    21183770.520  
  21183764.738  
  19327619.688   103172231.391    19327622.723    80245035.401    19327622.621  
  19327618.598  
  22046840.656   115856936.306    22046849.375    90278174.5674   22046849.324  
                
  24839994.695   130535068.711    24839999.270   101715644.7374                 
                
  22842983.273   120040733.332    22842986.047    93538246.6474                 
                
  21062256.469   110682905.772    21062262.406    86246442.8454   21062262.590  
                
  23369680.492   125012033.840                                                  
  23369679.656  
  22990911.820   120818102.544    22990920.488    94143993.7424   22990920.895  
                
  22701505.180   121352555.020    22701510.105    94385324.611    22701510.066  
  22701504.348  
  23218782.508   122015545.724    23218790.672    95077072.9164   23218791.105  
                
  19635384.594   104888702.886    19635389.070    81580092.449    19635388.934  
  19635383.918  
  22903625.992   122218134.769                                                  
  22903624.156  
  20637151.359   110433562.784    20637156.195    85892769.421    20637155.664  
  20637150.473  
  22310386.875   117241899.638    22310394.391    91357373.2404   22310394.984  
                
  20426724.867   107343170.817    20426729.754    83644055.7224   20426730.004  
                
 21  8  6  0 56 20.0000000  0 16G19R13R22G 1G21G22G14R23G 6R 5G24R12
                                R 6R21G 3G17
  20614480.125   108329843.161    20614483.219    84412877.3744                 
                
  21178499.852   113092013.646    21178504.211    87960479.230    21178503.875  
  21178498.098  
  19326587.945   103166723.830    19326590.984    80240751.741    19326590.840  
  19326586.855  
  22052782.633   115888161.626    22052791.328    90302505.9814   22052791.285  
                
  24846144.703   130567387.153    24846149.277   101740827.8994                 
                
  22844259.914   120047442.091    22844262.703    93543474.2474                 
                
  21066465.102   110705022.270    21066470.977    86263676.4694   21066471.211  
                
  23362701.602   124974701.887                                                  
  23362700.785  
  22984407.664   120783923.069    22984416.316    94117360.4094   22984416.738  
                
  22702474.516   121357736.701    22702479.406    94389354.823    22702479.391  
  22702473.645  
  23218579.297   122014477.810    23218587.441    95076240.7674   23218587.887  
                
  19637761.453   104901399.667    19637765.930    81589967.717    19637765.797  
  19637760.777  
  22897824.188   122187175.567                                                  
  22897822.348  
  20642305.938   110461145.973    20642310.770    85914223.013    20642310.230  
  20642305.074  
  22308163.828   117230217.489    22308171.367    91348270.2704   22308171.914  
                
  20426876.023   107343965.126    20426880.902    83644674.6644   20426881.148  
                
 21  8  6  0 56 30.0000000  0 16G19R13R22G 1G21G22G14R23G 6R 5G24R12
                                R 6R21G 3G17
  20611131.680   108312246.968    20611134.777    84399166.0524                 
                
  21173245.719   113063956.926    21173250.094    87938657.345    21173249.746  
  21173243.980  
  19325567.609   103161277.217    19325570.668    80236515.492    19325570.500  
  19325566.520  
  22058731.359   115919422.450    22058740.047    90326865.0614   22058740.000  
                
  24852295.695   130599710.592    24852300.238   101766015.0144                 
                
  22845548.703   120054214.683    22845551.473    93548751.5954                 
                
  21070683.273   110727188.911    21070689.098    86280949.1734   21070689.371  
                
  23355726.266   124937388.730                                                  
  23355725.402  
  22977908.672   120749770.712    22977917.312    94090748.1884   22977917.746  
                
  22703460.453   121363007.151    22703465.324    94393454.069    22703465.305  
  22703459.602  
  23218388.805   122013476.744    23218396.945    95075460.7104   23218397.402  
                
  19640154.797   104914184.457    19640159.289    81599911.434    19640159.141  
  19640154.125  
  22892032.211   122156268.794                                                  
  22892030.383  
  20647467.023   110488763.892    20647471.836    85935703.615    20647471.320  
  20647466.164  
  22305953.445   117218601.873    22305961.020    91339219.1294   22305961.504  
                
  20427034.172   107344796.226    20427039.051    83645322.2734   20427039.297  
                
 21  8  6  0 56 40.0000000  0 16G19R13R22G 1G21G22G14R23G 6R 5G24R12
                                R 6R21G 3G17
  20607791.047   108294691.817    20607794.145    84385486.7184                 
                
  21168004.141   113035967.229    21168008.555    87916887.585    21168008.160  
  21168002.406  
  19324558.680   103155891.523    19324561.746    80232326.621    19324561.551  
  19324557.594  
  22064686.859   115950718.781    22064695.523    90351251.7964   22064695.488  
                
  24858447.641   130632039.173    24858452.176   101791206.0914                 
                
  22846849.664   120061051.240    22846852.402    93554078.7724                 
                
  21074910.992   110749405.719    21074916.805    86298260.9654   21074917.074  
                
  23348754.250   124900094.375                                                  
  23348753.523  
  22971414.867   120715645.611    22971423.516    94064157.2144   22971423.949  
                
  22704463.055   121368366.606    22704467.914    94397622.562    22704467.887  
  22704462.199  
  23218211.047   122012542.586    23218219.203    95074732.7894   23218219.609  
                
  19642564.625   104927057.258    19642569.113    81609923.608    19642568.949  
  19642563.953  
  22886250.211   122125415.004                                                  
  22886248.395  
  20652634.578   110516416.490    20652639.398    85957211.181    20652638.871  
  20652633.746  
  22303755.758   117207052.937    22303763.332    91330219.9574   22303763.797  
                
  20427199.336   107345664.178    20427204.207    83645998.5964   20427204.461  
                
 21  8  6  0 56 50.0000000  0 16G19R13R22G 1G21G22G14R23G 6R 5G24R12
                                R 6R21G 3G17
  20604458.211   108277177.669    20604461.301    84371839.3304                 
                
  21162775.078   113008044.348    21162779.516    87895169.791    21162779.070  
  21162773.359  
  19323561.203   103150566.942    19323564.266    80228185.285    19323564.066  
  19323560.113  
  22070649.039   115982050.312    22070657.707    90375665.9644   22070657.668  
                
  24864600.500   130664372.677    24864605.070   101816400.9964                 
                
  22848162.742   120067951.533    22848165.414    93559455.6154                 
                
  21079148.219   110771672.472    21079154.012    86315611.6684   21079154.273  
                
  23341785.820   124862818.759                                                  
  23341785.188  
  22964926.227   120681547.663    22964934.895    94037587.3954   22964935.316  
                
  22705482.250   121373814.847    22705487.090    94401860.078    22705487.082  
  22705481.426  
  23218045.984   122011675.173    23218054.137    95074056.8854   23218054.547  
                
  19644990.867   104940017.855    19644995.359    81620004.066    19644995.199  
  19644990.191  
  22880478.102   122094613.744                                                  
  22880476.270  
  20657808.555   110544103.436    20657813.391    85978745.464    20657812.840  
  20657807.750  
  22301570.719   117195570.531    22301578.281    91321272.6384   22301578.758  
                
  20427371.484   107346568.857    20427376.355    83646703.5434   20427376.621  
                
 21  8  6  0 57  0.0000000  0 16G19R13R22G 1G21G22G14R23G 6R 5G24R12
                                R 6R21G 3G17
  20601133.180   108259704.509    20601136.262    84358223.8814                 
                
  21157558.578   112980188.476    21157563.035    87873504.118    21157562.543  
  21157556.875  
  19322575.109   103145303.159    19322578.172    80224091.237    19322577.953  
  19322574.020  
  22076617.891   116013416.894    22076626.570    90400107.4504   22076626.535  
                
  24870754.297   130696710.859    24870758.887   101841599.5844                 
                
  22849487.938   120074915.455    22849490.555    93564882.0484                 
                
  21083394.922   110793989.062    21083400.676    86333001.2164   21083400.988  
                
  23334821.117   124825561.845                                                  
  23334820.375  
  22958442.750   120647476.855    22958451.426    94011038.7314   22958451.863  
                
  22706518.086   121379351.934    22706522.906    94406166.700    22706522.906  
  22706517.309  
  23217893.609   122010874.433    23217901.758    95073432.9174   23217902.160  
                
  19647433.547   104953066.173    19647438.031    81630152.747    19647437.867  
  19647432.875  
  22874715.883   122063865.458                                                  
  22874714.027  
  20662988.938   110571824.686    20662993.766    86000306.445    20662993.223  
  20662988.168  
  22299398.352   117184154.693    22299405.883    91312377.1814   22299406.363  
                
  20427550.594   107347510.091    20427555.473    83647436.9714   20427555.727  
                
 21  8  6  0 57 10.0000000  0 16G19R13R22G 1G21G22G14R23G 6R 5G24R12
                                R 6R21G 3G17
  20597815.891   108242272.045    20597818.965    84344640.1424                 
                
  21152354.523   112952399.159    21152358.984    87851890.207    21152358.480  
  21152352.820  
  19321600.359   103140099.823    19321603.410    80220044.191    19321603.195  
  19321599.270  
  22082593.344   116044818.168    22082602.031    90424575.9654   22082601.996  
                
  24876908.922   130729053.617    24876913.500   101866801.6994                 
                
  22850825.188   120081942.745    22850827.773    93570357.8604                 
                
  21087651.055   110816355.166    21087656.770    86350429.3444   21087657.121  
                
  23327859.906   124788323.439                                                  
  23327859.070  
  22951964.406   120613432.988    22951973.078    93984511.0654   22951973.531  
                
  22707570.445   121384977.304    22707575.285    94410541.983    22707575.285  
  22707569.727  
  23217753.867   122010140.100    23217762.023    95072860.7124   23217762.434  
                
  19649892.570   104966201.802    19649897.047    81640369.338    19649896.883  
  19649891.906  
  22868963.438   122033169.683                                                  
  22868961.586  
  20668175.648   110599579.838    20668180.480    86021893.774    20668179.914  
  20668174.859  
  22297238.625   117172805.195    22297246.102    91303533.4134   22297246.617  
                
  20427736.609   107348487.618    20427741.492    83648198.6834   20427741.746  
                
 21  8  6  0 57 20.0000000  0 16G19R13R22G 1G21G22G14R23G 6R 5G24R12
                                R 6R21G 3G17
  20594506.398   108224880.580    20594509.473    84331088.3544                 
                
  21147163.078   112924677.136    21147167.520    87830328.640    21147167.055  
  21147161.328  
  19320636.961   103134957.266    19320640.023    80216044.435    19320639.777  
  19320635.871  
  22088575.438   116076254.320    22088584.086    90449071.6614   22088584.098  
                
  24883064.469   130761401.044    24883068.969   101892007.4904                 
                
  22852174.547   120089033.621    22852177.125    93575883.2084                 
                
  21091916.656   110838771.046    21091922.375    86367896.2544   21091922.723  
                
  23320902.047   124751103.817                                                  
  23320901.184  
  22945491.258   120579416.452    22945499.906    93958004.6764   22945500.375  
                
  22708639.391   121390691.348    22708644.234    94414986.221    22708644.219  
  22708638.734  
  23217626.812   122009472.409    23217635.016    95072340.4484   23217635.395  
                
  19652367.992   104979425.051    19652372.469    81650654.086    19652372.312  
  19652367.332  
  22863221.000   122002526.878                                                  
  22863219.125  
  20673368.719   110627368.988    20673373.535    86043507.544    20673372.965  
  20673367.930  
  22295091.570   117161522.375    22295099.004    91294741.6244   22295099.551  
                
  20427929.594   107349501.785    20427934.480    83648988.9424   20427934.719  
                
 21  8  6  0 57 30.0000000  0 16G19R13R22G 1G21G22G14R23G 6R 5G24R12
                                R 6R21G 3G17
  20591204.766   108207530.423    20591207.852    84317568.7584                 
                
  21141984.258   112897022.561    21141988.691    87808819.537    21141988.246  
  21141982.465  
  19319684.977   103129875.480    19319688.012    80212091.942    19319687.812  
  19319683.879  
  22094564.203   116107725.462    22094572.828    90473594.6254   22094572.879  
                
  24889220.930   130793753.265    24889225.348   101917217.0224                 
                
  22853536.031   120096188.235    22853538.613    93581458.2264                 
                
  21096191.758   110861236.825    21096197.496    86385402.0484   21096197.832  
                
  23313947.625   124713903.358                                                  
  23313946.836  
  22939023.352   120545427.494    22939031.973    93931519.7804   22939032.438  
                
  22709724.953   121396494.211    22709729.785    94419499.558    22709729.762  
  22709724.332  
  23217512.484   122008871.632    23217520.734    95071872.3014   23217521.074  
                
  19654859.836   104992736.020    19654864.332    81661007.054    19654864.160  
  19654859.188  
  22857488.578   121971937.669                                                  
  22857486.715  
  20678568.219   110655192.480    20678572.980    86065148.044    20678572.426  
  20678567.477  
  22292957.273   117150306.526    22292964.633    91286002.0054   22292965.223  
                
  20428129.594   107350552.785    20428134.480    83649807.9044   20428134.727  
                
 21  8  6  0 57 40.0000000  0 16G19R13R22G 1G21G22G14R23G 6R 5G24R12
                                R 6R21G 3G17
  20587910.938   108190221.223    20587914.020    84304081.0764                 
                
  21136818.047   112869435.318    21136822.480    87787362.794    21136822.039  
  21136816.277  
  19318744.328   103124854.354    19318747.379    80208186.626    19318747.211  
  19318743.219  
  22100559.531   116139231.083    22100568.168    90498144.4564   22100568.203  
                
  24895378.203   130826109.862    24895382.578   101942429.9454                 
                
  22854909.562   120103406.109    22854912.152    93587082.5404                 
                
  21100476.273   110883752.081    21100482.012    86402946.3884   21100482.344  
                
  23306996.836   124676721.680                                                  
  23306996.059  
  22932560.641   120511465.777    22932569.219    93905056.1114   22932569.688  
                
  22710827.047   121402385.474    22710831.848    94424081.649    22710831.828  
  22710826.445  
  23217410.805   122008337.289    23217419.082    95071455.9344   23217419.391  
                
  19657368.023   105006134.306    19657372.520    81671427.932    19657372.340  
  19657367.363  
  22851766.102   121941401.605                                                  
  22851764.254  
  20683774.016   110683049.661    20683778.727    86086814.741    20683778.191  
  20683773.285  
  22290835.656   117139157.304    22290842.934    91277314.2864   22290843.559  
                
  20428336.547   107351640.310    20428341.434    83650655.3224   20428341.672  
                
 21  8  6  0 57 50.0000000  0 16G19R13R22G 1G21G22G14R23G 6R 5G24R12
                                R 6R21G 3G17
  20584624.953   108172953.293    20584628.039    84290625.5484                 
                
  21131664.539   112841915.890    21131668.980    87765958.793    21131668.516  
  21131662.793  
  19317815.117   103119894.175    19317818.184    80204328.711    19317818.039  
  19317813.992  
  22106561.461   116170771.391    22106570.117    90522721.3024   22106570.125  
                
  24901536.359   130858471.149    24901540.688   101967646.5504                 
                
  22856295.195   120110687.651    22856297.770    93592756.4624                 
                
  21104770.242   110906317.028    21104775.965    86420529.4674   21104776.324  
                
  23300049.727   124639559.003                                                  
  23300048.848  
  22926103.188   120477531.698    22926111.734    93878613.9764   22926112.215  
                
  22711945.734   121408365.493    22711950.465    94428732.754    22711950.457  
  22711945.164  
  23217321.828   122007869.737    23217330.137    95071091.5924   23217330.430  
                
  19659892.625   105019620.214    19659897.109    81681916.974    19659896.945  
  19659891.957  
  22846053.688   121910919.139                                                  
  22846051.855  
  20688986.164   110710940.808    20688990.844    86108507.846    20688990.316  
  20688985.457  
  22288726.773   117128075.025    22288734.004    91268678.7454   22288734.637  
                
  20428550.477   107352764.579    20428555.355    83651531.3804   20428555.605  
                
 21  8  6  0 58  0.0000000  0 16G19R13R22G 1G21G22G14R23G 6R 5G24R12
                                R 6R21G 3G17
  20581346.820   108155726.628    20581349.910    84277202.1764                 
                
  21126523.773   112814464.446    21126528.219    87744607.687    21126527.738  
  21126522.031  
  19316897.258   103114994.611    19316900.355    80200517.945    19316900.215  
  19316896.145  
  22112569.969   116202346.288    22112578.648    90547325.1184   22112578.645  
                
  24907695.406   130890836.953    24907699.656   101992866.6384                 
                
  22857692.938   120118032.849    22857695.477    93598479.9904                 
                
  21109073.664   110928931.652    21109079.395    86438151.2524   21109079.758  
                
  23293106.141   124602415.504                                                  
  23293105.207  
  22919651.008   120443625.324    22919659.555    93852193.4274   22919660.012  
                
  22713081.031   121414434.219    22713085.668    94433452.878    22713085.691  
  22713080.492  
  23217245.547   122007468.925    23217253.883    95070779.2704   23217254.156  
                
  19662433.578   105033193.546    19662438.043    81692473.998    19662437.891  
  19662432.895  
  22840351.391   121880490.638                                                  
  22840349.547  
  20694204.617   110738865.739    20694209.270    86130227.237    20694208.773  
  20694203.934  
  22286630.641   117117059.758    22286637.863    91260095.4314   22286638.473  
                
  20428771.398   107353925.551    20428776.270    83652436.0394   20428776.520  
                
 21  8  6  0 58 10.0000000  0 16G19R13R22G 1G21G22G14R23G 6R 5G24R12
                                R 6R21G 3G17
  20578076.469   108138540.889    20578079.559    84263810.6984                 
                
  21121395.625   112787080.470    21121400.098    87723309.051    21121399.562  
  21121393.887  
  19315990.734   103110155.575    19315993.867    80196754.252    19315993.711  
  19315989.629  
  22118584.961   116233955.268    22118593.629    90571955.4964   22118593.648  
                
  24913855.242   130923206.852    24913859.441   102018089.9484                 
                
  22859102.711   120125441.239    22859105.203    93604252.7614                 
                
  21113386.461   110951595.512    21113392.227    86455811.3884   21113392.566  
                
  23286166.172   124565290.853                                                  
  23286165.137  
  22913204.023   120409746.286    22913212.578    93825794.1934   22913213.023  
                
  22714232.820   121420591.190    22714237.379    94438241.627    22714237.453  
  22714232.316  
  23217181.891   122007134.443    23217190.199    95070518.6544   23217190.488  
                
  19664990.859   105046854.084    19664995.324    81703098.847    19664995.160  
  19664990.156  
  22834659.148   121850116.040                                                  
  22834657.328  
  20699429.336   110766824.180    20699433.973    86151972.687    20699433.500  
  20699428.699  
  22284547.203   117106111.233    22284554.406    91251564.1024   22284554.992  
                
  20428999.227   107355122.848    20429004.090    83653368.9964   20429004.352  
                
 21  8  6  0 58 20.0000000  0 16G19R13R22G 1G21G22G14R23G 6R 5G24R12
                                R 6R21G 3G17
  20574814.086   108121396.964    20574817.168    84250451.7974                 
                
  21116280.367   112759765.235    21116284.805    87702063.861    21116284.266  
  21116278.641  
  19315095.703   103105377.837    19315098.867    80193038.234    19315098.707  
  19315094.609  
  22124606.594   116265599.127    22124615.254    90596613.0334   22124615.289  
                
  24920016.008   130955581.654    24920020.207   102043317.0584                 
                
  22860524.664   120132913.626    22860527.137    93610075.4024                 
                
  21117708.781   110974309.411    21117714.578    86473510.5194   21117714.910  
                
  23279229.773   124528185.939                                                  
  23279228.746  
  22906762.438   120375895.533    22906771.000    93799417.0034   22906771.441  
                
  22715401.266   121426837.174    22715405.777    94443099.622    22715405.836  
  22715400.781  
  23217131.039   122006867.195    23217139.301    95070310.4254   23217139.645  
                
  19667564.586   105060602.425    19667569.039    81713791.995    19667568.887  
  19667563.895  
  22828977.133   121819795.809                                                  
  22828975.297  
  20704660.438   110794816.715    20704665.055    86173744.651    20704664.590  
  20704659.836  
  22282476.648   117095230.288    22282483.820    91243085.4544   22282484.414  
                
  20429234.156   107356357.369    20429239.012    83654330.9594   20429239.281  
                
 21  8  6  0 58 30.0000000  0 16G19R13R22G 1G21G22G14R23G 6R 5G24R12
                                R 6R21G 3G17
  20571559.469   108104293.888    20571562.566    84237124.7324                 
                
  21111177.766   112732517.613    21111182.141    87680871.268    21111181.605  
  21111176.047  
  19314211.938   103100660.243    19314215.117    80189368.998    19314214.941  
  19314210.852  
  22130634.641   116297276.739    22130643.301    90621296.8674   22130643.340  
                
  24926177.484   130987960.303    24926181.742   102068547.1594                 
                
  22861958.602   120140449.056    22861961.078    93615947.1554                 
                
  21122040.422   110997072.279    21122046.227    86491247.8254   21122046.555  
                
  23272296.812   124491099.771                                                  
  23272295.859  
  22900326.047   120342072.155    22900334.586    93773061.1274   22900335.047  
                
  22716586.188   121433171.250    22716590.672    94448026.133    22716590.703  
  22716585.648  
  23217092.773   122006666.156    23217101.012    95070153.7574   23217101.383  
                
  19670154.578   105074437.706    19670159.027    81724552.769    19670158.891  
  19670153.898  
  22823305.195   121789529.386                                                  
  22823303.352  
  20709897.711   110822842.328    20709902.312    86195542.349    20709901.859  
  20709897.148  
  22280418.758   117084416.003    22280425.875    91234658.7434   22280426.496  
                
  20429475.969   107357628.126    20429480.820    83655321.1584   20429481.094  
                
 21  8  6  0 58 40.0000000  0 16G19R13R22G 1G21G22G14R23G 6R 5G24R12
                                R 6R21G 3G17
  20568312.758   108087232.290    20568315.855    84223829.9884                 
                
  21106087.945   112705338.290    21106092.273    87659731.799    21106091.777  
  21106086.203  
  19313339.555   103096003.430    19313342.746    80185747.029    19313342.551  
  19313338.461  
  22136669.203   116328988.540    22136677.840    90646007.3614   22136677.891  
                
  24932339.758   131020343.282    24932344.121   102093780.6324                 
                
  22863404.633   120148047.938    22863407.113    93621868.3714                 
                
  21126381.477   111019884.624    21126387.285    86509023.6674   21126387.617  
                
  23265367.586   124454032.825                                                  
  23265366.512  
  22893894.984   120308276.744    22893903.527    93746727.0484   22893903.992  
                
  22717787.672   121439593.883    22717792.172    94453021.493    22717792.168  
  22717787.066  
  23217067.195   122006531.805    23217075.453    95070049.0764   23217075.820  
                
  19672760.891   105088360.121    19672765.367    81735381.310    19672765.223  
  19672760.219  
  22817643.516   121759317.673                                                  
  22817641.680  
  20715141.266   110850901.530    20715145.852    86217366.176    20715145.391  
  20715140.719  
  22278373.672   117073668.973    22278380.719    91226284.4224   22278381.387  
                
  20429724.766   107358935.575    20429729.621    83656339.9474   20429729.887  
                
 21  8  6  0 58 50.0000000  0 16G19R13R22G 1G21G22G14R23G 6R 5G24R12
                                R 6R21G 3G17
  20565073.883   108070211.939    20565076.980    84210567.3754                 
                
  21101010.945   112678227.411    21101015.223    87638645.571    21101014.773  
  21101009.180  
  19312478.508   103091407.135    19312481.707    80182172.140    19312481.516  
  19312477.441  
  22142710.219   116360734.223    22142718.797    90670744.2504   22142718.871  
                
  24938502.812   131052730.370    24938507.266   102119017.2934                 
                
  22864862.695   120155710.091    22864865.160    93627838.8674                 
                
  21130731.883   111042746.168    21130737.723    86526837.8384   21130738.047  
                
  23258441.977   124416985.232                                                  
  23258440.840  
  22887469.195   120274509.133    22887477.762    93720414.6314   22887478.207  
                
  22719005.680   121446104.860    22719010.219    94458085.573    22719010.191  
  22719004.992  
  23217054.281   122006463.970    23217062.574    95069996.2194   23217062.938  
                
  19675383.508   105102369.674    19675388.004    81746277.614    19675387.840  
  19675382.840  
  22811992.008   121729160.420                                                  
  22811990.211  
  20720391.023   110878993.958    20720395.566    86239215.837    20720395.145  
  20720390.465  
  22276341.352   117062989.034    22276348.293    91217962.3924   22276349.035  
                
  20429980.508   107360279.564    20429985.375    83657387.2104   20429985.633  
                
 21  8  6  0 59  0.0000000  0 16G19R13R22G 1G21G22G14R23G 6R 5G24R12
                                R 6R21G 3G17
  20561842.906   108053233.057    20561846.000    84197337.0794                 
                
  21095946.781   112651185.103    21095951.039    87617612.661    21095950.645  
  21095945.043  
  19311628.797   103086871.295    19311631.992    80178644.263    19311631.801  
  19311627.730  
  22148757.688   116392513.875    22148766.238    90695507.6104   22148766.316  
                
  24944666.688   131085121.689    24944671.191   102144257.2904                 
                
  22866332.836   120163435.712    22866335.324    93633858.8324                 
                
  21135091.695   111065657.060    21135097.590    86544690.4734   21135097.859  
                
  23251520.117   124379957.147                                                  
  23251518.906  
  22881048.758   120240769.586    22881057.301    93694124.0934   22881057.766  
                
  22720240.266   121452704.436    22720244.844    94463218.584    22720244.805  
  22720239.539  
  23217054.062   122006462.807    23217062.391    95069995.3004   23217062.723  
                
  19678022.445   105116466.347    19678026.941    81757241.688    19678026.777  
  19678021.793  
  22806350.688   121699057.614                                                  
  22806348.922  
  20725647.000   110907119.708    20725651.547    86261091.416    20725651.121  
  20725646.441  
  22274321.852   117052376.423    22274328.680    91209692.8454   22274329.500  
                
  20430243.234   107361660.255    20430248.125    83658463.0804   20430248.379  
                
 21  8  6  0 59 10.0000000  0 16G19R13R22G 1G21G22G14R23G 6R 5G24R12
                                R 6R21G 3G17
  20558619.820   108036295.595    20558622.910    84184139.0664                 
                
  21090895.469   112624211.417    21090899.730    87596633.134    21090899.328  
  21090893.750  
  19310790.438   103082396.038    19310793.633    80175163.511    19310793.441  
  19310789.379  
  22154811.578   116424327.257    22154820.102    90720297.2724   22154820.195  
                
  24950831.320   131117517.034    24950835.871   102169500.3914                 
                
  22867815.023   120171224.640    22867817.543    93639928.1274                 
                
  21139460.859   111088617.117    21139466.797    86562581.4274   21139467.035  
                
  23244601.641   124342948.206                                                  
  23244600.508  
  22874633.664   120207058.081    22874642.141    93667855.3854   22874642.660  
                
  22721491.391   121459392.360    22721496.016    94468420.312    22721495.965  
  22721490.695  
  23217066.508   122006528.220    23217074.855    95070046.2654   23217075.176  
                
  19680677.680   105130650.046    19680682.180    81768273.446    19680682.016  
  19680677.039  
  22800719.734   121669009.975                                                  
  22800717.988  
  20730909.180   110935278.647    20730913.727    86282992.802    20730913.301  
  20730908.625  
  22272315.156   117041831.112    22272321.887    91201475.7214   22272322.762  
                
  20430512.906   107363077.556    20430517.828    83659567.4694   20430518.078  
                
 21  8  6  0 59 20.0000000  0 16G19R13R22G 1G21G22G14R23G 6R 5G24R12
                                R 6R21G 3G17
  20555404.617   108019399.615    20555407.707    84170973.3724                 
                
  21085857.039   112597306.503    21085861.281    87575707.102    21085860.914  
  21085855.309  
  19309963.430   103077981.450    19309966.625    80171729.942    19309966.461  
  19309962.367  
  22160871.859   116456174.339    22160880.359    90745113.1644   22160880.484  
                
  24956996.719   131149916.383    24957001.336   102194746.5854                 
                
  22869309.250   120179076.877    22869311.793    93646046.7524                 
                
  21143839.367   111111626.344    21143845.312    86580510.6864   21143845.566  
                
  23237686.805   124305958.698                                                  
  23237685.695  
  22868223.898   120173374.673    22868232.430    93641608.5834   22868232.934  
                
  22722759.000   121466168.489    22722763.684    94473690.644    22722763.637  
  22722758.328  
  23217091.602   122006660.143    23217099.953    95070149.0744   23217100.277  
                
  19683349.188   105144920.744    19683353.691    81779372.877    19683353.531  
  19683348.570  
  22795099.031   121639017.191                                                  
  22795097.371  
  20736177.523   110963470.606    20736182.062    86304919.882    20736181.637  
  20736176.977  
  22270321.273   117031353.177    22270327.941    91193311.0724   22270328.852  
                
  20430789.562   107364531.455    20430794.484    83660700.3794   20430794.742  
                
 21  8  6  0 59 30.0000000  0 16G19R13R22G 1G21G22G14R23G 6R 5G24R12
                                R 6R21G 3G17
  20552197.258   108002544.832    20552200.344    84157839.7694                 
                
  21080831.500   112570470.487    21080835.723    87554834.645    21080835.379  
  21080829.762  
  19309147.711   103073627.148    19309150.918    80168343.265    19309150.770  
  19309146.648  
  22166938.508   116488054.769    22166947.000    90769955.0334   22166947.133  
                
  24963162.836   131182319.419    24963167.539   102219995.6844                 
                
  22870815.461   120186992.078    22870818.004    93652214.4344                 
                
  21148227.180   111134684.407    21148233.137    86598477.9864   21148233.383  
                
  23230775.688   124268988.417                                                  
  23230774.523  
  22861819.461   120139719.193    22861828.062    93615383.5544   22861828.516  
                
  22724043.086   121473032.674    22724047.816    94479029.464    22724047.758  
  22724042.402  
  23217129.328   122006858.383    23217137.699    95070303.5464   23217138.000  
                
  19686036.922   105159278.076    19686041.426    81790539.683    19686041.270  
  19686036.309  
  22789488.680   121609079.301                                                  
  22789486.996  
  20741452.008   110991695.325    20741456.527    86326872.420    20741456.102  
  20741451.453  
  22268340.164   117020942.332    22268346.805    91185198.7334   22268347.703  
                
  20431073.133   107366021.711    20431078.062    83661861.6194   20431078.332  
                
 21  8  6  0 59 40.0000000  0 16G19R13R22G 1G21G22G14R23G 6R 5G24R12
                                R 6R21G 3G17
  20548997.867   107985731.927    20549000.941    84144738.8134                 
                
  21075818.969   112543703.873    21075823.141    87534016.175    21075822.836  
  21075817.234  
  19308343.383   103069333.582    19308346.586    80165003.824    19308346.410  
  19308342.316  
  22173011.570   116519968.945    22173020.086    90794823.2094   22173020.207  
                
  24969329.766   131214726.696    24969334.516   102245248.1044                 
                
  22872333.742   120194970.759    22872336.273    93658431.5944                 
                
  21152624.375   111157791.799    21152630.379    86616483.7494   21152630.594  
                
  23223868.133   124232038.063                                                  
  23223867.047  
  22855420.461   120106092.268    22855429.078    93589180.7634   22855429.512  
                
  22725343.727   121479985.361    22725348.504    94484437.135    22725348.418  
  22725343.008  
  23217179.773   122007123.456    23217188.156    95070510.1024   23217188.438  
                
  19688740.969   105173722.619    19688745.477    81801774.323    19688745.320  
  19688740.375  
  22783888.719   121579197.164                                                  
  22783887.004  
  20746732.695   111019953.271    20746737.188    86348850.825    20746736.766  
  20746732.164  
  22266371.961   117010599.307    22266378.574    91177139.2314   22266379.445  
                
  20431363.750   107367548.911    20431368.676    83663051.6484   20431368.941  
                
 21  8  6  0 59 50.0000000  0 16G19R13R22G 1G21G22G14R23G 6R 5G24R12
                                R 6R21G 3G17
  20545806.367   107968960.504    20545809.430    84131670.1694                 
                
  21070819.375   112517006.331    21070823.508    87513251.414    21070823.191  
  21070817.656  
  19307550.344   103065100.349    19307553.543    80161711.311    19307553.328  
  19307549.250  
  22179090.984   116551916.436    22179099.523    90819717.3564   22179099.613  
                
  24975497.383   131247137.717    24975502.184   102270503.4194                 
                
  22873864.047   120203012.596    22873866.586    93664697.9424                 
                
  21157030.875   111180948.091    21157036.926    86634527.6024   21157037.102  
                
  23216964.297   124195107.148                                                  
  23216963.172  
  22849026.836   120072493.581    22849035.391    93562999.9534   22849035.844  
                
  22726660.883   121487026.395    22726665.711    94489913.499    22726665.609  
  22726660.113  
  23217242.867   122007455.018    23217251.258    95070768.4434   23217251.520  
                
  19691461.250   105188253.829    19691465.766    81813076.373    19691465.621  
  19691460.672  
  22778299.250   121549370.336                                                  
  22778297.457  
  20752019.508   111048243.984    20752023.965    86370854.713    20752023.547  
  20752018.992  
  22264416.562   117000323.689    22264423.148    91169132.2444   22264424.020  
                
  20431661.305   107369112.591    20431666.223    83664270.0974   20431666.504  
                
 21  8  6  1  0  0.0000000  0 16G19R13R22G 1G21G22G14R23G 6R 5G24R12
                                R 6R21G 3G17
  20542622.773   107952230.593    20542625.824    84118633.8794                 
                
  21065832.758   112490378.029    21065836.871    87492540.532    21065836.578  
  21065831.051  
  19306768.617   103060927.438    19306771.812    80158465.717    19306771.574  
  19306767.504  
  22185176.703   116583897.037    22185185.250    90844637.2924   22185185.316  
                
  24981665.711   131279552.432    24981670.559   102295761.6234                 
                
  22875406.352   120211117.440    22875408.902    93671013.4084                 
                
  21161446.672   111204153.184    21161452.723    86652609.4804   21161452.898  
                
  23210064.117   124158195.740                                                  
  23210062.945  
  22842638.570   120038923.078    22842647.129    93536841.1374   22842647.586  
                
  22727994.500   121494155.360    22727999.348    94495458.278    22727999.246  
  22727993.676  
  23217318.586   122007852.897    23217326.961    95071078.4884   23217327.230  
                
  19694197.773   105202871.738    19694202.316    81824445.849    19694202.152  
  19694197.195  
  22772720.023   121519598.897                                                  
  22772718.305  
  20757312.406   111076567.248    20757316.816    86392883.920    20757316.414  
  20757311.891  
  22262474.023   116990115.482    22262480.602    91161177.8034   22262481.473  
                
  20431965.805   107370712.703    20431970.711    83665516.9464   20431971.004  
                
 21  8  6  1  0 10.0000000  0 16G19R13R22G 1G21G22G14R23G 6R 5G24R12
                                R 6R21G 3G17
  20539447.125   107935542.424    20539450.168    84105630.1104                 
                
  21060859.180   112463819.419    21060863.258    87471883.834    21060863.008  
  21060857.484  
  19305998.234   103056815.100    19306001.426    80155267.231    19306001.215  
  19305997.102  
  22191268.734   116615910.902    22191277.266    90869583.1514   22191277.348  
                
  24987834.695   131311971.036    24987839.680   102321022.8224                 
                
  22876960.680   120219285.548    22876963.230    93677378.1684                 
                
  21165871.773   111227407.240    21165877.797    86670729.5154   21165878.008  
                
  23203167.586   124121304.118                                                  
  23203166.441  
  22836255.719   120005381.109    22836264.254    93510704.5554   22836264.730  
                
  22729344.641   121501372.704    22729349.520    94501071.774    22729349.418  
  22729343.723  
  23217406.969   122008317.375    23217415.301    95071440.4164   23217415.594  
                
  19696950.508   105217576.291    19696955.074    81835882.715    19696954.898  
  19696949.934  
  22767151.305   121489883.303                                                  
  22767149.660  
  20762611.406   111104923.186    20762615.773    86414938.542    20762615.383  
  20762610.895  
  22260544.344   116979974.974    22260550.961    91153276.1134   22260551.785  
                
  20432277.297   107372349.552    20432282.195    83666792.4154   20432282.484  
                
 21  8  6  1  0 20.0000000  0 16G19R13R22G 1G21G22G14R23G 6R 5G24R12
                                R 6R21G 3G17
  20536279.469   107918896.308    20536282.512    84092659.1164                 
                
  21055898.695   112437330.700    21055902.727    87451281.497    21055902.496  
  21055896.984  
  19305239.227   103052763.478    19305242.406    80152115.971    19305242.242  
  19305238.086  
  22197367.156   116647958.247    22197375.633    90894555.1014   22197375.750  
                
  24994004.484   131344393.614    24994009.582   102346287.1404                 
                
  22878527.102   120227517.140    22878529.688    93683792.3904                 
                
  21170306.250   111250710.504    21170312.281    86688887.9084   21170312.488  
                
  23196274.703   124084432.531                                                  
  23196273.637  
  22829878.391   119971868.050    22829886.844    93484590.4954   22829887.383  
                
  22730711.344   121508678.588    22730716.227    94506754.111    22730716.137  
  22730710.410  
  23217508.094   122008848.739    23217516.387    95071854.4584   23217516.719  
                
  19699719.547   105232367.959    19699724.117    81847387.349    19699723.957  
  19699718.984  
  22761593.188   121460224.109                                                  
  22761591.531  
  20767916.578   111133312.185    20767920.914    86437018.875    20767920.523  
  20767916.047  
  22258627.625   116969902.548    22258634.289    91145427.4604   22258635.051  
                
  20432595.844   107374023.439    20432600.734    83668096.7454   20432601.020  
                
 21  8  6  1  0 30.0000000  0 16G19R13R22G 1G21G22G14R23G 6R 5G24R12
                                R 6R21G 3G17
  20533119.695   107902291.571    20533122.730    84079720.3584                 
                
  21050951.188   112410911.268    21050955.164    87430733.051    21050954.961  
  21050949.457  
  19304491.445   103048771.803    19304494.621    80149011.342    19304494.465  
  19304490.289  
  22203471.773   116680038.160    22203480.242    90919552.4454   22203480.352  
                
  25000174.945   131376819.341    25000180.066   102371553.9524                 
                
  22880105.453   120235811.438    22880108.098    93690255.4934                 
                
  21174749.938   111274062.154    21174756.008    86707083.9924   21174756.180  
                
  23189385.602   124047580.378                                                  
  23189384.566  
  22823506.422   119938383.175    22823514.863    93458498.3814   22823515.422  
                
  22732094.461   121516072.158    22732099.344    94512504.675    22732099.270  
  22732093.551  
  23217621.781   122009446.179    23217630.062    95072319.9884   23217630.402  
                
  19702504.711   105247245.760    19702509.293    81858958.967    19702509.129  
  19702504.137  
  22756045.562   121430620.711                                                  
  22756043.848  
  20773227.758   111161733.312    20773232.082    86459124.198    20773231.680  
  20773227.227  
  22256723.711   116959897.423    22256730.398    91137631.2624   22256731.129  
                
  20432921.281   107375733.509    20432926.164    83669429.2654   20432926.441  
                
 21  8  6  1  0 40.0000000  0 16G19R13R22G 1G21G22G14R23G 6R 5G24R12
                                R 6R21G 3G17
  20529967.789   107885728.209    20529970.816    84066813.8444                 
                
  21046016.711   112384561.449    21046020.660    87410238.758    21046020.430  
  21046014.988  
  19303754.898   103044840.109    19303758.062    80145953.354    19303757.895  
  19303753.754  
  22209582.578   116712150.585    22209591.074    90944575.1034   22209591.137  
                
  25006346.008   131409248.236    25006351.109   102396823.2004                 
                
  22881695.734   120244168.436    22881698.414    93696767.4384                 
                
  21179202.812   111297462.181    21179208.902    86725317.7534   21179209.059  
                
  23182500.164   124010747.654                                                  
  23182499.152  
  22817139.820   119904926.563    22817148.355    93432428.3214   22817148.844  
                
  22733493.992   121523553.441    22733498.895    94518323.437    22733498.812  
  22733493.129  
  23217748.055   122010109.690    23217756.352    95072837.0104   23217756.672  
                
  19705306.000   105262209.700    19705310.602    81870597.580    19705310.434  
  19705305.414  
  22750508.359   121401072.981                                                  
  22750506.578  
  20778544.906   111190186.456    20778549.219    86481254.417    20778548.809  
  20778544.340  
  22254832.641   116949959.714    22254839.340    91129887.5984   22254840.070  
                
  20433253.602   107377479.792    20433258.484    83670790.0064   20433258.750  
                
 21  8  6  1  0 50.0000000  0 16G19R13R22G 1G21G22G14R23G 6R 5G24R12
                                R 6R21G 3G17
  20526823.844   107869206.721    20526826.852    84053939.9594                 
                
  21041095.367   112358281.794    21041099.328    87389799.029    21041099.055  
  21041093.641  
  19303029.672   103040968.810    19303032.828    80142942.343    19303032.676  
  19303028.508  
  22215699.641   116744295.875    22215708.156    90969623.3714   22215708.188  
                
  25012517.727   131441680.702    25012522.824   102422095.2274                 
                
  22883298.008   120252588.549    22883300.699    93703328.5494                 
                
  21183664.977   111320910.948    21183671.043    86743589.5184   21183671.219  
                
  23175618.359   123973934.849                                                  
  23175617.359  
  22810778.719   119871498.750    22810787.289    93406380.6764   22810787.742  
                
  22734910.023   121531122.859    22734914.949    94524210.754    22734914.852  
  22734909.219  
  23217886.977   122010839.732    23217895.297    95073405.8744   23217895.617  
                
  19708123.492   105277260.231    19708128.125    81882303.538    19708127.938  
  19708122.906  
  22744981.734   121371581.801                                                  
  22744979.887  
  20783868.102   111218671.990    20783872.434    86503409.829    20783872.016  
  20783867.508  
  22252954.477   116940089.901    22252961.219    91122196.8354   22252961.898  
                
  20433592.898   107379262.799    20433597.793    83672179.3624   20433598.059  
                
 21  8  6  1  1  0.0000000  0 16G19R13R22G 1G21G22G14R23G 6R 5G24R12
                                R 6R21G 3G17
  20523687.930   107852727.401    20523690.926    84041098.9324                 
                
  21036187.219   112332072.624    21036191.230    87369414.124    21036190.930  
  21036185.508  
  19302315.797   103037158.143    19302318.926    80139978.492    19302318.797  
  19302314.629  
  22221822.984   116776474.160    22221831.500    90994697.3734   22221831.527  
                
  25018690.164   131474116.916    25018695.211   102447370.1834                 
                
  22884912.336   120261071.968    22884915.035    93709939.0094                 
                
  21188136.453   111344408.661    21188142.492    86761899.4254   21188142.695  
                
  23168740.344   123937142.297                                                  
  23168739.355  
  22804423.164   119838100.039    22804431.707    93380355.7074   22804432.168  
                
  22736342.602   121538780.683    22736347.551    94530166.841    22736347.441  
  22736341.855  
  23218038.602   122011636.544    23218046.926    95074026.7564   23218047.258  
                
  19710957.211   105292397.438    19710961.871    81894076.921    19710961.680  
  19710956.621  
  22739465.797   121342147.729                                                  
  22739463.898  
  20789197.398   111247190.101    20789201.746    86525590.576    20789201.340  
  20789196.781  
  22251089.289   116930288.293    22251096.082    91114559.2244   22251096.711  
                
  20433939.219   107381082.701    20433944.121    83673597.4674   20433944.375  
                
 21  8  6  1  1 10.0000000  0 16G19R13R22G 1G21G22G14R23G 6R 5G24R12
                                R 6R21G 3G17
  20520559.977   107836289.931    20520562.973    84028290.5154                 
                
  21031292.258   112305933.779    21031296.250    87349083.914    21031295.953  
  21031290.570  
  19301613.242   103033407.816    19301616.352    80137061.575    19301616.258  
  19301612.094  
  22227952.523   116808685.066    22227961.027    91019796.7554   22227961.059  
                
  25024863.211   131506556.454    25024868.223   102472647.7194                 
                
  22886538.641   120269618.329    22886541.363    93716598.5194                 
                
  21192617.164   111367954.944    21192623.223    86780247.1724   21192623.406  
                
  23161866.047   123900369.687                                                  
  23161865.086  
  22798073.070   119804730.164    22798081.570    93354353.2094   22798082.078  
                
  22737791.625   121546526.438    22737796.574    94536191.302    22737796.473  
  22737790.965  
  23218202.859   122012499.781    23218211.184    95074699.4054   23218211.523  
                
  19713807.109   105307621.080    19713811.773    81905917.523    19713811.598  
  19713806.492  
  22733960.453   121312770.034                                                  
  22733958.559  
  20794532.688   111275740.329    20794537.070    86547796.291    20794536.652  
  20794532.059  
  22249237.039   116920554.615    22249243.879    91106974.5444   22249244.473  
                
  20434292.500   107382939.204    20434297.418    83675044.0934   20434297.668  
                
